header: 
  seq: 1252700
  stamp: 
    secs: 1561683248
    nsecs: 543818704
  frame_id: "ti_mmwave"
point_id: 0
x: 0.01171875
y: -0.0390625
z: -0.0078125
range: 0.0435769706964
velocity: 0.0
doppler_bin: 8
bearing: -73.3007583618
intensity: 30.7481651306
---
header: 
  seq: 1252701
  stamp: 
    secs: 1561683248
    nsecs: 543895599
  frame_id: "ti_mmwave"
point_id: 1
x: 0.017578125
y: -0.080078125
z: -0.0078125
range: 0.0871539413929
velocity: 0.0
doppler_bin: 8
bearing: -77.6192398071
intensity: 31.9755630493
---
header: 
  seq: 1252702
  stamp: 
    secs: 1561683248
    nsecs: 543907247
  frame_id: "ti_mmwave"
point_id: 2
x: 0.041015625
y: -0.115234375
z: -0.0078125
range: 0.130730912089
velocity: 0.0
doppler_bin: 8
bearing: -70.4077224731
intensity: 30.2242832184
---
header: 
  seq: 1252703
  stamp: 
    secs: 1561683248
    nsecs: 543915951
  frame_id: "ti_mmwave"
point_id: 3
x: 0.056640625
y: -0.154296875
z: 0.005859375
range: 0.174307882786
velocity: 0.0
doppler_bin: 8
bearing: -69.8423843384
intensity: 25.5022830963
---
header: 
  seq: 1252704
  stamp: 
    secs: 1561683248
    nsecs: 543924016
  frame_id: "ti_mmwave"
point_id: 4
x: 0.369140625
y: -0.080078125
z: -1.2109375
range: 1.35088610649
velocity: 0.0
doppler_bin: 8
bearing: -12.2396001816
intensity: 21.9033164978
---
header: 
  seq: 1252705
  stamp: 
    secs: 1561683248
    nsecs: 543936093
  frame_id: "ti_mmwave"
point_id: 5
x: 0.294921875
y: -0.041015625
z: 1.275390625
range: 1.39446306229
velocity: 0.0
doppler_bin: 8
bearing: -7.91750335693
intensity: 23.2428245544
---
header: 
  seq: 1252706
  stamp: 
    secs: 1561683248
    nsecs: 543943967
  frame_id: "ti_mmwave"
point_id: 6
x: 0.4453125
y: -0.0
z: 1.275390625
range: 1.43804001808
velocity: 0.0
doppler_bin: 8
bearing: -0.0
intensity: 21.9589958191
---
header: 
  seq: 1252707
  stamp: 
    secs: 1561683248
    nsecs: 543952119
  frame_id: "ti_mmwave"
point_id: 7
x: 2.19921875
y: 0.068359375
z: -0.197265625
range: 2.3531563282
velocity: 0.0
doppler_bin: 8
bearing: 1.78037905693
intensity: 29.2992954254
---
header: 
  seq: 1252708
  stamp: 
    secs: 1561683248
    nsecs: 543960176
  frame_id: "ti_mmwave"
point_id: 8
x: 2.236328125
y: 0.0703125
z: -0.234375
range: 2.396733284
velocity: 0.0
doppler_bin: 8
bearing: 1.80084621906
intensity: 29.863237381
---
header: 
  seq: 1252709
  stamp: 
    secs: 1561683248
    nsecs: 543968267
  frame_id: "ti_mmwave"
point_id: 9
x: 2.279296875
y: 0.072265625
z: -0.21484375
range: 2.44031047821
velocity: 0.0
doppler_bin: 8
bearing: 1.8159673214
intensity: 27.774269104
---
header: 
  seq: 1252710
  stamp: 
    secs: 1561683248
    nsecs: 543975783
  frame_id: "ti_mmwave"
point_id: 10
x: 2.55859375
y: -0.263671875
z: 1.162109375
range: 3.00681090355
velocity: 0.0
doppler_bin: 8
bearing: -5.88375711441
intensity: 29.4792366028
---
header: 
  seq: 1252711
  stamp: 
    secs: 1561683248
    nsecs: 543983739
  frame_id: "ti_mmwave"
point_id: 11
x: 2.619140625
y: -0.267578125
z: 1.125
range: 3.05038785934
velocity: 0.0
doppler_bin: 8
bearing: -5.83324575424
intensity: 32.7943878174
---
header: 
  seq: 1252712
  stamp: 
    secs: 1561683248
    nsecs: 543994254
  frame_id: "ti_mmwave"
point_id: 12
x: 2.701171875
y: -0.181640625
z: 1.052734375
range: 3.09396481514
velocity: 0.0
doppler_bin: 8
bearing: -3.84706997871
intensity: 31.994808197
---
header: 
  seq: 1252713
  stamp: 
    secs: 1561683248
    nsecs: 544003918
  frame_id: "ti_mmwave"
point_id: 13
x: 4.412109375
y: -0.287109375
z: 1.19921875
range: 4.88062095642
velocity: 0.0
doppler_bin: 8
bearing: -3.72316122055
intensity: 30.7954292297
---
header: 
  seq: 1252714
  stamp: 
    secs: 1561683248
    nsecs: 544012421
  frame_id: "ti_mmwave"
point_id: 14
x: 4.466796875
y: -0.2890625
z: 1.15625
range: 4.9241976738
velocity: 0.0
doppler_bin: 8
bearing: -3.70265316963
intensity: 30.1661548615
---
header: 
  seq: 1252715
  stamp: 
    secs: 1561683248
    nsecs: 544020550
  frame_id: "ti_mmwave"
point_id: 15
x: 4.740234375
y: -0.44921875
z: -0.4921875
range: 5.09850549698
velocity: 0.0
doppler_bin: 8
bearing: -5.41359329224
intensity: 32.4821853638
---
header: 
  seq: 1252716
  stamp: 
    secs: 1561683248
    nsecs: 544028914
  frame_id: "ti_mmwave"
point_id: 16
x: 4.787109375
y: -0.453125
z: -0.419921875
range: 5.14208269119
velocity: 0.0
doppler_bin: 8
bearing: -5.40723514557
intensity: 32.73695755
---
header: 
  seq: 1252717
  stamp: 
    secs: 1561683248
    nsecs: 544039705
  frame_id: "ti_mmwave"
point_id: 17
x: 4.8828125
y: -0.30859375
z: 0.74609375
range: 5.27281332016
velocity: 0.0
doppler_bin: 8
bearing: -3.61628341675
intensity: 30.9236965179
---
header: 
  seq: 1252718
  stamp: 
    secs: 1561683248
    nsecs: 544222730
  frame_id: "ti_mmwave"
point_id: 19
x: 0.041015625
y: -0.033203125
z: 0.0625
range: 0.0871539413929
velocity: 0.0
doppler_bin: 8
bearing: -38.9909973145
intensity: 30.141002655
---
header: 
  seq: 1252719
  stamp: 
    secs: 1561683248
    nsecs: 544243526
  frame_id: "ti_mmwave"
point_id: 20
x: 0.044921875
y: -0.046875
z: 0.103515625
range: 0.130730912089
velocity: 0.0
doppler_bin: 8
bearing: -46.218875885
intensity: 29.020029068
---
header: 
  seq: 1252720
  stamp: 
    secs: 1561683248
    nsecs: 544254470
  frame_id: "ti_mmwave"
point_id: 22
x: 1.208984375
y: 0.357421875
z: 0.138671875
range: 1.35088610649
velocity: 0.0
doppler_bin: 8
bearing: 16.4696884155
intensity: 19.1381378174
---
header: 
  seq: 1252721
  stamp: 
    secs: 1561683248
    nsecs: 544264918
  frame_id: "ti_mmwave"
point_id: 23
x: 2.88671875
y: -2.021484375
z: -2.990234375
range: 4.9241976738
velocity: 0.0
doppler_bin: 8
bearing: -35.0024261475
intensity: 27.3158874512
---
header: 
  seq: 1252722
  stamp: 
    secs: 1561683248
    nsecs: 603841979
  frame_id: "ti_mmwave"
point_id: 0
x: 0.01171875
y: -0.0390625
z: -0.0078125
range: 0.0435769706964
velocity: 0.0
doppler_bin: 8
bearing: -73.3007583618
intensity: 30.7408466339
---
header: 
  seq: 1252723
  stamp: 
    secs: 1561683248
    nsecs: 603917534
  frame_id: "ti_mmwave"
point_id: 1
x: 0.017578125
y: -0.080078125
z: -0.0078125
range: 0.0871539413929
velocity: 0.0
doppler_bin: 8
bearing: -77.6192398071
intensity: 31.9755630493
---
header: 
  seq: 1252724
  stamp: 
    secs: 1561683248
    nsecs: 603930823
  frame_id: "ti_mmwave"
point_id: 2
x: 0.041015625
y: -0.115234375
z: -0.0078125
range: 0.130730912089
velocity: 0.0
doppler_bin: 8
bearing: -70.4077224731
intensity: 30.2284069061
---
header: 
  seq: 1252725
  stamp: 
    secs: 1561683248
    nsecs: 603941587
  frame_id: "ti_mmwave"
point_id: 3
x: 0.056640625
y: -0.154296875
z: 0.005859375
range: 0.174307882786
velocity: 0.0
doppler_bin: 8
bearing: -69.8423843384
intensity: 25.5022830963
---
header: 
  seq: 1252726
  stamp: 
    secs: 1561683248
    nsecs: 603949745
  frame_id: "ti_mmwave"
point_id: 4
x: 0.384765625
y: -0.080078125
z: -1.205078125
range: 1.35088610649
velocity: 0.0
doppler_bin: 8
bearing: -11.7566738129
intensity: 21.9312458038
---
header: 
  seq: 1252727
  stamp: 
    secs: 1561683248
    nsecs: 603958802
  frame_id: "ti_mmwave"
point_id: 5
x: 0.291015625
y: -0.041015625
z: 1.275390625
range: 1.39446306229
velocity: 0.0
doppler_bin: 8
bearing: -8.02240371704
intensity: 23.2428245544
---
header: 
  seq: 1252728
  stamp: 
    secs: 1561683248
    nsecs: 603966847
  frame_id: "ti_mmwave"
point_id: 6
x: 0.419921875
y: -0.0
z: 1.283203125
range: 1.43804001808
velocity: 0.0
doppler_bin: 8
bearing: -0.0
intensity: 21.875207901
---
header: 
  seq: 1252729
  stamp: 
    secs: 1561683248
    nsecs: 603975889
  frame_id: "ti_mmwave"
point_id: 7
x: 2.15625
y: 0.134765625
z: -0.185546875
range: 2.30957937241
velocity: 0.0
doppler_bin: 8
bearing: 3.57633447647
intensity: 26.4147415161
---
header: 
  seq: 1252730
  stamp: 
    secs: 1561683248
    nsecs: 603984027
  frame_id: "ti_mmwave"
point_id: 8
x: 2.201171875
y: 0.068359375
z: -0.166015625
range: 2.3531563282
velocity: 0.0
doppler_bin: 8
bearing: 1.77880036831
intensity: 29.4101428986
---
header: 
  seq: 1252731
  stamp: 
    secs: 1561683248
    nsecs: 603992336
  frame_id: "ti_mmwave"
point_id: 9
x: 2.236328125
y: 0.140625
z: -0.208984375
range: 2.396733284
velocity: 0.0
doppler_bin: 8
bearing: 3.59814119339
intensity: 29.3651371002
---
header: 
  seq: 1252732
  stamp: 
    secs: 1561683248
    nsecs: 604001914
  frame_id: "ti_mmwave"
point_id: 10
x: 2.25390625
y: 0.21484375
z: -0.353515625
range: 2.44031047821
velocity: 0.0
doppler_bin: 8
bearing: 5.44501829147
intensity: 26.6086540222
---
header: 
  seq: 1252733
  stamp: 
    secs: 1561683248
    nsecs: 604010135
  frame_id: "ti_mmwave"
point_id: 11
x: 2.552734375
y: -0.263671875
z: 1.17578125
range: 3.00681090355
velocity: 0.0
doppler_bin: 8
bearing: -5.89716720581
intensity: 29.4200801849
---
header: 
  seq: 1252734
  stamp: 
    secs: 1561683248
    nsecs: 604018057
  frame_id: "ti_mmwave"
point_id: 12
x: 2.619140625
y: -0.267578125
z: 1.125
range: 3.05038785934
velocity: 0.0
doppler_bin: 8
bearing: -5.83324575424
intensity: 32.7485046387
---
header: 
  seq: 1252735
  stamp: 
    secs: 1561683248
    nsecs: 604029752
  frame_id: "ti_mmwave"
point_id: 13
x: 2.70703125
y: -0.181640625
z: 1.03515625
range: 3.09396481514
velocity: 0.0
doppler_bin: 8
bearing: -3.83876729012
intensity: 31.9061183929
---
header: 
  seq: 1252736
  stamp: 
    secs: 1561683248
    nsecs: 604168615
  frame_id: "ti_mmwave"
point_id: 14
x: 4.4140625
y: -0.287109375
z: 1.1953125
range: 4.88062095642
velocity: 0.0
doppler_bin: 8
bearing: -3.72151875496
intensity: 30.7591171265
---
header: 
  seq: 1252737
  stamp: 
    secs: 1561683248
    nsecs: 604202809
  frame_id: "ti_mmwave"
point_id: 15
x: 4.4765625
y: -0.2890625
z: 1.119140625
range: 4.9241976738
velocity: 0.0
doppler_bin: 8
bearing: -3.69459795952
intensity: 30.1452045441
---
header: 
  seq: 1252738
  stamp: 
    secs: 1561683248
    nsecs: 604217115
  frame_id: "ti_mmwave"
point_id: 16
x: 4.73828125
y: -0.44921875
z: -0.5078125
range: 5.09850549698
velocity: 0.0
doppler_bin: 8
bearing: -5.4158115387
intensity: 31.9700469971
---
header: 
  seq: 1252739
  stamp: 
    secs: 1561683248
    nsecs: 604233878
  frame_id: "ti_mmwave"
point_id: 17
x: 4.76953125
y: -0.603515625
z: -0.439453125
range: 5.14208269119
velocity: 0.0
doppler_bin: 8
bearing: -7.21163129807
intensity: 32.3197898865
---
header: 
  seq: 1252740
  stamp: 
    secs: 1561683248
    nsecs: 604247359
  frame_id: "ti_mmwave"
point_id: 18
x: 4.875
y: -0.306640625
z: 0.48828125
range: 5.22923660278
velocity: 0.0
doppler_bin: 8
bearing: -3.59919929504
intensity: 29.9956550598
---
header: 
  seq: 1252741
  stamp: 
    secs: 1561683248
    nsecs: 604256510
  frame_id: "ti_mmwave"
point_id: 19
x: 4.896484375
y: -0.30859375
z: 0.65234375
range: 5.27281332016
velocity: 0.0
doppler_bin: 8
bearing: -3.6062130928
intensity: 30.7445068359
---
header: 
  seq: 1252742
  stamp: 
    secs: 1561683248
    nsecs: 604314694
  frame_id: "ti_mmwave"
point_id: 21
x: 0.041015625
y: -0.033203125
z: 0.0625
range: 0.0871539413929
velocity: 0.0
doppler_bin: 8
bearing: -38.9909973145
intensity: 30.141002655
---
header: 
  seq: 1252743
  stamp: 
    secs: 1561683248
    nsecs: 604330510
  frame_id: "ti_mmwave"
point_id: 22
x: 0.044921875
y: -0.046875
z: 0.103515625
range: 0.130730912089
velocity: 0.0
doppler_bin: 8
bearing: -46.218875885
intensity: 29.020029068
---
header: 
  seq: 1252744
  stamp: 
    secs: 1561683248
    nsecs: 604348105
  frame_id: "ti_mmwave"
point_id: 24
x: 1.212890625
y: 0.357421875
z: 0.109375
range: 1.35088610649
velocity: 0.0
doppler_bin: 8
bearing: 16.419506073
intensity: 19.0848503113
---
header: 
  seq: 1252745
  stamp: 
    secs: 1561683248
    nsecs: 604364100
  frame_id: "ti_mmwave"
point_id: 25
x: 2.82421875
y: -2.00390625
z: -3.0
range: 4.88062095642
velocity: 0.0
doppler_bin: 8
bearing: -35.3573608398
intensity: 27.8532981873
---
header: 
  seq: 1252746
  stamp: 
    secs: 1561683248
    nsecs: 604378166
  frame_id: "ti_mmwave"
point_id: 26
x: 2.818359375
y: -2.021484375
z: -3.0546875
range: 4.9241976738
velocity: 0.0
doppler_bin: 8
bearing: -35.6501998901
intensity: 27.3559894562
---
header: 
  seq: 1252747
  stamp: 
    secs: 1561683248
    nsecs: 605319927
  frame_id: "ti_mmwave"
point_id: 0
x: 0.01171875
y: -0.0390625
z: -0.0078125
range: 0.0435769706964
velocity: 0.0
doppler_bin: 8
bearing: -73.3007583618
intensity: 30.7445068359
---
header: 
  seq: 1252748
  stamp: 
    secs: 1561683248
    nsecs: 605379127
  frame_id: "ti_mmwave"
point_id: 1
x: 0.017578125
y: -0.080078125
z: -0.0078125
range: 0.0871539413929
velocity: 0.0
doppler_bin: 8
bearing: -77.6192398071
intensity: 31.9728050232
---
header: 
  seq: 1252749
  stamp: 
    secs: 1561683248
    nsecs: 605395740
  frame_id: "ti_mmwave"
point_id: 2
x: 0.029296875
y: -0.119140625
z: -0.005859375
range: 0.130730912089
velocity: 0.0
doppler_bin: 8
bearing: -76.1849746704
intensity: 30.2242832184
---
header: 
  seq: 1252750
  stamp: 
    secs: 1561683248
    nsecs: 605409333
  frame_id: "ti_mmwave"
point_id: 3
x: 0.056640625
y: -0.154296875
z: 0.005859375
range: 0.174307882786
velocity: 0.0
doppler_bin: 8
bearing: -69.8423843384
intensity: 25.490032196
---
header: 
  seq: 1252751
  stamp: 
    secs: 1561683248
    nsecs: 605422313
  frame_id: "ti_mmwave"
point_id: 4
x: 0.3671875
y: -0.080078125
z: -1.2109375
range: 1.35088610649
velocity: 0.0
doppler_bin: 8
bearing: -12.3027267456
intensity: 21.9589958191
---
header: 
  seq: 1252752
  stamp: 
    secs: 1561683248
    nsecs: 605437934
  frame_id: "ti_mmwave"
point_id: 5
x: 0.298828125
y: -0.041015625
z: 1.2734375
range: 1.39446306229
velocity: 0.0
doppler_bin: 8
bearing: -7.81529378891
intensity: 23.2633590698
---
header: 
  seq: 1252753
  stamp: 
    secs: 1561683248
    nsecs: 605453003
  frame_id: "ti_mmwave"
point_id: 6
x: 0.4296875
y: -0.0
z: 1.279296875
range: 1.43804001808
velocity: 0.0
doppler_bin: 8
bearing: -0.0
intensity: 21.9589958191
---
header: 
  seq: 1252754
  stamp: 
    secs: 1561683248
    nsecs: 605465465
  frame_id: "ti_mmwave"
point_id: 7
x: 2.15625
y: 0.068359375
z: -0.21484375
range: 2.30957937241
velocity: 0.0
doppler_bin: 8
bearing: 1.81583416462
intensity: 26.9897003174
---
header: 
  seq: 1252755
  stamp: 
    secs: 1561683248
    nsecs: 605478710
  frame_id: "ti_mmwave"
point_id: 8
x: 2.19140625
y: 0.138671875
z: -0.23828125
range: 2.3531563282
velocity: 0.0
doppler_bin: 8
bearing: 3.62084078789
intensity: 28.0140361786
---
header: 
  seq: 1252756
  stamp: 
    secs: 1561683248
    nsecs: 605491059
  frame_id: "ti_mmwave"
point_id: 9
x: 2.552734375
y: -0.263671875
z: 1.17578125
range: 3.00681090355
velocity: 0.0
doppler_bin: 8
bearing: -5.89716720581
intensity: 29.4200801849
---
header: 
  seq: 1252757
  stamp: 
    secs: 1561683248
    nsecs: 605503943
  frame_id: "ti_mmwave"
point_id: 10
x: 2.6015625
y: -0.267578125
z: 1.166015625
range: 3.05038785934
velocity: 0.0
doppler_bin: 8
bearing: -5.87238502502
intensity: 32.7669143677
---
header: 
  seq: 1252758
  stamp: 
    secs: 1561683248
    nsecs: 605517218
  frame_id: "ti_mmwave"
point_id: 11
x: 2.65625
y: -0.271484375
z: 1.14453125
range: 3.09396481514
velocity: 0.0
doppler_bin: 8
bearing: -5.83570146561
intensity: 31.9562301636
---
header: 
  seq: 1252759
  stamp: 
    secs: 1561683248
    nsecs: 605531135
  frame_id: "ti_mmwave"
point_id: 12
x: 4.419921875
y: -0.287109375
z: 1.169921875
range: 4.88062095642
velocity: 0.0
doppler_bin: 8
bearing: -3.71659874916
intensity: 30.7298469543
---
header: 
  seq: 1252760
  stamp: 
    secs: 1561683248
    nsecs: 605543390
  frame_id: "ti_mmwave"
point_id: 13
x: 4.4921875
y: -0.2890625
z: 1.0546875
range: 4.9241976738
velocity: 0.0
doppler_bin: 8
bearing: -3.68178272247
intensity: 30.0860023499
---
header: 
  seq: 1252761
  stamp: 
    secs: 1561683248
    nsecs: 605555371
  frame_id: "ti_mmwave"
point_id: 14
x: 4.748046875
y: -0.44921875
z: -0.39453125
range: 5.09850549698
velocity: 0.0
doppler_bin: 8
bearing: -5.40473842621
intensity: 30.141002655
---
header: 
  seq: 1252762
  stamp: 
    secs: 1561683248
    nsecs: 605567348
  frame_id: "ti_mmwave"
point_id: 15
x: 4.783203125
y: -0.603515625
z: -0.2265625
range: 5.14208269119
velocity: 0.0
doppler_bin: 8
bearing: -7.19123363495
intensity: 29.9782314301
---
header: 
  seq: 1252763
  stamp: 
    secs: 1561683248
    nsecs: 605578969
  frame_id: "ti_mmwave"
point_id: 16
x: 4.892578125
y: -0.30859375
z: 0.67578125
range: 5.27281332016
velocity: 0.0
doppler_bin: 8
bearing: -3.60908436775
intensity: 30.5422992706
---
header: 
  seq: 1252764
  stamp: 
    secs: 1561683248
    nsecs: 605594235
  frame_id: "ti_mmwave"
point_id: 18
x: 0.041015625
y: -0.033203125
z: 0.0625
range: 0.0871539413929
velocity: 0.0
doppler_bin: 8
bearing: -38.9909973145
intensity: 30.141002655
---
header: 
  seq: 1252765
  stamp: 
    secs: 1561683248
    nsecs: 605605543
  frame_id: "ti_mmwave"
point_id: 19
x: 0.044921875
y: -0.046875
z: 0.103515625
range: 0.130730912089
velocity: 0.0
doppler_bin: 8
bearing: -46.218875885
intensity: 29.0254669189
---
header: 
  seq: 1252766
  stamp: 
    secs: 1561683248
    nsecs: 605617267
  frame_id: "ti_mmwave"
point_id: 21
x: 1.2109375
y: 0.357421875
z: 0.12109375
range: 1.35088610649
velocity: 0.0
doppler_bin: 8
bearing: 16.4445590973
intensity: 19.1907806396
---
header: 
  seq: 1252767
  stamp: 
    secs: 1561683248
    nsecs: 605625594
  frame_id: "ti_mmwave"
point_id: 22
x: 2.8203125
y: -2.00390625
z: -3.001953125
range: 4.88062095642
velocity: 0.0
doppler_bin: 8
bearing: -35.3947944641
intensity: 27.8031730652
---
header: 
  seq: 1252768
  stamp: 
    secs: 1561683248
    nsecs: 605633892
  frame_id: "ti_mmwave"
point_id: 23
x: 2.732421875
y: -2.021484375
z: -3.130859375
range: 4.9241976738
velocity: 0.0
doppler_bin: 8
bearing: -36.4945602417
intensity: 27.3399925232
---
header: 
  seq: 1252769
  stamp: 
    secs: 1561683248
    nsecs: 663789678
  frame_id: "ti_mmwave"
point_id: 0
x: 0.01171875
y: -0.0390625
z: -0.0078125
range: 0.0435769706964
velocity: 0.0
doppler_bin: 8
bearing: -73.3007583618
intensity: 30.7481651306
---
header: 
  seq: 1252770
  stamp: 
    secs: 1561683248
    nsecs: 663871895
  frame_id: "ti_mmwave"
point_id: 1
x: 0.017578125
y: -0.080078125
z: -0.0078125
range: 0.0871539413929
velocity: 0.0
doppler_bin: 8
bearing: -77.6192398071
intensity: 31.9783172607
---
header: 
  seq: 1252771
  stamp: 
    secs: 1561683248
    nsecs: 663887216
  frame_id: "ti_mmwave"
point_id: 2
x: 0.029296875
y: -0.119140625
z: -0.005859375
range: 0.130730912089
velocity: 0.0
doppler_bin: 8
bearing: -76.1849746704
intensity: 30.2284069061
---
header: 
  seq: 1252772
  stamp: 
    secs: 1561683248
    nsecs: 663902587
  frame_id: "ti_mmwave"
point_id: 3
x: 0.056640625
y: -0.154296875
z: 0.005859375
range: 0.174307882786
velocity: 0.0
doppler_bin: 8
bearing: -69.8423843384
intensity: 25.5022830963
---
header: 
  seq: 1252773
  stamp: 
    secs: 1561683248
    nsecs: 663911804
  frame_id: "ti_mmwave"
point_id: 4
x: 0.380859375
y: -0.080078125
z: -1.20703125
range: 1.35088610649
velocity: 0.0
doppler_bin: 8
bearing: -11.8738489151
intensity: 21.9312458038
---
header: 
  seq: 1252774
  stamp: 
    secs: 1561683248
    nsecs: 663921314
  frame_id: "ti_mmwave"
point_id: 5
x: 0.296875
y: -0.041015625
z: 1.2734375
range: 1.39446306229
velocity: 0.0
doppler_bin: 8
bearing: -7.86606836319
intensity: 23.2428245544
---
header: 
  seq: 1252775
  stamp: 
    secs: 1561683248
    nsecs: 663929464
  frame_id: "ti_mmwave"
point_id: 6
x: 0.419921875
y: -0.0
z: 1.283203125
range: 1.43804001808
velocity: 0.0
doppler_bin: 8
bearing: -0.0
intensity: 21.9033164978
---
header: 
  seq: 1252776
  stamp: 
    secs: 1561683248
    nsecs: 663937382
  frame_id: "ti_mmwave"
point_id: 7
x: 2.205078125
y: 0.068359375
z: 0.099609375
range: 2.3531563282
velocity: 0.0
doppler_bin: 8
bearing: 1.77565121651
intensity: 27.0926990509
---
header: 
  seq: 1252777
  stamp: 
    secs: 1561683248
    nsecs: 663945110
  frame_id: "ti_mmwave"
point_id: 8
x: 2.24609375
y: -0.0
z: 0.12890625
range: 2.396733284
velocity: 0.0
doppler_bin: 8
bearing: -0.0
intensity: 28.1491317749
---
header: 
  seq: 1252778
  stamp: 
    secs: 1561683248
    nsecs: 663953561
  frame_id: "ti_mmwave"
point_id: 9
x: 2.287109375
y: 0.072265625
z: 0.10546875
range: 2.44031047821
velocity: 0.0
doppler_bin: 8
bearing: 1.80976831913
intensity: 27.8031730652
---
header: 
  seq: 1252779
  stamp: 
    secs: 1561683248
    nsecs: 663963145
  frame_id: "ti_mmwave"
point_id: 10
x: 2.560546875
y: -0.263671875
z: 1.15625
range: 3.00681090355
velocity: 0.0
doppler_bin: 8
bearing: -5.87930107117
intensity: 29.4200801849
---
header: 
  seq: 1252780
  stamp: 
    secs: 1561683248
    nsecs: 663970641
  frame_id: "ti_mmwave"
point_id: 11
x: 2.62109375
y: -0.267578125
z: 1.119140625
range: 3.05038785934
velocity: 0.0
doppler_bin: 8
bearing: -5.82892894745
intensity: 32.7783851624
---
header: 
  seq: 1252781
  stamp: 
    secs: 1561683248
    nsecs: 663978920
  frame_id: "ti_mmwave"
point_id: 12
x: 2.703125
y: -0.271484375
z: 1.02734375
range: 3.09396481514
velocity: 0.0
doppler_bin: 8
bearing: -5.73518562317
intensity: 32.0167007446
---
header: 
  seq: 1252782
  stamp: 
    secs: 1561683248
    nsecs: 663987592
  frame_id: "ti_mmwave"
point_id: 13
x: 4.404296875
y: -0.287109375
z: 1.2265625
range: 4.88062095642
velocity: 0.0
doppler_bin: 8
bearing: -3.72974681854
intensity: 31.058506012
---
header: 
  seq: 1252783
  stamp: 
    secs: 1561683248
    nsecs: 663995512
  frame_id: "ti_mmwave"
point_id: 14
x: 4.44140625
y: -0.2890625
z: 1.24609375
range: 4.9241976738
velocity: 0.0
doppler_bin: 8
bearing: -3.7237610817
intensity: 30.561422348
---
header: 
  seq: 1252784
  stamp: 
    secs: 1561683248
    nsecs: 664003171
  frame_id: "ti_mmwave"
point_id: 15
x: 4.884765625
y: -0.30859375
z: 0.73046875
range: 5.27281332016
velocity: 0.0
doppler_bin: 8
bearing: -3.6148416996
intensity: 30.3181228638
---
header: 
  seq: 1252785
  stamp: 
    secs: 1561683248
    nsecs: 664013356
  frame_id: "ti_mmwave"
point_id: 17
x: 0.041015625
y: -0.033203125
z: 0.0625
range: 0.0871539413929
velocity: 0.0
doppler_bin: 8
bearing: -38.9909973145
intensity: 30.141002655
---
header: 
  seq: 1252786
  stamp: 
    secs: 1561683248
    nsecs: 664022847
  frame_id: "ti_mmwave"
point_id: 18
x: 0.044921875
y: -0.046875
z: 0.103515625
range: 0.130730912089
velocity: 0.0
doppler_bin: 8
bearing: -46.218875885
intensity: 29.0254669189
---
header: 
  seq: 1252787
  stamp: 
    secs: 1561683248
    nsecs: 664036962
  frame_id: "ti_mmwave"
point_id: 20
x: 1.208984375
y: 0.357421875
z: 0.134765625
range: 1.35088610649
velocity: 0.0
doppler_bin: 8
bearing: 16.4696884155
intensity: 19.0848503113
---
header: 
  seq: 1252788
  stamp: 
    secs: 1561683248
    nsecs: 665172490
  frame_id: "ti_mmwave"
point_id: 0
x: 0.01171875
y: -0.0390625
z: -0.0078125
range: 0.0435769706964
velocity: 0.0
doppler_bin: 8
bearing: -73.3007583618
intensity: 30.7481651306
---
header: 
  seq: 1252789
  stamp: 
    secs: 1561683248
    nsecs: 665240404
  frame_id: "ti_mmwave"
point_id: 1
x: 0.017578125
y: -0.080078125
z: -0.0078125
range: 0.0871539413929
velocity: 0.0
doppler_bin: 8
bearing: -77.6192398071
intensity: 31.9755630493
---
header: 
  seq: 1252790
  stamp: 
    secs: 1561683248
    nsecs: 665257503
  frame_id: "ti_mmwave"
point_id: 2
x: 0.041015625
y: -0.115234375
z: -0.0078125
range: 0.130730912089
velocity: 0.0
doppler_bin: 8
bearing: -70.4077224731
intensity: 30.2242832184
---
header: 
  seq: 1252791
  stamp: 
    secs: 1561683248
    nsecs: 665266737
  frame_id: "ti_mmwave"
point_id: 3
x: 0.056640625
y: -0.154296875
z: 0.005859375
range: 0.174307882786
velocity: 0.0
doppler_bin: 8
bearing: -69.8423843384
intensity: 25.5022830963
---
header: 
  seq: 1252792
  stamp: 
    secs: 1561683248
    nsecs: 665276694
  frame_id: "ti_mmwave"
point_id: 4
x: 0.375
y: -0.080078125
z: -1.208984375
range: 1.35088610649
velocity: 0.0
doppler_bin: 8
bearing: -12.0539922714
intensity: 21.9033164978
---
header: 
  seq: 1252793
  stamp: 
    secs: 1561683248
    nsecs: 665284896
  frame_id: "ti_mmwave"
point_id: 5
x: 0.291015625
y: -0.041015625
z: 1.275390625
range: 1.39446306229
velocity: 0.0
doppler_bin: 8
bearing: -8.02240371704
intensity: 23.2014636993
---
header: 
  seq: 1252794
  stamp: 
    secs: 1561683248
    nsecs: 665292282
  frame_id: "ti_mmwave"
point_id: 6
x: 0.404296875
y: -0.0
z: 1.287109375
range: 1.43804001808
velocity: 0.0
doppler_bin: 8
bearing: -0.0
intensity: 21.875207901
---
header: 
  seq: 1252795
  stamp: 
    secs: 1561683248
    nsecs: 665300474
  frame_id: "ti_mmwave"
point_id: 7
x: 2.166015625
y: 0.068359375
z: -0.005859375
range: 2.30957937241
velocity: 0.0
doppler_bin: 8
bearing: 1.80765271187
intensity: 29.2992954254
---
header: 
  seq: 1252796
  stamp: 
    secs: 1561683248
    nsecs: 665308253
  frame_id: "ti_mmwave"
point_id: 8
x: 2.205078125
y: 0.138671875
z: 0.033203125
range: 2.3531563282
velocity: 0.0
doppler_bin: 8
bearing: 3.59845018387
intensity: 30.6445808411
---
header: 
  seq: 1252797
  stamp: 
    secs: 1561683248
    nsecs: 665316233
  frame_id: "ti_mmwave"
point_id: 9
x: 2.53515625
y: -0.263671875
z: 1.2109375
range: 3.00681090355
velocity: 0.0
doppler_bin: 8
bearing: -5.9377655983
intensity: 29.3851966858
---
header: 
  seq: 1252798
  stamp: 
    secs: 1561683248
    nsecs: 665325110
  frame_id: "ti_mmwave"
point_id: 10
x: 2.5859375
y: -0.267578125
z: 1.19921875
range: 3.05038785934
velocity: 0.0
doppler_bin: 8
bearing: -5.90761756897
intensity: 32.7623214722
---
header: 
  seq: 1252799
  stamp: 
    secs: 1561683248
    nsecs: 665333633
  frame_id: "ti_mmwave"
point_id: 11
x: 2.6015625
y: -0.271484375
z: 1.26171875
range: 3.09396481514
velocity: 0.0
doppler_bin: 8
bearing: -5.9575009346
intensity: 32.0167007446
---
header: 
  seq: 1252800
  stamp: 
    secs: 1561683248
    nsecs: 665341312
  frame_id: "ti_mmwave"
point_id: 12
x: 4.419921875
y: -0.287109375
z: 1.173828125
range: 4.88062095642
velocity: 0.0
doppler_bin: 8
bearing: -3.71659874916
intensity: 30.7736797333
---
header: 
  seq: 1252801
  stamp: 
    secs: 1561683248
    nsecs: 665350224
  frame_id: "ti_mmwave"
point_id: 13
x: 4.525390625
y: -0.2890625
z: 0.900390625
range: 4.9241976738
velocity: 0.0
doppler_bin: 8
bearing: -3.65484309196
intensity: 30.8206691742
---
header: 
  seq: 1252802
  stamp: 
    secs: 1561683248
    nsecs: 665362250
  frame_id: "ti_mmwave"
point_id: 14
x: 4.736328125
y: -0.44921875
z: -0.51953125
range: 5.09850549698
velocity: 0.0
doppler_bin: 8
bearing: -5.41803121567
intensity: 30.8098697662
---
header: 
  seq: 1252803
  stamp: 
    secs: 1561683248
    nsecs: 665375120
  frame_id: "ti_mmwave"
point_id: 15
x: 4.791015625
y: -0.453125
z: -0.37890625
range: 5.14208269119
velocity: 0.0
doppler_bin: 8
bearing: -5.40285253525
intensity: 31.6494731903
---
header: 
  seq: 1252804
  stamp: 
    secs: 1561683248
    nsecs: 665386667
  frame_id: "ti_mmwave"
point_id: 16
x: 4.890625
y: -0.30859375
z: 0.697265625
range: 5.27281332016
velocity: 0.0
doppler_bin: 8
bearing: -3.61052203178
intensity: 30.3622951508
---
header: 
  seq: 1252805
  stamp: 
    secs: 1561683248
    nsecs: 665402455
  frame_id: "ti_mmwave"
point_id: 18
x: 0.041015625
y: -0.033203125
z: 0.0625
range: 0.0871539413929
velocity: 0.0
doppler_bin: 8
bearing: -38.9909973145
intensity: 30.1452045441
---
header: 
  seq: 1252806
  stamp: 
    secs: 1561683248
    nsecs: 665420606
  frame_id: "ti_mmwave"
point_id: 19
x: 0.044921875
y: -0.046875
z: 0.103515625
range: 0.130730912089
velocity: 0.0
doppler_bin: 8
bearing: -46.218875885
intensity: 29.020029068
---
header: 
  seq: 1252807
  stamp: 
    secs: 1561683248
    nsecs: 665437746
  frame_id: "ti_mmwave"
point_id: 21
x: 1.2109375
y: 0.357421875
z: 0.12109375
range: 1.35088610649
velocity: 0.0
doppler_bin: 8
bearing: 16.4445590973
intensity: 19.0848503113
---
header: 
  seq: 1252808
  stamp: 
    secs: 1561683248
    nsecs: 723763688
  frame_id: "ti_mmwave"
point_id: 0
x: 0.01171875
y: -0.0390625
z: -0.0078125
range: 0.0435769706964
velocity: 0.0
doppler_bin: 8
bearing: -73.3007583618
intensity: 30.7408466339
---
header: 
  seq: 1252809
  stamp: 
    secs: 1561683248
    nsecs: 723838279
  frame_id: "ti_mmwave"
point_id: 1
x: 0.017578125
y: -0.080078125
z: -0.0078125
range: 0.0871539413929
velocity: 0.0
doppler_bin: 8
bearing: -77.6192398071
intensity: 31.9728050232
---
header: 
  seq: 1252810
  stamp: 
    secs: 1561683248
    nsecs: 723853951
  frame_id: "ti_mmwave"
point_id: 2
x: 0.041015625
y: -0.115234375
z: -0.0078125
range: 0.130730912089
velocity: 0.0
doppler_bin: 8
bearing: -70.4077224731
intensity: 30.2201576233
---
header: 
  seq: 1252811
  stamp: 
    secs: 1561683248
    nsecs: 723867839
  frame_id: "ti_mmwave"
point_id: 3
x: 0.056640625
y: -0.154296875
z: 0.005859375
range: 0.174307882786
velocity: 0.0
doppler_bin: 8
bearing: -69.8423843384
intensity: 25.5022830963
---
header: 
  seq: 1252812
  stamp: 
    secs: 1561683248
    nsecs: 723890688
  frame_id: "ti_mmwave"
point_id: 4
x: 0.365234375
y: -0.080078125
z: -1.2109375
range: 1.35088610649
velocity: 0.0
doppler_bin: 8
bearing: -12.3664970398
intensity: 21.875207901
---
header: 
  seq: 1252813
  stamp: 
    secs: 1561683248
    nsecs: 723912010
  frame_id: "ti_mmwave"
point_id: 5
x: 0.279296875
y: -0.041015625
z: 1.27734375
range: 1.39446306229
velocity: 0.0
doppler_bin: 8
bearing: -8.3543510437
intensity: 23.2221927643
---
header: 
  seq: 1252814
  stamp: 
    secs: 1561683248
    nsecs: 723932014
  frame_id: "ti_mmwave"
point_id: 6
x: 0.4140625
y: -0.0
z: 1.28515625
range: 1.43804001808
velocity: 0.0
doppler_bin: 8
bearing: -0.0
intensity: 21.9312458038
---
header: 
  seq: 1252815
  stamp: 
    secs: 1561683248
    nsecs: 724011580
  frame_id: "ti_mmwave"
point_id: 7
x: 2.193359375
y: 0.138671875
z: 0.23046875
range: 2.3531563282
velocity: 0.0
doppler_bin: 8
bearing: 3.61762547493
intensity: 26.1489715576
---
header: 
  seq: 1252816
  stamp: 
    secs: 1561683248
    nsecs: 724025522
  frame_id: "ti_mmwave"
point_id: 8
x: 2.23046875
y: 0.140625
z: 0.259765625
range: 2.396733284
velocity: 0.0
doppler_bin: 8
bearing: 3.60756850243
intensity: 25.7749176025
---
header: 
  seq: 1252817
  stamp: 
    secs: 1561683248
    nsecs: 724036460
  frame_id: "ti_mmwave"
point_id: 9
x: 2.55078125
y: -0.263671875
z: 1.177734375
range: 3.00681090355
velocity: 0.0
doppler_bin: 8
bearing: -5.90165042877
intensity: 29.4051647186
---
header: 
  seq: 1252818
  stamp: 
    secs: 1561683248
    nsecs: 724046908
  frame_id: "ti_mmwave"
point_id: 10
x: 2.603515625
y: -0.267578125
z: 1.16015625
range: 3.05038785934
velocity: 0.0
doppler_bin: 8
bearing: -5.8680100441
intensity: 32.7230567932
---
header: 
  seq: 1252819
  stamp: 
    secs: 1561683248
    nsecs: 724058734
  frame_id: "ti_mmwave"
point_id: 11
x: 2.65625
y: -0.271484375
z: 1.140625
range: 3.09396481514
velocity: 0.0
doppler_bin: 8
bearing: -5.83570146561
intensity: 31.9200954437
---
header: 
  seq: 1252820
  stamp: 
    secs: 1561683248
    nsecs: 724068956
  frame_id: "ti_mmwave"
point_id: 12
x: 4.419921875
y: -0.287109375
z: 1.173828125
range: 4.88062095642
velocity: 0.0
doppler_bin: 8
bearing: -3.71659874916
intensity: 30.4571399689
---
header: 
  seq: 1252821
  stamp: 
    secs: 1561683248
    nsecs: 724079092
  frame_id: "ti_mmwave"
point_id: 13
x: 4.4921875
y: -0.43359375
z: 0.99609375
range: 4.9241976738
velocity: 0.0
doppler_bin: 8
bearing: -5.51320981979
intensity: 30.2366390228
---
header: 
  seq: 1252822
  stamp: 
    secs: 1561683248
    nsecs: 724091610
  frame_id: "ti_mmwave"
point_id: 14
x: 4.541015625
y: -0.4375
z: -0.962890625
range: 4.96777486801
velocity: 0.0
doppler_bin: 8
bearing: -5.50312423706
intensity: 29.3751792908
---
header: 
  seq: 1252823
  stamp: 
    secs: 1561683248
    nsecs: 724103283
  frame_id: "ti_mmwave"
point_id: 15
x: 4.673828125
y: -0.294921875
z: -0.44140625
range: 5.01135158539
velocity: 0.0
doppler_bin: 8
bearing: -3.61061739922
intensity: 29.4448261261
---
header: 
  seq: 1252824
  stamp: 
    secs: 1561683248
    nsecs: 724114096
  frame_id: "ti_mmwave"
point_id: 16
x: 4.734375
y: -0.44921875
z: -0.54296875
range: 5.09850549698
velocity: 0.0
doppler_bin: 8
bearing: -5.42025327682
intensity: 31.6256446838
---
header: 
  seq: 1252825
  stamp: 
    secs: 1561683248
    nsecs: 724127256
  frame_id: "ti_mmwave"
point_id: 17
x: 4.767578125
y: -0.603515625
z: -0.455078125
range: 5.14208269119
velocity: 0.0
doppler_bin: 8
bearing: -7.21455478668
intensity: 32.1932258606
---
header: 
  seq: 1252826
  stamp: 
    secs: 1561683248
    nsecs: 724141635
  frame_id: "ti_mmwave"
point_id: 18
x: 4.86328125
y: -0.46484375
z: 0.796875
range: 5.27281332016
velocity: 0.0
doppler_bin: 8
bearing: -5.459877491
intensity: 30.3059978485
---
header: 
  seq: 1252827
  stamp: 
    secs: 1561683248
    nsecs: 724157688
  frame_id: "ti_mmwave"
point_id: 20
x: 0.041015625
y: -0.033203125
z: 0.0625
range: 0.0871539413929
velocity: 0.0
doppler_bin: 8
bearing: -38.9909973145
intensity: 30.141002655
---
header: 
  seq: 1252828
  stamp: 
    secs: 1561683248
    nsecs: 724227097
  frame_id: "ti_mmwave"
point_id: 21
x: 0.046875
y: -0.046875
z: 0.103515625
range: 0.130730912089
velocity: 0.0
doppler_bin: 8
bearing: -45.0
intensity: 29.0254669189
---
header: 
  seq: 1252829
  stamp: 
    secs: 1561683248
    nsecs: 724248068
  frame_id: "ti_mmwave"
point_id: 23
x: 1.208984375
y: 0.357421875
z: 0.130859375
range: 1.35088610649
velocity: 0.0
doppler_bin: 8
bearing: 16.4696884155
intensity: 19.0848503113
---
header: 
  seq: 1252830
  stamp: 
    secs: 1561683248
    nsecs: 724261252
  frame_id: "ti_mmwave"
point_id: 24
x: 2.869140625
y: -2.00390625
z: -2.95703125
range: 4.88062095642
velocity: 0.0
doppler_bin: 8
bearing: -34.9317703247
intensity: 27.4896278381
---
header: 
  seq: 1252831
  stamp: 
    secs: 1561683248
    nsecs: 725264968
  frame_id: "ti_mmwave"
point_id: 0
x: 0.01171875
y: -0.0390625
z: -0.0078125
range: 0.0435769706964
velocity: 0.0
doppler_bin: 8
bearing: -73.3007583618
intensity: 30.7445068359
---
header: 
  seq: 1252832
  stamp: 
    secs: 1561683248
    nsecs: 725327484
  frame_id: "ti_mmwave"
point_id: 1
x: 0.017578125
y: -0.080078125
z: -0.0078125
range: 0.0871539413929
velocity: 0.0
doppler_bin: 8
bearing: -77.6192398071
intensity: 31.9755630493
---
header: 
  seq: 1252833
  stamp: 
    secs: 1561683248
    nsecs: 725341174
  frame_id: "ti_mmwave"
point_id: 2
x: 0.029296875
y: -0.119140625
z: -0.005859375
range: 0.130730912089
velocity: 0.0
doppler_bin: 8
bearing: -76.1849746704
intensity: 30.2284069061
---
header: 
  seq: 1252834
  stamp: 
    secs: 1561683248
    nsecs: 725354090
  frame_id: "ti_mmwave"
point_id: 3
x: 0.056640625
y: -0.154296875
z: 0.005859375
range: 0.174307882786
velocity: 0.0
doppler_bin: 8
bearing: -69.8423843384
intensity: 25.5144996643
---
header: 
  seq: 1252835
  stamp: 
    secs: 1561683248
    nsecs: 725379638
  frame_id: "ti_mmwave"
point_id: 4
x: 0.369140625
y: -0.080078125
z: -1.2109375
range: 1.35088610649
velocity: 0.0
doppler_bin: 8
bearing: -12.2396001816
intensity: 21.9033164978
---
header: 
  seq: 1252836
  stamp: 
    secs: 1561683248
    nsecs: 725437487
  frame_id: "ti_mmwave"
point_id: 5
x: 0.30078125
y: -0.041015625
z: 1.2734375
range: 1.39446306229
velocity: 0.0
doppler_bin: 8
bearing: -7.76516628265
intensity: 23.2428245544
---
header: 
  seq: 1252837
  stamp: 
    secs: 1561683248
    nsecs: 725449408
  frame_id: "ti_mmwave"
point_id: 6
x: 0.4296875
y: -0.0
z: 1.279296875
range: 1.43804001808
velocity: 0.0
doppler_bin: 8
bearing: -0.0
intensity: 21.9312458038
---
header: 
  seq: 1252838
  stamp: 
    secs: 1561683248
    nsecs: 725458610
  frame_id: "ti_mmwave"
point_id: 7
x: 2.201171875
y: 0.138671875
z: 0.111328125
range: 2.3531563282
velocity: 0.0
doppler_bin: 8
bearing: 3.60481929779
intensity: 27.2997436523
---
header: 
  seq: 1252839
  stamp: 
    secs: 1561683248
    nsecs: 725467798
  frame_id: "ti_mmwave"
point_id: 8
x: 2.54296875
y: -0.263671875
z: 1.197265625
range: 3.00681090355
velocity: 0.0
doppler_bin: 8
bearing: -5.91965341568
intensity: 29.5904140472
---
header: 
  seq: 1252840
  stamp: 
    secs: 1561683248
    nsecs: 725475526
  frame_id: "ti_mmwave"
point_id: 9
x: 2.599609375
y: -0.267578125
z: 1.171875
range: 3.05038785934
velocity: 0.0
doppler_bin: 8
bearing: -5.87676620483
intensity: 32.8802566528
---
header: 
  seq: 1252841
  stamp: 
    secs: 1561683248
    nsecs: 725482964
  frame_id: "ti_mmwave"
point_id: 10
x: 2.6328125
y: -0.271484375
z: 1.1953125
range: 3.09396481514
velocity: 0.0
doppler_bin: 8
bearing: -5.88728904724
intensity: 32.030330658
---
header: 
  seq: 1252842
  stamp: 
    secs: 1561683248
    nsecs: 725490597
  frame_id: "ti_mmwave"
point_id: 11
x: 4.412109375
y: -0.287109375
z: 1.203125
range: 4.88062095642
velocity: 0.0
doppler_bin: 8
bearing: -3.72316122055
intensity: 30.5422992706
---
header: 
  seq: 1252843
  stamp: 
    secs: 1561683248
    nsecs: 725498246
  frame_id: "ti_mmwave"
point_id: 12
x: 4.57421875
y: -0.291015625
z: -0.86328125
range: 4.96777486801
velocity: 0.0
doppler_bin: 8
bearing: -3.6402990818
intensity: 29.8045787811
---
header: 
  seq: 1252844
  stamp: 
    secs: 1561683248
    nsecs: 725506214
  frame_id: "ti_mmwave"
point_id: 13
x: 4.689453125
y: -0.146484375
z: -0.330078125
range: 5.01135158539
velocity: 0.0
doppler_bin: 8
bearing: -1.78916561604
intensity: 30.5230903625
---
header: 
  seq: 1252845
  stamp: 
    secs: 1561683248
    nsecs: 725514330
  frame_id: "ti_mmwave"
point_id: 14
x: 4.734375
y: -0.44921875
z: -0.533203125
range: 5.09850549698
velocity: 0.0
doppler_bin: 8
bearing: -5.42025327682
intensity: 32.0655593872
---
header: 
  seq: 1252846
  stamp: 
    secs: 1561683248
    nsecs: 725567074
  frame_id: "ti_mmwave"
point_id: 15
x: 4.76953125
y: -0.603515625
z: -0.4296875
range: 5.14208269119
velocity: 0.0
doppler_bin: 8
bearing: -7.21163129807
intensity: 32.6599655151
---
header: 
  seq: 1252847
  stamp: 
    secs: 1561683248
    nsecs: 725575877
  frame_id: "ti_mmwave"
point_id: 16
x: 4.892578125
y: -0.30859375
z: 0.6796875
range: 5.27281332016
velocity: 0.0
doppler_bin: 8
bearing: -3.60908436775
intensity: 30.1745071411
---
header: 
  seq: 1252848
  stamp: 
    secs: 1561683248
    nsecs: 725586063
  frame_id: "ti_mmwave"
point_id: 18
x: 0.041015625
y: -0.033203125
z: 0.0625
range: 0.0871539413929
velocity: 0.0
doppler_bin: 8
bearing: -38.9909973145
intensity: 30.141002655
---
header: 
  seq: 1252849
  stamp: 
    secs: 1561683248
    nsecs: 725596074
  frame_id: "ti_mmwave"
point_id: 19
x: 0.052734375
y: -0.04296875
z: 0.1015625
range: 0.130730912089
velocity: 0.0
doppler_bin: 8
bearing: -39.1736602783
intensity: 29.020029068
---
header: 
  seq: 1252850
  stamp: 
    secs: 1561683248
    nsecs: 725612014
  frame_id: "ti_mmwave"
point_id: 21
x: 1.208984375
y: 0.357421875
z: 0.14453125
range: 1.35088610649
velocity: 0.0
doppler_bin: 8
bearing: 16.4696884155
intensity: 19.1907806396
---
header: 
  seq: 1252851
  stamp: 
    secs: 1561683248
    nsecs: 783805701
  frame_id: "ti_mmwave"
point_id: 0
x: 0.01171875
y: -0.0390625
z: -0.0078125
range: 0.0435769706964
velocity: 0.0
doppler_bin: 8
bearing: -73.3007583618
intensity: 30.7335166931
---
header: 
  seq: 1252852
  stamp: 
    secs: 1561683248
    nsecs: 783885460
  frame_id: "ti_mmwave"
point_id: 1
x: 0.017578125
y: -0.080078125
z: -0.0078125
range: 0.0871539413929
velocity: 0.0
doppler_bin: 8
bearing: -77.6192398071
intensity: 31.9728050232
---
header: 
  seq: 1252853
  stamp: 
    secs: 1561683248
    nsecs: 783903402
  frame_id: "ti_mmwave"
point_id: 2
x: 0.029296875
y: -0.119140625
z: -0.005859375
range: 0.130730912089
velocity: 0.0
doppler_bin: 8
bearing: -76.1849746704
intensity: 30.2242832184
---
header: 
  seq: 1252854
  stamp: 
    secs: 1561683248
    nsecs: 783914531
  frame_id: "ti_mmwave"
point_id: 3
x: 0.056640625
y: -0.154296875
z: 0.005859375
range: 0.174307882786
velocity: 0.0
doppler_bin: 8
bearing: -69.8423843384
intensity: 25.5022830963
---
header: 
  seq: 1252855
  stamp: 
    secs: 1561683248
    nsecs: 783923161
  frame_id: "ti_mmwave"
point_id: 4
x: 0.375
y: -0.080078125
z: -1.208984375
range: 1.35088610649
velocity: 0.0
doppler_bin: 8
bearing: -12.0539922714
intensity: 21.9033164978
---
header: 
  seq: 1252856
  stamp: 
    secs: 1561683248
    nsecs: 783931257
  frame_id: "ti_mmwave"
point_id: 5
x: 0.28515625
y: -0.041015625
z: 1.27734375
range: 1.39446306229
velocity: 0.0
doppler_bin: 8
bearing: -8.18503570557
intensity: 23.2221927643
---
header: 
  seq: 1252857
  stamp: 
    secs: 1561683248
    nsecs: 783939449
  frame_id: "ti_mmwave"
point_id: 6
x: 0.484375
y: -0.04296875
z: 1.259765625
range: 1.43804001808
velocity: 0.0
doppler_bin: 8
bearing: -5.06942033768
intensity: 21.9033164978
---
header: 
  seq: 1252858
  stamp: 
    secs: 1561683248
    nsecs: 783947551
  frame_id: "ti_mmwave"
point_id: 7
x: 2.248046875
y: 0.0703125
z: -0.04296875
range: 2.396733284
velocity: 0.0
doppler_bin: 8
bearing: 1.79146468639
intensity: 26.1489715576
---
header: 
  seq: 1252859
  stamp: 
    secs: 1561683248
    nsecs: 783958752
  frame_id: "ti_mmwave"
point_id: 8
x: 2.54296875
y: -0.263671875
z: 1.197265625
range: 3.00681090355
velocity: 0.0
doppler_bin: 8
bearing: -5.91965341568
intensity: 29.4101428986
---
header: 
  seq: 1252860
  stamp: 
    secs: 1561683248
    nsecs: 783967085
  frame_id: "ti_mmwave"
point_id: 9
x: 2.6015625
y: -0.267578125
z: 1.1640625
range: 3.05038785934
velocity: 0.0
doppler_bin: 8
bearing: -5.87238502502
intensity: 32.7392692566
---
header: 
  seq: 1252861
  stamp: 
    secs: 1561683248
    nsecs: 783975444
  frame_id: "ti_mmwave"
point_id: 10
x: 2.662109375
y: -0.271484375
z: 1.12890625
range: 3.09396481514
velocity: 0.0
doppler_bin: 8
bearing: -5.82294607162
intensity: 31.9228858948
---
header: 
  seq: 1252862
  stamp: 
    secs: 1561683248
    nsecs: 783985698
  frame_id: "ti_mmwave"
point_id: 11
x: 4.4140625
y: -0.287109375
z: 1.189453125
range: 4.88062095642
velocity: 0.0
doppler_bin: 8
bearing: -3.72151875496
intensity: 30.6032009125
---
header: 
  seq: 1252863
  stamp: 
    secs: 1561683248
    nsecs: 783993775
  frame_id: "ti_mmwave"
point_id: 12
x: 4.572265625
y: -0.291015625
z: -0.873046875
range: 4.96777486801
velocity: 0.0
doppler_bin: 8
bearing: -3.64184999466
intensity: 29.8317508698
---
header: 
  seq: 1252864
  stamp: 
    secs: 1561683248
    nsecs: 784004657
  frame_id: "ti_mmwave"
point_id: 13
x: 4.69140625
y: -0.146484375
z: -0.322265625
range: 5.01135158539
velocity: 0.0
doppler_bin: 8
bearing: -1.78842127323
intensity: 30.4453983307
---
header: 
  seq: 1252865
  stamp: 
    secs: 1561683248
    nsecs: 784116288
  frame_id: "ti_mmwave"
point_id: 14
x: 4.734375
y: -0.44921875
z: -0.5390625
range: 5.09850549698
velocity: 0.0
doppler_bin: 8
bearing: -5.42025327682
intensity: 31.9645252228
---
header: 
  seq: 1252866
  stamp: 
    secs: 1561683248
    nsecs: 784130966
  frame_id: "ti_mmwave"
point_id: 15
x: 4.76953125
y: -0.603515625
z: -0.439453125
range: 5.14208269119
velocity: 0.0
doppler_bin: 8
bearing: -7.21163129807
intensity: 32.5647735596
---
header: 
  seq: 1252867
  stamp: 
    secs: 1561683248
    nsecs: 784139007
  frame_id: "ti_mmwave"
point_id: 16
x: 4.900390625
y: -0.30859375
z: 0.626953125
range: 5.27281332016
velocity: 0.0
doppler_bin: 8
bearing: -3.60334610939
intensity: 30.2978954315
---
header: 
  seq: 1252868
  stamp: 
    secs: 1561683248
    nsecs: 784148924
  frame_id: "ti_mmwave"
point_id: 18
x: 0.041015625
y: -0.033203125
z: 0.0625
range: 0.0871539413929
velocity: 0.0
doppler_bin: 8
bearing: -38.9909973145
intensity: 30.141002655
---
header: 
  seq: 1252869
  stamp: 
    secs: 1561683248
    nsecs: 784156836
  frame_id: "ti_mmwave"
point_id: 19
x: 0.044921875
y: -0.046875
z: 0.103515625
range: 0.130730912089
velocity: 0.0
doppler_bin: 8
bearing: -46.218875885
intensity: 29.020029068
---
header: 
  seq: 1252870
  stamp: 
    secs: 1561683248
    nsecs: 784168324
  frame_id: "ti_mmwave"
point_id: 21
x: 1.2109375
y: 0.357421875
z: 0.1171875
range: 1.35088610649
velocity: 0.0
doppler_bin: 8
bearing: 16.4445590973
intensity: 19.1381378174
---
header: 
  seq: 1252871
  stamp: 
    secs: 1561683248
    nsecs: 785137020
  frame_id: "ti_mmwave"
point_id: 0
x: 0.01171875
y: -0.0390625
z: -0.0078125
range: 0.0435769706964
velocity: 0.0
doppler_bin: 8
bearing: -73.3007583618
intensity: 30.7445068359
---
header: 
  seq: 1252872
  stamp: 
    secs: 1561683248
    nsecs: 785192269
  frame_id: "ti_mmwave"
point_id: 1
x: 0.017578125
y: -0.080078125
z: -0.0078125
range: 0.0871539413929
velocity: 0.0
doppler_bin: 8
bearing: -77.6192398071
intensity: 31.9755630493
---
header: 
  seq: 1252873
  stamp: 
    secs: 1561683248
    nsecs: 785203307
  frame_id: "ti_mmwave"
point_id: 2
x: 0.029296875
y: -0.119140625
z: -0.005859375
range: 0.130730912089
velocity: 0.0
doppler_bin: 8
bearing: -76.1849746704
intensity: 30.2242832184
---
header: 
  seq: 1252874
  stamp: 
    secs: 1561683248
    nsecs: 785212466
  frame_id: "ti_mmwave"
point_id: 3
x: 0.056640625
y: -0.154296875
z: 0.005859375
range: 0.174307882786
velocity: 0.0
doppler_bin: 8
bearing: -69.8423843384
intensity: 25.490032196
---
header: 
  seq: 1252875
  stamp: 
    secs: 1561683248
    nsecs: 785224336
  frame_id: "ti_mmwave"
point_id: 4
x: 0.361328125
y: -0.080078125
z: -1.212890625
range: 1.35088610649
velocity: 0.0
doppler_bin: 8
bearing: -12.4960107803
intensity: 21.9312458038
---
header: 
  seq: 1252876
  stamp: 
    secs: 1561683248
    nsecs: 785237665
  frame_id: "ti_mmwave"
point_id: 5
x: 0.30078125
y: -0.041015625
z: 1.2734375
range: 1.39446306229
velocity: 0.0
doppler_bin: 8
bearing: -7.76516628265
intensity: 23.2428245544
---
header: 
  seq: 1252877
  stamp: 
    secs: 1561683248
    nsecs: 785249331
  frame_id: "ti_mmwave"
point_id: 6
x: 0.494140625
y: -0.04296875
z: 1.255859375
range: 1.43804001808
velocity: 0.0
doppler_bin: 8
bearing: -4.96974086761
intensity: 21.9589958191
---
header: 
  seq: 1252878
  stamp: 
    secs: 1561683248
    nsecs: 785263490
  frame_id: "ti_mmwave"
point_id: 7
x: 2.16796875
y: -0.0
z: -0.029296875
range: 2.30957937241
velocity: 0.0
doppler_bin: 8
bearing: -0.0
intensity: 26.6931686401
---
header: 
  seq: 1252879
  stamp: 
    secs: 1561683248
    nsecs: 785277145
  frame_id: "ti_mmwave"
point_id: 8
x: 2.55859375
y: -0.263671875
z: 1.162109375
range: 3.00681090355
velocity: 0.0
doppler_bin: 8
bearing: -5.88375711441
intensity: 29.4398880005
---
header: 
  seq: 1252880
  stamp: 
    secs: 1561683248
    nsecs: 785298951
  frame_id: "ti_mmwave"
point_id: 9
x: 2.599609375
y: -0.267578125
z: 1.16796875
range: 3.05038785934
velocity: 0.0
doppler_bin: 8
bearing: -5.87676620483
intensity: 32.8216896057
---
header: 
  seq: 1252881
  stamp: 
    secs: 1561683248
    nsecs: 785320623
  frame_id: "ti_mmwave"
point_id: 10
x: 2.6484375
y: -0.181640625
z: 1.177734375
range: 3.09396481514
velocity: 0.0
doppler_bin: 8
bearing: -3.92343401909
intensity: 32.0221595764
---
header: 
  seq: 1252882
  stamp: 
    secs: 1561683248
    nsecs: 785341664
  frame_id: "ti_mmwave"
point_id: 11
x: 4.416015625
y: -0.287109375
z: 1.1875
range: 4.88062095642
velocity: 0.0
doppler_bin: 8
bearing: -3.71987724304
intensity: 30.3302135468
---
header: 
  seq: 1252883
  stamp: 
    secs: 1561683248
    nsecs: 785363211
  frame_id: "ti_mmwave"
point_id: 12
x: 4.47265625
y: -0.43359375
z: 1.0859375
range: 4.9241976738
velocity: 0.0
doppler_bin: 8
bearing: -5.53713512421
intensity: 30.0475120544
---
header: 
  seq: 1252884
  stamp: 
    secs: 1561683248
    nsecs: 785383902
  frame_id: "ti_mmwave"
point_id: 13
x: 4.73828125
y: -0.44921875
z: -0.50390625
range: 5.09850549698
velocity: 0.0
doppler_bin: 8
bearing: -5.4158115387
intensity: 31.2613143921
---
header: 
  seq: 1252885
  stamp: 
    secs: 1561683248
    nsecs: 785403388
  frame_id: "ti_mmwave"
point_id: 14
x: 4.791015625
y: -0.453125
z: -0.3828125
range: 5.14208269119
velocity: 0.0
doppler_bin: 8
bearing: -5.40285253525
intensity: 31.7897701263
---
header: 
  seq: 1252886
  stamp: 
    secs: 1561683248
    nsecs: 785586823
  frame_id: "ti_mmwave"
point_id: 15
x: 4.89453125
y: -0.30859375
z: 0.662109375
range: 5.27281332016
velocity: 0.0
doppler_bin: 8
bearing: -3.60764837265
intensity: 30.358297348
---
header: 
  seq: 1252887
  stamp: 
    secs: 1561683248
    nsecs: 785635278
  frame_id: "ti_mmwave"
point_id: 17
x: 0.041015625
y: -0.033203125
z: 0.0625
range: 0.0871539413929
velocity: 0.0
doppler_bin: 8
bearing: -38.9909973145
intensity: 30.141002655
---
header: 
  seq: 1252888
  stamp: 
    secs: 1561683248
    nsecs: 785693023
  frame_id: "ti_mmwave"
point_id: 18
x: 0.044921875
y: -0.046875
z: 0.103515625
range: 0.130730912089
velocity: 0.0
doppler_bin: 8
bearing: -46.218875885
intensity: 29.020029068
---
header: 
  seq: 1252889
  stamp: 
    secs: 1561683248
    nsecs: 785712372
  frame_id: "ti_mmwave"
point_id: 20
x: 1.2109375
y: 0.357421875
z: 0.1171875
range: 1.35088610649
velocity: 0.0
doppler_bin: 8
bearing: 16.4445590973
intensity: 19.1381378174
---
header: 
  seq: 1252890
  stamp: 
    secs: 1561683248
    nsecs: 785725831
  frame_id: "ti_mmwave"
point_id: 21
x: 2.90625
y: -2.00390625
z: -2.919921875
range: 4.88062095642
velocity: 0.0
doppler_bin: 8
bearing: -34.5868911743
intensity: 27.4429302216
---
header: 
  seq: 1252891
  stamp: 
    secs: 1561683248
    nsecs: 785734425
  frame_id: "ti_mmwave"
point_id: 22
x: 2.75390625
y: -2.021484375
z: -3.11328125
range: 4.9241976738
velocity: 0.0
doppler_bin: 8
bearing: -36.2802505493
intensity: 27.1011734009
---
header: 
  seq: 1252892
  stamp: 
    secs: 1561683248
    nsecs: 843820127
  frame_id: "ti_mmwave"
point_id: 0
x: 0.01171875
y: -0.0390625
z: -0.0078125
range: 0.0435769706964
velocity: 0.0
doppler_bin: 8
bearing: -73.3007583618
intensity: 30.7445068359
---
header: 
  seq: 1252893
  stamp: 
    secs: 1561683248
    nsecs: 843896139
  frame_id: "ti_mmwave"
point_id: 1
x: 0.017578125
y: -0.080078125
z: -0.0078125
range: 0.0871539413929
velocity: 0.0
doppler_bin: 8
bearing: -77.6192398071
intensity: 31.9755630493
---
header: 
  seq: 1252894
  stamp: 
    secs: 1561683248
    nsecs: 843908801
  frame_id: "ti_mmwave"
point_id: 2
x: 0.041015625
y: -0.115234375
z: -0.0078125
range: 0.130730912089
velocity: 0.0
doppler_bin: 8
bearing: -70.4077224731
intensity: 30.2201576233
---
header: 
  seq: 1252895
  stamp: 
    secs: 1561683248
    nsecs: 843917562
  frame_id: "ti_mmwave"
point_id: 3
x: 0.056640625
y: -0.154296875
z: 0.005859375
range: 0.174307882786
velocity: 0.0
doppler_bin: 8
bearing: -69.8423843384
intensity: 25.5022830963
---
header: 
  seq: 1252896
  stamp: 
    secs: 1561683248
    nsecs: 843925564
  frame_id: "ti_mmwave"
point_id: 4
x: 0.357421875
y: -0.080078125
z: -1.21484375
range: 1.35088610649
velocity: 0.0
doppler_bin: 8
bearing: -12.6282215118
intensity: 21.875207901
---
header: 
  seq: 1252897
  stamp: 
    secs: 1561683248
    nsecs: 843933264
  frame_id: "ti_mmwave"
point_id: 5
x: 0.302734375
y: -0.041015625
z: 1.2734375
range: 1.39446306229
velocity: 0.0
doppler_bin: 8
bearing: -7.71567344666
intensity: 23.2014636993
---
header: 
  seq: 1252898
  stamp: 
    secs: 1561683248
    nsecs: 843941259
  frame_id: "ti_mmwave"
point_id: 6
x: 0.5
y: -0.04296875
z: 1.25390625
range: 1.43804001808
velocity: 0.0
doppler_bin: 8
bearing: -4.91178798676
intensity: 21.9312458038
---
header: 
  seq: 1252899
  stamp: 
    secs: 1561683248
    nsecs: 843951101
  frame_id: "ti_mmwave"
point_id: 7
x: 2.197265625
y: 0.20703125
z: 0.076171875
range: 2.3531563282
velocity: 0.0
doppler_bin: 8
bearing: 5.38264465332
intensity: 29.2839584351
---
header: 
  seq: 1252900
  stamp: 
    secs: 1561683248
    nsecs: 843958644
  frame_id: "ti_mmwave"
point_id: 8
x: 2.23828125
y: 0.2109375
z: 0.064453125
range: 2.396733284
velocity: 0.0
doppler_bin: 8
bearing: 5.38370132446
intensity: 29.3247375488
---
header: 
  seq: 1252901
  stamp: 
    secs: 1561683248
    nsecs: 843966310
  frame_id: "ti_mmwave"
point_id: 9
x: 2.279296875
y: 0.21484375
z: -0.0859375
range: 2.44031047821
velocity: 0.0
doppler_bin: 8
bearing: 5.38472080231
intensity: 26.5991611481
---
header: 
  seq: 1252902
  stamp: 
    secs: 1561683248
    nsecs: 843975454
  frame_id: "ti_mmwave"
point_id: 10
x: 2.537109375
y: -0.263671875
z: 1.208984375
range: 3.00681090355
velocity: 0.0
doppler_bin: 8
bearing: -5.93322753906
intensity: 29.4349460602
---
header: 
  seq: 1252903
  stamp: 
    secs: 1561683248
    nsecs: 843983718
  frame_id: "ti_mmwave"
point_id: 11
x: 2.587890625
y: -0.267578125
z: 1.1953125
range: 3.05038785934
velocity: 0.0
doppler_bin: 8
bearing: -5.90319061279
intensity: 32.743888855
---
header: 
  seq: 1252904
  stamp: 
    secs: 1561683248
    nsecs: 843991894
  frame_id: "ti_mmwave"
point_id: 12
x: 2.6015625
y: -0.271484375
z: 1.26171875
range: 3.09396481514
velocity: 0.0
doppler_bin: 8
bearing: -5.9575009346
intensity: 31.9395904541
---
header: 
  seq: 1252905
  stamp: 
    secs: 1561683248
    nsecs: 843999893
  frame_id: "ti_mmwave"
point_id: 13
x: 4.40625
y: -0.287109375
z: 1.220703125
range: 4.88062095642
velocity: 0.0
doppler_bin: 8
bearing: -3.72809815407
intensity: 30.7224998474
---
header: 
  seq: 1252906
  stamp: 
    secs: 1561683248
    nsecs: 844009309
  frame_id: "ti_mmwave"
point_id: 14
x: 4.470703125
y: -0.43359375
z: 1.091796875
range: 4.9241976738
velocity: 0.0
doppler_bin: 8
bearing: -5.53953933716
intensity: 30.5804615021
---
header: 
  seq: 1252907
  stamp: 
    secs: 1561683248
    nsecs: 844020050
  frame_id: "ti_mmwave"
point_id: 15
x: 4.794921875
y: -0.453125
z: -0.33203125
range: 5.14208269119
velocity: 0.0
doppler_bin: 8
bearing: -5.39847755432
intensity: 30.788192749
---
header: 
  seq: 1252908
  stamp: 
    secs: 1561683248
    nsecs: 844178592
  frame_id: "ti_mmwave"
point_id: 16
x: 4.890625
y: -0.30859375
z: 0.69921875
range: 5.27281332016
velocity: 0.0
doppler_bin: 8
bearing: -3.61052203178
intensity: 30.1029987335
---
header: 
  seq: 1252909
  stamp: 
    secs: 1561683248
    nsecs: 844200156
  frame_id: "ti_mmwave"
point_id: 18
x: 0.041015625
y: -0.033203125
z: 0.0625
range: 0.0871539413929
velocity: 0.0
doppler_bin: 8
bearing: -38.9909973145
intensity: 30.141002655
---
header: 
  seq: 1252910
  stamp: 
    secs: 1561683248
    nsecs: 844212102
  frame_id: "ti_mmwave"
point_id: 19
x: 0.044921875
y: -0.046875
z: 0.103515625
range: 0.130730912089
velocity: 0.0
doppler_bin: 8
bearing: -46.218875885
intensity: 29.020029068
---
header: 
  seq: 1252911
  stamp: 
    secs: 1561683248
    nsecs: 844222476
  frame_id: "ti_mmwave"
point_id: 21
x: 1.2109375
y: 0.357421875
z: 0.126953125
range: 1.35088610649
velocity: 0.0
doppler_bin: 8
bearing: 16.4445590973
intensity: 19.0308990479
---
header: 
  seq: 1252912
  stamp: 
    secs: 1561683248
    nsecs: 903792237
  frame_id: "ti_mmwave"
point_id: 0
x: 0.01171875
y: -0.0390625
z: -0.0078125
range: 0.0435769706964
velocity: 0.0
doppler_bin: 8
bearing: -73.3007583618
intensity: 30.7408466339
---
header: 
  seq: 1252913
  stamp: 
    secs: 1561683248
    nsecs: 903869953
  frame_id: "ti_mmwave"
point_id: 1
x: 0.017578125
y: -0.080078125
z: -0.0078125
range: 0.0871539413929
velocity: 0.0
doppler_bin: 8
bearing: -77.6192398071
intensity: 31.9728050232
---
header: 
  seq: 1252914
  stamp: 
    secs: 1561683248
    nsecs: 903881864
  frame_id: "ti_mmwave"
point_id: 2
x: 0.041015625
y: -0.115234375
z: -0.0078125
range: 0.130730912089
velocity: 0.0
doppler_bin: 8
bearing: -70.4077224731
intensity: 30.2242832184
---
header: 
  seq: 1252915
  stamp: 
    secs: 1561683248
    nsecs: 903890855
  frame_id: "ti_mmwave"
point_id: 3
x: 0.056640625
y: -0.154296875
z: 0.005859375
range: 0.174307882786
velocity: 0.0
doppler_bin: 8
bearing: -69.8423843384
intensity: 25.5022830963
---
header: 
  seq: 1252916
  stamp: 
    secs: 1561683248
    nsecs: 903899698
  frame_id: "ti_mmwave"
point_id: 4
x: 0.37890625
y: -0.080078125
z: -1.20703125
range: 1.35088610649
velocity: 0.0
doppler_bin: 8
bearing: -11.933303833
intensity: 21.875207901
---
header: 
  seq: 1252917
  stamp: 
    secs: 1561683248
    nsecs: 903908044
  frame_id: "ti_mmwave"
point_id: 5
x: 0.251953125
y: -0.041015625
z: 1.283203125
range: 1.39446306229
velocity: 0.0
doppler_bin: 8
bearing: -9.24611377716
intensity: 23.2014636993
---
header: 
  seq: 1252918
  stamp: 
    secs: 1561683248
    nsecs: 903917688
  frame_id: "ti_mmwave"
point_id: 6
x: 0.357421875
y: -0.0
z: 1.302734375
range: 1.43804001808
velocity: 0.0
doppler_bin: 8
bearing: -0.0
intensity: 21.9033164978
---
header: 
  seq: 1252919
  stamp: 
    secs: 1561683248
    nsecs: 903927811
  frame_id: "ti_mmwave"
point_id: 7
x: 2.5546875
y: -0.263671875
z: 1.169921875
range: 3.00681090355
velocity: 0.0
doppler_bin: 8
bearing: -5.89269018173
intensity: 29.4299964905
---
header: 
  seq: 1252920
  stamp: 
    secs: 1561683248
    nsecs: 903936577
  frame_id: "ti_mmwave"
point_id: 8
x: 2.591796875
y: -0.267578125
z: 1.185546875
range: 3.05038785934
velocity: 0.0
doppler_bin: 8
bearing: -5.89435625076
intensity: 32.7508087158
---
header: 
  seq: 1252921
  stamp: 
    secs: 1561683248
    nsecs: 903945023
  frame_id: "ti_mmwave"
point_id: 9
x: 2.623046875
y: -0.271484375
z: 1.216796875
range: 3.09396481514
velocity: 0.0
doppler_bin: 8
bearing: -5.90905237198
intensity: 31.945142746
---
header: 
  seq: 1252922
  stamp: 
    secs: 1561683248
    nsecs: 903954286
  frame_id: "ti_mmwave"
point_id: 10
x: 4.400390625
y: -0.287109375
z: 1.2421875
range: 4.88062095642
velocity: 0.0
doppler_bin: 8
bearing: -3.73304843903
intensity: 31.1260509491
---
header: 
  seq: 1252923
  stamp: 
    secs: 1561683248
    nsecs: 903962482
  frame_id: "ti_mmwave"
point_id: 11
x: 4.4453125
y: -0.2890625
z: 1.232421875
range: 4.9241976738
velocity: 0.0
doppler_bin: 8
bearing: -3.72049832344
intensity: 30.6744289398
---
header: 
  seq: 1252924
  stamp: 
    secs: 1561683248
    nsecs: 903970847
  frame_id: "ti_mmwave"
point_id: 12
x: 4.890625
y: -0.30859375
z: 0.701171875
range: 5.27281332016
velocity: 0.0
doppler_bin: 8
bearing: -3.61052203178
intensity: 30.484418869
---
header: 
  seq: 1252925
  stamp: 
    secs: 1561683248
    nsecs: 903981440
  frame_id: "ti_mmwave"
point_id: 14
x: 0.041015625
y: -0.033203125
z: 0.0625
range: 0.0871539413929
velocity: 0.0
doppler_bin: 8
bearing: -38.9909973145
intensity: 30.141002655
---
header: 
  seq: 1252926
  stamp: 
    secs: 1561683248
    nsecs: 903993021
  frame_id: "ti_mmwave"
point_id: 15
x: 0.044921875
y: -0.046875
z: 0.103515625
range: 0.130730912089
velocity: 0.0
doppler_bin: 8
bearing: -46.218875885
intensity: 29.0145835876
---
header: 
  seq: 1252927
  stamp: 
    secs: 1561683248
    nsecs: 904003393
  frame_id: "ti_mmwave"
point_id: 17
x: 1.2109375
y: 0.357421875
z: 0.123046875
range: 1.35088610649
velocity: 0.0
doppler_bin: 8
bearing: 16.4445590973
intensity: 19.0848503113
---
header: 
  seq: 1252928
  stamp: 
    secs: 1561683248
    nsecs: 905008010
  frame_id: "ti_mmwave"
point_id: 0
x: 0.01171875
y: -0.0390625
z: -0.0078125
range: 0.0435769706964
velocity: 0.0
doppler_bin: 8
bearing: -73.3007583618
intensity: 30.7445068359
---
header: 
  seq: 1252929
  stamp: 
    secs: 1561683248
    nsecs: 905079502
  frame_id: "ti_mmwave"
point_id: 1
x: 0.017578125
y: -0.080078125
z: -0.0078125
range: 0.0871539413929
velocity: 0.0
doppler_bin: 8
bearing: -77.6192398071
intensity: 31.9755630493
---
header: 
  seq: 1252930
  stamp: 
    secs: 1561683248
    nsecs: 905098181
  frame_id: "ti_mmwave"
point_id: 2
x: 0.029296875
y: -0.119140625
z: -0.00390625
range: 0.130730912089
velocity: 0.0
doppler_bin: 8
bearing: -76.1849746704
intensity: 30.2284069061
---
header: 
  seq: 1252931
  stamp: 
    secs: 1561683248
    nsecs: 905147482
  frame_id: "ti_mmwave"
point_id: 3
x: 0.056640625
y: -0.154296875
z: 0.005859375
range: 0.174307882786
velocity: 0.0
doppler_bin: 8
bearing: -69.8423843384
intensity: 25.5022830963
---
header: 
  seq: 1252932
  stamp: 
    secs: 1561683248
