header: 
  seq: 1237107
  stamp: 
    secs: 1561683224
    nsecs: 603846251
  frame_id: "ti_mmwave"
point_id: 0
x: 0.01171875
y: -0.0390625
z: -0.0078125
range: 0.0435769706964
velocity: 0.0
doppler_bin: 8
bearing: -73.3007583618
intensity: 30.7518177032
---
header: 
  seq: 1237108
  stamp: 
    secs: 1561683224
    nsecs: 603923604
  frame_id: "ti_mmwave"
point_id: 1
x: 0.017578125
y: -0.080078125
z: -0.0078125
range: 0.0871539413929
velocity: 0.0
doppler_bin: 8
bearing: -77.6192398071
intensity: 31.9755630493
---
header: 
  seq: 1237109
  stamp: 
    secs: 1561683224
    nsecs: 603937370
  frame_id: "ti_mmwave"
point_id: 2
x: 0.041015625
y: -0.115234375
z: -0.0078125
range: 0.130730912089
velocity: 0.0
doppler_bin: 8
bearing: -70.4077224731
intensity: 30.2242832184
---
header: 
  seq: 1237110
  stamp: 
    secs: 1561683224
    nsecs: 603948631
  frame_id: "ti_mmwave"
point_id: 3
x: 0.056640625
y: -0.154296875
z: 0.005859375
range: 0.174307882786
velocity: 0.0
doppler_bin: 8
bearing: -69.8423843384
intensity: 25.490032196
---
header: 
  seq: 1237111
  stamp: 
    secs: 1561683224
    nsecs: 603961257
  frame_id: "ti_mmwave"
point_id: 4
x: 0.3671875
y: -0.080078125
z: -1.2109375
range: 1.35088610649
velocity: 0.0
doppler_bin: 8
bearing: -12.3027267456
intensity: 21.9589958191
---
header: 
  seq: 1237112
  stamp: 
    secs: 1561683224
    nsecs: 603974144
  frame_id: "ti_mmwave"
point_id: 5
x: 0.30078125
y: -0.041015625
z: 1.2734375
range: 1.39446306229
velocity: 0.0
doppler_bin: 8
bearing: -7.76516628265
intensity: 23.2633590698
---
header: 
  seq: 1237113
  stamp: 
    secs: 1561683224
    nsecs: 603985137
  frame_id: "ti_mmwave"
point_id: 6
x: 0.421875
y: -0.0
z: 1.28125
range: 1.43804001808
velocity: 0.0
doppler_bin: 8
bearing: -0.0
intensity: 21.9589958191
---
header: 
  seq: 1237114
  stamp: 
    secs: 1561683224
    nsecs: 603994340
  frame_id: "ti_mmwave"
point_id: 7
x: 2.5625
y: -0.263671875
z: 1.15234375
range: 3.00681090355
velocity: 0.0
doppler_bin: 8
bearing: -5.87485074997
intensity: 29.4987773895
---
header: 
  seq: 1237115
  stamp: 
    secs: 1561683224
    nsecs: 604002809
  frame_id: "ti_mmwave"
point_id: 8
x: 2.611328125
y: -0.267578125
z: 1.14453125
range: 3.05038785934
velocity: 0.0
doppler_bin: 8
bearing: -5.85057687759
intensity: 32.7898216248
---
header: 
  seq: 1237116
  stamp: 
    secs: 1561683224
    nsecs: 604174561
  frame_id: "ti_mmwave"
point_id: 9
x: 2.6640625
y: -0.271484375
z: 1.123046875
range: 3.09396481514
velocity: 0.0
doppler_bin: 8
bearing: -5.81870603561
intensity: 32.0002937317
---
header: 
  seq: 1237117
  stamp: 
    secs: 1561683224
    nsecs: 604194636
  frame_id: "ti_mmwave"
point_id: 10
x: 1.68359375
y: -0.107421875
z: -0.328125
range: 1.83023273945
velocity: 0.614668667316
doppler_bin: 9
bearing: -3.65081429482
intensity: 25.3019962311
---
header: 
  seq: 1237118
  stamp: 
    secs: 1561683224
    nsecs: 604203136
  frame_id: "ti_mmwave"
point_id: 11
x: 1.71484375
y: -0.109375
z: -0.375
range: 1.87380969524
velocity: 0.614668667316
doppler_bin: 9
bearing: -3.64945721626
intensity: 25.6702632904
---
header: 
  seq: 1237119
  stamp: 
    secs: 1561683224
    nsecs: 604214313
  frame_id: "ti_mmwave"
point_id: 12
x: 1.70703125
y: -0.11328125
z: -0.560546875
range: 1.91738677025
velocity: 0.614668667316
doppler_bin: 9
bearing: -3.79667043686
intensity: 25.7634143829
---
header: 
  seq: 1237120
  stamp: 
    secs: 1561683224
    nsecs: 604258475
  frame_id: "ti_mmwave"
point_id: 14
x: 0.041015625
y: -0.033203125
z: 0.0625
range: 0.0871539413929
velocity: 0.0
doppler_bin: 8
bearing: -38.9909973145
intensity: 30.141002655
---
header: 
  seq: 1237121
  stamp: 
    secs: 1561683224
    nsecs: 604267475
  frame_id: "ti_mmwave"
point_id: 15
x: 0.052734375
y: -0.04296875
z: 0.1015625
range: 0.130730912089
velocity: 0.0
doppler_bin: 8
bearing: -39.1736602783
intensity: 29.020029068
---
header: 
  seq: 1237122
  stamp: 
    secs: 1561683224
    nsecs: 604277737
  frame_id: "ti_mmwave"
point_id: 17
x: 1.208984375
y: 0.357421875
z: 0.14453125
range: 1.35088610649
velocity: 0.0
doppler_bin: 8
bearing: 16.4696884155
intensity: 19.0848503113
---
header: 
  seq: 1237123
  stamp: 
    secs: 1561683224
    nsecs: 604993990
  frame_id: "ti_mmwave"
point_id: 0
x: 0.01171875
y: -0.0390625
z: -0.0078125
range: 0.0435769706964
velocity: 0.0
doppler_bin: 8
bearing: -73.3007583618
intensity: 30.7408466339
---
header: 
  seq: 1237124
  stamp: 
    secs: 1561683224
    nsecs: 605064751
  frame_id: "ti_mmwave"
point_id: 1
x: 0.017578125
y: -0.080078125
z: -0.0078125
range: 0.0871539413929
velocity: 0.0
doppler_bin: 8
bearing: -77.6192398071
intensity: 31.9755630493
---
header: 
  seq: 1237125
  stamp: 
    secs: 1561683224
    nsecs: 605083267
  frame_id: "ti_mmwave"
point_id: 2
x: 0.029296875
y: -0.119140625
z: -0.005859375
range: 0.130730912089
velocity: 0.0
doppler_bin: 8
bearing: -76.1849746704
intensity: 30.2284069061
---
header: 
  seq: 1237126
  stamp: 
    secs: 1561683224
    nsecs: 605096806
  frame_id: "ti_mmwave"
point_id: 3
x: 0.056640625
y: -0.154296875
z: 0.005859375
range: 0.174307882786
velocity: 0.0
doppler_bin: 8
bearing: -69.8423843384
intensity: 25.5022830963
---
header: 
  seq: 1237127
  stamp: 
    secs: 1561683224
    nsecs: 605110407
  frame_id: "ti_mmwave"
point_id: 4
x: 0.33984375
y: -0.080078125
z: -1.21875
range: 1.35088610649
velocity: 0.0
doppler_bin: 8
bearing: -13.2588720322
intensity: 21.9589958191
---
header: 
  seq: 1237128
  stamp: 
    secs: 1561683224
    nsecs: 605123585
  frame_id: "ti_mmwave"
point_id: 5
x: 0.29296875
y: -0.041015625
z: 1.275390625
range: 1.39446306229
velocity: 0.0
doppler_bin: 8
bearing: -7.96961069107
intensity: 23.2633590698
---
header: 
  seq: 1237129
  stamp: 
    secs: 1561683224
    nsecs: 605136653
  frame_id: "ti_mmwave"
point_id: 6
x: 0.41796875
y: -0.0
z: 1.283203125
range: 1.43804001808
velocity: 0.0
doppler_bin: 8
bearing: -0.0
intensity: 21.9312458038
---
header: 
  seq: 1237130
  stamp: 
    secs: 1561683224
    nsecs: 605150210
  frame_id: "ti_mmwave"
point_id: 7
x: 2.552734375
y: -0.263671875
z: 1.17578125
range: 3.00681090355
velocity: 0.0
doppler_bin: 8
bearing: -5.89716720581
intensity: 29.4250411987
---
header: 
  seq: 1237131
  stamp: 
    secs: 1561683224
    nsecs: 605166016
  frame_id: "ti_mmwave"
point_id: 8
x: 2.611328125
y: -0.267578125
z: 1.14453125
range: 3.05038785934
velocity: 0.0
doppler_bin: 8
bearing: -5.85057687759
intensity: 32.7623214722
---
header: 
  seq: 1237132
  stamp: 
    secs: 1561683224
    nsecs: 605179997
  frame_id: "ti_mmwave"
point_id: 9
x: 2.669921875
y: -0.271484375
z: 1.111328125
range: 3.09396481514
velocity: 0.0
doppler_bin: 8
bearing: -5.80602359772
intensity: 31.9506893158
---
header: 
  seq: 1237133
  stamp: 
    secs: 1561683224
    nsecs: 605197532
  frame_id: "ti_mmwave"
point_id: 11
x: 0.041015625
y: -0.033203125
z: 0.0625
range: 0.0871539413929
velocity: 0.0
doppler_bin: 8
bearing: -38.9909973145
intensity: 30.1452045441
---
header: 
  seq: 1237134
  stamp: 
    secs: 1561683224
    nsecs: 605211328
  frame_id: "ti_mmwave"
point_id: 12
x: 0.046875
y: -0.046875
z: 0.103515625
range: 0.130730912089
velocity: 0.0
doppler_bin: 8
bearing: -45.0
intensity: 29.020029068
---
header: 
  seq: 1237135
  stamp: 
    secs: 1561683224
    nsecs: 605228537
  frame_id: "ti_mmwave"
point_id: 14
x: 1.2109375
y: 0.357421875
z: 0.126953125
range: 1.35088610649
velocity: 0.0
doppler_bin: 8
bearing: 16.4445590973
intensity: 19.0848503113
---
header: 
  seq: 1237136
  stamp: 
    secs: 1561683224
    nsecs: 663757823
  frame_id: "ti_mmwave"
point_id: 0
x: 0.01171875
y: -0.0390625
z: -0.0078125
range: 0.0435769706964
velocity: 0.0
doppler_bin: 8
bearing: -73.3007583618
intensity: 30.7481651306
---
header: 
  seq: 1237137
  stamp: 
    secs: 1561683224
    nsecs: 663839143
  frame_id: "ti_mmwave"
point_id: 1
x: 0.017578125
y: -0.080078125
z: -0.0078125
range: 0.0871539413929
velocity: 0.0
doppler_bin: 8
bearing: -77.6192398071
intensity: 31.9728050232
---
header: 
  seq: 1237138
  stamp: 
    secs: 1561683224
    nsecs: 663850726
  frame_id: "ti_mmwave"
point_id: 2
x: 0.041015625
y: -0.115234375
z: -0.0078125
range: 0.130730912089
velocity: 0.0
doppler_bin: 8
bearing: -70.4077224731
intensity: 30.2242832184
---
header: 
  seq: 1237139
  stamp: 
    secs: 1561683224
    nsecs: 663859044
  frame_id: "ti_mmwave"
point_id: 3
x: 0.056640625
y: -0.154296875
z: 0.005859375
range: 0.174307882786
velocity: 0.0
doppler_bin: 8
bearing: -69.8423843384
intensity: 25.5022830963
---
header: 
  seq: 1237140
  stamp: 
    secs: 1561683224
    nsecs: 663868309
  frame_id: "ti_mmwave"
point_id: 4
x: 0.310546875
y: -0.080078125
z: -1.2265625
range: 1.35088610649
velocity: 0.0
doppler_bin: 8
bearing: -14.4593963623
intensity: 21.9033164978
---
header: 
  seq: 1237141
  stamp: 
    secs: 1561683224
    nsecs: 663876917
  frame_id: "ti_mmwave"
point_id: 5
x: 0.310546875
y: -0.041015625
z: 1.271484375
range: 1.39446306229
velocity: 0.0
doppler_bin: 8
bearing: -7.52382040024
intensity: 23.2221927643
---
header: 
  seq: 1237142
  stamp: 
    secs: 1561683224
    nsecs: 663885637
  frame_id: "ti_mmwave"
point_id: 6
x: 0.416015625
y: -0.0
z: 1.28515625
range: 1.43804001808
velocity: 0.0
doppler_bin: 8
bearing: -0.0
intensity: 21.9312458038
---
header: 
  seq: 1237143
  stamp: 
    secs: 1561683224
    nsecs: 663894139
  frame_id: "ti_mmwave"
point_id: 7
x: 1.654296875
y: -0.052734375
z: -0.26953125
range: 1.78665578365
velocity: 0.0
doppler_bin: 8
bearing: -1.82581138611
intensity: 27.7815132141
---
header: 
  seq: 1237144
  stamp: 
    secs: 1561683224
    nsecs: 663903798
  frame_id: "ti_mmwave"
point_id: 8
x: 1.693359375
y: -0.052734375
z: -0.287109375
range: 1.83023273945
velocity: 0.0
doppler_bin: 8
bearing: -1.78372108936
intensity: 30.3862018585
---
header: 
  seq: 1237145
  stamp: 
    secs: 1561683224
    nsecs: 664098709
  frame_id: "ti_mmwave"
point_id: 9
x: 1.7265625
y: -0.0546875
z: -0.33203125
range: 1.87380969524
velocity: 0.0
doppler_bin: 8
bearing: -1.81419193745
intensity: 30.6182937622
---
header: 
  seq: 1237146
  stamp: 
    secs: 1561683224
    nsecs: 664118645
  frame_id: "ti_mmwave"
point_id: 10
x: 1.7421875
y: -0.056640625
z: -0.44921875
range: 1.91738677025
velocity: 0.0
doppler_bin: 8
bearing: -1.86209928989
intensity: 27.5739593506
---
header: 
  seq: 1237147
  stamp: 
    secs: 1561683224
    nsecs: 664127678
  frame_id: "ti_mmwave"
point_id: 11
x: 2.54296875
y: -0.263671875
z: 1.197265625
range: 3.00681090355
velocity: 0.0
doppler_bin: 8
bearing: -5.91965341568
intensity: 29.2839584351
---
header: 
  seq: 1237148
  stamp: 
    secs: 1561683224
    nsecs: 664136392
  frame_id: "ti_mmwave"
point_id: 12
x: 2.60546875
y: -0.267578125
z: 1.158203125
range: 3.05038785934
velocity: 0.0
doppler_bin: 8
bearing: -5.86364221573
intensity: 32.7415771484
---
header: 
  seq: 1237149
  stamp: 
    secs: 1561683224
    nsecs: 664144507
  frame_id: "ti_mmwave"
point_id: 13
x: 2.669921875
y: -0.181640625
z: 1.130859375
range: 3.09396481514
velocity: 0.0
doppler_bin: 8
bearing: -3.89196038246
intensity: 31.9838218689
---
header: 
  seq: 1237150
  stamp: 
    secs: 1561683224
    nsecs: 664157083
  frame_id: "ti_mmwave"
point_id: 15
x: 0.041015625
y: -0.033203125
z: 0.0625
range: 0.0871539413929
velocity: 0.0
doppler_bin: 8
bearing: -38.9909973145
intensity: 30.1367969513
---
header: 
  seq: 1237151
  stamp: 
    secs: 1561683224
    nsecs: 664165564
  frame_id: "ti_mmwave"
point_id: 16
x: 0.044921875
y: -0.046875
z: 0.103515625
range: 0.130730912089
velocity: 0.0
doppler_bin: 8
bearing: -46.218875885
intensity: 29.0145835876
---
header: 
  seq: 1237152
  stamp: 
    secs: 1561683224
    nsecs: 664177383
  frame_id: "ti_mmwave"
point_id: 18
x: 1.2109375
y: 0.357421875
z: 0.1171875
range: 1.35088610649
velocity: 0.0
doppler_bin: 8
bearing: 16.4445590973
intensity: 19.0308990479
---
header: 
  seq: 1237153
  stamp: 
    secs: 1561683224
    nsecs: 664894238
  frame_id: "ti_mmwave"
point_id: 0
x: 0.01171875
y: -0.0390625
z: -0.0078125
range: 0.0435769706964
velocity: 0.0
doppler_bin: 8
bearing: -73.3007583618
intensity: 30.7481651306
---
header: 
  seq: 1237154
  stamp: 
    secs: 1561683224
    nsecs: 664934292
  frame_id: "ti_mmwave"
point_id: 1
x: 0.017578125
y: -0.080078125
z: -0.0078125
range: 0.0871539413929
velocity: 0.0
doppler_bin: 8
bearing: -77.6192398071
intensity: 31.9755630493
---
header: 
  seq: 1237155
  stamp: 
    secs: 1561683224
    nsecs: 664950317
  frame_id: "ti_mmwave"
point_id: 2
x: 0.029296875
y: -0.119140625
z: -0.005859375
range: 0.130730912089
velocity: 0.0
doppler_bin: 8
bearing: -76.1849746704
intensity: 30.2242832184
---
header: 
  seq: 1237156
  stamp: 
    secs: 1561683224
    nsecs: 664964672
  frame_id: "ti_mmwave"
point_id: 3
x: 0.056640625
y: -0.154296875
z: 0.005859375
range: 0.174307882786
velocity: 0.0
doppler_bin: 8
bearing: -69.8423843384
intensity: 25.5022830963
---
header: 
  seq: 1237157
  stamp: 
    secs: 1561683224
    nsecs: 664981022
  frame_id: "ti_mmwave"
point_id: 4
x: 0.345703125
y: -0.080078125
z: -1.216796875
range: 1.35088610649
velocity: 0.0
doppler_bin: 8
bearing: -13.0418901443
intensity: 21.9312458038
---
header: 
  seq: 1237158
  stamp: 
    secs: 1561683224
    nsecs: 664992989
  frame_id: "ti_mmwave"
point_id: 5
x: 0.32421875
y: -0.041015625
z: 1.267578125
range: 1.39446306229
velocity: 0.0
doppler_bin: 8
bearing: -7.20996236801
intensity: 23.2633590698
---
header: 
  seq: 1237159
  stamp: 
    secs: 1561683224
    nsecs: 665006363
  frame_id: "ti_mmwave"
point_id: 6
x: 0.451171875
y: -0.0
z: 1.271484375
range: 1.43804001808
velocity: 0.0
doppler_bin: 8
bearing: -0.0
intensity: 21.9589958191
---
header: 
  seq: 1237160
  stamp: 
    secs: 1561683224
    nsecs: 665019909
  frame_id: "ti_mmwave"
point_id: 7
x: 1.703125
y: -0.107421875
z: -0.201171875
range: 1.83023273945
velocity: 0.0
doppler_bin: 8
bearing: -3.60905861855
intensity: 29.7497196198
---
header: 
  seq: 1237161
  stamp: 
    secs: 1561683224
    nsecs: 665032841
  frame_id: "ti_mmwave"
point_id: 8
x: 1.75
y: -0.0546875
z: -0.169921875
range: 1.87380969524
velocity: 0.0
doppler_bin: 8
bearing: -1.7899106741
intensity: 31.2483005524
---
header: 
  seq: 1237162
  stamp: 
    secs: 1561683224
    nsecs: 665048654
  frame_id: "ti_mmwave"
point_id: 9
x: 1.79296875
y: -0.11328125
z: -0.123046875
range: 1.91738677025
velocity: 0.0
doppler_bin: 8
bearing: -3.61518931389
intensity: 29.9122600555
---
header: 
  seq: 1237163
  stamp: 
    secs: 1561683224
    nsecs: 665070667
  frame_id: "ti_mmwave"
point_id: 10
x: 2.548828125
y: -0.263671875
z: 1.18359375
range: 3.00681090355
velocity: 0.0
doppler_bin: 8
bearing: -5.90614128113
intensity: 29.484128952
---
header: 
  seq: 1237164
  stamp: 
    secs: 1561683224
    nsecs: 665091709
  frame_id: "ti_mmwave"
point_id: 11
x: 2.607421875
y: -0.267578125
z: 1.15234375
range: 3.05038785934
velocity: 0.0
doppler_bin: 8
bearing: -5.85928010941
intensity: 32.8307495117
---
header: 
  seq: 1237165
  stamp: 
    secs: 1561683224
    nsecs: 665104685
  frame_id: "ti_mmwave"
point_id: 12
x: 2.671875
y: -0.271484375
z: 1.10546875
range: 3.09396481514
velocity: 0.0
doppler_bin: 8
bearing: -5.80180835724
intensity: 32.0844154358
---
header: 
  seq: 1237166
  stamp: 
    secs: 1561683224
    nsecs: 665119143
  frame_id: "ti_mmwave"
point_id: 14
x: 0.041015625
y: -0.033203125
z: 0.0625
range: 0.0871539413929
velocity: 0.0
doppler_bin: 8
bearing: -38.9909973145
intensity: 30.1452045441
---
header: 
  seq: 1237167
  stamp: 
    secs: 1561683224
    nsecs: 665137772
  frame_id: "ti_mmwave"
point_id: 15
x: 0.044921875
y: -0.046875
z: 0.103515625
range: 0.130730912089
velocity: 0.0
doppler_bin: 8
bearing: -46.218875885
intensity: 29.020029068
---
header: 
  seq: 1237168
  stamp: 
    secs: 1561683224
    nsecs: 665214767
  frame_id: "ti_mmwave"
point_id: 17
x: 1.11328125
y: -0.474609375
z: 0.375
range: 1.35088610649
velocity: 0.0
doppler_bin: 8
bearing: -23.0893154144
intensity: 18.9762706757
---
header: 
  seq: 1237169
  stamp: 
    secs: 1561683224
    nsecs: 723706127
  frame_id: "ti_mmwave"
point_id: 0
x: 0.01171875
y: -0.0390625
z: -0.0078125
range: 0.0435769706964
velocity: 0.0
doppler_bin: 8
bearing: -73.3007583618
intensity: 30.7554702759
---
header: 
  seq: 1237170
  stamp: 
    secs: 1561683224
    nsecs: 723796868
  frame_id: "ti_mmwave"
point_id: 1
x: 0.017578125
y: -0.080078125
z: -0.0078125
range: 0.0871539413929
velocity: 0.0
doppler_bin: 8
bearing: -77.6192398071
intensity: 31.9783172607
---
header: 
  seq: 1237171
  stamp: 
    secs: 1561683224
    nsecs: 723814572
  frame_id: "ti_mmwave"
point_id: 2
x: 0.041015625
y: -0.115234375
z: -0.0078125
range: 0.130730912089
velocity: 0.0
doppler_bin: 8
bearing: -70.4077224731
intensity: 30.2284069061
---
header: 
  seq: 1237172
  stamp: 
    secs: 1561683224
    nsecs: 723829252
  frame_id: "ti_mmwave"
point_id: 3
x: 0.056640625
y: -0.154296875
z: 0.005859375
range: 0.174307882786
velocity: 0.0
doppler_bin: 8
bearing: -69.8423843384
intensity: 25.5022830963
---
header: 
  seq: 1237173
  stamp: 
    secs: 1561683224
    nsecs: 723841422
  frame_id: "ti_mmwave"
point_id: 4
x: 0.34375
y: -0.080078125
z: -1.21875
range: 1.35088610649
velocity: 0.0
doppler_bin: 8
bearing: -13.1134386063
intensity: 21.9589958191
---
header: 
  seq: 1237174
  stamp: 
    secs: 1561683224
    nsecs: 723852960
  frame_id: "ti_mmwave"
point_id: 5
x: 0.306640625
y: -0.041015625
z: 1.271484375
range: 1.39446306229
velocity: 0.0
doppler_bin: 8
bearing: -7.6185464859
intensity: 23.2428245544
---
header: 
  seq: 1237175
  stamp: 
    secs: 1561683224
    nsecs: 723939085
  frame_id: "ti_mmwave"
point_id: 6
x: 0.423828125
y: -0.0
z: 1.28125
range: 1.43804001808
velocity: 0.0
doppler_bin: 8
bearing: -0.0
intensity: 21.9312458038
---
header: 
  seq: 1237176
  stamp: 
    secs: 1561683224
    nsecs: 723954648
  frame_id: "ti_mmwave"
point_id: 7
x: 1.705078125
y: -0.107421875
z: -0.17578125
range: 1.83023273945
velocity: 0.0
doppler_bin: 8
bearing: -3.60493540764
intensity: 27.2591171265
---
header: 
  seq: 1237177
  stamp: 
    secs: 1561683224
    nsecs: 723967918
  frame_id: "ti_mmwave"
point_id: 8
x: 1.75390625
y: -0.0546875
z: 0.1328125
range: 1.87380969524
velocity: 0.0
doppler_bin: 8
bearing: -1.78592669964
intensity: 27.8318862915
---
header: 
  seq: 1237178
  stamp: 
    secs: 1561683224
    nsecs: 723980357
  frame_id: "ti_mmwave"
point_id: 9
x: 2.55078125
y: -0.263671875
z: 1.177734375
range: 3.00681090355
velocity: 0.0
doppler_bin: 8
bearing: -5.90165042877
intensity: 29.4645233154
---
header: 
  seq: 1237179
  stamp: 
    secs: 1561683224
    nsecs: 723991156
  frame_id: "ti_mmwave"
point_id: 10
x: 2.609375
y: -0.267578125
z: 1.1484375
range: 3.05038785934
velocity: 0.0
doppler_bin: 8
bearing: -5.85492515564
intensity: 32.7852478027
---
header: 
  seq: 1237180
  stamp: 
    secs: 1561683224
    nsecs: 724001675
  frame_id: "ti_mmwave"
point_id: 11
x: 2.66796875
y: -0.271484375
z: 1.11328125
range: 3.09396481514
velocity: 0.0
doppler_bin: 8
bearing: -5.81024503708
intensity: 31.9920654297
---
header: 
  seq: 1237181
  stamp: 
    secs: 1561683224
    nsecs: 724012701
  frame_id: "ti_mmwave"
point_id: 12
x: 1.728515625
y: -0.0
z: 0.50390625
range: 1.91738677025
velocity: 0.614668667316
doppler_bin: 9
bearing: -0.0
intensity: 25.2891674042
---
header: 
  seq: 1237182
  stamp: 
    secs: 1561683224
    nsecs: 724027256
  frame_id: "ti_mmwave"
point_id: 14
x: 0.041015625
y: -0.033203125
z: 0.0625
range: 0.0871539413929
velocity: 0.0
doppler_bin: 8
bearing: -38.9909973145
intensity: 30.141002655
---
header: 
  seq: 1237183
  stamp: 
    secs: 1561683224
    nsecs: 724038072
  frame_id: "ti_mmwave"
point_id: 15
x: 0.044921875
y: -0.046875
z: 0.103515625
range: 0.130730912089
velocity: 0.0
doppler_bin: 8
bearing: -46.218875885
intensity: 29.0145835876
---
header: 
  seq: 1237184
  stamp: 
    secs: 1561683224
    nsecs: 724073839
  frame_id: "ti_mmwave"
point_id: 17
x: 1.212890625
y: 0.357421875
z: 0.109375
range: 1.35088610649
velocity: 0.0
doppler_bin: 8
bearing: 16.419506073
intensity: 19.1907806396
---
header: 
  seq: 1237185
  stamp: 
    secs: 1561683224
    nsecs: 724848335
  frame_id: "ti_mmwave"
point_id: 0
x: 0.01171875
y: -0.0390625
z: -0.0078125
range: 0.0435769706964
velocity: 0.0
doppler_bin: 8
bearing: -73.3007583618
intensity: 30.7518177032
---
header: 
  seq: 1237186
  stamp: 
    secs: 1561683224
    nsecs: 724895560
  frame_id: "ti_mmwave"
point_id: 1
x: 0.017578125
y: -0.080078125
z: -0.0078125
range: 0.0871539413929
velocity: 0.0
doppler_bin: 8
bearing: -77.6192398071
intensity: 31.9755630493
---
header: 
  seq: 1237187
  stamp: 
    secs: 1561683224
    nsecs: 724906942
  frame_id: "ti_mmwave"
point_id: 2
x: 0.029296875
y: -0.119140625
z: -0.00390625
range: 0.130730912089
velocity: 0.0
doppler_bin: 8
bearing: -76.1849746704
intensity: 30.2242832184
---
header: 
  seq: 1237188
  stamp: 
    secs: 1561683224
    nsecs: 724915149
  frame_id: "ti_mmwave"
point_id: 3
x: 0.056640625
y: -0.154296875
z: 0.0078125
range: 0.174307882786
velocity: 0.0
doppler_bin: 8
bearing: -69.8423843384
intensity: 25.490032196
---
header: 
  seq: 1237189
  stamp: 
    secs: 1561683224
    nsecs: 724922556
  frame_id: "ti_mmwave"
point_id: 4
x: 0.353515625
y: -0.080078125
z: -1.21484375
range: 1.35088610649
velocity: 0.0
doppler_bin: 8
bearing: -12.7632131577
intensity: 21.9865703583
---
header: 
  seq: 1237190
  stamp: 
    secs: 1561683224
    nsecs: 724931482
  frame_id: "ti_mmwave"
point_id: 5
x: 0.302734375
y: -0.041015625
z: 1.2734375
range: 1.39446306229
velocity: 0.0
doppler_bin: 8
bearing: -7.71567344666
intensity: 23.2428245544
---
header: 
  seq: 1237191
  stamp: 
    secs: 1561683224
    nsecs: 724939056
  frame_id: "ti_mmwave"
point_id: 6
x: 0.494140625
y: -0.04296875
z: 1.255859375
range: 1.43804001808
velocity: 0.0
doppler_bin: 8
bearing: -4.96974086761
intensity: 21.9312458038
---
header: 
  seq: 1237192
  stamp: 
    secs: 1561683224
    nsecs: 724946645
  frame_id: "ti_mmwave"
point_id: 7
x: 1.796875
y: -0.056640625
z: -0.0859375
range: 1.91738677025
velocity: 0.0
doppler_bin: 8
bearing: -1.80546462536
intensity: 26.8841991425
---
header: 
  seq: 1237193
  stamp: 
    secs: 1561683224
    nsecs: 724954232
  frame_id: "ti_mmwave"
point_id: 8
x: 2.537109375
y: -0.263671875
z: 1.208984375
range: 3.00681090355
velocity: 0.0
doppler_bin: 8
bearing: -5.93322753906
intensity: 29.5808582306
---
header: 
  seq: 1237194
  stamp: 
    secs: 1561683224
    nsecs: 724963215
  frame_id: "ti_mmwave"
point_id: 9
x: 2.59765625
y: -0.267578125
z: 1.173828125
range: 3.05038785934
velocity: 0.0
doppler_bin: 8
bearing: -5.88115358353
intensity: 32.8126068115
---
header: 
  seq: 1237195
  stamp: 
    secs: 1561683224
    nsecs: 724970857
  frame_id: "ti_mmwave"
point_id: 10
x: 2.658203125
y: -0.271484375
z: 1.138671875
range: 3.09396481514
velocity: 0.0
doppler_bin: 8
bearing: -5.83144378662
intensity: 31.9755630493
---
header: 
  seq: 1237196
  stamp: 
    secs: 1561683224
    nsecs: 724980232
  frame_id: "ti_mmwave"
point_id: 12
x: 0.041015625
y: -0.033203125
z: 0.0625
range: 0.0871539413929
velocity: 0.0
doppler_bin: 8
bearing: -38.9909973145
intensity: 30.141002655
---
header: 
  seq: 1237197
  stamp: 
    secs: 1561683224
    nsecs: 724988881
  frame_id: "ti_mmwave"
point_id: 13
x: 0.044921875
y: -0.046875
z: 0.103515625
range: 0.130730912089
velocity: 0.0
doppler_bin: 8
bearing: -46.218875885
intensity: 29.020029068
---
header: 
  seq: 1237198
  stamp: 
    secs: 1561683224
    nsecs: 724997886
  frame_id: "ti_mmwave"
point_id: 15
x: 1.21484375
y: 0.357421875
z: 0.080078125
range: 1.35088610649
velocity: 0.0
doppler_bin: 8
bearing: 16.3945274353
intensity: 19.1907806396
---
header: 
  seq: 1237199
  stamp: 
    secs: 1561683224
    nsecs: 783942613
  frame_id: "ti_mmwave"
point_id: 0
x: 0.01171875
y: -0.0390625
z: -0.0078125
range: 0.0435769706964
velocity: 0.0
doppler_bin: 8
bearing: -73.3007583618
intensity: 30.7445068359
---
header: 
  seq: 1237200
  stamp: 
    secs: 1561683224
    nsecs: 784020250
  frame_id: "ti_mmwave"
point_id: 1
x: 0.017578125
y: -0.080078125
z: -0.0078125
range: 0.0871539413929
velocity: 0.0
doppler_bin: 8
bearing: -77.6192398071
intensity: 31.9755630493
---
header: 
  seq: 1237201
  stamp: 
    secs: 1561683224
    nsecs: 784032799
  frame_id: "ti_mmwave"
point_id: 2
x: 0.041015625
y: -0.115234375
z: -0.0078125
range: 0.130730912089
velocity: 0.0
doppler_bin: 8
bearing: -70.4077224731
intensity: 30.2284069061
---
header: 
  seq: 1237202
  stamp: 
    secs: 1561683224
    nsecs: 784045445
  frame_id: "ti_mmwave"
point_id: 3
x: 0.056640625
y: -0.154296875
z: 0.005859375
range: 0.174307882786
velocity: 0.0
doppler_bin: 8
bearing: -69.8423843384
intensity: 25.5022830963
---
header: 
  seq: 1237203
  stamp: 
    secs: 1561683224
    nsecs: 784053707
  frame_id: "ti_mmwave"
point_id: 4
x: 0.37890625
y: -0.080078125
z: -1.20703125
range: 1.35088610649
velocity: 0.0
doppler_bin: 8
bearing: -11.933303833
intensity: 21.9589958191
---
header: 
  seq: 1237204
  stamp: 
    secs: 1561683224
    nsecs: 784061654
  frame_id: "ti_mmwave"
point_id: 5
x: 0.26953125
y: -0.041015625
z: 1.279296875
range: 1.39446306229
velocity: 0.0
doppler_bin: 8
bearing: -8.65254211426
intensity: 23.2633590698
---
header: 
  seq: 1237205
  stamp: 
    secs: 1561683224
    nsecs: 784069957
  frame_id: "ti_mmwave"
point_id: 6
x: 0.490234375
y: -0.04296875
z: 1.2578125
range: 1.43804001808
velocity: 0.0
doppler_bin: 8
bearing: -5.00914001465
intensity: 21.9589958191
---
header: 
  seq: 1237206
  stamp: 
    secs: 1561683224
    nsecs: 784078367
  frame_id: "ti_mmwave"
point_id: 7
x: 2.55859375
y: -0.263671875
z: 1.1640625
range: 3.00681090355
velocity: 0.0
doppler_bin: 8
bearing: -5.88375711441
intensity: 29.4001808167
---
header: 
  seq: 1237207
  stamp: 
    secs: 1561683224
    nsecs: 784086753
  frame_id: "ti_mmwave"
point_id: 8
x: 2.603515625
y: -0.267578125
z: 1.16015625
range: 3.05038785934
velocity: 0.0
doppler_bin: 8
bearing: -5.8680100441
intensity: 32.810333252
---
header: 
  seq: 1237208
  stamp: 
    secs: 1561683224
    nsecs: 784095240
  frame_id: "ti_mmwave"
point_id: 9
x: 2.658203125
y: -0.271484375
z: 1.13671875
range: 3.09396481514
velocity: 0.0
doppler_bin: 8
bearing: -5.83144378662
intensity: 32.0139694214
---
header: 
  seq: 1237209
  stamp: 
    secs: 1561683224
    nsecs: 784106737
  frame_id: "ti_mmwave"
point_id: 11
x: 0.041015625
y: -0.033203125
z: 0.0625
range: 0.0871539413929
velocity: 0.0
doppler_bin: 8
bearing: -38.9909973145
intensity: 30.141002655
---
header: 
  seq: 1237210
  stamp: 
    secs: 1561683224
    nsecs: 784233629
  frame_id: "ti_mmwave"
point_id: 12
x: 0.044921875
y: -0.046875
z: 0.103515625
range: 0.130730912089
velocity: 0.0
doppler_bin: 8
bearing: -46.218875885
intensity: 29.0254669189
---
header: 
  seq: 1237211
  stamp: 
    secs: 1561683224
    nsecs: 784245666
  frame_id: "ti_mmwave"
point_id: 14
x: 1.2109375
y: 0.357421875
z: 0.115234375
range: 1.35088610649
velocity: 0.0
doppler_bin: 8
bearing: 16.4445590973
intensity: 19.1907806396
---
header: 
  seq: 1237212
  stamp: 
    secs: 1561683224
    nsecs: 785135503
  frame_id: "ti_mmwave"
point_id: 0
x: 0.01171875
y: -0.0390625
z: -0.0078125
range: 0.0435769706964
velocity: 0.0
doppler_bin: 8
bearing: -73.3007583618
intensity: 30.7408466339
---
header: 
  seq: 1237213
  stamp: 
    secs: 1561683224
    nsecs: 785198951
  frame_id: "ti_mmwave"
point_id: 1
x: 0.017578125
y: -0.080078125
z: -0.0078125
range: 0.0871539413929
velocity: 0.0
doppler_bin: 8
bearing: -77.6192398071
intensity: 31.9728050232
---
header: 
  seq: 1237214
  stamp: 
    secs: 1561683224
    nsecs: 785216566
  frame_id: "ti_mmwave"
point_id: 2
x: 0.041015625
y: -0.115234375
z: -0.0078125
range: 0.130730912089
velocity: 0.0
doppler_bin: 8
bearing: -70.4077224731
intensity: 30.2242832184
---
header: 
  seq: 1237215
  stamp: 
    secs: 1561683224
    nsecs: 785231336
  frame_id: "ti_mmwave"
point_id: 3
x: 0.056640625
y: -0.154296875
z: 0.005859375
range: 0.174307882786
velocity: 0.0
doppler_bin: 8
bearing: -69.8423843384
intensity: 25.5022830963
---
header: 
  seq: 1237216
  stamp: 
    secs: 1561683224
    nsecs: 785243879
  frame_id: "ti_mmwave"
point_id: 4
x: 0.330078125
y: -0.080078125
z: -1.22265625
range: 1.35088610649
velocity: 0.0
doppler_bin: 8
bearing: -13.6366977692
intensity: 21.9312458038
---
header: 
  seq: 1237217
  stamp: 
    secs: 1561683224
    nsecs: 785332821
  frame_id: "ti_mmwave"
point_id: 5
x: 0.2734375
y: -0.041015625
z: 1.279296875
range: 1.39446306229
velocity: 0.0
doppler_bin: 8
bearing: -8.53076648712
intensity: 23.2221927643
---
header: 
  seq: 1237218
  stamp: 
    secs: 1561683224
    nsecs: 785344139
  frame_id: "ti_mmwave"
point_id: 6
x: 0.40234375
y: -0.0
z: 1.2890625
range: 1.43804001808
velocity: 0.0
doppler_bin: 8
bearing: -0.0
intensity: 21.9589958191
---
header: 
  seq: 1237219
  stamp: 
    secs: 1561683224
    nsecs: 785352083
  frame_id: "ti_mmwave"
point_id: 7
x: 2.54296875
y: -0.263671875
z: 1.197265625
range: 3.00681090355
velocity: 0.0
doppler_bin: 8
bearing: -5.91965341568
intensity: 29.5712814331
---
header: 
  seq: 1237220
  stamp: 
    secs: 1561683224
    nsecs: 785360295
  frame_id: "ti_mmwave"
point_id: 8
x: 2.6015625
y: -0.267578125
z: 1.166015625
range: 3.05038785934
velocity: 0.0
doppler_bin: 8
bearing: -5.87238502502
intensity: 32.8533210754
---
header: 
  seq: 1237221
  stamp: 
    secs: 1561683224
    nsecs: 785368337
  frame_id: "ti_mmwave"
point_id: 9
x: 2.658203125
y: -0.271484375
z: 1.138671875
range: 3.09396481514
velocity: 0.0
doppler_bin: 8
bearing: -5.83144378662
intensity: 32.0112380981
---
header: 
  seq: 1237222
  stamp: 
    secs: 1561683224
    nsecs: 785439412
  frame_id: "ti_mmwave"
point_id: 11
x: 0.041015625
y: -0.033203125
z: 0.0625
range: 0.0871539413929
velocity: 0.0
doppler_bin: 8
bearing: -38.9909973145
intensity: 30.141002655
---
header: 
  seq: 1237223
  stamp: 
    secs: 1561683224
    nsecs: 785448870
  frame_id: "ti_mmwave"
point_id: 12
x: 0.044921875
y: -0.046875
z: 0.103515625
range: 0.130730912089
velocity: 0.0
doppler_bin: 8
bearing: -46.218875885
intensity: 29.020029068
---
header: 
  seq: 1237224
  stamp: 
    secs: 1561683224
    nsecs: 785460311
  frame_id: "ti_mmwave"
point_id: 14
x: 1.212890625
y: 0.357421875
z: 0.09765625
range: 1.35088610649
velocity: 0.0
doppler_bin: 8
bearing: 16.419506073
intensity: 19.0848503113
---
header: 
  seq: 1237225
  stamp: 
    secs: 1561683224
    nsecs: 843882280
  frame_id: "ti_mmwave"
point_id: 0
x: 0.01171875
y: -0.0390625
z: -0.0078125
range: 0.0435769706964
velocity: 0.0
doppler_bin: 8
bearing: -73.3007583618
intensity: 30.7518177032
---
header: 
  seq: 1237226
  stamp: 
    secs: 1561683224
    nsecs: 843955685
  frame_id: "ti_mmwave"
point_id: 1
x: 0.017578125
y: -0.080078125
z: -0.0078125
range: 0.0871539413929
velocity: 0.0
doppler_bin: 8
bearing: -77.6192398071
intensity: 31.9755630493
---
header: 
  seq: 1237227
  stamp: 
    secs: 1561683224
    nsecs: 843966323
  frame_id: "ti_mmwave"
point_id: 2
x: 0.029296875
y: -0.119140625
z: -0.005859375
range: 0.130730912089
velocity: 0.0
doppler_bin: 8
bearing: -76.1849746704
intensity: 30.2242832184
---
header: 
  seq: 1237228
  stamp: 
    secs: 1561683224
    nsecs: 843977018
  frame_id: "ti_mmwave"
point_id: 3
x: 0.056640625
y: -0.154296875
z: 0.005859375
range: 0.174307882786
velocity: 0.0
doppler_bin: 8
bearing: -69.8423843384
intensity: 25.490032196
---
header: 
  seq: 1237229
  stamp: 
    secs: 1561683224
    nsecs: 843985150
  frame_id: "ti_mmwave"
point_id: 4
x: 0.326171875
y: -0.080078125
z: -1.22265625
range: 1.35088610649
velocity: 0.0
doppler_bin: 8
bearing: -13.7938089371
intensity: 21.9033164978
---
header: 
  seq: 1237230
  stamp: 
    secs: 1561683224
    nsecs: 843993377
  frame_id: "ti_mmwave"
point_id: 5
x: 0.3046875
y: -0.041015625
z: 1.271484375
range: 1.39446306229
velocity: 0.0
doppler_bin: 8
bearing: -7.66680431366
intensity: 23.2014636993
---
header: 
  seq: 1237231
  stamp: 
    secs: 1561683224
    nsecs: 844001476
  frame_id: "ti_mmwave"
point_id: 6
x: 0.421875
y: -0.0
z: 1.283203125
range: 1.43804001808
velocity: 0.0
doppler_bin: 8
bearing: -0.0
intensity: 21.875207901
---
header: 
  seq: 1237232
  stamp: 
    secs: 1561683224
    nsecs: 844010263
  frame_id: "ti_mmwave"
point_id: 7
x: 1.6953125
y: -0.052734375
z: -0.267578125
range: 1.83023273945
velocity: 0.0
doppler_bin: 8
bearing: -1.78166759014
intensity: 28.8024177551
---
header: 
  seq: 1237233
  stamp: 
    secs: 1561683224
    nsecs: 844018838
  frame_id: "ti_mmwave"
point_id: 8
x: 1.73828125
y: -0.0546875
z: -0.26171875
range: 1.87380969524
velocity: 0.0
doppler_bin: 8
bearing: -1.80196928978
intensity: 29.2064495087
---
header: 
  seq: 1237234
  stamp: 
    secs: 1561683224
    nsecs: 844026784
  frame_id: "ti_mmwave"
point_id: 9
x: 1.791015625
y: -0.0
z: -0.185546875
range: 1.91738677025
velocity: 0.0
doppler_bin: 8
bearing: -0.0
intensity: 27.678976059
---
header: 
  seq: 1237235
  stamp: 
    secs: 1561683224
    nsecs: 844036118
  frame_id: "ti_mmwave"
point_id: 10
x: 2.5625
y: -0.263671875
z: 1.154296875
range: 3.00681090355
velocity: 0.0
doppler_bin: 8
bearing: -5.87485074997
intensity: 29.5133743286
---
header: 
  seq: 1237236
  stamp: 
    secs: 1561683224
    nsecs: 844044651
  frame_id: "ti_mmwave"
point_id: 11
x: 2.615234375
y: -0.267578125
z: 1.13671875
range: 3.05038785934
velocity: 0.0
doppler_bin: 8
bearing: -5.84189844131
intensity: 32.8824920654
---
header: 
  seq: 1237237
  stamp: 
    secs: 1561683224
    nsecs: 844053055
  frame_id: "ti_mmwave"
point_id: 12
x: 2.671875
y: -0.181640625
z: 1.123046875
range: 3.09396481514
velocity: 0.0
doppler_bin: 8
bearing: -3.88912391663
intensity: 32.0978317261
---
header: 
  seq: 1237238
  stamp: 
    secs: 1561683224
    nsecs: 844065892
  frame_id: "ti_mmwave"
point_id: 14
x: 0.041015625
y: -0.033203125
z: 0.0625
range: 0.0871539413929
velocity: 0.0
doppler_bin: 8
bearing: -38.9909973145
intensity: 30.141002655
---
header: 
  seq: 1237239
  stamp: 
    secs: 1561683224
    nsecs: 844211717
  frame_id: "ti_mmwave"
point_id: 15
x: 0.044921875
y: -0.046875
z: 0.103515625
range: 0.130730912089
velocity: 0.0
doppler_bin: 8
bearing: -46.218875885
intensity: 29.0254669189
---
header: 
  seq: 1237240
  stamp: 
    secs: 1561683224
    nsecs: 844235114
  frame_id: "ti_mmwave"
point_id: 17
x: 1.212890625
y: 0.357421875
z: 0.103515625
range: 1.35088610649
velocity: 0.0
doppler_bin: 8
bearing: 16.419506073
intensity: 19.0308990479
---
header: 
  seq: 1237241
  stamp: 
    secs: 1561683224
    nsecs: 903927606
  frame_id: "ti_mmwave"
point_id: 0
x: 0.01171875
y: -0.0390625
z: -0.0078125
range: 0.0435769706964
velocity: 0.0
doppler_bin: 8
bearing: -73.3007583618
intensity: 30.7445068359
---
header: 
  seq: 1237242
  stamp: 
    secs: 1561683224
    nsecs: 904016600
  frame_id: "ti_mmwave"
point_id: 1
x: 0.017578125
y: -0.080078125
z: -0.0078125
range: 0.0871539413929
velocity: 0.0
doppler_bin: 8
bearing: -77.6192398071
intensity: 31.9755630493
---
header: 
  seq: 1237243
  stamp: 
    secs: 1561683224
    nsecs: 904030352
  frame_id: "ti_mmwave"
point_id: 2
x: 0.041015625
y: -0.115234375
z: -0.0078125
range: 0.130730912089
velocity: 0.0
doppler_bin: 8
bearing: -70.4077224731
intensity: 30.2242832184
---
header: 
  seq: 1237244
  stamp: 
    secs: 1561683224
    nsecs: 904039031
  frame_id: "ti_mmwave"
point_id: 3
x: 0.056640625
y: -0.154296875
z: 0.005859375
range: 0.174307882786
velocity: 0.0
doppler_bin: 8
bearing: -69.8423843384
intensity: 25.5022830963
---
header: 
  seq: 1237245
  stamp: 
    secs: 1561683224
    nsecs: 904047231
  frame_id: "ti_mmwave"
point_id: 4
x: 0.37109375
y: -0.080078125
z: -1.208984375
range: 1.35088610649
velocity: 0.0
doppler_bin: 8
bearing: -12.177107811
intensity: 21.9312458038
---
header: 
  seq: 1237246
  stamp: 
    secs: 1561683224
    nsecs: 904055338
  frame_id: "ti_mmwave"
point_id: 5
x: 0.2734375
y: -0.041015625
z: 1.279296875
range: 1.39446306229
velocity: 0.0
doppler_bin: 8
bearing: -8.53076648712
intensity: 23.2428245544
---
header: 
  seq: 1237247
  stamp: 
    secs: 1561683224
    nsecs: 904065157
  frame_id: "ti_mmwave"
point_id: 6
x: 0.416015625
y: -0.0
z: 1.28515625
range: 1.43804001808
velocity: 0.0
doppler_bin: 8
bearing: -0.0
intensity: 21.9033164978
---
header: 
  seq: 1237248
  stamp: 
    secs: 1561683224
    nsecs: 904075024
  frame_id: "ti_mmwave"
point_id: 7
x: 1.673828125
y: -0.052734375
z: -0.083984375
range: 1.78665578365
velocity: 0.0
doppler_bin: 8
bearing: -1.80452108383
intensity: 27.9379043579
---
header: 
  seq: 1237249
  stamp: 
    secs: 1561683224
    nsecs: 904083494
  frame_id: "ti_mmwave"
point_id: 8
x: 1.705078125
y: -0.052734375
z: -0.19921875
range: 1.83023273945
velocity: 0.0
doppler_bin: 8
bearing: -1.77146971226
intensity: 29.670797348
---
header: 
  seq: 1237250
  stamp: 
    secs: 1561683224
    nsecs: 904091800
  frame_id: "ti_mmwave"
point_id: 9
x: 1.720703125
y: -0.0546875
z: -0.357421875
range: 1.87380969524
velocity: 0.0
doppler_bin: 8
bearing: -1.82036530972
intensity: 28.8874092102
---
header: 
  seq: 1237251
  stamp: 
    secs: 1561683224
    nsecs: 904099623
  frame_id: "ti_mmwave"
point_id: 10
x: 2.568359375
y: -0.263671875
z: 1.138671875
range: 3.00681090355
velocity: 0.0
doppler_bin: 8
bearing: -5.86154127121
intensity: 29.4349460602
---
header: 
  seq: 1237252
  stamp: 
    secs: 1561683224
    nsecs: 904108447
  frame_id: "ti_mmwave"
point_id: 11
x: 2.615234375
y: -0.267578125
z: 1.13671875
range: 3.05038785934
velocity: 0.0
doppler_bin: 8
bearing: -5.84189844131
intensity: 32.8600730896
---
header: 
  seq: 1237253
  stamp: 
    secs: 1561683224
    nsecs: 904116296
  frame_id: "ti_mmwave"
point_id: 12
x: 2.66796875
y: -0.271484375
z: 1.11328125
range: 3.09396481514
velocity: 0.0
doppler_bin: 8
bearing: -5.81024503708
intensity: 32.0871009827
---
header: 
  seq: 1237254
  stamp: 
    secs: 1561683224
    nsecs: 904126721
  frame_id: "ti_mmwave"
point_id: 14
x: 0.041015625
y: -0.033203125
z: 0.0625
range: 0.0871539413929
velocity: 0.0
doppler_bin: 8
bearing: -38.9909973145
intensity: 30.1452045441
---
header: 
  seq: 1237255
  stamp: 
    secs: 1561683224
    nsecs: 904137670
  frame_id: "ti_mmwave"
point_id: 15
x: 0.044921875
y: -0.046875
z: 0.103515625
range: 0.130730912089
velocity: 0.0
doppler_bin: 8
bearing: -46.218875885
intensity: 29.0254669189
---
header: 
  seq: 1237256
  stamp: 
    secs: 1561683224
    nsecs: 904147690
  frame_id: "ti_mmwave"
point_id: 17
x: 1.2109375
y: 0.357421875
z: 0.12890625
range: 1.35088610649
velocity: 0.0
doppler_bin: 8
bearing: 16.4445590973
intensity: 19.1381378174
---
header: 
  seq: 1237257
  stamp: 
    secs: 1561683224
    nsecs: 905218915
  frame_id: "ti_mmwave"
point_id: 0
x: 0.01171875
y: -0.0390625
z: -0.0078125
range: 0.0435769706964
velocity: 0.0
doppler_bin: 8
bearing: -73.3007583618
intensity: 30.7481651306
---
header: 
  seq: 1237258
  stamp: 
    secs: 1561683224
    nsecs: 905284083
  frame_id: "ti_mmwave"
point_id: 1
x: 0.017578125
y: -0.080078125
z: -0.0078125
range: 0.0871539413929
velocity: 0.0
doppler_bin: 8
bearing: -77.6192398071
intensity: 31.9783172607
---
header: 
  seq: 1237259
  stamp: 
    secs: 1561683224
    nsecs: 905302155
  frame_id: "ti_mmwave"
point_id: 2
x: 0.041015625
y: -0.115234375
z: -0.0078125
range: 0.130730912089
velocity: 0.0
doppler_bin: 8
bearing: -70.4077224731
intensity: 30.2284069061
---
header: 
  seq: 1237260
  stamp: 
    secs: 1561683224
    nsecs: 905315493
  frame_id: "ti_mmwave"
point_id: 3
x: 0.056640625
y: -0.154296875
z: 0.005859375
range: 0.174307882786
velocity: 0.0
doppler_bin: 8
bearing: -69.8423843384
intensity: 25.5022830963
---
header: 
  seq: 1237261
  stamp: 
    secs: 1561683224
    nsecs: 905377795
  frame_id: "ti_mmwave"
point_id: 4
x: 0.3828125
y: -0.080078125
z: -1.20703125
range: 1.35088610649
velocity: 0.0
doppler_bin: 8
bearing: -11.8149757385
intensity: 21.9589958191
---
header: 
  seq: 1237262
  stamp: 
    secs: 1561683224
    nsecs: 905391449
  frame_id: "ti_mmwave"
point_id: 5
x: 0.2734375
y: -0.041015625
z: 1.279296875
range: 1.39446306229
velocity: 0.0
doppler_bin: 8
bearing: -8.53076648712
intensity: 23.2633590698
---
header: 
  seq: 1237263
  stamp: 
    secs: 1561683224
    nsecs: 905402512
  frame_id: "ti_mmwave"
point_id: 6
x: 0.40625
y: -0.0
z: 1.287109375
range: 1.43804001808
velocity: 0.0
doppler_bin: 8
bearing: -0.0
intensity: 21.9033164978
---
header: 
  seq: 1237264
  stamp: 
    secs: 1561683224
    nsecs: 905413405
  frame_id: "ti_mmwave"
point_id: 7
x: 1.7109375
y: -0.052734375
z: -0.14453125
range: 1.83023273945
velocity: 0.0
doppler_bin: 8
bearing: -1.765406847
intensity: 28.762178421
---
header: 
  seq: 1237265
  stamp: 
    secs: 1561683224
    nsecs: 905427774
  frame_id: "ti_mmwave"
point_id: 8
x: 1.751953125
y: -0.109375
z: -0.1171875
range: 1.87380969524
velocity: 0.0
doppler_bin: 8
bearing: -3.57235765457
intensity: 29.1750545502
---
header: 
  seq: 1237266
  stamp: 
    secs: 1561683224
    nsecs: 905440477
  frame_id: "ti_mmwave"
point_id: 9
x: 1.79296875
y: -0.11328125
z: -0.103515625
range: 1.91738677025
velocity: 0.0
doppler_bin: 8
bearing: -3.61518931389
intensity: 27.8390350342
---
header: 
  seq: 1237267
  stamp: 
    secs: 1561683224
    nsecs: 905454061
  frame_id: "ti_mmwave"
point_id: 10
x: 0.60546875
y: 2.41796875
z: -0.123046875
range: 2.65819525719
velocity: 0.0
doppler_bin: 8
bearing: 75.9419784546
intensity: 25.9549617767
---
header: 
  seq: 1237268
  stamp: 
    secs: 1561683224
    nsecs: 905466191
  frame_id: "ti_mmwave"
point_id: 12
x: 2.544921875
y: -0.263671875
z: 1.193359375
range: 3.00681090355
velocity: 0.0
doppler_bin: 8
bearing: -5.91514253616
intensity: 29.5999488831
---
header: 
  seq: 1237269
  stamp: 
    secs: 1561683224
    nsecs: 905519019
  frame_id: "ti_mmwave"
point_id: 13
x: 2.609375
y: -0.267578125
z: 1.1484375
range: 3.05038785934
velocity: 0.0
doppler_bin: 8
bearing: -5.85492515564
intensity: 32.8981170654
---
header: 
  seq: 1237270
  stamp: 
    secs: 1561683224
    nsecs: 905534546
  frame_id: "ti_mmwave"
point_id: 14
x: 2.671875
y: -0.271484375
z: 1.107421875
range: 3.09396481514
velocity: 0.0
doppler_bin: 8
bearing: -5.80180835724
intensity: 32.1005096436
---
header: 
  seq: 1237271
  stamp: 
    secs: 1561683224
    nsecs: 905549115
  frame_id: "ti_mmwave"
point_id: 16
x: 0.041015625
y: -0.033203125
z: 0.0625
range: 0.0871539413929
velocity: 0.0
doppler_bin: 8
bearing: -38.9909973145
intensity: 30.1452045441
---
header: 
  seq: 1237272
  stamp: 
    secs: 1561683224
    nsecs: 905564769
  frame_id: "ti_mmwave"
point_id: 17
x: 0.044921875
y: -0.046875
z: 0.103515625
range: 0.130730912089
velocity: 0.0
doppler_bin: 8
bearing: -46.218875885
intensity: 29.020029068
---
header: 
  seq: 1237273
  stamp: 
    secs: 1561683224
    nsecs: 905578795
  frame_id: "ti_mmwave"
point_id: 19
x: 1.208984375
y: 0.357421875
z: 0.142578125
range: 1.35088610649
velocity: 0.0
doppler_bin: 8
bearing: 16.4696884155
intensity: 19.1907806396
---
header: 
  seq: 1237274
  stamp: 
    secs: 1561683224
    nsecs: 963827704
  frame_id: "ti_mmwave"
point_id: 0
x: 0.01171875
y: -0.0390625
z: -0.0078125
range: 0.0435769706964
velocity: 0.0
doppler_bin: 8
bearing: -73.3007583618
intensity: 30.7445068359
---
header: 
  seq: 1237275
  stamp: 
    secs: 1561683224
    nsecs: 963902468
  frame_id: "ti_mmwave"
point_id: 1
x: 0.017578125
y: -0.080078125
z: -0.0078125
range: 0.0871539413929
velocity: 0.0
doppler_bin: 8
bearing: -77.6192398071
intensity: 31.9728050232
---
header: 
  seq: 1237276
  stamp: 
    secs: 1561683224
    nsecs: 963918250
  frame_id: "ti_mmwave"
point_id: 2
x: 0.029296875
y: -0.119140625
z: -0.00390625
range: 0.130730912089
velocity: 0.0
doppler_bin: 8
bearing: -76.1849746704
intensity: 30.2201576233
---
header: 
  seq: 1237277
  stamp: 
    secs: 1561683224
    nsecs: 963931661
  frame_id: "ti_mmwave"
point_id: 3
x: 0.056640625
y: -0.154296875
z: 0.005859375
range: 0.174307882786
velocity: 0.0
doppler_bin: 8
bearing: -69.8423843384
intensity: 25.490032196
---
header: 
  seq: 1237278
  stamp: 
    secs: 1561683224
    nsecs: 963947389
  frame_id: "ti_mmwave"
point_id: 4
x: 0.341796875
y: -0.080078125
z: -1.21875
range: 1.35088610649
velocity: 0.0
doppler_bin: 8
bearing: -13.1857614517
intensity: 21.9589958191
---
header: 
  seq: 1237279
  stamp: 
    secs: 1561683224
    nsecs: 964021770
  frame_id: "ti_mmwave"
point_id: 5
x: 0.30859375
y: -0.041015625
z: 1.271484375
range: 1.39446306229
velocity: 0.0
doppler_bin: 8
bearing: -7.57088899612
intensity: 23.2428245544
---
header: 
  seq: 1237280
  stamp: 
    secs: 1561683224
    nsecs: 964035245
  frame_id: "ti_mmwave"
point_id: 6
x: 0.423828125
y: -0.0
z: 1.28125
range: 1.43804001808
velocity: 0.0
doppler_bin: 8
bearing: -0.0
intensity: 21.9312458038
---
header: 
  seq: 1237281
  stamp: 
    secs: 1561683224
    nsecs: 964046029
  frame_id: "ti_mmwave"
point_id: 7
x: 2.5390625
y: -0.263671875
z: 1.20703125
range: 3.00681090355
velocity: 0.0
doppler_bin: 8
bearing: -5.92869567871
intensity: 29.5856380463
---
header: 
  seq: 1237282
  stamp: 
    secs: 1561683224
    nsecs: 964057958
  frame_id: "ti_mmwave"
point_id: 8
x: 2.603515625
y: -0.267578125
z: 1.162109375
range: 3.05038785934
velocity: 0.0
doppler_bin: 8
bearing: -5.8680100441
intensity: 32.8623199463
---
header: 
  seq: 1237283
  stamp: 
    secs: 1561683224
    nsecs: 964068755
  frame_id: "ti_mmwave"
point_id: 9
x: 2.6640625
y: -0.271484375
z: 1.126953125
range: 3.09396481514
velocity: 0.0
doppler_bin: 8
bearing: -5.81870603561
intensity: 32.0085067749
---
header: 
  seq: 1237284
  stamp: 
    secs: 1561683224
    nsecs: 964082913
  frame_id: "ti_mmwave"
point_id: 11
x: 0.041015625
y: -0.033203125
z: 0.0625
range: 0.0871539413929
velocity: 0.0
doppler_bin: 8
bearing: -38.9909973145
intensity: 30.1452045441
---
header: 
  seq: 1237285
  stamp: 
    secs: 1561683224
    nsecs: 964096392
  frame_id: "ti_mmwave"
point_id: 12
x: 0.044921875
y: -0.046875
z: 0.103515625
range: 0.130730912089
velocity: 0.0
doppler_bin: 8
bearing: -46.218875885
intensity: 29.020029068
---
header: 
  seq: 1237286
  stamp: 
    secs: 1561683224
    nsecs: 964110162
  frame_id: "ti_mmwave"
point_id: 14
x: 1.212890625
y: 0.357421875
z: 0.091796875
range: 1.35088610649
velocity: 0.0
doppler_bin: 8
bearing: 16.419506073
intensity: 19.1381378174
---
header: 
  seq: 1237287
  stamp: 
    secs: 1561683224
    nsecs: 964995097
  frame_id: "ti_mmwave"
point_id: 0
x: 0.01171875
y: -0.0390625
z: -0.0078125
range: 0.0435769706964
velocity: 0.0
doppler_bin: 8
bearing: -73.3007583618
intensity: 30.7481651306
---
header: 
  seq: 1237288
  stamp: 
    secs: 1561683224
    nsecs: 965028426
  frame_id: "ti_mmwave"
point_id: 1
x: 0.017578125
y: -0.080078125
z: -0.0078125
range: 0.0871539413929
velocity: 0.0
doppler_bin: 8
bearing: -77.6192398071
intensity: 31.9728050232
---
header: 
  seq: 1237289
  stamp: 
    secs: 1561683224
    nsecs: 965042718
  frame_id: "ti_mmwave"
point_id: 2
x: 0.029296875
y: -0.119140625
z: -0.005859375
range: 0.130730912089
velocity: 0.0
doppler_bin: 8
bearing: -76.1849746704
intensity: 30.2242832184
---
header: 
  seq: 1237290
  stamp: 
    secs: 1561683224
    nsecs: 965066038
  frame_id: "ti_mmwave"
point_id: 3
x: 0.056640625
y: -0.154296875
z: 0.005859375
range: 0.174307882786
velocity: 0.0
doppler_bin: 8
bearing: -69.8423843384
intensity: 25.4777469635
---
header: 
  seq: 1237291
  stamp: 
    secs: 1561683224
    nsecs: 965116475
  frame_id: "ti_mmwave"
point_id: 4
x: 0.333984375
y: -0.080078125
z: -1.220703125
range: 1.35088610649
velocity: 0.0
doppler_bin: 8
bearing: -13.4830598831
intensity: 21.9312458038
---
header: 
  seq: 1237292
  stamp: 
    secs: 1561683224
    nsecs: 965129448
  frame_id: "ti_mmwave"
point_id: 5
x: 0.322265625
y: -0.041015625
z: 1.267578125
range: 1.39446306229
velocity: 0.0
doppler_bin: 8
bearing: -7.25319480896
intensity: 23.2633590698
---
header: 
  seq: 1237293
  stamp: 
    secs: 1561683224
    nsecs: 965139930
  frame_id: "ti_mmwave"
point_id: 6
x: 0.4609375
y: -0.0
z: 1.26953125
range: 1.43804001808
velocity: 0.0
doppler_bin: 8
bearing: -0.0
intensity: 22.0139713287
---
header: 
  seq: 1237294
  stamp: 
    secs: 1561683224
    nsecs: 965151112
  frame_id: "ti_mmwave"
point_id: 7
x: 2.5625
y: -0.263671875
z: 1.15625
range: 3.00681090355
velocity: 0.0
doppler_bin: 8
bearing: -5.87485074997
intensity: 29.4398880005
---
header: 
  seq: 1237295
  stamp: 
    secs: 1561683224
    nsecs: 965163722
  frame_id: "ti_mmwave"
point_id: 8
x: 2.60546875
y: -0.267578125
z: 1.154296875
range: 3.05038785934
velocity: 0.0
doppler_bin: 8
bearing: -5.86364221573
intensity: 32.7669143677
---
header: 
  seq: 1237296
  stamp: 
    secs: 1561683224
    nsecs: 965177882
  frame_id: "ti_mmwave"
point_id: 9
x: 2.662109375
y: -0.271484375
z: 1.12890625
range: 3.09396481514
velocity: 0.0
doppler_bin: 8
bearing: -5.82294607162
intensity: 31.9395904541
---
header: 
  seq: 1237297
  stamp: 
    secs: 1561683224
    nsecs: 965202661
  frame_id: "ti_mmwave"
point_id: 11
x: 0.041015625
y: -0.033203125
z: 0.0625
range: 0.0871539413929
velocity: 0.0
doppler_bin: 8
bearing: -38.9909973145
intensity: 30.1452045441
---
header: 
  seq: 1237298
  stamp: 
    secs: 1561683224
    nsecs: 965257744
  frame_id: "ti_mmwave"
point_id: 12
x: 0.044921875
y: -0.046875
z: 0.103515625
range: 0.130730912089
velocity: 0.0
doppler_bin: 8
bearing: -46.218875885
intensity: 29.0254669189
---
header: 
  seq: 1237299
  stamp: 
    secs: 1561683224
    nsecs: 965276000
  frame_id: "ti_mmwave"
point_id: 14
x: 1.212890625
y: 0.357421875
z: 0.099609375
range: 1.35088610649
velocity: 0.0
doppler_bin: 8
bearing: 16.419506073
intensity: 19.0848503113
---
header: 
  seq: 1237300
  stamp: 
    secs: 1561683225
    nsecs:  23802897
  frame_id: "ti_mmwave"
point_id: 0
x: 0.01171875
y: -0.0390625
z: -0.0078125
range: 0.0435769706964
velocity: 0.0
doppler_bin: 8
bearing: -73.3007583618
intensity: 30.7445068359
---
header: 
  seq: 1237301
  stamp: 
    secs: 1561683225
    nsecs:  23896541
  frame_id: "ti_mmwave"
point_id: 1
x: 0.017578125
y: -0.080078125
z: -0.0078125
range: 0.0871539413929
velocity: 0.0
doppler_bin: 8
bearing: -77.6192398071
intensity: 31.9755630493
---
header: 
  seq: 1237302
  stamp: 
    secs: 1561683225
    nsecs:  23917511
  frame_id: "ti_mmwave"
point_id: 2
x: 0.041015625
y: -0.115234375
z: -0.0078125
range: 0.130730912089
velocity: 0.0
doppler_bin: 8
bearing: -70.4077224731
intensity: 30.2284069061
---
header: 
  seq: 1237303
  stamp: 
    secs: 1561683225
    nsecs:  23930864
  frame_id: "ti_mmwave"
point_id: 3
x: 0.056640625
y: -0.154296875
z: 0.005859375
range: 0.174307882786
velocity: 0.0
doppler_bin: 8
bearing: -69.8423843384
intensity: 25.5144996643
---
header: 
  seq: 1237304
  stamp: 
    secs: 1561683225
    nsecs:  23944393
  frame_id: "ti_mmwave"
point_id: 4
x: 0.32421875
y: -0.080078125
z: -1.22265625
range: 1.35088610649
velocity: 0.0
doppler_bin: 8
bearing: -13.8737030029
intensity: 21.9589958191
---
header: 
  seq: 1237305
  stamp: 
    secs: 1561683225
    nsecs:  23955423
  frame_id: "ti_mmwave"
point_id: 5
x: 0.31640625
y: -0.041015625
z: 1.26953125
range: 1.39446306229
velocity: 0.0
doppler_bin: 8
bearing: -7.38604259491
intensity: 23.2633590698
---
header: 
  seq: 1237306
  stamp: 
    secs: 1561683225
    nsecs:  23968433
  frame_id: "ti_mmwave"
point_id: 6
x: 0.435546875
y: -0.0
z: 1.27734375
range: 1.43804001808
velocity: 0.0
doppler_bin: 8
bearing: -0.0
intensity: 21.9589958191
---
header: 
  seq: 1237307
  stamp: 
    secs: 1561683225
    nsecs:  23983936
  frame_id: "ti_mmwave"
point_id: 7
x: 1.74609375
y: -0.0
z: -0.212890625
range: 1.87380969524
velocity: 0.0
doppler_bin: 8
bearing: -0.0
intensity: 27.8604125977
---
header: 
  seq: 1237308
  stamp: 
    secs: 1561683225
    nsecs:  23993626
  frame_id: "ti_mmwave"
point_id: 8
x: 1.79296875
y: -0.11328125
z: 0.119140625
range: 1.91738677025
velocity: 0.0
doppler_bin: 8
bearing: -3.61518931389
intensity: 26.637008667
---
header: 
  seq: 1237309
  stamp: 
    secs: 1561683225
    nsecs:  24002030
  frame_id: "ti_mmwave"
point_id: 9
x: 1.822265625
y: -0.115234375
z: 0.236328125
range: 1.96096372604
velocity: 0.0
doppler_bin: 8
bearing: -3.61838746071
intensity: 27.0243053436
---
header: 
  seq: 1237310
  stamp: 
    secs: 1561683225
    nsecs:  24010798
  frame_id: "ti_mmwave"
point_id: 10
x: 2.541015625
y: -0.263671875
z: 1.19921875
range: 3.00681090355
velocity: 0.0
doppler_bin: 8
bearing: -5.92417097092
intensity: 29.3550720215
---
header: 
  seq: 1237311
  stamp: 
    secs: 1561683225
    nsecs:  24033766
  frame_id: "ti_mmwave"
point_id: 11
x: 2.6015625
y: -0.267578125
z: 1.166015625
range: 3.05038785934
velocity: 0.0
doppler_bin: 8
bearing: -5.87238502502
intensity: 32.753112793
---
header: 
  seq: 1237312
  stamp: 
    secs: 1561683225
    nsecs:  24049393
  frame_id: "ti_mmwave"
point_id: 12
x: 2.662109375
y: -0.271484375
z: 1.12890625
range: 3.09396481514
velocity: 0.0
doppler_bin: 8
bearing: -5.82294607162
intensity: 32.0357666016
---
header: 
  seq: 1237313
  stamp: 
    secs: 1561683225
    nsecs:  24061936
  frame_id: "ti_mmwave"
point_id: 14
x: 0.041015625
y: -0.033203125
z: 0.0625
range: 0.0871539413929
velocity: 0.0
doppler_bin: 8
bearing: -38.9909973145
intensity: 30.1452045441
---
header: 
  seq: 1237314
  stamp: 
    secs: 1561683225
    nsecs:  24234410
  frame_id: "ti_mmwave"
point_id: 15
x: 0.046875
y: -0.046875
z: 0.103515625
range: 0.130730912089
velocity: 0.0
doppler_bin: 8
bearing: -45.0
intensity: 29.020029068
---
header: 
  seq: 1237315
  stamp: 
    secs: 1561683225
    nsecs:  24255502
  frame_id: "ti_mmwave"
point_id: 17
x: 1.212890625
y: 0.357421875
z: 0.095703125
range: 1.35088610649
velocity: 0.0
doppler_bin: 8
bearing: 16.419506073
intensity: 19.1381378174
---
header: 
  seq: 1237316
  stamp: 
    secs: 1561683225
    nsecs:  24976558
  frame_id: "ti_mmwave"
point_id: 0
x: 0.01171875
y: -0.0390625
z: -0.0078125
range: 0.0435769706964
velocity: 0.0
doppler_bin: 8
bearing: -73.3007583618
intensity: 30.7445068359
---
header: 
  seq: 1237317
  stamp: 
    secs: 1561683225
    nsecs:  25051314
  frame_id: "ti_mmwave"
point_id: 1
x: 0.017578125
y: -0.080078125
z: -0.0078125
range: 0.0871539413929
velocity: 0.0
doppler_bin: 8
bearing: -77.6192398071
intensity: 31.9728050232
---
header: 
  seq: 1237318
  stamp: 
    secs: 1561683225
    nsecs:  25073954
  frame_id: "ti_mmwave"
point_id: 2
x: 0.041015625
y: -0.115234375
z: -0.0078125
range: 0.130730912089
velocity: 0.0
doppler_bin: 8
bearing: -70.4077224731
intensity: 30.2201576233
---
header: 
  seq: 1237319
  stamp: 
    secs: 1561683225
    nsecs:  25088810
  frame_id: "ti_mmwave"
point_id: 3
x: 0.056640625
y: -0.154296875
z: 0.005859375
range: 0.174307882786
velocity: 0.0
doppler_bin: 8
bearing: -69.8423843384
intensity: 25.4777469635
---
header: 
  seq: 1237320
  stamp: 
    secs: 1561683225
    nsecs:  25154808
  frame_id: "ti_mmwave"
point_id: 4
x: 0.37109375
y: -0.080078125
z: -1.2109375
range: 1.35088610649
velocity: 0.0
doppler_bin: 8
bearing: -12.177107811
intensity: 22.0139713287
---
header: 
  seq: 1237321
  stamp: 
    secs: 1561683225
    nsecs:  25169981
  frame_id: "ti_mmwave"
point_id: 5
x: 0.306640625
y: -0.041015625
z: 1.271484375
range: 1.39446306229
velocity: 0.0
doppler_bin: 8
bearing: -7.6185464859
intensity: 23.2837963104
---
header: 
  seq: 1237322
  stamp: 
    secs: 1561683225
    nsecs:  25181971
  frame_id: "ti_mmwave"
point_id: 6
x: 0.427734375
y: -0.0
z: 1.28125
range: 1.43804001808
velocity: 0.0
doppler_bin: 8
bearing: -0.0
intensity: 21.9312458038
---
header: 
  seq: 1237323
  stamp: 
    secs: 1561683225
    nsecs:  25193768
  frame_id: "ti_mmwave"
point_id: 7
x: 1.69140625
y: 0.052734375
z: -0.29296875
range: 1.83023273945
velocity: 0.0
doppler_bin: 8
bearing: 1.78577959538
intensity: 26.3346843719
---
header: 
  seq: 1237324
  stamp: 
    secs: 1561683225
    nsecs:  25204618
  frame_id: "ti_mmwave"
point_id: 8
x: 1.744140625
y: -0.0
z: -0.224609375
range: 1.87380969524
velocity: 0.0
doppler_bin: 8
bearing: -0.0
intensity: 28.7794704437
---
header: 
  seq: 1237325
  stamp: 
    secs: 1561683225
    nsecs:  25230814
  frame_id: "ti_mmwave"
point_id: 9
x: 1.794921875
y: -0.056640625
z: -0.12109375
range: 1.91738677025
velocity: 0.0
doppler_bin: 8
bearing: -1.80742812157
intensity: 27.6641292572
---
header: 
  seq: 1237326
  stamp: 
    secs: 1561683225
    nsecs:  25254981
  frame_id: "ti_mmwave"
point_id: 10
x: 2.54296875
y: -0.263671875
z: 1.197265625
range: 3.00681090355
velocity: 0.0
doppler_bin: 8
bearing: -5.91965341568
intensity: 29.4200801849
---
header: 
  seq: 1237327
  stamp: 
    secs: 1561683225
    nsecs:  25276709
  frame_id: "ti_mmwave"
point_id: 11
x: 2.6015625
y: -0.267578125
z: 1.166015625
range: 3.05038785934
velocity: 0.0
doppler_bin: 8
bearing: -5.87238502502
intensity: 32.7669143677
---
header: 
  seq: 1237328
  stamp: 
    secs: 1561683225
    nsecs:  25299807
  frame_id: "ti_mmwave"
point_id: 12
x: 2.66015625
y: -0.271484375
z: 1.134765625
range: 3.09396481514
velocity: 0.0
doppler_bin: 8
bearing: -5.82719182968
intensity: 31.9728050232
---
header: 
  seq: 1237329
  stamp: 
    secs: 1561683225
    nsecs:  25422793
  frame_id: "ti_mmwave"
point_id: 14
x: 0.041015625
y: -0.033203125
z: 0.0625
range: 0.0871539413929
velocity: 0.0
doppler_bin: 8
bearing: -38.9909973145
intensity: 30.1452045441
---
header: 
  seq: 1237330
  stamp: 
    secs: 1561683225
    nsecs:  25444364
  frame_id: "ti_mmwave"
point_id: 15
x: 0.044921875
y: -0.046875
z: 0.103515625
range: 0.130730912089
velocity: 0.0
doppler_bin: 8
bearing: -46.218875885
intensity: 29.020029068
---
header: 
  seq: 1237331
  stamp: 
    secs: 1561683225
    nsecs:  25462049
  frame_id: "ti_mmwave"
point_id: 17
x: 1.212890625
y: 0.357421875
z: 0.109375
range: 1.35088610649
velocity: 0.0
doppler_bin: 8
bearing: 16.419506073
intensity: 19.1381378174
---
header: 
  seq: 1237332
  stamp: 
    secs: 1561683225
    nsecs:  83797345
  frame_id: "ti_mmwave"
point_id: 0
x: 0.01171875
y: -0.0390625
z: -0.0078125
range: 0.0435769706964
velocity: 0.0
doppler_bin: 8
bearing: -73.3007583618
intensity: 30.7445068359
---
header: 
  seq: 1237333
  stamp: 
    secs: 1561683225
    nsecs:  83895302
  frame_id: "ti_mmwave"
point_id: 1
x: 0.017578125
y: -0.080078125
z: -0.0078125
range: 0.0871539413929
velocity: 0.0
doppler_bin: 8
bearing: -77.6192398071
intensity: 31.9728050232
---
header: 
  seq: 1237334
  stamp: 
    secs: 1561683225
    nsecs:  83908591
  frame_id: "ti_mmwave"
point_id: 2
x: 0.041015625
y: -0.115234375
z: -0.0078125
range: 0.130730912089
velocity: 0.0
doppler_bin: 8
bearing: -70.4077224731
intensity: 30.2242832184
---
header: 
  seq: 1237335
  stamp: 
    secs: 1561683225
    nsecs:  83917833
  frame_id: "ti_mmwave"
point_id: 3
x: 0.056640625
y: -0.154296875
z: 0.005859375
range: 0.174307882786
velocity: 0.0
doppler_bin: 8
bearing: -69.8423843384
intensity: 25.5022830963
---
header: 
  seq: 1237336
  stamp: 
    secs: 1561683225
    nsecs:  83932607
  frame_id: "ti_mmwave"
point_id: 4
x: 0.3515625
y: -0.080078125
z: -1.216796875
range: 1.35088610649
velocity: 0.0
doppler_bin: 8
bearing: -12.83177948
intensity: 21.9589958191
---
header: 
  seq: 1237337
  stamp: 
    secs: 1561683225
    nsecs:  84129679
  frame_id: "ti_mmwave"
point_id: 5
x: 0.306640625
y: -0.041015625
z: 1.271484375
range: 1.39446306229
velocity: 0.0
doppler_bin: 8
bearing: -7.6185464859
intensity: 23.2837963104
---
header: 
  seq: 1237338
  stamp: 
    secs: 1561683225
    nsecs:  84178437
  frame_id: "ti_mmwave"
point_id: 6
x: 0.39453125
y: -0.0
z: 1.291015625
range: 1.43804001808
velocity: 0.0
doppler_bin: 8
bearing: -0.0
intensity: 21.9589958191
---
header: 
  seq: 1237339
  stamp: 
    secs: 1561683225
    nsecs:  84237587
