header: 
  seq: 1268399
  stamp: 
    secs: 1561683272
    nsecs: 183835781
  frame_id: "ti_mmwave"
point_id: 0
x: 0.01171875
y: -0.0390625
z: -0.0078125
range: 0.0435769706964
velocity: 0.0
doppler_bin: 8
bearing: -73.3007583618
intensity: 30.7518177032
---
header: 
  seq: 1268400
  stamp: 
    secs: 1561683272
    nsecs: 183909232
  frame_id: "ti_mmwave"
point_id: 1
x: 0.017578125
y: -0.080078125
z: -0.0078125
range: 0.0871539413929
velocity: 0.0
doppler_bin: 8
bearing: -77.6192398071
intensity: 31.9755630493
---
header: 
  seq: 1268401
  stamp: 
    secs: 1561683272
    nsecs: 183920494
  frame_id: "ti_mmwave"
point_id: 2
x: 0.029296875
y: -0.119140625
z: -0.005859375
range: 0.130730912089
velocity: 0.0
doppler_bin: 8
bearing: -76.1849746704
intensity: 30.2242832184
---
header: 
  seq: 1268402
  stamp: 
    secs: 1561683272
    nsecs: 183929173
  frame_id: "ti_mmwave"
point_id: 3
x: 0.056640625
y: -0.154296875
z: 0.005859375
range: 0.174307882786
velocity: 0.0
doppler_bin: 8
bearing: -69.8423843384
intensity: 25.490032196
---
header: 
  seq: 1268403
  stamp: 
    secs: 1561683272
    nsecs: 183937633
  frame_id: "ti_mmwave"
point_id: 4
x: 0.369140625
y: -0.080078125
z: -1.2109375
range: 1.35088610649
velocity: 0.0
doppler_bin: 8
bearing: -12.2396001816
intensity: 21.8469142914
---
header: 
  seq: 1268404
  stamp: 
    secs: 1561683272
    nsecs: 183945744
  frame_id: "ti_mmwave"
point_id: 5
x: 0.28125
y: -0.041015625
z: 1.27734375
range: 1.39446306229
velocity: 0.0
doppler_bin: 8
bearing: -8.29714488983
intensity: 23.1597042084
---
header: 
  seq: 1268405
  stamp: 
    secs: 1561683272
    nsecs: 183954307
  frame_id: "ti_mmwave"
point_id: 6
x: 0.392578125
y: -0.0
z: 1.291015625
range: 1.43804001808
velocity: 0.0
doppler_bin: 8
bearing: -0.0
intensity: 21.8184356689
---
header: 
  seq: 1268406
  stamp: 
    secs: 1561683272
    nsecs: 183964600
  frame_id: "ti_mmwave"
point_id: 7
x: 2.08203125
y: 0.130859375
z: 0.013671875
range: 2.22242546082
velocity: 0.0
doppler_bin: 8
bearing: 3.59641098976
intensity: 29.127532959
---
header: 
  seq: 1268407
  stamp: 
    secs: 1561683272
    nsecs: 183976281
  frame_id: "ti_mmwave"
point_id: 8
x: 2.123046875
y: 0.1328125
z: -0.037109375
range: 2.26600241661
velocity: 0.0
doppler_bin: 8
bearing: 3.57961583138
intensity: 30.6632595062
---
header: 
  seq: 1268408
  stamp: 
    secs: 1561683272
    nsecs: 183991160
  frame_id: "ti_mmwave"
point_id: 9
x: 2.154296875
y: 0.203125
z: -0.126953125
range: 2.30957937241
velocity: 0.0
doppler_bin: 8
bearing: 5.38639736176
intensity: 29.5375976562
---
header: 
  seq: 1268409
  stamp: 
    secs: 1561683272
    nsecs: 184001756
  frame_id: "ti_mmwave"
point_id: 10
x: 2.189453125
y: 0.20703125
z: -0.203125
range: 2.3531563282
velocity: 0.0
doppler_bin: 8
bearing: 5.40173768997
intensity: 26.503074646
---
header: 
  seq: 1268410
  stamp: 
    secs: 1561683272
    nsecs: 184025727
  frame_id: "ti_mmwave"
point_id: 11
x: 2.62109375
y: -0.17578125
z: 1.03125
range: 3.00681090355
velocity: 0.0
doppler_bin: 8
bearing: -3.83674383163
intensity: 29.4694328308
---
header: 
  seq: 1268411
  stamp: 
    secs: 1561683272
    nsecs: 184044469
  frame_id: "ti_mmwave"
point_id: 12
x: 2.658203125
y: -0.1796875
z: 1.05078125
range: 3.05038785934
velocity: 0.0
doppler_bin: 8
bearing: -3.86716008186
intensity: 32.8035087585
---
header: 
  seq: 1268412
  stamp: 
    secs: 1561683272
    nsecs: 184062577
  frame_id: "ti_mmwave"
point_id: 13
x: 2.70703125
y: -0.181640625
z: 1.03515625
range: 3.09396481514
velocity: 0.0
doppler_bin: 8
bearing: -3.83876729012
intensity: 32.0112380981
---
header: 
  seq: 1268413
  stamp: 
    secs: 1561683272
    nsecs: 184083485
  frame_id: "ti_mmwave"
point_id: 14
x: 4.412109375
y: -0.287109375
z: 1.201171875
range: 4.88062095642
velocity: 0.0
doppler_bin: 8
bearing: -3.72316122055
intensity: 30.8314418793
---
header: 
  seq: 1268414
  stamp: 
    secs: 1561683272
    nsecs: 184099132
  frame_id: "ti_mmwave"
point_id: 15
x: 4.484375
y: -0.2890625
z: 1.083984375
range: 4.9241976738
velocity: 0.0
doppler_bin: 8
bearing: -3.68817925453
intensity: 30.678144455
---
header: 
  seq: 1268415
  stamp: 
    secs: 1561683272
    nsecs: 184111803
  frame_id: "ti_mmwave"
point_id: 16
x: 4.685546875
y: -0.4453125
z: -0.609375
range: 5.0549287796
velocity: 0.0
doppler_bin: 8
bearing: -5.42906141281
intensity: 29.6047077179
---
header: 
  seq: 1268416
  stamp: 
    secs: 1561683272
    nsecs: 184125844
  frame_id: "ti_mmwave"
point_id: 17
x: 4.736328125
y: -0.44921875
z: -0.521484375
range: 5.09850549698
velocity: 0.0
doppler_bin: 8
bearing: -5.41803121567
intensity: 33.3344726562
---
header: 
  seq: 1268417
  stamp: 
    secs: 1561683272
    nsecs: 184136236
  frame_id: "ti_mmwave"
point_id: 18
x: 4.78515625
y: -0.453125
z: -0.4375
range: 5.14208269119
velocity: 0.0
doppler_bin: 8
bearing: -5.40942907333
intensity: 33.7419815063
---
header: 
  seq: 1268418
  stamp: 
    secs: 1561683272
    nsecs: 184305252
  frame_id: "ti_mmwave"
point_id: 19
x: 4.83984375
y: -0.45703125
z: -0.259765625
range: 5.18565940857
velocity: 0.0
doppler_bin: 8
bearing: -5.39450025558
intensity: 30.3181228638
---
header: 
  seq: 1268419
  stamp: 
    secs: 1561683272
    nsecs: 184330761
  frame_id: "ti_mmwave"
point_id: 20
x: 4.853515625
y: -0.46484375
z: 0.849609375
range: 5.27281332016
velocity: 0.0
doppler_bin: 8
bearing: -5.47079658508
intensity: 30.6145248413
---
header: 
  seq: 1268420
  stamp: 
    secs: 1561683272
    nsecs: 184348891
  frame_id: "ti_mmwave"
point_id: 22
x: 0.041015625
y: -0.033203125
z: 0.0625
range: 0.0871539413929
velocity: 0.0
doppler_bin: 8
bearing: -38.9909973145
intensity: 30.1494026184
---
header: 
  seq: 1268421
  stamp: 
    secs: 1561683272
    nsecs: 184360404
  frame_id: "ti_mmwave"
point_id: 23
x: 0.044921875
y: -0.046875
z: 0.103515625
range: 0.130730912089
velocity: 0.0
doppler_bin: 8
bearing: -46.218875885
intensity: 29.0308990479
---
header: 
  seq: 1268422
  stamp: 
    secs: 1561683272
    nsecs: 184374877
  frame_id: "ti_mmwave"
point_id: 25
x: 1.1171875
y: -0.515625
z: 0.30859375
range: 1.35088610649
velocity: 0.0
doppler_bin: 8
bearing: -24.7751407623
intensity: 19.0308990479
---
header: 
  seq: 1268423
  stamp: 
    secs: 1561683272
    nsecs: 185370428
  frame_id: "ti_mmwave"
point_id: 0
x: 0.01171875
y: -0.0390625
z: -0.0078125
range: 0.0435769706964
velocity: 0.0
doppler_bin: 8
bearing: -73.3007583618
intensity: 30.7408466339
---
header: 
  seq: 1268424
  stamp: 
    secs: 1561683272
    nsecs: 185439585
  frame_id: "ti_mmwave"
point_id: 1
x: 0.017578125
y: -0.080078125
z: -0.0078125
range: 0.0871539413929
velocity: 0.0
doppler_bin: 8
bearing: -77.6192398071
intensity: 31.9755630493
---
header: 
  seq: 1268425
  stamp: 
    secs: 1561683272
    nsecs: 185458191
  frame_id: "ti_mmwave"
point_id: 2
x: 0.041015625
y: -0.115234375
z: -0.0078125
range: 0.130730912089
velocity: 0.0
doppler_bin: 8
bearing: -70.4077224731
intensity: 30.2242832184
---
header: 
  seq: 1268426
  stamp: 
    secs: 1561683272
    nsecs: 185478103
  frame_id: "ti_mmwave"
point_id: 3
x: 0.056640625
y: -0.154296875
z: 0.005859375
range: 0.174307882786
velocity: 0.0
doppler_bin: 8
bearing: -69.8423843384
intensity: 25.490032196
---
header: 
  seq: 1268427
  stamp: 
    secs: 1561683272
    nsecs: 185541922
  frame_id: "ti_mmwave"
point_id: 4
x: 0.375
y: -0.080078125
z: -1.208984375
range: 1.35088610649
velocity: 0.0
doppler_bin: 8
bearing: -12.0539922714
intensity: 21.875207901
---
header: 
  seq: 1268428
  stamp: 
    secs: 1561683272
    nsecs: 185556308
  frame_id: "ti_mmwave"
point_id: 5
x: 0.26171875
y: -0.041015625
z: 1.28125
range: 1.39446306229
velocity: 0.0
doppler_bin: 8
bearing: -8.9067440033
intensity: 23.2221927643
---
header: 
  seq: 1268429
  stamp: 
    secs: 1561683272
    nsecs: 185569940
  frame_id: "ti_mmwave"
point_id: 6
x: 0.384765625
y: -0.0
z: 1.29296875
range: 1.43804001808
velocity: 0.0
doppler_bin: 8
bearing: -0.0
intensity: 21.8469142914
---
header: 
  seq: 1268430
  stamp: 
    secs: 1561683272
    nsecs: 185584724
  frame_id: "ti_mmwave"
point_id: 7
x: 2.115234375
y: 0.1328125
z: 0.18359375
range: 2.26600241661
velocity: 0.0
doppler_bin: 8
bearing: 3.59280252457
intensity: 26.4246444702
---
header: 
  seq: 1268431
  stamp: 
    secs: 1561683272
    nsecs: 185598652
  frame_id: "ti_mmwave"
point_id: 8
x: 2.16015625
y: 0.134765625
z: 0.134765625
range: 2.30957937241
velocity: 0.0
doppler_bin: 8
bearing: 3.56988406181
intensity: 27.3639640808
---
header: 
  seq: 1268432
  stamp: 
    secs: 1561683272
    nsecs: 185663800
  frame_id: "ti_mmwave"
point_id: 9
x: 2.59765625
y: -0.17578125
z: 1.091796875
range: 3.00681090355
velocity: 0.0
doppler_bin: 8
bearing: -3.87125635147
intensity: 29.5472488403
---
header: 
  seq: 1268433
  stamp: 
    secs: 1561683272
    nsecs: 185680660
  frame_id: "ti_mmwave"
point_id: 10
x: 2.638671875
y: -0.1796875
z: 1.095703125
range: 3.05038785934
velocity: 0.0
doppler_bin: 8
bearing: -3.89569664001
intensity: 32.8262214661
---
header: 
  seq: 1268434
  stamp: 
    secs: 1561683272
    nsecs: 185694196
  frame_id: "ti_mmwave"
point_id: 11
x: 2.671875
y: -0.181640625
z: 1.123046875
range: 3.09396481514
velocity: 0.0
doppler_bin: 8
bearing: -3.88912391663
intensity: 32.0112380981
---
header: 
  seq: 1268435
  stamp: 
    secs: 1561683272
    nsecs: 185707459
  frame_id: "ti_mmwave"
point_id: 12
x: 4.42578125
y: -0.287109375
z: 1.15234375
range: 4.88062095642
velocity: 0.0
doppler_bin: 8
bearing: -3.7116920948
intensity: 30.9412155151
---
header: 
  seq: 1268436
  stamp: 
    secs: 1561683272
    nsecs: 185744422
  frame_id: "ti_mmwave"
point_id: 13
x: 4.53125
y: -0.2890625
z: 0.87109375
range: 4.9241976738
velocity: 0.0
doppler_bin: 8
bearing: -3.65012955666
intensity: 31.1527767181
---
header: 
  seq: 1268437
  stamp: 
    secs: 1561683272
    nsecs: 185766959
  frame_id: "ti_mmwave"
point_id: 14
x: 4.61328125
y: -0.291015625
z: -0.62109375
range: 4.96777486801
velocity: 0.0
doppler_bin: 8
bearing: -3.60955739021
intensity: 29.7358970642
---
header: 
  seq: 1268438
  stamp: 
    secs: 1561683272
    nsecs: 185848611
  frame_id: "ti_mmwave"
point_id: 15
x: 4.6875
y: -0.4453125
z: -0.583984375
range: 5.0549287796
velocity: 0.0
doppler_bin: 8
bearing: -5.42681217194
intensity: 30.2612457275
---
header: 
  seq: 1268439
  stamp: 
    secs: 1561683272
    nsecs: 185862752
  frame_id: "ti_mmwave"
point_id: 16
x: 4.73828125
y: -0.44921875
z: -0.509765625
range: 5.09850549698
velocity: 0.0
doppler_bin: 8
bearing: -5.4158115387
intensity: 33.3605918884
---
header: 
  seq: 1268440
  stamp: 
    secs: 1561683272
    nsecs: 185879725
  frame_id: "ti_mmwave"
point_id: 17
x: 4.7890625
y: -0.453125
z: -0.40625
range: 5.14208269119
velocity: 0.0
doppler_bin: 8
bearing: -5.40504264832
intensity: 33.7272796631
---
header: 
  seq: 1268441
  stamp: 
    secs: 1561683272
    nsecs: 185892887
  frame_id: "ti_mmwave"
point_id: 18
x: 4.84375
y: -0.45703125
z: -0.134765625
range: 5.18565940857
velocity: 0.0
doppler_bin: 8
bearing: -5.3901758194
intensity: 30.4218158722
---
header: 
  seq: 1268442
  stamp: 
    secs: 1561683272
    nsecs: 185906002
  frame_id: "ti_mmwave"
point_id: 19
x: 4.85546875
y: -0.306640625
z: 0.658203125
range: 5.22923660278
velocity: 0.0
doppler_bin: 8
bearing: -3.61363911629
intensity: 30.1703338623
---
header: 
  seq: 1268443
  stamp: 
    secs: 1561683272
    nsecs: 185919102
  frame_id: "ti_mmwave"
point_id: 20
x: 4.884765625
y: -0.30859375
z: 0.734375
range: 5.27281332016
velocity: 0.0
doppler_bin: 8
bearing: -3.6148416996
intensity: 30.9968070984
---
header: 
  seq: 1268444
  stamp: 
    secs: 1561683272
    nsecs: 185935965
  frame_id: "ti_mmwave"
point_id: 22
x: 0.041015625
y: -0.033203125
z: 0.0625
range: 0.0871539413929
velocity: 0.0
doppler_bin: 8
bearing: -38.9909973145
intensity: 30.141002655
---
header: 
  seq: 1268445
  stamp: 
    secs: 1561683272
    nsecs: 185949290
  frame_id: "ti_mmwave"
point_id: 23
x: 0.044921875
y: -0.046875
z: 0.103515625
range: 0.130730912089
velocity: 0.0
doppler_bin: 8
bearing: -46.218875885
intensity: 29.0254669189
---
header: 
  seq: 1268446
  stamp: 
    secs: 1561683272
    nsecs: 185966803
  frame_id: "ti_mmwave"
point_id: 25
x: 1.2109375
y: 0.357421875
z: 0.125
range: 1.35088610649
velocity: 0.0
doppler_bin: 8
bearing: 16.4445590973
intensity: 19.0308990479
---
header: 
  seq: 1268447
  stamp: 
    secs: 1561683272
    nsecs: 243756100
  frame_id: "ti_mmwave"
point_id: 0
x: 0.01171875
y: -0.0390625
z: -0.0078125
range: 0.0435769706964
velocity: 0.0
doppler_bin: 8
bearing: -73.3007583618
intensity: 30.7408466339
---
header: 
  seq: 1268448
  stamp: 
    secs: 1561683272
    nsecs: 243861358
  frame_id: "ti_mmwave"
point_id: 1
x: 0.017578125
y: -0.080078125
z: -0.0078125
range: 0.0871539413929
velocity: 0.0
doppler_bin: 8
bearing: -77.6192398071
intensity: 31.9755630493
---
header: 
  seq: 1268449
  stamp: 
    secs: 1561683272
    nsecs: 243879688
  frame_id: "ti_mmwave"
point_id: 2
x: 0.029296875
y: -0.119140625
z: -0.00390625
range: 0.130730912089
velocity: 0.0
doppler_bin: 8
bearing: -76.1849746704
intensity: 30.2242832184
---
header: 
  seq: 1268450
  stamp: 
    secs: 1561683272
    nsecs: 243895358
  frame_id: "ti_mmwave"
point_id: 3
x: 0.056640625
y: -0.154296875
z: 0.005859375
range: 0.174307882786
velocity: 0.0
doppler_bin: 8
bearing: -69.8423843384
intensity: 25.490032196
---
header: 
  seq: 1268451
  stamp: 
    secs: 1561683272
    nsecs: 243970887
  frame_id: "ti_mmwave"
point_id: 4
x: 0.34765625
y: -0.080078125
z: -1.216796875
range: 1.35088610649
velocity: 0.0
doppler_bin: 8
bearing: -12.9711065292
intensity: 21.875207901
---
header: 
  seq: 1268452
  stamp: 
    secs: 1561683272
    nsecs: 243987423
  frame_id: "ti_mmwave"
point_id: 5
x: 0.306640625
y: -0.041015625
z: 1.271484375
range: 1.39446306229
velocity: 0.0
doppler_bin: 8
bearing: -7.6185464859
intensity: 23.2221927643
---
header: 
  seq: 1268453
  stamp: 
    secs: 1561683272
    nsecs: 244004745
  frame_id: "ti_mmwave"
point_id: 6
x: 0.43359375
y: -0.0
z: 1.279296875
range: 1.43804001808
velocity: 0.0
doppler_bin: 8
bearing: -0.0
intensity: 21.875207901
---
header: 
  seq: 1268454
  stamp: 
    secs: 1561683272
    nsecs: 244018499
  frame_id: "ti_mmwave"
point_id: 7
x: 2.076171875
y: 0.130859375
z: -0.154296875
range: 2.22242546082
velocity: 0.0
doppler_bin: 8
bearing: 3.60653400421
intensity: 29.3348731995
---
header: 
  seq: 1268455
  stamp: 
    secs: 1561683272
    nsecs: 244031766
  frame_id: "ti_mmwave"
point_id: 8
x: 2.111328125
y: 0.1328125
z: -0.220703125
range: 2.26600241661
velocity: 0.0
doppler_bin: 8
bearing: 3.59943199158
intensity: 30.1283721924
---
header: 
  seq: 1268456
  stamp: 
    secs: 1561683272
    nsecs: 244044179
  frame_id: "ti_mmwave"
point_id: 9
x: 2.134765625
y: 0.203125
z: -0.314453125
range: 2.30957937241
velocity: 0.0
doppler_bin: 8
bearing: 5.43538475037
intensity: 28.9042110443
---
header: 
  seq: 1268457
  stamp: 
    secs: 1561683272
    nsecs: 244088507
  frame_id: "ti_mmwave"
point_id: 10
x: 2.150390625
y: 0.275390625
z: -0.427734375
range: 2.3531563282
velocity: 0.0
doppler_bin: 8
bearing: 7.29788303375
intensity: 26.532125473
---
header: 
  seq: 1268458
  stamp: 
    secs: 1561683272
    nsecs: 244117745
  frame_id: "ti_mmwave"
point_id: 11
x: 2.5546875
y: -0.263671875
z: 1.169921875
range: 3.00681090355
velocity: 0.0
doppler_bin: 8
bearing: -5.89269018173
intensity: 29.5808582306
---
header: 
  seq: 1268459
  stamp: 
    secs: 1561683272
    nsecs: 244140512
  frame_id: "ti_mmwave"
point_id: 12
x: 2.603515625
y: -0.267578125
z: 1.162109375
range: 3.05038785934
velocity: 0.0
doppler_bin: 8
bearing: -5.8680100441
intensity: 32.8216896057
---
header: 
  seq: 1268460
  stamp: 
    secs: 1561683272
    nsecs: 244156454
  frame_id: "ti_mmwave"
point_id: 13
x: 2.662109375
y: -0.271484375
z: 1.126953125
range: 3.09396481514
velocity: 0.0
doppler_bin: 8
bearing: -5.82294607162
intensity: 31.9893188477
---
header: 
  seq: 1268461
  stamp: 
    secs: 1561683272
    nsecs: 244233542
  frame_id: "ti_mmwave"
point_id: 14
x: 4.419921875
y: -0.287109375
z: 1.16796875
range: 4.88062095642
velocity: 0.0
doppler_bin: 8
bearing: -3.71659874916
intensity: 31.0687046051
---
header: 
  seq: 1268462
  stamp: 
    secs: 1561683272
    nsecs: 244249987
  frame_id: "ti_mmwave"
point_id: 15
x: 4.53515625
y: -0.2890625
z: 0.849609375
range: 4.9241976738
velocity: 0.0
doppler_bin: 8
bearing: -3.64699411392
intensity: 31.4113616943
---
header: 
  seq: 1268463
  stamp: 
    secs: 1561683272
    nsecs: 244264030
  frame_id: "ti_mmwave"
point_id: 16
x: 4.615234375
y: -0.291015625
z: -0.599609375
range: 4.96777486801
velocity: 0.0
doppler_bin: 8
bearing: -3.60803365707
intensity: 30.2775726318
---
header: 
  seq: 1268464
  stamp: 
    secs: 1561683272
    nsecs: 244279924
  frame_id: "ti_mmwave"
point_id: 17
x: 4.669921875
y: -0.294921875
z: -0.48046875
range: 5.01135158539
velocity: 0.0
doppler_bin: 8
bearing: -3.61362934113
intensity: 29.5133743286
---
header: 
  seq: 1268465
  stamp: 
    secs: 1561683272
    nsecs: 244293070
  frame_id: "ti_mmwave"
point_id: 18
x: 4.705078125
y: -0.296875
z: -0.533203125
range: 5.0549287796
velocity: 0.0
doppler_bin: 8
bearing: -3.61038923264
intensity: 30.1745071411
---
header: 
  seq: 1268466
  stamp: 
    secs: 1561683272
    nsecs: 244306845
  frame_id: "ti_mmwave"
point_id: 19
x: 4.73828125
y: -0.44921875
z: -0.501953125
range: 5.09850549698
velocity: 0.0
doppler_bin: 8
bearing: -5.4158115387
intensity: 33.318321228
---
header: 
  seq: 1268467
  stamp: 
    secs: 1561683272
    nsecs: 244322548
  frame_id: "ti_mmwave"
point_id: 20
x: 4.7890625
y: -0.453125
z: -0.40234375
range: 5.14208269119
velocity: 0.0
doppler_bin: 8
bearing: -5.40504264832
intensity: 33.7712402344
---
header: 
  seq: 1268468
  stamp: 
    secs: 1561683272
    nsecs: 244335963
  frame_id: "ti_mmwave"
point_id: 21
x: 4.84375
y: -0.45703125
z: -0.13671875
range: 5.18565940857
velocity: 0.0
doppler_bin: 8
bearing: -5.3901758194
intensity: 30.6595306396
---
header: 
  seq: 1268469
  stamp: 
    secs: 1561683272
    nsecs: 244349537
  frame_id: "ti_mmwave"
point_id: 22
x: 4.82421875
y: -0.4609375
z: 0.78515625
range: 5.22923660278
velocity: 0.0
doppler_bin: 8
bearing: -5.4578461647
intensity: 30.0216598511
---
header: 
  seq: 1268470
  stamp: 
    secs: 1561683272
    nsecs: 244401609
  frame_id: "ti_mmwave"
point_id: 23
x: 4.87890625
y: -0.30859375
z: 0.7734375
range: 5.27281332016
velocity: 0.0
doppler_bin: 8
bearing: -3.61917114258
intensity: 30.9551811218
---
header: 
  seq: 1268471
  stamp: 
    secs: 1561683272
    nsecs: 244419058
  frame_id: "ti_mmwave"
point_id: 25
x: 0.041015625
y: -0.033203125
z: 0.0625
range: 0.0871539413929
velocity: 0.0
doppler_bin: 8
bearing: -38.9909973145
intensity: 30.141002655
---
header: 
  seq: 1268472
  stamp: 
    secs: 1561683272
    nsecs: 244576938
  frame_id: "ti_mmwave"
point_id: 26
x: 0.044921875
y: -0.046875
z: 0.103515625
range: 0.130730912089
velocity: 0.0
doppler_bin: 8
bearing: -46.218875885
intensity: 29.0254669189
---
header: 
  seq: 1268473
  stamp: 
    secs: 1561683272
    nsecs: 244609620
  frame_id: "ti_mmwave"
point_id: 28
x: 1.2109375
y: 0.357421875
z: 0.123046875
range: 1.35088610649
velocity: 0.0
doppler_bin: 8
bearing: 16.4445590973
intensity: 18.9762706757
---
header: 
  seq: 1268474
  stamp: 
    secs: 1561683272
    nsecs: 303921584
  frame_id: "ti_mmwave"
point_id: 0
x: 0.01171875
y: -0.0390625
z: -0.0078125
range: 0.0435769706964
velocity: 0.0
doppler_bin: 8
bearing: -73.3007583618
intensity: 30.7481651306
---
header: 
  seq: 1268475
  stamp: 
    secs: 1561683272
    nsecs: 304005380
  frame_id: "ti_mmwave"
point_id: 1
x: 0.017578125
y: -0.080078125
z: -0.0078125
range: 0.0871539413929
velocity: 0.0
doppler_bin: 8
bearing: -77.6192398071
intensity: 31.9783172607
---
header: 
  seq: 1268476
  stamp: 
    secs: 1561683272
    nsecs: 304018348
  frame_id: "ti_mmwave"
point_id: 2
x: 0.041015625
y: -0.115234375
z: -0.0078125
range: 0.130730912089
velocity: 0.0
doppler_bin: 8
bearing: -70.4077224731
intensity: 30.2284069061
---
header: 
  seq: 1268477
  stamp: 
    secs: 1561683272
    nsecs: 304027459
  frame_id: "ti_mmwave"
point_id: 3
x: 0.056640625
y: -0.154296875
z: 0.005859375
range: 0.174307882786
velocity: 0.0
doppler_bin: 8
bearing: -69.8423843384
intensity: 25.5022830963
---
header: 
  seq: 1268478
  stamp: 
    secs: 1561683272
    nsecs: 304036862
  frame_id: "ti_mmwave"
point_id: 4
x: 0.359375
y: -0.080078125
z: -1.212890625
range: 1.35088610649
velocity: 0.0
doppler_bin: 8
bearing: -12.5617752075
intensity: 21.8469142914
---
header: 
  seq: 1268479
  stamp: 
    secs: 1561683272
    nsecs: 304045090
  frame_id: "ti_mmwave"
point_id: 5
x: 0.30078125
y: -0.041015625
z: 1.2734375
range: 1.39446306229
velocity: 0.0
doppler_bin: 8
bearing: -7.76516628265
intensity: 23.1806335449
---
header: 
  seq: 1268480
  stamp: 
    secs: 1561683272
    nsecs: 304065467
  frame_id: "ti_mmwave"
point_id: 6
x: 0.490234375
y: -0.04296875
z: 1.2578125
range: 1.43804001808
velocity: 0.0
doppler_bin: 8
bearing: -5.00914001465
intensity: 21.875207901
---
header: 
  seq: 1268481
  stamp: 
    secs: 1561683272
    nsecs: 304073789
  frame_id: "ti_mmwave"
point_id: 7
x: 2.076171875
y: 0.130859375
z: -0.150390625
range: 2.22242546082
velocity: 0.0
doppler_bin: 8
bearing: 3.60653400421
intensity: 27.774269104
---
header: 
  seq: 1268482
  stamp: 
    secs: 1561683272
    nsecs: 304081736
  frame_id: "ti_mmwave"
point_id: 8
x: 2.11328125
y: 0.1328125
z: -0.19921875
range: 2.26600241661
velocity: 0.0
doppler_bin: 8
bearing: 3.59611415863
intensity: 28.8930168152
---
header: 
  seq: 1268483
  stamp: 
    secs: 1561683272
    nsecs: 304249239
  frame_id: "ti_mmwave"
point_id: 9
x: 2.130859375
y: 0.134765625
z: -0.37109375
range: 2.30957937241
velocity: 0.0
doppler_bin: 8
bearing: 3.61883616447
intensity: 27.5739593506
---
header: 
  seq: 1268484
  stamp: 
    secs: 1561683272
    nsecs: 304270482
  frame_id: "ti_mmwave"
point_id: 10
x: 2.578125
y: -0.263671875
z: 1.119140625
range: 3.00681090355
velocity: 0.0
doppler_bin: 8
bearing: -5.83949232101
intensity: 29.6189556122
---
header: 
  seq: 1268485
  stamp: 
    secs: 1561683272
    nsecs: 304280285
  frame_id: "ti_mmwave"
point_id: 11
x: 2.607421875
y: -0.267578125
z: 1.15234375
range: 3.05038785934
velocity: 0.0
doppler_bin: 8
bearing: -5.85928010941
intensity: 32.9047966003
---
header: 
  seq: 1268486
  stamp: 
    secs: 1561683272
    nsecs: 304288972
  frame_id: "ti_mmwave"
point_id: 12
x: 2.640625
y: -0.271484375
z: 1.177734375
range: 3.09396481514
velocity: 0.0
doppler_bin: 8
bearing: -5.86999225616
intensity: 32.0439147949
---
header: 
  seq: 1268487
  stamp: 
    secs: 1561683272
    nsecs: 304301710
  frame_id: "ti_mmwave"
point_id: 13
x: 4.419921875
y: -0.287109375
z: 1.171875
range: 4.88062095642
velocity: 0.0
doppler_bin: 8
bearing: -3.71659874916
intensity: 31.1693973541
---
header: 
  seq: 1268488
  stamp: 
    secs: 1561683272
    nsecs: 304329767
  frame_id: "ti_mmwave"
point_id: 14
x: 4.51953125
y: -0.2890625
z: 0.927734375
range: 4.9241976738
velocity: 0.0
doppler_bin: 8
bearing: -3.65956807137
intensity: 31.4113616943
---
header: 
  seq: 1268489
  stamp: 
    secs: 1561683272
    nsecs: 304339320
  frame_id: "ti_mmwave"
point_id: 15
x: 4.615234375
y: -0.291015625
z: -0.6015625
range: 4.96777486801
velocity: 0.0
doppler_bin: 8
bearing: -3.60803365707
intensity: 29.7127590179
---
header: 
  seq: 1268490
  stamp: 
    secs: 1561683272
    nsecs: 304358085
  frame_id: "ti_mmwave"
point_id: 16
x: 4.67578125
y: -0.4453125
z: -0.6796875
range: 5.0549287796
velocity: 0.0
doppler_bin: 8
bearing: -5.44033241272
intensity: 30.0603790283
---
header: 
  seq: 1268491
  stamp: 
    secs: 1561683272
    nsecs: 304379282
  frame_id: "ti_mmwave"
point_id: 17
x: 4.734375
y: -0.44921875
z: -0.53125
range: 5.09850549698
velocity: 0.0
doppler_bin: 8
bearing: -5.42025327682
intensity: 33.2797164917
---
header: 
  seq: 1268492
  stamp: 
    secs: 1561683272
    nsecs: 304400288
  frame_id: "ti_mmwave"
point_id: 18
x: 4.7890625
y: -0.453125
z: -0.390625
range: 5.14208269119
velocity: 0.0
doppler_bin: 8
bearing: -5.40504264832
intensity: 33.6361198425
---
header: 
  seq: 1268493
  stamp: 
    secs: 1561683272
    nsecs: 304421418
  frame_id: "ti_mmwave"
point_id: 19
x: 4.845703125
y: -0.45703125
z: -0.0703125
range: 5.18565940857
velocity: 0.0
doppler_bin: 8
bearing: -5.38801622391
intensity: 30.3862018585
---
header: 
  seq: 1268494
  stamp: 
    secs: 1561683272
    nsecs: 304449984
  frame_id: "ti_mmwave"
point_id: 20
x: 4.853515625
y: -0.306640625
z: 0.6640625
range: 5.22923660278
velocity: 0.0
doppler_bin: 8
bearing: -3.6150894165
intensity: 30.248960495
---
header: 
  seq: 1268495
  stamp: 
    secs: 1561683272
    nsecs: 304473043
  frame_id: "ti_mmwave"
point_id: 21
x: 4.88671875
y: -0.30859375
z: 0.7265625
range: 5.27281332016
velocity: 0.0
doppler_bin: 8
bearing: -3.61340069771
intensity: 31.0619087219
---
header: 
  seq: 1268496
  stamp: 
    secs: 1561683272
    nsecs: 304494153
  frame_id: "ti_mmwave"
point_id: 23
x: 0.041015625
y: -0.033203125
z: 0.0625
range: 0.0871539413929
velocity: 0.0
doppler_bin: 8
bearing: -38.9909973145
intensity: 30.141002655
---
header: 
  seq: 1268497
  stamp: 
    secs: 1561683272
    nsecs: 304510887
  frame_id: "ti_mmwave"
point_id: 24
x: 0.052734375
y: -0.04296875
z: 0.1015625
range: 0.130730912089
velocity: 0.0
doppler_bin: 8
bearing: -39.1736602783
intensity: 29.0254669189
---
header: 
  seq: 1268498
  stamp: 
    secs: 1561683272
    nsecs: 304527902
  frame_id: "ti_mmwave"
point_id: 26
x: 1.11328125
y: -0.515625
z: 0.3203125
range: 1.35088610649
velocity: 0.0
doppler_bin: 8
bearing: -24.8515853882
intensity: 18.9762706757
---
header: 
  seq: 1268499
  stamp: 
    secs: 1561683272
    nsecs: 305370994
  frame_id: "ti_mmwave"
point_id: 0
x: 0.01171875
y: -0.0390625
z: -0.0078125
range: 0.0435769706964
velocity: 0.0
doppler_bin: 8
bearing: -73.3007583618
intensity: 30.7408466339
---
header: 
  seq: 1268500
  stamp: 
    secs: 1561683272
    nsecs: 305435707
  frame_id: "ti_mmwave"
point_id: 1
x: 0.017578125
y: -0.080078125
z: -0.0078125
range: 0.0871539413929
velocity: 0.0
doppler_bin: 8
bearing: -77.6192398071
intensity: 31.9728050232
---
header: 
  seq: 1268501
  stamp: 
    secs: 1561683272
    nsecs: 305456518
  frame_id: "ti_mmwave"
point_id: 2
x: 0.041015625
y: -0.115234375
z: -0.0078125
range: 0.130730912089
velocity: 0.0
doppler_bin: 8
bearing: -70.4077224731
intensity: 30.2201576233
---
header: 
  seq: 1268502
  stamp: 
    secs: 1561683272
    nsecs: 305469014
  frame_id: "ti_mmwave"
point_id: 3
x: 0.056640625
y: -0.154296875
z: 0.005859375
range: 0.174307882786
velocity: 0.0
doppler_bin: 8
bearing: -69.8423843384
intensity: 25.5022830963
---
header: 
  seq: 1268503
  stamp: 
    secs: 1561683272
    nsecs: 305481323
  frame_id: "ti_mmwave"
point_id: 4
x: 0.369140625
y: -0.080078125
z: -1.2109375
range: 1.35088610649
velocity: 0.0
doppler_bin: 8
bearing: -12.2396001816
intensity: 21.9033164978
---
header: 
  seq: 1268504
  stamp: 
    secs: 1561683272
    nsecs: 305495297
  frame_id: "ti_mmwave"
point_id: 5
x: 0.28125
y: -0.041015625
z: 1.27734375
range: 1.39446306229
velocity: 0.0
doppler_bin: 8
bearing: -8.29714488983
intensity: 23.2014636993
---
header: 
  seq: 1268505
  stamp: 
    secs: 1561683272
    nsecs: 305509922
  frame_id: "ti_mmwave"
point_id: 6
x: 0.4609375
y: -0.04296875
z: 1.267578125
range: 1.43804001808
velocity: 0.0
doppler_bin: 8
bearing: -5.32574033737
intensity: 21.8184356689
---
header: 
  seq: 1268506
  stamp: 
    secs: 1561683272
    nsecs: 305669918
  frame_id: "ti_mmwave"
point_id: 7
x: 2.1171875
y: 0.19921875
z: 0.017578125
range: 2.26600241661
velocity: 0.0
doppler_bin: 8
bearing: 5.37547254562
intensity: 27.4585514069
---
header: 
  seq: 1268507
  stamp: 
    secs: 1561683272
    nsecs: 305692995
  frame_id: "ti_mmwave"
point_id: 8
x: 2.14453125
y: 0.271484375
z: -0.173828125
range: 2.30957937241
velocity: 0.0
doppler_bin: 8
bearing: 7.21491241455
intensity: 26.9460525513
---
header: 
  seq: 1268508
  stamp: 
    secs: 1561683272
    nsecs: 305709913
  frame_id: "ti_mmwave"
point_id: 9
x: 2.54296875
y: -0.263671875
z: 1.1953125
range: 3.00681090355
velocity: 0.0
doppler_bin: 8
bearing: -5.91965341568
intensity: 29.2992954254
---
header: 
  seq: 1268509
  stamp: 
    secs: 1561683272
    nsecs: 306072523
  frame_id: "ti_mmwave"
point_id: 10
x: 2.623046875
y: -0.1796875
z: 1.134765625
range: 3.05038785934
velocity: 0.0
doppler_bin: 8
bearing: -3.91883039474
intensity: 32.6623153687
---
header: 
  seq: 1268510
  stamp: 
    secs: 1561683272
    nsecs: 306101077
  frame_id: "ti_mmwave"
point_id: 11
x: 2.685546875
y: -0.181640625
z: 1.091796875
range: 3.09396481514
velocity: 0.0
doppler_bin: 8
bearing: -3.86938500404
intensity: 31.9838218689
---
header: 
  seq: 1268511
  stamp: 
    secs: 1561683272
    nsecs: 306154831
  frame_id: "ti_mmwave"
point_id: 12
x: 4.42578125
y: -0.287109375
z: 1.146484375
range: 4.88062095642
velocity: 0.0
doppler_bin: 8
bearing: -3.7116920948
intensity: 31.2188796997
---
header: 
  seq: 1268512
  stamp: 
    secs: 1561683272
    nsecs: 306175445
  frame_id: "ti_mmwave"
point_id: 13
x: 4.51953125
y: -0.2890625
z: 0.923828125
range: 4.9241976738
velocity: 0.0
doppler_bin: 8
bearing: -3.65956807137
intensity: 31.332195282
---
header: 
  seq: 1268513
  stamp: 
    secs: 1561683272
    nsecs: 306184305
  frame_id: "ti_mmwave"
point_id: 14
x: 4.689453125
y: -0.4453125
z: -0.5703125
range: 5.0549287796
velocity: 0.0
doppler_bin: 8
bearing: -5.42456626892
intensity: 29.484128952
---
header: 
  seq: 1268514
  stamp: 
    secs: 1561683272
    nsecs: 306230332
  frame_id: "ti_mmwave"
point_id: 15
x: 4.73828125
y: -0.44921875
z: -0.5
range: 5.09850549698
velocity: 0.0
doppler_bin: 8
bearing: -5.4158115387
intensity: 33.13022995
---
header: 
  seq: 1268515
  stamp: 
    secs: 1561683272
    nsecs: 306241077
  frame_id: "ti_mmwave"
point_id: 16
x: 4.7890625
y: -0.453125
z: -0.39453125
range: 5.14208269119
velocity: 0.0
doppler_bin: 8
bearing: -5.40504264832
intensity: 33.4615745544
---
header: 
  seq: 1268516
  stamp: 
    secs: 1561683272
    nsecs: 306283594
  frame_id: "ti_mmwave"
point_id: 17
x: 4.845703125
y: -0.45703125
z: -0.10546875
range: 5.18565940857
velocity: 0.0
doppler_bin: 8
bearing: -5.38801622391
intensity: 29.8944988251
---
header: 
  seq: 1268517
  stamp: 
    secs: 1561683272
    nsecs: 306332168
  frame_id: "ti_mmwave"
point_id: 18
x: 4.822265625
y: -0.306640625
z: 0.861328125
range: 5.22923660278
velocity: 0.0
doppler_bin: 8
bearing: -3.638453722
intensity: 29.6425971985
---
header: 
  seq: 1268518
  stamp: 
    secs: 1561683272
    nsecs: 306358960
  frame_id: "ti_mmwave"
point_id: 19
x: 4.880859375
y: -0.30859375
z: 0.767578125
range: 5.27281332016
velocity: 0.0
doppler_bin: 8
bearing: -3.61772704124
intensity: 30.8062648773
---
header: 
  seq: 1268519
  stamp: 
    secs: 1561683272
    nsecs: 306385064
  frame_id: "ti_mmwave"
point_id: 21
x: 0.041015625
y: -0.033203125
z: 0.0625
range: 0.0871539413929
velocity: 0.0
doppler_bin: 8
bearing: -38.9909973145
intensity: 30.1367969513
---
header: 
  seq: 1268520
  stamp: 
    secs: 1561683272
    nsecs: 306434262
  frame_id: "ti_mmwave"
point_id: 22
x: 0.044921875
y: -0.046875
z: 0.103515625
range: 0.130730912089
velocity: 0.0
doppler_bin: 8
bearing: -46.218875885
intensity: 29.020029068
---
header: 
  seq: 1268521
  stamp: 
    secs: 1561683272
    nsecs: 306459464
  frame_id: "ti_mmwave"
point_id: 24
x: 1.208984375
y: 0.357421875
z: 0.1328125
range: 1.35088610649
velocity: 0.0
doppler_bin: 8
bearing: 16.4696884155
intensity: 19.0848503113
---
header: 
  seq: 1268522
  stamp: 
    secs: 1561683272
    nsecs: 363772029
  frame_id: "ti_mmwave"
point_id: 0
x: 0.01171875
y: -0.0390625
z: -0.0078125
range: 0.0435769706964
velocity: 0.0
doppler_bin: 8
bearing: -73.3007583618
intensity: 30.7371826172
---
header: 
  seq: 1268523
  stamp: 
    secs: 1561683272
    nsecs: 363856141
  frame_id: "ti_mmwave"
point_id: 1
x: 0.017578125
y: -0.080078125
z: -0.0078125
range: 0.0871539413929
velocity: 0.0
doppler_bin: 8
bearing: -77.6192398071
intensity: 31.9700469971
---
header: 
  seq: 1268524
  stamp: 
    secs: 1561683272
    nsecs: 363867616
  frame_id: "ti_mmwave"
point_id: 2
x: 0.029296875
y: -0.119140625
z: -0.005859375
range: 0.130730912089
velocity: 0.0
doppler_bin: 8
bearing: -76.1849746704
intensity: 30.2160263062
---
header: 
  seq: 1268525
  stamp: 
    secs: 1561683272
    nsecs: 363876389
  frame_id: "ti_mmwave"
point_id: 3
x: 0.056640625
y: -0.154296875
z: 0.005859375
range: 0.174307882786
velocity: 0.0
doppler_bin: 8
bearing: -69.8423843384
intensity: 25.490032196
---
header: 
  seq: 1268526
  stamp: 
    secs: 1561683272
    nsecs: 363884757
  frame_id: "ti_mmwave"
point_id: 4
x: 0.37890625
y: -0.080078125
z: -1.20703125
range: 1.35088610649
velocity: 0.0
doppler_bin: 8
bearing: -11.933303833
intensity: 21.875207901
---
header: 
  seq: 1268527
  stamp: 
    secs: 1561683272
    nsecs: 363894632
  frame_id: "ti_mmwave"
point_id: 5
x: 0.251953125
y: -0.041015625
z: 1.283203125
range: 1.39446306229
velocity: 0.0
doppler_bin: 8
bearing: -9.24611377716
intensity: 23.2221927643
---
header: 
  seq: 1268528
  stamp: 
    secs: 1561683272
    nsecs: 363904507
  frame_id: "ti_mmwave"
point_id: 6
x: 0.3515625
y: -0.0
z: 1.302734375
range: 1.43804001808
velocity: 0.0
doppler_bin: 8
bearing: -0.0
intensity: 21.875207901
---
header: 
  seq: 1268529
  stamp: 
    secs: 1561683272
    nsecs: 363913821
  frame_id: "ti_mmwave"
point_id: 7
x: 2.08203125
y: 0.130859375
z: 0.04296875
range: 2.22242546082
velocity: 0.0
doppler_bin: 8
bearing: 3.59641098976
intensity: 28.8817958832
---
header: 
  seq: 1268530
  stamp: 
    secs: 1561683272
    nsecs: 363921686
  frame_id: "ti_mmwave"
point_id: 8
x: 2.123046875
y: 0.1328125
z: 0.0234375
range: 2.26600241661
velocity: 0.0
doppler_bin: 8
bearing: 3.57961583138
intensity: 30.2118930817
---
header: 
  seq: 1268531
  stamp: 
    secs: 1561683272
    nsecs: 363929705
  frame_id: "ti_mmwave"
point_id: 9
x: 2.158203125
y: 0.203125
z: 0.01171875
range: 2.30957937241
velocity: 0.0
doppler_bin: 8
bearing: 5.37670564651
intensity: 28.6981811523
---
header: 
  seq: 1268532
  stamp: 
    secs: 1561683272
    nsecs: 363937586
  frame_id: "ti_mmwave"
point_id: 10
x: 2.580078125
y: -0.263671875
z: 1.115234375
range: 3.00681090355
velocity: 0.0
doppler_bin: 8
bearing: -5.83510255814
intensity: 29.380191803
---
header: 
  seq: 1268533
  stamp: 
    secs: 1561683272
    nsecs: 364175351
  frame_id: "ti_mmwave"
point_id: 11
x: 2.634765625
y: -0.267578125
z: 1.087890625
range: 3.05038785934
velocity: 0.0
doppler_bin: 8
bearing: -5.79888963699
intensity: 32.7669143677
---
header: 
  seq: 1268534
  stamp: 
    secs: 1561683272
    nsecs: 364198469
  frame_id: "ti_mmwave"
point_id: 12
x: 2.703125
y: -0.181640625
z: 1.046875
range: 3.09396481514
velocity: 0.0
doppler_bin: 8
bearing: -3.84429860115
intensity: 32.0384864807
---
header: 
  seq: 1268535
  stamp: 
    secs: 1561683272
    nsecs: 364220632
  frame_id: "ti_mmwave"
point_id: 13
x: 4.421875
y: -0.287109375
z: 1.166015625
range: 4.88062095642
velocity: 0.0
doppler_bin: 8
bearing: -3.7149617672
intensity: 30.5918464661
---
header: 
  seq: 1268536
  stamp: 
    secs: 1561683272
    nsecs: 364237041
  frame_id: "ti_mmwave"
point_id: 14
x: 4.4921875
y: -0.2890625
z: 1.05078125
range: 4.9241976738
velocity: 0.0
doppler_bin: 8
bearing: -3.68178272247
intensity: 30.0902576447
---
header: 
  seq: 1268537
  stamp: 
    secs: 1561683272
    nsecs: 364250712
  frame_id: "ti_mmwave"
point_id: 15
x: 4.740234375
y: -0.44921875
z: -0.48828125
range: 5.09850549698
velocity: 0.0
doppler_bin: 8
bearing: -5.41359329224
intensity: 32.8352737427
---
header: 
  seq: 1268538
  stamp: 
    secs: 1561683272
    nsecs: 364258590
  frame_id: "ti_mmwave"
point_id: 16
x: 4.7734375
y: -0.603515625
z: -0.388671875
range: 5.14208269119
velocity: 0.0
doppler_bin: 8
bearing: -7.20579147339
intensity: 33.1889762878
---
header: 
  seq: 1268539
  stamp: 
    secs: 1561683272
    nsecs: 364275858
  frame_id: "ti_mmwave"
point_id: 17
x: 4.87890625
y: -0.30859375
z: 0.771484375
range: 5.27281332016
velocity: 0.0
doppler_bin: 8
bearing: -3.61917114258
intensity: 30.7077655792
---
header: 
  seq: 1268540
  stamp: 
    secs: 1561683272
    nsecs: 364345648
  frame_id: "ti_mmwave"
point_id: 19
x: 0.041015625
y: -0.033203125
z: 0.0625
range: 0.0871539413929
velocity: 0.0
doppler_bin: 8
bearing: -38.9909973145
intensity: 30.1367969513
---
header: 
  seq: 1268541
  stamp: 
    secs: 1561683272
    nsecs: 364362299
  frame_id: "ti_mmwave"
point_id: 20
x: 0.052734375
y: -0.04296875
z: 0.1015625
range: 0.130730912089
velocity: 0.0
doppler_bin: 8
bearing: -39.1736602783
intensity: 29.0145835876
---
header: 
  seq: 1268542
  stamp: 
    secs: 1561683272
    nsecs: 364377790
  frame_id: "ti_mmwave"
point_id: 22
x: 1.2109375
y: 0.357421875
z: 0.12109375
range: 1.35088610649
velocity: 0.0
doppler_bin: 8
bearing: 16.4445590973
intensity: 19.0848503113
---
header: 
  seq: 1268543
  stamp: 
    secs: 1561683272
    nsecs: 364391137
  frame_id: "ti_mmwave"
point_id: 23
x: 2.806640625
y: -2.00390625
z: -3.017578125
range: 4.88062095642
velocity: 0.0
doppler_bin: 8
bearing: -35.5263633728
intensity: 27.7670116425
---
header: 
  seq: 1268544
  stamp: 
    secs: 1561683272
    nsecs: 364405215
  frame_id: "ti_mmwave"
point_id: 24
x: 2.751953125
y: -2.021484375
z: -3.115234375
range: 4.9241976738
velocity: 0.0
doppler_bin: 8
bearing: -36.2996482849
intensity: 27.2672729492
---
header: 
  seq: 1268545
  stamp: 
    secs: 1561683272
    nsecs: 364413580
  frame_id: "ti_mmwave"
point_id: 25
x: 4.802734375
y: -0.30078125
z: -0.3828125
range: 5.14208269119
velocity: 0.0
doppler_bin: 8
bearing: -3.58358716965
intensity: 33.1743659973
---
header: 
  seq: 1268546
  stamp: 
    secs: 1561683272
    nsecs: 365264913
  frame_id: "ti_mmwave"
point_id: 0
x: 0.01171875
y: -0.0390625
z: -0.0078125
range: 0.0435769706964
velocity: 0.0
doppler_bin: 8
bearing: -73.3007583618
intensity: 30.7408466339
---
header: 
  seq: 1268547
  stamp: 
    secs: 1561683272
    nsecs: 365333924
  frame_id: "ti_mmwave"
point_id: 1
x: 0.017578125
y: -0.080078125
z: -0.0078125
range: 0.0871539413929
velocity: 0.0
doppler_bin: 8
bearing: -77.6192398071
intensity: 31.9755630493
---
header: 
  seq: 1268548
  stamp: 
    secs: 1561683272
    nsecs: 365351501
  frame_id: "ti_mmwave"
point_id: 2
x: 0.029296875
y: -0.119140625
z: -0.00390625
range: 0.130730912089
velocity: 0.0
doppler_bin: 8
bearing: -76.1849746704
intensity: 30.2242832184
---
header: 
  seq: 1268549
  stamp: 
    secs: 1561683272
    nsecs: 365365504
  frame_id: "ti_mmwave"
point_id: 3
x: 0.056640625
y: -0.154296875
z: 0.005859375
range: 0.174307882786
velocity: 0.0
doppler_bin: 8
bearing: -69.8423843384
intensity: 25.5022830963
---
header: 
  seq: 1268550
  stamp: 
    secs: 1561683272
    nsecs: 365379465
  frame_id: "ti_mmwave"
point_id: 4
x: 0.3515625
y: -0.080078125
z: -1.21484375
range: 1.35088610649
velocity: 0.0
doppler_bin: 8
bearing: -12.83177948
intensity: 21.9312458038
---
header: 
  seq: 1268551
  stamp: 
    secs: 1561683272
    nsecs: 365481549
  frame_id: "ti_mmwave"
point_id: 5
x: 0.287109375
y: -0.041015625
z: 1.275390625
range: 1.39446306229
velocity: 0.0
doppler_bin: 8
bearing: -8.13010311127
intensity: 23.2428245544
---
header: 
  seq: 1268552
  stamp: 
    secs: 1561683272
    nsecs: 365508773
  frame_id: "ti_mmwave"
point_id: 6
x: 0.37890625
y: -0.0
z: 1.294921875
range: 1.43804001808
velocity: 0.0
doppler_bin: 8
bearing: -0.0
intensity: 21.9033164978
---
header: 
  seq: 1268553
  stamp: 
    secs: 1561683272
    nsecs: 365521375
  frame_id: "ti_mmwave"
point_id: 7
x: 2.07421875
y: 0.130859375
z: -0.173828125
range: 2.22242546082
velocity: 0.0
doppler_bin: 8
bearing: 3.60992145538
intensity: 28.9707698822
---
header: 
  seq: 1268554
  stamp: 
    secs: 1561683272
    nsecs: 365532198
  frame_id: "ti_mmwave"
point_id: 8
x: 2.10546875
y: 0.19921875
z: -0.2265625
range: 2.26600241661
velocity: 0.0
doppler_bin: 8
bearing: 5.40521526337
intensity: 29.8497714996
---
header: 
  seq: 1268555
  stamp: 
    secs: 1561683272
    nsecs: 365564132
  frame_id: "ti_mmwave"
point_id: 9
x: 2.560546875
y: -0.263671875
z: 1.158203125
range: 3.00681090355
velocity: 0.0
doppler_bin: 8
bearing: -5.87930107117
intensity: 29.3951931
---
header: 
  seq: 1268556
  stamp: 
    secs: 1561683272
    nsecs: 365587893
  frame_id: "ti_mmwave"
point_id: 10
x: 2.6328125
y: -0.1796875
z: 1.11328125
range: 3.05038785934
velocity: 0.0
doppler_bin: 8
bearing: -3.90433979034
intensity: 32.743888855
---
header: 
  seq: 1268557
  stamp: 
    secs: 1561683272
    nsecs: 365683435
  frame_id: "ti_mmwave"
point_id: 11
x: 2.69140625
y: -0.181640625
z: 1.07421875
range: 3.09396481514
velocity: 0.0
doppler_bin: 8
bearing: -3.86098694801
intensity: 31.9893188477
---
header: 
  seq: 1268558
  stamp: 
    secs: 1561683272
    nsecs: 365708821
  frame_id: "ti_mmwave"
point_id: 12
x: 4.4140625
y: -0.287109375
z: 1.19140625
range: 4.88062095642
velocity: 0.0
doppler_bin: 8
bearing: -3.72151875496
intensity: 30.8635978699
---
header: 
  seq: 1268559
  stamp: 
    secs: 1561683272
    nsecs: 365749295
  frame_id: "ti_mmwave"
point_id: 13
x: 4.46484375
y: -0.2890625
z: 1.16015625
range: 4.9241976738
velocity: 0.0
doppler_bin: 8
bearing: -3.70426845551
intensity: 30.4257545471
---
header: 
  seq: 1268560
  stamp: 
    secs: 1561683272
    nsecs: 365764773
  frame_id: "ti_mmwave"
point_id: 14
x: 4.7421875
y: -0.44921875
z: -0.4609375
range: 5.09850549698
velocity: 0.0
doppler_bin: 8
bearing: -5.41137647629
intensity: 32.9446640015
---
header: 
  seq: 1268561
  stamp: 
    secs: 1561683272
    nsecs: 365778566
  frame_id: "ti_mmwave"
point_id: 15
x: 4.791015625
y: -0.453125
z: -0.36328125
range: 5.14208269119
velocity: 0.0
doppler_bin: 8
bearing: -5.40285253525
intensity: 33.3385009766
---
header: 
  seq: 1268562
  stamp: 
    secs: 1561683272
    nsecs: 365792546
  frame_id: "ti_mmwave"
point_id: 16
x: 4.845703125
y: -0.45703125
z: -0.025390625
range: 5.18565940857
velocity: 0.0
doppler_bin: 8
bearing: -5.38801622391
intensity: 30.1911621094
---
header: 
  seq: 1268563
  stamp: 
    secs: 1561683272
    nsecs: 365802191
  frame_id: "ti_mmwave"
point_id: 17
x: 4.865234375
y: -0.306640625
z: 0.578125
range: 5.22923660278
velocity: 0.0
doppler_bin: 8
bearing: -3.60640478134
intensity: 30.4453983307
---
header: 
  seq: 1268564
  stamp: 
    secs: 1561683272
    nsecs: 365865205
  frame_id: "ti_mmwave"
point_id: 18
x: 4.890625
y: -0.30859375
z: 0.69140625
range: 5.27281332016
velocity: 0.0
doppler_bin: 8
bearing: -3.61052203178
intensity: 31.0311927795
---
header: 
  seq: 1268565
  stamp: 
    secs: 1561683272
    nsecs: 365885238
  frame_id: "ti_mmwave"
point_id: 20
x: 0.041015625
y: -0.033203125
z: 0.0625
range: 0.0871539413929
velocity: 0.0
doppler_bin: 8
bearing: -38.9909973145
intensity: 30.141002655
---
header: 
  seq: 1268566
  stamp: 
    secs: 1561683272
    nsecs: 365911549
  frame_id: "ti_mmwave"
point_id: 21
x: 0.052734375
y: -0.04296875
z: 0.1015625
range: 0.130730912089
velocity: 0.0
doppler_bin: 8
bearing: -39.1736602783
intensity: 29.0254669189
---
header: 
  seq: 1268567
  stamp: 
    secs: 1561683272
    nsecs: 365928893
  frame_id: "ti_mmwave"
point_id: 23
x: 1.2109375
y: 0.357421875
z: 0.11328125
range: 1.35088610649
velocity: 0.0
doppler_bin: 8
bearing: 16.4445590973
intensity: 19.0308990479
---
header: 
  seq: 1268568
  stamp: 
    secs: 1561683272
    nsecs: 365949590
  frame_id: "ti_mmwave"
point_id: 24
x: 2.8671875
y: -2.021484375
z: -3.009765625
range: 4.9241976738
velocity: 0.0
doppler_bin: 8
bearing: -35.1854019165
intensity: 27.4429302216
---
header: 
  seq: 1268569
  stamp: 
    secs: 1561683272
    nsecs: 423646905
  frame_id: "ti_mmwave"
point_id: 0
x: 0.01171875
y: -0.0390625
z: -0.0078125
range: 0.0435769706964
velocity: 0.0
doppler_bin: 8
bearing: -73.3007583618
intensity: 30.7481651306
---
header: 
  seq: 1268570
  stamp: 
    secs: 1561683272
    nsecs: 423726529
  frame_id: "ti_mmwave"
point_id: 1
x: 0.017578125
y: -0.080078125
z: -0.0078125
range: 0.0871539413929
velocity: 0.0
doppler_bin: 8
bearing: -77.6192398071
intensity: 31.9755630493
---
header: 
  seq: 1268571
  stamp: 
    secs: 1561683272
    nsecs: 423743251
  frame_id: "ti_mmwave"
point_id: 2
x: 0.029296875
y: -0.119140625
z: -0.005859375
range: 0.130730912089
velocity: 0.0
doppler_bin: 8
bearing: -76.1849746704
intensity: 30.2242832184
---
header: 
  seq: 1268572
  stamp: 
    secs: 1561683272
    nsecs: 423756363
  frame_id: "ti_mmwave"
point_id: 3
x: 0.056640625
y: -0.154296875
z: 0.005859375
range: 0.174307882786
velocity: 0.0
doppler_bin: 8
bearing: -69.8423843384
intensity: 25.490032196
---
header: 
  seq: 1268573
  stamp: 
    secs: 1561683272
    nsecs: 423776237
  frame_id: "ti_mmwave"
point_id: 4
x: 0.3359375
y: -0.080078125
z: -1.220703125
range: 1.35088610649
velocity: 0.0
doppler_bin: 8
bearing: -13.4075088501
intensity: 21.875207901
---
header: 
  seq: 1268574
  stamp: 
    secs: 1561683272
    nsecs: 423877147
  frame_id: "ti_mmwave"
point_id: 5
x: 0.298828125
y: -0.041015625
z: 1.2734375
range: 1.39446306229
velocity: 0.0
doppler_bin: 8
bearing: -7.81529378891
intensity: 23.1806335449
---
header: 
  seq: 1268575
  stamp: 
    secs: 1561683272
    nsecs: 423892405
  frame_id: "ti_mmwave"
point_id: 6
x: 0.39453125
y: -0.0
z: 1.291015625
range: 1.43804001808
velocity: 0.0
doppler_bin: 8
bearing: -0.0
intensity: 21.875207901
---
header: 
  seq: 1268576
  stamp: 
    secs: 1561683272
    nsecs: 423906008
  frame_id: "ti_mmwave"
point_id: 7
x: 2.1015625
y: 0.19921875
z: -0.25390625
range: 2.26600241661
velocity: 0.0
doppler_bin: 8
bearing: 5.41520214081
intensity: 29.9475688934
---
header: 
  seq: 1268577
  stamp: 
    secs: 1561683272
    nsecs: 423918008
  frame_id: "ti_mmwave"
point_id: 8
x: 2.14453125
y: 0.203125
z: -0.23828125
range: 2.30957937241
velocity: 0.0
doppler_bin: 8
bearing: 5.41078042984
intensity: 29.0417442322
---
header: 
  seq: 1268578
  stamp: 
    secs: 1561683272
    nsecs: 423928800
  frame_id: "ti_mmwave"
point_id: 9
x: 2.580078125
y: -0.263671875
z: 1.115234375
range: 3.00681090355
velocity: 0.0
doppler_bin: 8
bearing: -5.83510255814
intensity: 29.4200801849
---
header: 
  seq: 1268579
  stamp: 
    secs: 1561683272
    nsecs: 423940126
  frame_id: "ti_mmwave"
point_id: 10
x: 2.642578125
y: -0.1796875
z: 1.087890625
range: 3.05038785934
velocity: 0.0
doppler_bin: 8
bearing: -3.88995575905
intensity: 32.7875366211
---
header: 
  seq: 1268580
  stamp: 
    secs: 1561683272
    nsecs: 423953256
  frame_id: "ti_mmwave"
point_id: 11
x: 2.689453125
y: -0.181640625
z: 1.080078125
range: 3.09396481514
velocity: 0.0
doppler_bin: 8
bearing: -3.86378216743
intensity: 32.0276069641
---
header: 
  seq: 1268581
  stamp: 
    secs: 1561683272
    nsecs: 423968179
  frame_id: "ti_mmwave"
point_id: 12
x: 4.408203125
y: -0.287109375
z: 1.21484375
range: 4.88062095642
velocity: 0.0
doppler_bin: 8
bearing: -3.72645139694
intensity: 30.7700424194
---
header: 
  seq: 1268582
  stamp: 
    secs: 1561683272
    nsecs: 423979770
  frame_id: "ti_mmwave"
point_id: 13
x: 4.44140625
y: -0.2890625
z: 1.248046875
range: 4.9241976738
velocity: 0.0
doppler_bin: 8
bearing: -3.7237610817
intensity: 30.1199302673
---
header: 
  seq: 1268583
  stamp: 
    secs: 1561683272
    nsecs: 423992581
  frame_id: "ti_mmwave"
point_id: 14
x: 4.740234375
y: -0.44921875
z: -0.482421875
range: 5.09850549698
velocity: 0.0
doppler_bin: 8
bearing: -5.41359329224
intensity: 32.992893219
---
header: 
  seq: 1268584
  stamp: 
    secs: 1561683272
    nsecs: 424007268
  frame_id: "ti_mmwave"
point_id: 15
x: 4.791015625
y: -0.453125
z: -0.3671875
range: 5.14208269119
velocity: 0.0
doppler_bin: 8
bearing: -5.40285253525
intensity: 33.4830474854
---
header: 
  seq: 1268585
  stamp: 
    secs: 1561683272
    nsecs: 424022358
  frame_id: "ti_mmwave"
point_id: 16
x: 4.845703125
y: -0.45703125
z: -0.11328125
range: 5.18565940857
velocity: 0.0
doppler_bin: 8
bearing: -5.38801622391
intensity: 30.700378418
---
header: 
  seq: 1268586
  stamp: 
    secs: 1561683272
    nsecs: 424086751
  frame_id: "ti_mmwave"
point_id: 17
x: 4.880859375
y: -0.306640625
z: 0.416015625
range: 5.22923660278
velocity: 0.0
doppler_bin: 8
bearing: -3.59488987923
intensity: 30.6557979584
---
header: 
  seq: 1268587
  stamp: 
    secs: 1561683272
    nsecs: 424106524
  frame_id: "ti_mmwave"
point_id: 18
x: 4.89453125
y: -0.30859375
z: 0.6640625
range: 5.27281332016
velocity: 0.0
doppler_bin: 8
bearing: -3.60764837265
intensity: 30.8884449005
---
header: 
  seq: 1268588
  stamp: 
    secs: 1561683272
    nsecs: 424122311
  frame_id: "ti_mmwave"
point_id: 19
x: 2.158203125
y: 0.275390625
z: -0.384765625
range: 2.3531563282
velocity: 0.614668667316
doppler_bin: 9
bearing: 7.27174901962
intensity: 25.2762985229
---
header: 
  seq: 1268589
  stamp: 
    secs: 1561683272
    nsecs: 424139508
  frame_id: "ti_mmwave"
point_id: 21
x: 0.041015625
y: -0.033203125
z: 0.0625
range: 0.0871539413929
velocity: 0.0
doppler_bin: 8
bearing: -38.9909973145
intensity: 30.1452045441
---
header: 
  seq: 1268590
  stamp: 
    secs: 1561683272
    nsecs: 424151096
  frame_id: "ti_mmwave"
point_id: 22
x: 0.046875
y: -0.046875
z: 0.103515625
range: 0.130730912089
velocity: 0.0
doppler_bin: 8
bearing: -45.0
intensity: 29.020029068
---
header: 
  seq: 1268591
  stamp: 
    secs: 1561683272
    nsecs: 424166018
  frame_id: "ti_mmwave"
point_id: 24
x: 1.208984375
y: 0.357421875
z: 0.1328125
range: 1.35088610649
velocity: 0.0
doppler_bin: 8
bearing: 16.4696884155
intensity: 19.0308990479
---
header: 
  seq: 1268592
  stamp: 
    secs: 1561683272
    nsecs: 424181547
  frame_id: "ti_mmwave"
point_id: 25
x: 2.978515625
y: -2.021484375
z: -2.8984375
range: 4.9241976738
velocity: 0.0
doppler_bin: 8
bearing: -34.1642875671
intensity: 27.1933135986
---
header: 
  seq: 1268593
  stamp: 
    secs: 1561683272
    nsecs: 425078228
  frame_id: "ti_mmwave"
point_id: 0
x: 0.01171875
y: -0.0390625
z: -0.0078125
range: 0.0435769706964
velocity: 0.0
doppler_bin: 8
bearing: -73.3007583618
intensity: 30.7481651306
---
header: 
  seq: 1268594
  stamp: 
    secs: 1561683272
    nsecs: 425120626
  frame_id: "ti_mmwave"
point_id: 1
x: 0.017578125
y: -0.080078125
z: -0.0078125
range: 0.0871539413929
velocity: 0.0
doppler_bin: 8
bearing: -77.6192398071
intensity: 31.9783172607
---
header: 
  seq: 1268595
  stamp: 
    secs: 1561683272
    nsecs: 425136421
  frame_id: "ti_mmwave"
point_id: 2
x: 0.041015625
y: -0.115234375
z: -0.0078125
range: 0.130730912089
velocity: 0.0
doppler_bin: 8
bearing: -70.4077224731
intensity: 30.2284069061
---
header: 
  seq: 1268596
  stamp: 
    secs: 1561683272
    nsecs: 425148422
  frame_id: "ti_mmwave"
point_id: 3
x: 0.056640625
y: -0.154296875
z: 0.005859375
range: 0.174307882786
velocity: 0.0
doppler_bin: 8
bearing: -69.8423843384
intensity: 25.5022830963
---
header: 
  seq: 1268597
  stamp: 
    secs: 1561683272
    nsecs: 425160456
  frame_id: "ti_mmwave"
point_id: 4
x: 0.365234375
y: -0.080078125
z: -1.2109375
range: 1.35088610649
velocity: 0.0
doppler_bin: 8
bearing: -12.3664970398
intensity: 21.9312458038
---
header: 
  seq: 1268598
  stamp: 
    secs: 1561683272
    nsecs: 425172376
  frame_id: "ti_mmwave"
point_id: 5
x: 0.267578125
y: -0.041015625
z: 1.28125
range: 1.39446306229
velocity: 0.0
doppler_bin: 8
bearing: -8.71473312378
intensity: 23.2633590698
---
header: 
  seq: 1268599
  stamp: 
    secs: 1561683272
    nsecs: 425186294
  frame_id: "ti_mmwave"
point_id: 6
x: 0.451171875
y: -0.04296875
z: 1.271484375
range: 1.43804001808
velocity: 0.0
doppler_bin: 8
bearing: -5.44033241272
intensity: 21.9312458038
---
header: 
  seq: 1268600
  stamp: 
    secs: 1561683272
    nsecs: 425198893
  frame_id: "ti_mmwave"
point_id: 7
x: 2.111328125
y: 0.1328125
z: -0.21875
range: 2.26600241661
velocity: 0.0
doppler_bin: 8
bearing: 3.59943199158
intensity: 27.1850166321
---
header: 
  seq: 1268601
  stamp: 
    secs: 1561683272
    nsecs: 425211789
  frame_id: "ti_mmwave"
point_id: 8
x: 2.146484375
y: 0.134765625
z: -0.27734375
range: 2.30957937241
velocity: 0.0
doppler_bin: 8
bearing: 3.59256291389
intensity: 27.1850166321
---
header: 
  seq: 1268602
  stamp: 
    secs: 1561683272
    nsecs: 425222893
  frame_id: "ti_mmwave"
point_id: 9
x: 2.5625
y: -0.263671875
z: 1.154296875
range: 3.00681090355
velocity: 0.0
doppler_bin: 8
bearing: -5.87485074997
intensity: 29.4101428986
---
header: 
  seq: 1268603
  stamp: 
    secs: 1561683272
    nsecs: 425234982
  frame_id: "ti_mmwave"
point_id: 10
x: 2.615234375
y: -0.267578125
z: 1.134765625
range: 3.05038785934
velocity: 0.0
doppler_bin: 8
bearing: -5.84189844131
intensity: 32.7852478027
---
header: 
  seq: 1268604
  stamp: 
    secs: 1561683272
    nsecs: 425247743
  frame_id: "ti_mmwave"
point_id: 11
x: 2.671875
y: -0.181640625
z: 1.125
range: 3.09396481514
velocity: 0.0
doppler_bin: 8
bearing: -3.88912391663
intensity: 32.0030326843
---
header: 
  seq: 1268605
  stamp: 
    secs: 1561683272
    nsecs: 425261870
  frame_id: "ti_mmwave"
point_id: 12
x: 4.41015625
y: -0.287109375
z: 1.20703125
range: 4.88062095642
velocity: 0.0
doppler_bin: 8
bearing: -3.72480559349
intensity: 30.8098697662
---
header: 
  seq: 1268606
  stamp: 
    secs: 1561683272
    nsecs: 425273596
  frame_id: "ti_mmwave"
point_id: 13
x: 4.46484375
y: -0.2890625
z: 1.162109375
range: 4.9241976738
velocity: 0.0
doppler_bin: 8
bearing: -3.70426845551
intensity: 30.3941402435
---
header: 
  seq: 1268607
  stamp: 
    secs: 1561683272
    nsecs: 425285875
  frame_id: "ti_mmwave"
point_id: 14
x: 4.73828125
y: -0.44921875
z: -0.509765625
range: 5.09850549698
velocity: 0.0
doppler_bin: 8
bearing: -5.4158115387
intensity: 33.0792388916
---
header: 
  seq: 1268608
  stamp: 
    secs: 1561683272
    nsecs: 425300564
  frame_id: "ti_mmwave"
point_id: 15
x: 4.78515625
y: -0.453125
z: -0.4375
range: 5.14208269119
velocity: 0.0
doppler_bin: 8
bearing: -5.40942907333
intensity: 33.5179634094
---
header: 
  seq: 1268609
  stamp: 
    secs: 1561683272
    nsecs: 425312879
  frame_id: "ti_mmwave"
point_id: 16
x: 4.837890625
y: -0.45703125
z: -0.2734375
range: 5.18565940857
velocity: 0.0
doppler_bin: 8
bearing: -5.39666557312
intensity: 30.1870040894
---
header: 
  seq: 1268610
  stamp: 
    secs: 1561683272
    nsecs: 425326609
  frame_id: "ti_mmwave"
point_id: 17
x: 4.892578125
y: -0.30859375
z: 0.689453125
range: 5.27281332016
velocity: 0.0
doppler_bin: 8
bearing: -3.60908436775
intensity: 30.7151374817
---
header: 
  seq: 1268611
  stamp: 
    secs: 1561683272
    nsecs: 425344096
  frame_id: "ti_mmwave"
point_id: 19
x: 0.041015625
y: -0.033203125
z: 0.0625
range: 0.0871539413929
velocity: 0.0
doppler_bin: 8
bearing: -38.9909973145
intensity: 30.141002655
---
header: 
  seq: 1268612
  stamp: 
    secs: 1561683272
    nsecs: 425358649
  frame_id: "ti_mmwave"
point_id: 20
x: 0.044921875
y: -0.046875
z: 0.103515625
range: 0.130730912089
velocity: 0.0
doppler_bin: 8
bearing: -46.218875885
intensity: 29.0254669189
---
header: 
  seq: 1268613
  stamp: 
    secs: 1561683272
    nsecs: 425375899
  frame_id: "ti_mmwave"
point_id: 22
x: 1.115234375
y: -0.474609375
z: 0.373046875
range: 1.35088610649
velocity: 0.0
doppler_bin: 8
bearing: -23.0531082153
intensity: 18.9762706757
---
header: 
  seq: 1268614
  stamp: 
    secs: 1561683272
    nsecs: 483801295
  frame_id: "ti_mmwave"
point_id: 0
x: 0.01171875
y: -0.0390625
z: -0.0078125
range: 0.0435769706964
velocity: 0.0
doppler_bin: 8
bearing: -73.3007583618
intensity: 30.7481651306
---
header: 
  seq: 1268615
  stamp: 
    secs: 1561683272
    nsecs: 483879956
  frame_id: "ti_mmwave"
point_id: 1
x: 0.017578125
y: -0.080078125
z: -0.0078125
range: 0.0871539413929
velocity: 0.0
doppler_bin: 8
bearing: -77.6192398071
intensity: 31.9755630493
---
header: 
  seq: 1268616
  stamp: 
    secs: 1561683272
    nsecs: 483896774
  frame_id: "ti_mmwave"
point_id: 2
x: 0.041015625
y: -0.115234375
z: -0.0078125
range: 0.130730912089
velocity: 0.0
doppler_bin: 8
bearing: -70.4077224731
intensity: 30.2242832184
---
header: 
  seq: 1268617
  stamp: 
    secs: 1561683272
    nsecs: 483909879
  frame_id: "ti_mmwave"
point_id: 3
x: 0.056640625
y: -0.154296875
z: 0.005859375
range: 0.174307882786
velocity: 0.0
doppler_bin: 8
bearing: -69.8423843384
intensity: 25.5022830963
---
header: 
  seq: 1268618
  stamp: 
    secs: 1561683272
    nsecs: 483930727
  frame_id: "ti_mmwave"
point_id: 4
x: 0.3828125
y: -0.080078125
z: -1.20703125
range: 1.35088610649
velocity: 0.0
doppler_bin: 8
bearing: -11.8149757385
intensity: 21.9033164978
---
header: 
  seq: 1268619
  stamp: 
    secs: 1561683272
    nsecs: 484036113
  frame_id: "ti_mmwave"
point_id: 5
x: 0.265625
y: -0.041015625
z: 1.28125
range: 1.39446306229
velocity: 0.0
doppler_bin: 8
bearing: -8.77781772614
intensity: 23.1806335449
---
header: 
  seq: 1268620
  stamp: 
    secs: 1561683272
    nsecs: 484053635
  frame_id: "ti_mmwave"
point_id: 6
x: 0.373046875
y: -0.0
z: 1.296875
range: 1.43804001808
velocity: 0.0
doppler_bin: 8
bearing: -0.0
intensity: 21.8184356689
---
header: 
  seq: 1268621
  stamp: 
    secs: 1561683272
    nsecs: 484065185
  frame_id: "ti_mmwave"
point_id: 7
x: 2.08203125
y: 0.064453125
z: -0.126953125
range: 2.22242546082
velocity: 0.0
doppler_bin: 8
bearing: 1.77313041687
intensity: 27.9865055084
---
header: 
  seq: 1268622
  stamp: 
    secs: 1561683272
    nsecs: 484075636
  frame_id: "ti_mmwave"
point_id: 8
x: 2.12109375
y: 0.06640625
z: -0.140625
range: 2.26600241661
velocity: 0.0
doppler_bin: 8
bearing: 1.7932049036
intensity: 28.9320678711
---
header: 
  seq: 1268623
  stamp: 
    secs: 1561683272
    nsecs: 484086511
  frame_id: "ti_mmwave"
point_id: 9
x: 2.1640625
y: 0.068359375
z: -0.11328125
range: 2.30957937241
velocity: 0.0
doppler_bin: 8
bearing: 1.80928301811
intensity: 27.5815467834
---
header: 
  seq: 1268624
  stamp: 
    secs: 1561683272
    nsecs: 484099448
  frame_id: "ti_mmwave"
point_id: 10
x: 2.521484375
y: -0.263671875
z: 1.2421875
range: 3.00681090355
velocity: 0.0
doppler_bin: 8
bearing: -5.96972894669
intensity: 29.4250411987
---
header: 
  seq: 1268625
  stamp: 
    secs: 1561683272
    nsecs: 484111119
  frame_id: "ti_mmwave"
point_id: 11
x: 2.595703125
y: -0.267578125
z: 1.1796875
range: 3.05038785934
velocity: 0.0
doppler_bin: 8
bearing: -5.88554811478
intensity: 32.7760925293
---
header: 
  seq: 1268626
  stamp: 
    secs: 1561683272
    nsecs: 484122280
  frame_id: "ti_mmwave"
point_id: 12
x: 2.654296875
y: -0.271484375
z: 1.146484375
range: 3.09396481514
velocity: 0.0
doppler_bin: 8
bearing: -5.83996629715
intensity: 32.0167007446
---
header: 
  seq: 1268627
  stamp: 
    secs: 1561683272
    nsecs: 484135966
  frame_id: "ti_mmwave"
point_id: 13
x: 4.419921875
y: -0.287109375
z: 1.17578125
range: 4.88062095642
velocity: 0.0
doppler_bin: 8
bearing: -3.71659874916
intensity: 30.824262619
---
header: 
  seq: 1268628
  stamp: 
    secs: 1561683272
    nsecs: 484147662
  frame_id: "ti_mmwave"
point_id: 14
x: 4.50390625
y: -0.2890625
z: 1.001953125
range: 4.9241976738
velocity: 0.0
doppler_bin: 8
bearing: -3.67222952843
intensity: 30.6632595062
---
header: 
  seq: 1268629
  stamp: 
    secs: 1561683272
    nsecs: 484159477
  frame_id: "ti_mmwave"
point_id: 15
x: 4.73828125
y: -0.44921875
z: -0.494140625
range: 5.09850549698
velocity: 0.0
doppler_bin: 8
bearing: -5.4158115387
intensity: 33.2180557251
---
header: 
  seq: 1268630
  stamp: 
    secs: 1561683272
    nsecs: 484172819
  frame_id: "ti_mmwave"
point_id: 16
x: 4.787109375
y: -0.453125
z: -0.412109375
range: 5.14208269119
velocity: 0.0
doppler_bin: 8
bearing: -5.40723514557
intensity: 33.6078262329
---
header: 
  seq: 1268631
  stamp: 
