header: 
  seq: 276368
  stamp: 
    secs: 1561681721
    nsecs: 934888607
  frame_id: "ti_mmwave"
point_id: 0
x: 0.01171875
y: -0.0390625
z: -0.0078125
range: 0.0435769706964
velocity: 0.0
doppler_bin: 8
bearing: -73.3007583618
intensity: 30.788192749
---
header: 
  seq: 276369
  stamp: 
    secs: 1561681721
    nsecs: 934969751
  frame_id: "ti_mmwave"
point_id: 1
x: 0.017578125
y: -0.080078125
z: -0.0078125
range: 0.0871539413929
velocity: 0.0
doppler_bin: 8
bearing: -77.6192398071
intensity: 32.0112380981
---
header: 
  seq: 276370
  stamp: 
    secs: 1561681721
    nsecs: 934988510
  frame_id: "ti_mmwave"
point_id: 2
x: 0.041015625
y: -0.115234375
z: -0.0078125
range: 0.130730912089
velocity: 0.0
doppler_bin: 8
bearing: -70.4077224731
intensity: 30.2816448212
---
header: 
  seq: 276371
  stamp: 
    secs: 1561681721
    nsecs: 935003756
  frame_id: "ti_mmwave"
point_id: 3
x: 0.056640625
y: -0.154296875
z: 0.005859375
range: 0.174307882786
velocity: 0.0
doppler_bin: 8
bearing: -69.8423843384
intensity: 25.5266819
---
header: 
  seq: 276372
  stamp: 
    secs: 1561681721
    nsecs: 935013080
  frame_id: "ti_mmwave"
point_id: 4
x: 0.296875
y: -0.080078125
z: -1.23046875
range: 1.35088610649
velocity: 0.0
doppler_bin: 8
bearing: -15.0955219269
intensity: 21.8469142914
---
header: 
  seq: 276373
  stamp: 
    secs: 1561681721
    nsecs: 935021223
  frame_id: "ti_mmwave"
point_id: 5
x: 0.345703125
y: -0.041015625
z: 1.26171875
range: 1.39446306229
velocity: 0.0
doppler_bin: 8
bearing: -6.76617479324
intensity: 23.2633590698
---
header: 
  seq: 276374
  stamp: 
    secs: 1561681721
    nsecs: 935028944
  frame_id: "ti_mmwave"
point_id: 6
x: 0.435546875
y: -0.0
z: 1.27734375
range: 1.43804001808
velocity: 0.0
doppler_bin: 8
bearing: -0.0
intensity: 21.9033164978
---
header: 
  seq: 276375
  stamp: 
    secs: 1561681721
    nsecs: 935148930
  frame_id: "ti_mmwave"
point_id: 7
x: 2.541015625
y: -0.263671875
z: 1.201171875
range: 3.00681090355
velocity: 0.0
doppler_bin: 8
bearing: -5.92417097092
intensity: 29.5472488403
---
header: 
  seq: 276376
  stamp: 
    secs: 1561681721
    nsecs: 935158685
  frame_id: "ti_mmwave"
point_id: 8
x: 2.59375
y: -0.267578125
z: 1.181640625
range: 3.05038785934
velocity: 0.0
doppler_bin: 8
bearing: -5.88994932175
intensity: 32.8194198608
---
header: 
  seq: 276377
  stamp: 
    secs: 1561681721
    nsecs: 935166269
  frame_id: "ti_mmwave"
point_id: 9
x: 2.646484375
y: -0.181640625
z: 1.18359375
range: 3.09396481514
velocity: 0.0
doppler_bin: 8
bearing: -3.92632055283
intensity: 32.0493354797
---
header: 
  seq: 276378
  stamp: 
    secs: 1561681721
    nsecs: 935174085
  frame_id: "ti_mmwave"
point_id: 10
x: 4.40625
y: -0.287109375
z: 1.224609375
range: 4.88062095642
velocity: 0.0
doppler_bin: 8
bearing: -3.72809815407
intensity: 30.6744289398
---
header: 
  seq: 276379
  stamp: 
    secs: 1561681721
    nsecs: 935183543
  frame_id: "ti_mmwave"
point_id: 11
x: 4.400390625
y: -0.43359375
z: 1.345703125
range: 4.9241976738
velocity: 0.0
doppler_bin: 8
bearing: -5.62749004364
intensity: 30.2118930817
---
header: 
  seq: 276380
  stamp: 
    secs: 1561681721
    nsecs: 935191464
  frame_id: "ti_mmwave"
point_id: 12
x: 4.736328125
y: -0.44921875
z: -0.515625
range: 5.09850549698
velocity: 0.0
doppler_bin: 8
bearing: -5.41803121567
intensity: 31.6046848297
---
header: 
  seq: 276381
  stamp: 
    secs: 1561681721
    nsecs: 935198876
  frame_id: "ti_mmwave"
point_id: 13
x: 4.779296875
y: -0.453125
z: -0.49609375
range: 5.14208269119
velocity: 0.0
doppler_bin: 8
bearing: -5.41602182388
intensity: 32.3979988098
---
header: 
  seq: 276382
  stamp: 
    secs: 1561681721
    nsecs: 935207623
  frame_id: "ti_mmwave"
point_id: 14
x: 4.84375
y: -0.46484375
z: 0.90625
range: 5.27281332016
velocity: 0.0
doppler_bin: 8
bearing: -5.48175907135
intensity: 30.6145248413
---
header: 
  seq: 276383
  stamp: 
    secs: 1561681721
    nsecs: 935217175
  frame_id: "ti_mmwave"
point_id: 16
x: 0.041015625
y: -0.033203125
z: 0.0625
range: 0.0871539413929
velocity: 0.0
doppler_bin: 8
bearing: -38.9909973145
intensity: 30.1283721924
---
header: 
  seq: 276384
  stamp: 
    secs: 1561681721
    nsecs: 935224864
  frame_id: "ti_mmwave"
point_id: 17
x: 0.052734375
y: -0.04296875
z: 0.103515625
range: 0.130730912089
velocity: 0.0
doppler_bin: 8
bearing: -39.1736602783
intensity: 29.0091304779
---
header: 
  seq: 276385
  stamp: 
    secs: 1561681721
    nsecs: 935234611
  frame_id: "ti_mmwave"
point_id: 19
x: 1.119140625
y: -0.515625
z: 0.298828125
range: 1.35088610649
velocity: 0.0
doppler_bin: 8
bearing: -24.7370834351
intensity: 18.9209461212
---
header: 
  seq: 276386
  stamp: 
    secs: 1561681721
    nsecs: 935242472
  frame_id: "ti_mmwave"
point_id: 20
x: 2.83203125
y: -2.00390625
z: -2.9921875
range: 4.88062095642
velocity: 0.0
doppler_bin: 8
bearing: -35.282699585
intensity: 27.8031730652
---
header: 
  seq: 276387
  stamp: 
    secs: 1561681721
    nsecs: 935251589
  frame_id: "ti_mmwave"
point_id: 21
x: 2.935546875
y: -2.021484375
z: -2.94140625
range: 4.9241976738
velocity: 0.0
doppler_bin: 8
bearing: -34.5521812439
intensity: 27.3798732758
---
header: 
  seq: 276388
  stamp: 
    secs: 1561681721
    nsecs: 936421951
  frame_id: "ti_mmwave"
point_id: 0
x: 0.01171875
y: -0.0390625
z: -0.0078125
range: 0.0435769706964
velocity: 0.0
doppler_bin: 8
bearing: -73.3007583618
intensity: 30.7845687866
---
header: 
  seq: 276389
  stamp: 
    secs: 1561681721
    nsecs: 936472102
  frame_id: "ti_mmwave"
point_id: 1
x: 0.017578125
y: -0.080078125
z: -0.0078125
range: 0.0871539413929
velocity: 0.0
doppler_bin: 8
bearing: -77.6192398071
intensity: 32.0085067749
---
header: 
  seq: 276390
  stamp: 
    secs: 1561681721
    nsecs: 936482439
  frame_id: "ti_mmwave"
point_id: 2
x: 0.041015625
y: -0.115234375
z: -0.0078125
range: 0.130730912089
velocity: 0.0
doppler_bin: 8
bearing: -70.4077224731
intensity: 30.2775726318
---
header: 
  seq: 276391
  stamp: 
    secs: 1561681721
    nsecs: 936494787
  frame_id: "ti_mmwave"
point_id: 3
x: 0.056640625
y: -0.154296875
z: 0.00390625
range: 0.174307882786
velocity: 0.0
doppler_bin: 8
bearing: -69.8423843384
intensity: 25.5266819
---
header: 
  seq: 276392
  stamp: 
    secs: 1561681721
    nsecs: 936508069
  frame_id: "ti_mmwave"
point_id: 4
x: 0.298828125
y: -0.080078125
z: -1.23046875
range: 1.35088610649
velocity: 0.0
doppler_bin: 8
bearing: -15.0013189316
intensity: 21.9312458038
---
header: 
  seq: 276393
  stamp: 
    secs: 1561681721
    nsecs: 936570993
  frame_id: "ti_mmwave"
point_id: 5
x: 0.333984375
y: -0.041015625
z: 1.265625
range: 1.39446306229
velocity: 0.0
doppler_bin: 8
bearing: -7.00126743317
intensity: 23.3041381836
---
header: 
  seq: 276394
  stamp: 
    secs: 1561681721
    nsecs: 936585352
  frame_id: "ti_mmwave"
point_id: 6
x: 0.431640625
y: -0.0
z: 1.279296875
range: 1.43804001808
velocity: 0.0
doppler_bin: 8
bearing: -0.0
intensity: 21.9312458038
---
header: 
  seq: 276395
  stamp: 
    secs: 1561681721
    nsecs: 936600689
  frame_id: "ti_mmwave"
point_id: 7
x: 2.34375
y: -0.453125
z: -0.35546875
range: 2.5710413456
velocity: 0.0
doppler_bin: 8
bearing: -10.9421854019
intensity: 26.7302093506
---
header: 
  seq: 276396
  stamp: 
    secs: 1561681721
    nsecs: 936613293
  frame_id: "ti_mmwave"
point_id: 8
x: 2.384765625
y: -0.4609375
z: -0.3515625
range: 2.61461830139
velocity: 0.0
doppler_bin: 8
bearing: -10.9394721985
intensity: 26.1066017151
---
header: 
  seq: 276397
  stamp: 
    secs: 1561681721
    nsecs: 936624411
  frame_id: "ti_mmwave"
point_id: 9
x: 2.52734375
y: -0.263671875
z: 1.23046875
range: 3.00681090355
velocity: 0.0
doppler_bin: 8
bearing: -5.9559879303
intensity: 29.5327625275
---
header: 
  seq: 276398
  stamp: 
    secs: 1561681721
    nsecs: 936636809
  frame_id: "ti_mmwave"
point_id: 10
x: 2.58203125
y: -0.267578125
z: 1.208984375
range: 3.05038785934
velocity: 0.0
doppler_bin: 8
bearing: -5.91649150848
intensity: 32.8891944885
---
header: 
  seq: 276399
  stamp: 
    secs: 1561681721
    nsecs: 936642642
  frame_id: "ti_mmwave"
point_id: 11
x: 2.62890625
y: -0.181640625
z: 1.22265625
range: 3.09396481514
velocity: 0.0
doppler_bin: 8
bearing: -3.95249056816
intensity: 32.1642990112
---
header: 
  seq: 276400
  stamp: 
    secs: 1561681721
    nsecs: 936661853
  frame_id: "ti_mmwave"
point_id: 12
x: 4.421875
y: -0.287109375
z: 1.166015625
range: 4.88062095642
velocity: 0.0
doppler_bin: 8
bearing: -3.7149617672
intensity: 30.6892757416
---
header: 
  seq: 276401
  stamp: 
    secs: 1561681721
    nsecs: 936675717
  frame_id: "ti_mmwave"
point_id: 13
x: 4.4609375
y: -0.43359375
z: 1.130859375
range: 4.9241976738
velocity: 0.0
doppler_bin: 8
bearing: -5.55159044266
intensity: 30.4336223602
---
header: 
  seq: 276402
  stamp: 
    secs: 1561681721
    nsecs: 936691028
  frame_id: "ti_mmwave"
point_id: 14
x: 4.8359375
y: -0.46484375
z: 0.94921875
range: 5.27281332016
velocity: 0.0
doppler_bin: 8
bearing: -5.49056053162
intensity: 30.678144455
---
header: 
  seq: 276403
  stamp: 
    secs: 1561681721
    nsecs: 936707653
  frame_id: "ti_mmwave"
point_id: 16
x: 0.041015625
y: -0.033203125
z: 0.0625
range: 0.0871539413929
velocity: 0.0
doppler_bin: 8
bearing: -38.9909973145
intensity: 30.1325874329
---
header: 
  seq: 276404
  stamp: 
    secs: 1561681721
    nsecs: 936751435
  frame_id: "ti_mmwave"
point_id: 17
x: 0.052734375
y: -0.04296875
z: 0.103515625
range: 0.130730912089
velocity: 0.0
doppler_bin: 8
bearing: -39.1736602783
intensity: 29.0145835876
---
header: 
  seq: 276405
  stamp: 
    secs: 1561681721
    nsecs: 936761952
  frame_id: "ti_mmwave"
point_id: 19
x: 1.119140625
y: -0.515625
z: 0.298828125
range: 1.35088610649
velocity: 0.0
doppler_bin: 8
bearing: -24.7370834351
intensity: 19.0308990479
---
header: 
  seq: 276406
  stamp: 
    secs: 1561681721
    nsecs: 936769912
  frame_id: "ti_mmwave"
point_id: 20
x: 2.71484375
y: -2.00390625
z: -3.099609375
range: 4.88062095642
velocity: 0.0
doppler_bin: 8
bearing: -36.4321250916
intensity: 27.774269104
---
header: 
  seq: 276407
  stamp: 
    secs: 1561681721
    nsecs: 936777611
  frame_id: "ti_mmwave"
point_id: 21
x: 2.572265625
y: -2.021484375
z: -3.265625
range: 4.9241976738
velocity: 0.0
doppler_bin: 8
bearing: -38.1629905701
intensity: 27.4429302216
---
header: 
  seq: 276408
  stamp: 
    secs: 1561681721
    nsecs: 994667821
  frame_id: "ti_mmwave"
point_id: 0
x: 0.01171875
y: -0.0390625
z: -0.0078125
range: 0.0435769706964
velocity: 0.0
doppler_bin: 8
bearing: -73.3007583618
intensity: 30.7954292297
---
header: 
  seq: 276409
  stamp: 
    secs: 1561681721
    nsecs: 994720227
  frame_id: "ti_mmwave"
point_id: 1
x: 0.017578125
y: -0.080078125
z: -0.0078125
range: 0.0871539413929
velocity: 0.0
doppler_bin: 8
bearing: -77.6192398071
intensity: 32.0112380981
---
header: 
  seq: 276410
  stamp: 
    secs: 1561681721
    nsecs: 994727368
  frame_id: "ti_mmwave"
point_id: 2
x: 0.041015625
y: -0.115234375
z: -0.0078125
range: 0.130730912089
velocity: 0.0
doppler_bin: 8
bearing: -70.4077224731
intensity: 30.2816448212
---
header: 
  seq: 276411
  stamp: 
    secs: 1561681721
    nsecs: 994734164
  frame_id: "ti_mmwave"
point_id: 3
x: 0.056640625
y: -0.154296875
z: 0.005859375
range: 0.174307882786
velocity: 0.0
doppler_bin: 8
bearing: -69.8423843384
intensity: 25.5388298035
---
header: 
  seq: 276412
  stamp: 
    secs: 1561681721
    nsecs: 994739647
  frame_id: "ti_mmwave"
point_id: 4
x: 0.32421875
y: -0.080078125
z: -1.22265625
range: 1.35088610649
velocity: 0.0
doppler_bin: 8
bearing: -13.8737030029
intensity: 21.8469142914
---
header: 
  seq: 276413
  stamp: 
    secs: 1561681721
    nsecs: 994744939
  frame_id: "ti_mmwave"
point_id: 5
x: 0.330078125
y: -0.041015625
z: 1.265625
range: 1.39446306229
velocity: 0.0
doppler_bin: 8
bearing: -7.0832862854
intensity: 23.2221927643
---
header: 
  seq: 276414
  stamp: 
    secs: 1561681721
    nsecs: 994751919
  frame_id: "ti_mmwave"
point_id: 6
x: 0.41015625
y: -0.0
z: 1.28515625
range: 1.43804001808
velocity: 0.0
doppler_bin: 8
bearing: -0.0
intensity: 21.8469142914
---
header: 
  seq: 276415
  stamp: 
    secs: 1561681721
    nsecs: 994760849
  frame_id: "ti_mmwave"
point_id: 7
x: 2.55859375
y: -0.263671875
z: 1.162109375
range: 3.00681090355
velocity: 0.0
doppler_bin: 8
bearing: -5.88375711441
intensity: 29.4151134491
---
header: 
  seq: 276416
  stamp: 
    secs: 1561681721
    nsecs: 994769737
  frame_id: "ti_mmwave"
point_id: 8
x: 2.61328125
y: -0.267578125
z: 1.140625
range: 3.05038785934
velocity: 0.0
doppler_bin: 8
bearing: -5.84623432159
intensity: 32.7783851624
---
header: 
  seq: 276417
  stamp: 
    secs: 1561681721
    nsecs: 994779482
  frame_id: "ti_mmwave"
point_id: 9
x: 2.66796875
y: -0.181640625
z: 1.130859375
range: 3.09396481514
velocity: 0.0
doppler_bin: 8
bearing: -3.89480042458
intensity: 32.0978317261
---
header: 
  seq: 276418
  stamp: 
    secs: 1561681721
    nsecs: 994785189
  frame_id: "ti_mmwave"
point_id: 10
x: 4.419921875
y: -0.287109375
z: 1.171875
range: 4.88062095642
velocity: 0.0
doppler_bin: 8
bearing: -3.71659874916
intensity: 30.6707077026
---
header: 
  seq: 276419
  stamp: 
    secs: 1561681721
    nsecs: 994790884
  frame_id: "ti_mmwave"
point_id: 11
x: 4.48046875
y: -0.2890625
z: 1.099609375
range: 4.9241976738
velocity: 0.0
doppler_bin: 8
bearing: -3.69138598442
intensity: 30.3782482147
---
header: 
  seq: 276420
  stamp: 
    secs: 1561681721
    nsecs: 994796465
  frame_id: "ti_mmwave"
point_id: 12
x: 4.845703125
y: -0.46484375
z: 0.896484375
range: 5.27281332016
velocity: 0.0
doppler_bin: 8
bearing: -5.47956323624
intensity: 30.8134727478
---
header: 
  seq: 276421
  stamp: 
    secs: 1561681721
    nsecs: 994801743
  frame_id: "ti_mmwave"
point_id: 13
x: 2.353515625
y: -0.537109375
z: 0.443359375
range: 2.61461830139
velocity: 0.614668667316
doppler_bin: 9
bearing: -12.8556346893
intensity: 25.15873909
---
header: 
  seq: 276422
  stamp: 
    secs: 1561681721
    nsecs: 994807919
  frame_id: "ti_mmwave"
point_id: 14
x: 2.30859375
y: -0.37109375
z: -0.40625
range: 2.5274643898
velocity: -0.614668667316
doppler_bin: 7
bearing: -9.13186359406
intensity: 24.727563858
---
header: 
  seq: 276423
  stamp: 
    secs: 1561681721
    nsecs: 994813270
  frame_id: "ti_mmwave"
point_id: 15
x: 2.318359375
y: -0.376953125
z: -0.5546875
range: 2.5710413456
velocity: -0.614668667316
doppler_bin: 7
bearing: -9.2351770401
intensity: 26.6745300293
---
header: 
  seq: 276424
  stamp: 
    secs: 1561681721
    nsecs: 994818384
  frame_id: "ti_mmwave"
point_id: 16
x: 2.33203125
y: -0.3828125
z: -0.662109375
range: 2.61461830139
velocity: -0.614668667316
doppler_bin: 7
bearing: -9.32219696045
intensity: 25.965970993
---
header: 
  seq: 276425
  stamp: 
    secs: 1561681721
    nsecs: 994825865
  frame_id: "ti_mmwave"
point_id: 18
x: 0.041015625
y: -0.033203125
z: 0.0625
range: 0.0871539413929
velocity: 0.0
doppler_bin: 8
bearing: -38.9909973145
intensity: 30.1367969513
---
header: 
  seq: 276426
  stamp: 
    secs: 1561681721
    nsecs: 994832929
  frame_id: "ti_mmwave"
point_id: 19
x: 0.052734375
y: -0.04296875
z: 0.103515625
range: 0.130730912089
velocity: 0.0
doppler_bin: 8
bearing: -39.1736602783
intensity: 29.0145835876
---
header: 
  seq: 276427
  stamp: 
    secs: 1561681721
    nsecs: 994961118
  frame_id: "ti_mmwave"
point_id: 21
x: 1.1171875
y: -0.515625
z: 0.3046875
range: 1.35088610649
velocity: 0.0
doppler_bin: 8
bearing: -24.7751407623
intensity: 18.9762706757
---
header: 
  seq: 276428
  stamp: 
    secs: 1561681721
    nsecs: 994975745
  frame_id: "ti_mmwave"
point_id: 22
x: 2.6953125
y: -2.00390625
z: -3.115234375
range: 4.88062095642
velocity: 0.0
doppler_bin: 8
bearing: -36.6300010681
intensity: 27.7887439728
---
header: 
  seq: 276429
  stamp: 
    secs: 1561681721
    nsecs: 994980803
  frame_id: "ti_mmwave"
point_id: 23
x: 2.59765625
y: -2.021484375
z: -3.244140625
range: 4.9241976738
velocity: 0.0
doppler_bin: 8
bearing: -37.8898925781
intensity: 27.466342926
---
header: 
  seq: 276430
  stamp: 
    secs: 1561681721
    nsecs: 995676202
  frame_id: "ti_mmwave"
point_id: 0
x: 0.01171875
y: -0.0390625
z: -0.0078125
range: 0.0435769706964
velocity: 0.0
doppler_bin: 8
bearing: -73.3007583618
intensity: 30.788192749
---
header: 
  seq: 276431
  stamp: 
    secs: 1561681721
    nsecs: 995712517
  frame_id: "ti_mmwave"
point_id: 1
x: 0.017578125
y: -0.080078125
z: -0.0078125
range: 0.0871539413929
velocity: 0.0
doppler_bin: 8
bearing: -77.6192398071
intensity: 32.0085067749
---
header: 
  seq: 276432
  stamp: 
    secs: 1561681721
    nsecs: 995724540
  frame_id: "ti_mmwave"
point_id: 2
x: 0.041015625
y: -0.115234375
z: -0.0078125
range: 0.130730912089
velocity: 0.0
doppler_bin: 8
bearing: -70.4077224731
intensity: 30.2857131958
---
header: 
  seq: 276433
  stamp: 
    secs: 1561681721
    nsecs: 995733501
  frame_id: "ti_mmwave"
point_id: 3
x: 0.056640625
y: -0.154296875
z: 0.00390625
range: 0.174307882786
velocity: 0.0
doppler_bin: 8
bearing: -69.8423843384
intensity: 25.5388298035
---
header: 
  seq: 276434
  stamp: 
    secs: 1561681721
    nsecs: 995741811
  frame_id: "ti_mmwave"
point_id: 4
x: 0.318359375
y: -0.080078125
z: -1.224609375
range: 1.35088610649
velocity: 0.0
doppler_bin: 8
bearing: -14.1189212799
intensity: 21.875207901
---
header: 
  seq: 276435
  stamp: 
    secs: 1561681721
    nsecs: 995786970
  frame_id: "ti_mmwave"
point_id: 5
x: 0.333984375
y: -0.041015625
z: 1.265625
range: 1.39446306229
velocity: 0.0
doppler_bin: 8
bearing: -7.00126743317
intensity: 23.2633590698
---
header: 
  seq: 276436
  stamp: 
    secs: 1561681721
    nsecs: 995793076
  frame_id: "ti_mmwave"
point_id: 6
x: 0.396484375
y: -0.0
z: 1.291015625
range: 1.43804001808
velocity: 0.0
doppler_bin: 8
bearing: -0.0
intensity: 21.9033164978
---
header: 
  seq: 276437
  stamp: 
    secs: 1561681721
    nsecs: 995798919
  frame_id: "ti_mmwave"
point_id: 7
x: 2.302734375
y: -0.51953125
z: -0.234375
range: 2.5274643898
velocity: 0.0
doppler_bin: 8
bearing: -12.7139148712
intensity: 27.201593399
---
header: 
  seq: 276438
  stamp: 
    secs: 1561681721
    nsecs: 995803912
  frame_id: "ti_mmwave"
point_id: 8
x: 2.33984375
y: -0.52734375
z: -0.259765625
range: 2.5710413456
velocity: 0.0
doppler_bin: 8
bearing: -12.7008666992
intensity: 28.0955963135
---
header: 
  seq: 276439
  stamp: 
    secs: 1561681721
    nsecs: 995809126
  frame_id: "ti_mmwave"
point_id: 9
x: 2.404296875
y: -0.4609375
z: -0.177734375
range: 2.61461830139
velocity: 0.0
doppler_bin: 8
bearing: -10.8527231216
intensity: 25.8206329346
---
header: 
  seq: 276440
  stamp: 
    secs: 1561681721
    nsecs: 995814220
  frame_id: "ti_mmwave"
point_id: 10
x: 2.560546875
y: -0.263671875
z: 1.158203125
range: 3.00681090355
velocity: 0.0
doppler_bin: 8
bearing: -5.87930107117
intensity: 29.5375976562
---
header: 
  seq: 276441
  stamp: 
    secs: 1561681721
    nsecs: 995819282
  frame_id: "ti_mmwave"
point_id: 11
x: 2.623046875
y: -0.267578125
z: 1.119140625
range: 3.05038785934
velocity: 0.0
doppler_bin: 8
bearing: -5.82461833954
intensity: 32.8375320435
---
header: 
  seq: 276442
  stamp: 
    secs: 1561681721
    nsecs: 995825071
  frame_id: "ti_mmwave"
point_id: 12
x: 2.68359375
y: -0.181640625
z: 1.09375
range: 3.09396481514
velocity: 0.0
doppler_bin: 8
bearing: -3.87219262123
intensity: 32.0924682617
---
header: 
  seq: 276443
  stamp: 
    secs: 1561681721
    nsecs: 995830603
  frame_id: "ti_mmwave"
point_id: 13
x: 4.41015625
y: -0.287109375
z: 1.20703125
range: 4.88062095642
velocity: 0.0
doppler_bin: 8
bearing: -3.72480559349
intensity: 30.6220588684
---
header: 
  seq: 276444
  stamp: 
    secs: 1561681721
    nsecs: 995835741
  frame_id: "ti_mmwave"
point_id: 14
x: 4.4609375
y: -0.2890625
z: 1.1796875
range: 4.9241976738
velocity: 0.0
doppler_bin: 8
bearing: -3.70750308037
intensity: 30.2366390228
---
header: 
  seq: 276445
  stamp: 
    secs: 1561681721
    nsecs: 995840719
  frame_id: "ti_mmwave"
point_id: 15
x: 4.83203125
y: -0.46484375
z: 0.962890625
range: 5.27281332016
velocity: 0.0
doppler_bin: 8
bearing: -5.49497270584
intensity: 30.8813610077
---
header: 
  seq: 276446
  stamp: 
    secs: 1561681721
    nsecs: 995846907
  frame_id: "ti_mmwave"
point_id: 17
x: 0.041015625
y: -0.033203125
z: 0.0625
range: 0.0871539413929
velocity: 0.0
doppler_bin: 8
bearing: -38.9909973145
intensity: 30.1367969513
---
header: 
  seq: 276447
  stamp: 
    secs: 1561681721
    nsecs: 995851858
  frame_id: "ti_mmwave"
point_id: 18
x: 0.052734375
y: -0.04296875
z: 0.103515625
range: 0.130730912089
velocity: 0.0
doppler_bin: 8
bearing: -39.1736602783
intensity: 29.0254669189
---
header: 
  seq: 276448
  stamp: 
    secs: 1561681721
    nsecs: 995858054
  frame_id: "ti_mmwave"
point_id: 20
x: 1.1171875
y: -0.515625
z: 0.306640625
range: 1.35088610649
velocity: 0.0
doppler_bin: 8
bearing: -24.7751407623
intensity: 18.9762706757
---
header: 
  seq: 276449
  stamp: 
    secs: 1561681721
    nsecs: 995864457
  frame_id: "ti_mmwave"
point_id: 21
x: 2.8125
y: -2.00390625
z: -3.009765625
range: 4.88062095642
velocity: 0.0
doppler_bin: 8
bearing: -35.4698677063
intensity: 27.7232170105
---
header: 
  seq: 276450
  stamp: 
    secs: 1561681721
    nsecs: 995902299
  frame_id: "ti_mmwave"
point_id: 22
x: 2.822265625
y: -2.021484375
z: -3.05078125
range: 4.9241976738
velocity: 0.0
doppler_bin: 8
bearing: -35.6126251221
intensity: 27.3399925232
---
header: 
  seq: 276451
  stamp: 
    secs: 1561681722
    nsecs:  54579497
  frame_id: "ti_mmwave"
point_id: 0
x: 0.01171875
y: -0.0390625
z: -0.0078125
range: 0.0435769706964
velocity: 0.0
doppler_bin: 8
bearing: -73.3007583618
intensity: 30.788192749
---
header: 
  seq: 276452
  stamp: 
    secs: 1561681722
    nsecs:  54668840
  frame_id: "ti_mmwave"
point_id: 1
x: 0.017578125
y: -0.080078125
z: -0.0078125
range: 0.0871539413929
velocity: 0.0
doppler_bin: 8
bearing: -77.6192398071
intensity: 32.0112380981
---
header: 
  seq: 276453
  stamp: 
    secs: 1561681722
    nsecs:  54679748
  frame_id: "ti_mmwave"
point_id: 2
x: 0.041015625
y: -0.115234375
z: -0.0078125
range: 0.130730912089
velocity: 0.0
doppler_bin: 8
bearing: -70.4077224731
intensity: 30.2816448212
---
header: 
  seq: 276454
  stamp: 
    secs: 1561681722
    nsecs:  54688513
  frame_id: "ti_mmwave"
point_id: 3
x: 0.056640625
y: -0.154296875
z: 0.00390625
range: 0.174307882786
velocity: 0.0
doppler_bin: 8
bearing: -69.8423843384
intensity: 25.550945282
---
header: 
  seq: 276455
  stamp: 
    secs: 1561681722
    nsecs:  54698951
  frame_id: "ti_mmwave"
point_id: 4
x: 0.279296875
y: -0.080078125
z: -1.234375
range: 1.35088610649
velocity: 0.0
doppler_bin: 8
bearing: -15.9982995987
intensity: 21.875207901
---
header: 
  seq: 276456
  stamp: 
    secs: 1561681722
    nsecs:  54707447
  frame_id: "ti_mmwave"
point_id: 5
x: 0.34765625
y: -0.041015625
z: 1.26171875
range: 1.39446306229
velocity: 0.0
doppler_bin: 8
bearing: -6.7285118103
intensity: 23.2428245544
---
header: 
  seq: 276457
  stamp: 
    secs: 1561681722
    nsecs:  54715859
  frame_id: "ti_mmwave"
point_id: 6
x: 0.447265625
y: -0.0
z: 1.2734375
range: 1.43804001808
velocity: 0.0
doppler_bin: 8
bearing: -0.0
intensity: 21.8469142914
---
header: 
  seq: 276458
  stamp: 
    secs: 1561681722
    nsecs:  54723831
  frame_id: "ti_mmwave"
point_id: 7
x: 2.375
y: -0.376953125
z: -0.20703125
range: 2.5710413456
velocity: 0.0
doppler_bin: 8
bearing: -9.01859283447
intensity: 27.2263393402
---
header: 
  seq: 276459
  stamp: 
    secs: 1561681722
    nsecs:  54733456
  frame_id: "ti_mmwave"
point_id: 8
x: 2.423828125
y: -0.3828125
z: -0.078125
range: 2.61461830139
velocity: 0.0
doppler_bin: 8
bearing: -8.97499752045
intensity: 28.1756534576
---
header: 
  seq: 276460
  stamp: 
    secs: 1561681722
    nsecs:  54741851
  frame_id: "ti_mmwave"
point_id: 9
x: 2.462890625
y: -0.390625
z: -0.091796875
range: 2.65819525719
velocity: 0.0
doppler_bin: 8
bearing: -9.01228713989
intensity: 27.1850166321
---
header: 
  seq: 276461
  stamp: 
    secs: 1561681722
    nsecs:  54766737
  frame_id: "ti_mmwave"
point_id: 10
x: 2.544921875
y: -0.263671875
z: 1.193359375
range: 3.00681090355
velocity: 0.0
doppler_bin: 8
bearing: -5.91514253616
intensity: 29.6614170074
---
header: 
  seq: 276462
  stamp: 
    secs: 1561681722
    nsecs:  54937122
  frame_id: "ti_mmwave"
point_id: 11
x: 2.599609375
y: -0.267578125
z: 1.169921875
range: 3.05038785934
velocity: 0.0
doppler_bin: 8
bearing: -5.87676620483
intensity: 32.8420524597
---
header: 
  seq: 276463
  stamp: 
    secs: 1561681722
    nsecs:  54987052
  frame_id: "ti_mmwave"
point_id: 12
x: 2.654296875
y: -0.181640625
z: 1.1640625
range: 3.09396481514
velocity: 0.0
doppler_bin: 8
bearing: -3.91479969025
intensity: 32.0085067749
---
header: 
  seq: 276464
  stamp: 
    secs: 1561681722
    nsecs:  55028005
  frame_id: "ti_mmwave"
point_id: 13
x: 4.4140625
y: -0.287109375
z: 1.193359375
range: 4.88062095642
velocity: 0.0
doppler_bin: 8
bearing: -3.72151875496
intensity: 30.6445808411
---
header: 
  seq: 276465
  stamp: 
    secs: 1561681722
    nsecs:  55037117
  frame_id: "ti_mmwave"
point_id: 14
x: 4.46484375
y: -0.2890625
z: 1.16015625
range: 4.9241976738
velocity: 0.0
doppler_bin: 8
bearing: -3.70426845551
intensity: 30.2653331757
---
header: 
  seq: 276466
  stamp: 
    secs: 1561681722
    nsecs:  55047673
  frame_id: "ti_mmwave"
point_id: 15
x: 4.8359375
y: -0.46484375
z: 0.943359375
range: 5.27281332016
velocity: 0.0
doppler_bin: 8
bearing: -5.49056053162
intensity: 30.7845687866
---
header: 
  seq: 276467
  stamp: 
    secs: 1561681722
    nsecs:  55066618
  frame_id: "ti_mmwave"
point_id: 17
x: 0.041015625
y: -0.033203125
z: 0.0625
range: 0.0871539413929
velocity: 0.0
doppler_bin: 8
bearing: -38.9909973145
intensity: 30.1325874329
---
header: 
  seq: 276468
  stamp: 
    secs: 1561681722
    nsecs:  55079863
  frame_id: "ti_mmwave"
point_id: 18
x: 0.052734375
y: -0.04296875
z: 0.103515625
range: 0.130730912089
velocity: 0.0
doppler_bin: 8
bearing: -39.1736602783
intensity: 29.020029068
---
header: 
  seq: 276469
  stamp: 
    secs: 1561681722
    nsecs:  55094948
  frame_id: "ti_mmwave"
point_id: 20
x: 1.1171875
y: -0.515625
z: 0.306640625
range: 1.35088610649
velocity: 0.0
doppler_bin: 8
bearing: -24.7751407623
intensity: 18.9209461212
---
header: 
  seq: 276470
  stamp: 
    secs: 1561681722
    nsecs:  55207171
  frame_id: "ti_mmwave"
point_id: 21
x: 2.79296875
y: -2.00390625
z: -3.029296875
range: 4.88062095642
velocity: 0.0
doppler_bin: 8
bearing: -35.6587791443
intensity: 27.8031730652
---
header: 
  seq: 276471
  stamp: 
    secs: 1561681722
    nsecs:  55246147
  frame_id: "ti_mmwave"
point_id: 22
x: 2.75
y: -2.021484375
z: -3.115234375
range: 4.9241976738
velocity: 0.0
doppler_bin: 8
bearing: -36.3190612793
intensity: 27.4036273956
---
header: 
  seq: 276472
  stamp: 
    secs: 1561681722
    nsecs:  56113805
  frame_id: "ti_mmwave"
point_id: 0
x: 0.01171875
y: -0.0390625
z: -0.0078125
range: 0.0435769706964
velocity: 0.0
doppler_bin: 8
bearing: -73.3007583618
intensity: 30.7954292297
---
header: 
  seq: 276473
  stamp: 
    secs: 1561681722
    nsecs:  56174180
  frame_id: "ti_mmwave"
point_id: 1
x: 0.017578125
y: -0.080078125
z: -0.0078125
range: 0.0871539413929
velocity: 0.0
doppler_bin: 8
bearing: -77.6192398071
intensity: 32.0139694214
---
header: 
  seq: 276474
  stamp: 
    secs: 1561681722
    nsecs:  56191643
  frame_id: "ti_mmwave"
point_id: 2
x: 0.041015625
y: -0.115234375
z: -0.0078125
range: 0.130730912089
velocity: 0.0
doppler_bin: 8
bearing: -70.4077224731
intensity: 30.2857131958
---
header: 
  seq: 276475
  stamp: 
    secs: 1561681722
    nsecs:  56219401
  frame_id: "ti_mmwave"
point_id: 3
x: 0.056640625
y: -0.154296875
z: 0.005859375
range: 0.174307882786
velocity: 0.0
doppler_bin: 8
bearing: -69.8423843384
intensity: 25.5388298035
---
header: 
  seq: 276476
  stamp: 
    secs: 1561681722
    nsecs:  56241710
  frame_id: "ti_mmwave"
point_id: 4
x: 0.279296875
y: -0.080078125
z: -1.234375
range: 1.35088610649
velocity: 0.0
doppler_bin: 8
bearing: -15.9982995987
intensity: 21.875207901
---
header: 
  seq: 276477
  stamp: 
    secs: 1561681722
    nsecs:  56263552
  frame_id: "ti_mmwave"
point_id: 5
x: 0.3515625
y: -0.041015625
z: 1.259765625
range: 1.39446306229
velocity: 0.0
doppler_bin: 8
bearing: -6.6544251442
intensity: 23.2633590698
---
header: 
  seq: 276478
  stamp: 
    secs: 1561681722
    nsecs:  56285096
  frame_id: "ti_mmwave"
point_id: 6
x: 0.447265625
y: -0.0
z: 1.2734375
range: 1.43804001808
velocity: 0.0
doppler_bin: 8
bearing: -0.0
intensity: 21.9033164978
---
header: 
  seq: 276479
  stamp: 
    secs: 1561681722
    nsecs:  56306513
  frame_id: "ti_mmwave"
point_id: 7
x: 2.330078125
y: -0.4453125
z: -0.072265625
range: 2.5274643898
velocity: 0.0
doppler_bin: 8
bearing: -10.8196048737
intensity: 29.2582759857
---
header: 
  seq: 276480
  stamp: 
    secs: 1561681722
    nsecs:  56327998
  frame_id: "ti_mmwave"
point_id: 8
x: 2.37109375
y: -0.453125
z: -0.0234375
range: 2.5710413456
velocity: 0.0
doppler_bin: 8
bearing: -10.8189935684
intensity: 31.1594314575
---
header: 
  seq: 276481
  stamp: 
    secs: 1561681722
    nsecs:  56404108
  frame_id: "ti_mmwave"
point_id: 9
x: 2.41015625
y: -0.4609375
z: 0.03125
range: 2.61461830139
velocity: 0.0
doppler_bin: 8
bearing: -10.8269634247
intensity: 29.854265213
---
header: 
  seq: 276482
  stamp: 
    secs: 1561681722
    nsecs:  56422614
  frame_id: "ti_mmwave"
point_id: 10
x: 2.546875
y: -0.263671875
z: 1.185546875
range: 3.00681090355
velocity: 0.0
doppler_bin: 8
bearing: -5.91063833237
intensity: 29.5664863586
---
header: 
  seq: 276483
  stamp: 
    secs: 1561681722
    nsecs:  56437976
  frame_id: "ti_mmwave"
point_id: 11
x: 2.595703125
y: -0.267578125
z: 1.1796875
range: 3.05038785934
velocity: 0.0
doppler_bin: 8
bearing: -5.88554811478
intensity: 32.871295929
---
header: 
  seq: 276484
  stamp: 
    secs: 1561681722
    nsecs:  56451590
  frame_id: "ti_mmwave"
point_id: 12
x: 2.63671875
y: -0.181640625
z: 1.205078125
range: 3.09396481514
velocity: 0.0
doppler_bin: 8
bearing: -3.94081640244
intensity: 32.0978317261
---
header: 
  seq: 276485
  stamp: 
    secs: 1561681722
    nsecs:  56464857
  frame_id: "ti_mmwave"
point_id: 13
x: 4.416015625
y: -0.287109375
z: 1.1875
range: 4.88062095642
velocity: 0.0
doppler_bin: 8
bearing: -3.71987724304
intensity: 30.6032009125
---
header: 
  seq: 276486
  stamp: 
    secs: 1561681722
    nsecs:  56479046
  frame_id: "ti_mmwave"
point_id: 14
x: 4.47265625
y: -0.2890625
z: 1.12890625
range: 4.9241976738
velocity: 0.0
doppler_bin: 8
bearing: -3.6978161335
intensity: 30.3302135468
---
header: 
  seq: 276487
  stamp: 
    secs: 1561681722
    nsecs:  56492885
  frame_id: "ti_mmwave"
point_id: 15
x: 4.84375
y: -0.46484375
z: 0.91015625
range: 5.27281332016
velocity: 0.0
doppler_bin: 8
bearing: -5.48175907135
intensity: 30.7990455627
---
header: 
  seq: 276488
  stamp: 
    secs: 1561681722
    nsecs:  56551274
  frame_id: "ti_mmwave"
point_id: 17
x: 0.041015625
y: -0.033203125
z: 0.0625
range: 0.0871539413929
velocity: 0.0
doppler_bin: 8
bearing: -38.9909973145
intensity: 30.1325874329
---
header: 
  seq: 276489
  stamp: 
    secs: 1561681722
    nsecs:  56569816
  frame_id: "ti_mmwave"
point_id: 18
x: 0.052734375
y: -0.04296875
z: 0.103515625
range: 0.130730912089
velocity: 0.0
doppler_bin: 8
bearing: -39.1736602783
intensity: 29.020029068
---
header: 
  seq: 276490
  stamp: 
    secs: 1561681722
    nsecs:  56587689
  frame_id: "ti_mmwave"
point_id: 20
x: 1.1171875
y: -0.515625
z: 0.306640625
range: 1.35088610649
velocity: 0.0
doppler_bin: 8
bearing: -24.7751407623
intensity: 19.0308990479
---
header: 
  seq: 276491
  stamp: 
    secs: 1561681722
    nsecs:  56614314
  frame_id: "ti_mmwave"
point_id: 21
x: 2.814453125
y: -2.00390625
z: -3.009765625
range: 4.88062095642
velocity: 0.0
doppler_bin: 8
bearing: -35.4510803223
intensity: 27.7670116425
---
header: 
  seq: 276492
  stamp: 
    secs: 1561681722
    nsecs:  56636191
  frame_id: "ti_mmwave"
point_id: 22
x: 2.822265625
y: -2.021484375
z: -3.05078125
range: 4.9241976738
velocity: 0.0
doppler_bin: 8
bearing: -35.6126251221
intensity: 27.3798732758
---
header: 
  seq: 276493
  stamp: 
    secs: 1561681722
    nsecs: 114614299
  frame_id: "ti_mmwave"
point_id: 0
x: 0.01171875
y: -0.0390625
z: -0.0078125
range: 0.0435769706964
velocity: 0.0
doppler_bin: 8
bearing: -73.3007583618
intensity: 30.7809410095
---
header: 
  seq: 276494
  stamp: 
    secs: 1561681722
    nsecs: 114707399
  frame_id: "ti_mmwave"
point_id: 1
x: 0.017578125
y: -0.080078125
z: -0.0078125
range: 0.0871539413929
velocity: 0.0
doppler_bin: 8
bearing: -77.6192398071
intensity: 32.0085067749
---
header: 
  seq: 276495
  stamp: 
    secs: 1561681722
    nsecs: 114726550
  frame_id: "ti_mmwave"
point_id: 2
x: 0.041015625
y: -0.115234375
z: -0.0078125
range: 0.130730912089
velocity: 0.0
doppler_bin: 8
bearing: -70.4077224731
intensity: 30.2775726318
---
header: 
  seq: 276496
  stamp: 
    secs: 1561681722
    nsecs: 114740040
  frame_id: "ti_mmwave"
point_id: 3
x: 0.056640625
y: -0.154296875
z: 0.005859375
range: 0.174307882786
velocity: 0.0
doppler_bin: 8
bearing: -69.8423843384
intensity: 25.5266819
---
header: 
  seq: 276497
  stamp: 
    secs: 1561681722
    nsecs: 114754793
  frame_id: "ti_mmwave"
point_id: 4
x: 0.31640625
y: -0.080078125
z: -1.224609375
range: 1.35088610649
velocity: 0.0
doppler_bin: 8
bearing: -14.2025585175
intensity: 21.9033164978
---
header: 
  seq: 276498
  stamp: 
    secs: 1561681722
    nsecs: 114768261
  frame_id: "ti_mmwave"
point_id: 5
x: 0.333984375
y: -0.041015625
z: 1.265625
range: 1.39446306229
velocity: 0.0
doppler_bin: 8
bearing: -7.00126743317
intensity: 23.2837963104
---
header: 
  seq: 276499
  stamp: 
    secs: 1561681722
    nsecs: 114783087
  frame_id: "ti_mmwave"
point_id: 6
x: 0.421875
y: -0.0
z: 1.283203125
range: 1.43804001808
velocity: 0.0
doppler_bin: 8
bearing: -0.0
intensity: 21.9033164978
---
header: 
  seq: 276500
  stamp: 
    secs: 1561681722
    nsecs: 114797894
  frame_id: "ti_mmwave"
point_id: 7
x: 2.37109375
y: -0.453125
z: -0.048828125
range: 2.5710413456
velocity: 0.0
doppler_bin: 8
bearing: -10.8189935684
intensity: 27.1096305847
---
header: 
  seq: 276501
  stamp: 
    secs: 1561681722
    nsecs: 114821240
  frame_id: "ti_mmwave"
point_id: 8
x: 2.421875
y: -0.3828125
z: 0.095703125
range: 2.61461830139
velocity: 0.0
doppler_bin: 8
bearing: -8.98211669922
intensity: 26.170003891
---
header: 
  seq: 276502
  stamp: 
    secs: 1561681722
    nsecs: 114908249
  frame_id: "ti_mmwave"
point_id: 9
x: 2.576171875
y: -0.263671875
z: 1.12109375
range: 3.00681090355
velocity: 0.0
doppler_bin: 8
bearing: -5.84388875961
intensity: 29.4398880005
---
header: 
  seq: 276503
  stamp: 
    secs: 1561681722
    nsecs: 114925045
  frame_id: "ti_mmwave"
point_id: 10
x: 2.623046875
y: -0.267578125
z: 1.1171875
range: 3.05038785934
velocity: 0.0
doppler_bin: 8
bearing: -5.82461833954
intensity: 32.7091178894
---
header: 
  seq: 276504
  stamp: 
    secs: 1561681722
    nsecs: 114938036
  frame_id: "ti_mmwave"
point_id: 11
x: 2.67578125
y: -0.181640625
z: 1.115234375
range: 3.09396481514
velocity: 0.0
doppler_bin: 8
bearing: -3.88346338272
intensity: 31.9033164978
---
header: 
  seq: 276505
  stamp: 
    secs: 1561681722
    nsecs: 114951394
  frame_id: "ti_mmwave"
point_id: 12
x: 4.4140625
y: -0.287109375
z: 1.1953125
range: 4.88062095642
velocity: 0.0
doppler_bin: 8
bearing: -3.72151875496
intensity: 30.6408348083
---
header: 
  seq: 276506
  stamp: 
    secs: 1561681722
    nsecs: 114964310
  frame_id: "ti_mmwave"
point_id: 13
x: 4.46484375
y: -0.2890625
z: 1.1640625
range: 4.9241976738
velocity: 0.0
doppler_bin: 8
bearing: -3.70426845551
intensity: 30.2816448212
---
header: 
  seq: 276507
  stamp: 
    secs: 1561681722
    nsecs: 114979306
  frame_id: "ti_mmwave"
point_id: 14
x: 4.853515625
y: -0.46484375
z: 0.853515625
range: 5.27281332016
velocity: 0.0
doppler_bin: 8
bearing: -5.47079658508
intensity: 30.9586639404
---
header: 
  seq: 276508
  stamp: 
    secs: 1561681722
    nsecs: 114996303
  frame_id: "ti_mmwave"
point_id: 16
x: 0.041015625
y: -0.033203125
z: 0.0625
range: 0.0871539413929
velocity: 0.0
doppler_bin: 8
bearing: -38.9909973145
intensity: 30.1283721924
---
header: 
  seq: 276509
  stamp: 
    secs: 1561681722
    nsecs: 115013119
  frame_id: "ti_mmwave"
point_id: 17
x: 0.052734375
y: -0.04296875
z: 0.103515625
range: 0.130730912089
velocity: 0.0
doppler_bin: 8
bearing: -39.1736602783
intensity: 29.0145835876
---
header: 
  seq: 276510
  stamp: 
    secs: 1561681722
    nsecs: 115030837
  frame_id: "ti_mmwave"
point_id: 19
x: 2.779296875
y: -2.00390625
z: -3.041015625
range: 4.88062095642
velocity: 0.0
doppler_bin: 8
bearing: -35.7920532227
intensity: 27.774269104
---
header: 
  seq: 276511
  stamp: 
    secs: 1561681722
    nsecs: 115095190
  frame_id: "ti_mmwave"
point_id: 20
x: 2.78515625
y: -2.021484375
z: -3.0859375
range: 4.9241976738
velocity: 0.0
doppler_bin: 8
bearing: -35.9723854065
intensity: 27.4036273956
---
header: 
  seq: 276512
  stamp: 
    secs: 1561681722
    nsecs: 116144898
  frame_id: "ti_mmwave"
point_id: 0
x: 0.01171875
y: -0.0390625
z: -0.0078125
range: 0.0435769706964
velocity: 0.0
doppler_bin: 8
bearing: -73.3007583618
intensity: 30.788192749
---
header: 
  seq: 276513
  stamp: 
    secs: 1561681722
    nsecs: 116197753
  frame_id: "ti_mmwave"
point_id: 1
x: 0.017578125
y: -0.080078125
z: -0.0078125
range: 0.0871539413929
velocity: 0.0
doppler_bin: 8
bearing: -77.6192398071
intensity: 32.0085067749
---
header: 
  seq: 276514
  stamp: 
    secs: 1561681722
    nsecs: 116213102
  frame_id: "ti_mmwave"
point_id: 2
x: 0.041015625
y: -0.115234375
z: -0.0078125
range: 0.130730912089
velocity: 0.0
doppler_bin: 8
bearing: -70.4077224731
intensity: 30.2816448212
---
header: 
  seq: 276515
  stamp: 
    secs: 1561681722
    nsecs: 116231780
  frame_id: "ti_mmwave"
point_id: 3
x: 0.056640625
y: -0.154296875
z: 0.005859375
range: 0.174307882786
velocity: 0.0
doppler_bin: 8
bearing: -69.8423843384
intensity: 25.5266819
---
header: 
  seq: 276516
  stamp: 
    secs: 1561681722
    nsecs: 116245758
  frame_id: "ti_mmwave"
point_id: 4
x: 0.302734375
y: -0.080078125
z: -1.228515625
range: 1.35088610649
velocity: 0.0
doppler_bin: 8
bearing: -14.8163175583
intensity: 21.875207901
---
header: 
  seq: 276517
  stamp: 
    secs: 1561681722
    nsecs: 116320040
  frame_id: "ti_mmwave"
point_id: 5
x: 0.345703125
y: -0.041015625
z: 1.26171875
range: 1.39446306229
velocity: 0.0
doppler_bin: 8
bearing: -6.76617479324
intensity: 23.2428245544
---
header: 
  seq: 276518
  stamp: 
    secs: 1561681722
    nsecs: 116335357
  frame_id: "ti_mmwave"
point_id: 6
x: 0.40625
y: -0.0
z: 1.287109375
range: 1.43804001808
velocity: 0.0
doppler_bin: 8
bearing: -0.0
intensity: 21.875207901
---
header: 
  seq: 276519
  stamp: 
    secs: 1561681722
    nsecs: 116349232
  frame_id: "ti_mmwave"
point_id: 7
x: 2.314453125
y: -0.4453125
z: -0.267578125
range: 2.5274643898
velocity: 0.0
doppler_bin: 8
bearing: -10.8909063339
intensity: 26.2838897705
---
header: 
  seq: 276520
  stamp: 
    secs: 1561681722
    nsecs: 116362723
  frame_id: "ti_mmwave"
point_id: 8
x: 2.376953125
y: -0.376953125
z: -0.1875
range: 2.5710413456
velocity: 0.0
doppler_bin: 8
bearing: -9.01130390167
intensity: 28.6153450012
---
header: 
  seq: 276521
  stamp: 
    secs: 1561681722
    nsecs: 116376189
  frame_id: "ti_mmwave"
point_id: 9
x: 2.416015625
y: -0.306640625
z: -0.30078125
range: 2.61461830139
velocity: 0.0
doppler_bin: 8
bearing: -7.23330450058
intensity: 28.1358089447
---
header: 
  seq: 276522
  stamp: 
    secs: 1561681722
    nsecs: 116391706
  frame_id: "ti_mmwave"
point_id: 10
x: 2.552734375
y: -0.263671875
z: 1.171875
range: 3.00681090355
velocity: 0.0
doppler_bin: 8
bearing: -5.89716720581
intensity: 29.4596061707
---
header: 
  seq: 276523
  stamp: 
    secs: 1561681722
    nsecs: 116406685
  frame_id: "ti_mmwave"
point_id: 11
x: 2.6015625
y: -0.267578125
z: 1.1640625
range: 3.05038785934
velocity: 0.0
doppler_bin: 8
bearing: -5.87238502502
intensity: 32.8057823181
---
header: 
  seq: 276524
  stamp: 
    secs: 1561681722
    nsecs: 116415939
  frame_id: "ti_mmwave"
point_id: 12
x: 2.662109375
y: -0.181640625
z: 1.146484375
range: 3.09396481514
velocity: 0.0
doppler_bin: 8
bearing: -3.90334677696
intensity: 32.0574569702
---
header: 
  seq: 276525
  stamp: 
    secs: 1561681722
    nsecs: 116444082
  frame_id: "ti_mmwave"
point_id: 13
x: 4.412109375
y: -0.287109375
z: 1.205078125
range: 4.88062095642
velocity: 0.0
doppler_bin: 8
bearing: -3.72316122055
intensity: 30.6892757416
---
header: 
  seq: 276526
  stamp: 
    secs: 1561681722
    nsecs: 116511399
  frame_id: "ti_mmwave"
point_id: 14
x: 4.453125
y: -0.2890625
z: 1.20703125
range: 4.9241976738
velocity: 0.0
doppler_bin: 8
bearing: -3.71398925781
intensity: 30.0860023499
---
header: 
  seq: 276527
  stamp: 
    secs: 1561681722
    nsecs: 116526780
  frame_id: "ti_mmwave"
point_id: 15
x: 4.84375
y: -0.46484375
z: 0.91015625
range: 5.27281332016
velocity: 0.0
doppler_bin: 8
bearing: -5.48175907135
intensity: 30.678144455
---
header: 
  seq: 276528
  stamp: 
    secs: 1561681722
    nsecs: 116543981
  frame_id: "ti_mmwave"
point_id: 17
x: 0.041015625
y: -0.033203125
z: 0.0625
range: 0.0871539413929
velocity: 0.0
doppler_bin: 8
bearing: -38.9909973145
intensity: 30.1325874329
---
header: 
  seq: 276529
  stamp: 
    secs: 1561681722
    nsecs: 116560463
  frame_id: "ti_mmwave"
point_id: 18
x: 0.052734375
y: -0.04296875
z: 0.103515625
range: 0.130730912089
velocity: 0.0
doppler_bin: 8
bearing: -39.1736602783
intensity: 29.0091304779
---
header: 
  seq: 276530
  stamp: 
    secs: 1561681722
    nsecs: 116576356
  frame_id: "ti_mmwave"
point_id: 20
x: 1.12109375
y: -0.515625
z: 0.294921875
range: 1.35088610649
velocity: 0.0
doppler_bin: 8
bearing: -24.6991329193
intensity: 18.9209461212
---
header: 
  seq: 276531
  stamp: 
    secs: 1561681722
    nsecs: 116591969
  frame_id: "ti_mmwave"
point_id: 21
x: 2.796875
y: -2.00390625
z: -3.025390625
range: 4.88062095642
velocity: 0.0
doppler_bin: 8
bearing: -35.6208572388
intensity: 27.8175544739
---
header: 
  seq: 276532
  stamp: 
    secs: 1561681722
    nsecs: 116605640
  frame_id: "ti_mmwave"
point_id: 22
x: 2.83203125
y: -2.021484375
z: -3.041015625
range: 4.9241976738
velocity: 0.0
doppler_bin: 8
bearing: -35.5189857483
intensity: 27.2591171265
---
header: 
  seq: 276533
  stamp: 
    secs: 1561681722
    nsecs: 174705842
  frame_id: "ti_mmwave"
point_id: 0
x: 0.01171875
y: -0.0390625
z: -0.0078125
range: 0.0435769706964
velocity: 0.0
doppler_bin: 8
bearing: -73.3007583618
intensity: 30.7918128967
---
header: 
  seq: 276534
  stamp: 
    secs: 1561681722
    nsecs: 174802170
  frame_id: "ti_mmwave"
point_id: 1
x: 0.017578125
y: -0.080078125
z: -0.0078125
range: 0.0871539413929
velocity: 0.0
doppler_bin: 8
bearing: -77.6192398071
intensity: 32.0112380981
---
header: 
  seq: 276535
  stamp: 
    secs: 1561681722
    nsecs: 174821800
  frame_id: "ti_mmwave"
point_id: 2
x: 0.041015625
y: -0.115234375
z: -0.0078125
range: 0.130730912089
velocity: 0.0
doppler_bin: 8
bearing: -70.4077224731
intensity: 30.2816448212
---
header: 
  seq: 276536
  stamp: 
    secs: 1561681722
    nsecs: 174836000
  frame_id: "ti_mmwave"
point_id: 3
x: 0.056640625
y: -0.154296875
z: 0.00390625
range: 0.174307882786
velocity: 0.0
doppler_bin: 8
bearing: -69.8423843384
intensity: 25.5388298035
---
header: 
  seq: 276537
  stamp: 
    secs: 1561681722
    nsecs: 174850259
  frame_id: "ti_mmwave"
point_id: 4
x: 0.302734375
y: -0.080078125
z: -1.228515625
range: 1.35088610649
velocity: 0.0
doppler_bin: 8
bearing: -14.8163175583
intensity: 21.9033164978
---
header: 
  seq: 276538
  stamp: 
    secs: 1561681722
    nsecs: 174864691
  frame_id: "ti_mmwave"
point_id: 5
x: 0.33984375
y: -0.041015625
z: 1.263671875
range: 1.39446306229
velocity: 0.0
doppler_bin: 8
bearing: -6.88172340393
intensity: 23.2633590698
---
header: 
  seq: 276539
  stamp: 
    secs: 1561681722
    nsecs: 174879528
  frame_id: "ti_mmwave"
point_id: 6
x: 0.42578125
y: -0.0
z: 1.28125
range: 1.43804001808
velocity: 0.0
doppler_bin: 8
bearing: -0.0
intensity: 21.875207901
---
header: 
  seq: 276540
  stamp: 
    secs: 1561681722
    nsecs: 174897462
  frame_id: "ti_mmwave"
point_id: 7
x: 2.55078125
y: -0.263671875
z: 1.177734375
range: 3.00681090355
velocity: 0.0
doppler_bin: 8
bearing: -5.90165042877
intensity: 29.5712814331
---
header: 
  seq: 276541
  stamp: 
    secs: 1561681722
    nsecs: 174979053
  frame_id: "ti_mmwave"
point_id: 8
x: 2.609375
y: -0.267578125
z: 1.1484375
range: 3.05038785934
velocity: 0.0
doppler_bin: 8
bearing: -5.85492515564
intensity: 32.8239555359
---
header: 
  seq: 276542
  stamp: 
    secs: 1561681722
    nsecs: 174997146
  frame_id: "ti_mmwave"
point_id: 9
x: 2.666015625
y: -0.181640625
z: 1.13671875
range: 3.09396481514
velocity: 0.0
doppler_bin: 8
bearing: -3.89764523506
intensity: 32.0248832703
---
header: 
  seq: 276543
  stamp: 
    secs: 1561681722
    nsecs: 175010654
  frame_id: "ti_mmwave"
point_id: 10
x: 4.421875
y: -0.287109375
z: 1.162109375
range: 4.88062095642
velocity: 0.0
doppler_bin: 8
bearing: -3.7149617672
intensity: 30.6557979584
---
header: 
  seq: 276544
  stamp: 
    secs: 1561681722
    nsecs: 175025537
  frame_id: "ti_mmwave"
point_id: 11
x: 4.46875
y: -0.2890625
z: 1.146484375
range: 4.9241976738
velocity: 0.0
doppler_bin: 8
bearing: -3.70103907585
intensity: 30.1494026184
---
header: 
  seq: 276545
  stamp: 
    secs: 1561681722
    nsecs: 175039285
  frame_id: "ti_mmwave"
point_id: 12
x: 4.84765625
y: -0.46484375
z: 0.884765625
range: 5.27281332016
velocity: 0.0
doppler_bin: 8
bearing: -5.47736883163
intensity: 31.05169487
---
header: 
  seq: 276546
  stamp: 
    secs: 1561681722
    nsecs: 175056653
  frame_id: "ti_mmwave"
point_id: 14
x: 0.041015625
y: -0.033203125
z: 0.0625
range: 0.0871539413929
velocity: 0.0
doppler_bin: 8
bearing: -38.9909973145
intensity: 30.1325874329
---
header: 
  seq: 276547
  stamp: 
    secs: 1561681722
    nsecs: 175072624
  frame_id: "ti_mmwave"
point_id: 15
x: 0.052734375
y: -0.04296875
z: 0.103515625
range: 0.130730912089
velocity: 0.0
doppler_bin: 8
bearing: -39.1736602783
intensity: 29.0145835876
---
header: 
  seq: 276548
  stamp: 
    secs: 1561681722
    nsecs: 175090875
  frame_id: "ti_mmwave"
point_id: 17
x: 2.7421875
y: -2.00390625
z: -3.076171875
range: 4.88062095642
velocity: 0.0
doppler_bin: 8
bearing: -36.1581840515
intensity: 27.774269104
---
header: 
  seq: 276549
  stamp: 
    secs: 1561681722
    nsecs: 175155708
  frame_id: "ti_mmwave"
point_id: 18
x: 2.81640625
y: -2.021484375
z: -3.056640625
range: 4.9241976738
velocity: 0.0
doppler_bin: 8
bearing: -35.6690139771
intensity: 27.2672729492
---
header: 
  seq: 276550
  stamp: 
    secs: 1561681722
    nsecs: 234736709
  frame_id: "ti_mmwave"
point_id: 0
x: 0.01171875
y: -0.0390625
z: -0.0078125
range: 0.0435769706964
velocity: 0.0
doppler_bin: 8
bearing: -73.3007583618
intensity: 30.788192749
---
header: 
  seq: 276551
  stamp: 
    secs: 1561681722
    nsecs: 234825829
  frame_id: "ti_mmwave"
point_id: 1
x: 0.017578125
y: -0.080078125
z: -0.0078125
range: 0.0871539413929
velocity: 0.0
doppler_bin: 8
bearing: -77.6192398071
intensity: 32.0112380981
---
header: 
  seq: 276552
  stamp: 
    secs: 1561681722
    nsecs: 234848301
  frame_id: "ti_mmwave"
point_id: 2
x: 0.041015625
y: -0.115234375
z: -0.0078125
range: 0.130730912089
velocity: 0.0
doppler_bin: 8
bearing: -70.4077224731
intensity: 30.2816448212
---
header: 
  seq: 276553
  stamp: 
    secs: 1561681722
    nsecs: 234860829
  frame_id: "ti_mmwave"
point_id: 3
x: 0.056640625
y: -0.154296875
z: 0.00390625
range: 0.174307882786
velocity: 0.0
doppler_bin: 8
bearing: -69.8423843384
intensity: 25.5388298035
---
header: 
  seq: 276554
  stamp: 
    secs: 1561681722
    nsecs: 234872464
  frame_id: "ti_mmwave"
point_id: 4
x: 0.30078125
y: -0.080078125
z: -1.23046875
range: 1.35088610649
velocity: 0.0
doppler_bin: 8
bearing: -14.9082593918
intensity: 21.875207901
---
header: 
  seq: 276555
  stamp: 
    secs: 1561681722
    nsecs: 234888409
  frame_id: "ti_mmwave"
point_id: 5
x: 0.337890625
y: -0.041015625
z: 1.263671875
range: 1.39446306229
velocity: 0.0
doppler_bin: 8
bearing: -6.92111730576
intensity: 23.2837963104
---
header: 
  seq: 276556
  stamp: 
    secs: 1561681722
    nsecs: 234900708
  frame_id: "ti_mmwave"
point_id: 6
x: 0.427734375
y: -0.0
z: 1.279296875
range: 1.43804001808
velocity: 0.0
doppler_bin: 8
bearing: -0.0
intensity: 21.9312458038
---
header: 
  seq: 276557
  stamp: 
    secs: 1561681722
    nsecs: 234913000
  frame_id: "ti_mmwave"
point_id: 7
x: 2.32421875
y: -0.296875
z: -0.375
range: 2.5274643898
velocity: 0.0
doppler_bin: 8
bearing: -7.27903747559
intensity: 26.8663635254
---
header: 
  seq: 276558
  stamp: 
    secs: 1561681722
    nsecs: 234923641
  frame_id: "ti_mmwave"
point_id: 8
x: 2.3671875
y: -0.376953125
z: -0.27734375
range: 2.5710413456
velocity: 0.0
doppler_bin: 8
bearing: -9.04786586761
intensity: 30.8742637634
---
header: 
  seq: 276559
  stamp: 
    secs: 1561681722
    nsecs: 234934807
  frame_id: "ti_mmwave"
point_id: 9
x: 2.41796875
y: -0.306640625
z: -0.283203125
range: 2.61461830139
velocity: 0.0
doppler_bin: 8
bearing: -7.22752332687
intensity: 31.8695640564
---
header: 
  seq: 276560
  stamp: 
    secs: 1561681722
    nsecs: 234945530
  frame_id: "ti_mmwave"
point_id: 10
x: 2.43359375
y: -0.390625
z: -0.39453125
range: 2.65819525719
velocity: 0.0
doppler_bin: 8
bearing: -9.11896896362
intensity: 29.9475688934
---
header: 
  seq: 276561
  stamp: 
    secs: 1561681722
    nsecs: 234958426
  frame_id: "ti_mmwave"
point_id: 11
x: 2.5390625
y: -0.263671875
z: 1.205078125
range: 3.00681090355
velocity: 0.0
doppler_bin: 8
bearing: -5.92869567871
intensity: 29.31457901
---
header: 
  seq: 276562
  stamp: 
    secs: 1561681722
    nsecs: 234972018
  frame_id: "ti_mmwave"
point_id: 12
x: 2.59765625
y: -0.267578125
z: 1.17578125
range: 3.05038785934
velocity: 0.0
doppler_bin: 8
bearing: -5.88115358353
intensity: 32.7577171326
---
header: 
  seq: 276563
  stamp: 
    secs: 1561681722
    nsecs: 234985250
  frame_id: "ti_mmwave"
point_id: 13
x: 2.6484375
y: -0.181640625
z: 1.1796875
range: 3.09396481514
velocity: 0.0
doppler_bin: 8
bearing: -3.92343401909
intensity: 32.0817260742
---
header: 
  seq: 276564
  stamp: 
    secs: 1561681722
    nsecs: 234997465
  frame_id: "ti_mmwave"
point_id: 14
x: 4.416015625
y: -0.287109375
z: 1.18359375
range: 4.88062095642
velocity: 0.0
doppler_bin: 8
bearing: -3.71987724304
intensity: 30.6557979584
---
header: 
  seq: 276565
  stamp: 
    secs: 1561681722
    nsecs: 235024409
  frame_id: "ti_mmwave"
point_id: 15
x: 4.46875
y: -0.2890625
z: 1.142578125
range: 4.9241976738
velocity: 0.0
doppler_bin: 8
bearing: -3.70103907585
intensity: 30.2036132812
---
header: 
  seq: 276566
  stamp: 
    secs: 1561681722
    nsecs: 235129888
  frame_id: "ti_mmwave"
point_id: 16
x: 4.8359375
y: -0.46484375
z: 0.951171875
range: 5.27281332016
velocity: 0.0
doppler_bin: 8
bearing: -5.49056053162
intensity: 30.5690479279
---
header: 
  seq: 276567
  stamp: 
    secs: 1561681722
    nsecs: 235151006
  frame_id: "ti_mmwave"
point_id: 18
x: 0.041015625
y: -0.033203125
z: 0.0625
range: 0.0871539413929
velocity: 0.0
doppler_bin: 8
bearing: -38.9909973145
intensity: 30.1283721924
---
header: 
  seq: 276568
  stamp: 
    secs: 1561681722
    nsecs: 235163690
  frame_id: "ti_mmwave"
point_id: 19
x: 0.052734375
y: -0.04296875
z: 0.103515625
range: 0.130730912089
velocity: 0.0
doppler_bin: 8
bearing: -39.1736602783
intensity: 29.0145835876
---
header: 
  seq: 276569
  stamp: 
    secs: 1561681722
    nsecs: 235180746
  frame_id: "ti_mmwave"
point_id: 21
x: 1.1171875
y: -0.515625
z: 0.306640625
range: 1.35088610649
velocity: 0.0
doppler_bin: 8
bearing: -24.7751407623
intensity: 18.9209461212
---
header: 
  seq: 276570
  stamp: 
    secs: 1561681722
    nsecs: 235192322
  frame_id: "ti_mmwave"
point_id: 22
x: 2.802734375
y: -2.00390625
z: -3.01953125
range: 4.88062095642
velocity: 0.0
doppler_bin: 8
bearing: -35.5641059875
intensity: 27.7451705933
---
header: 
  seq: 276571
  stamp: 
    secs: 1561681722
    nsecs: 235206811
  frame_id: "ti_mmwave"
point_id: 23
x: 2.83984375
y: -2.021484375
z: -3.03515625
range: 4.9241976738
velocity: 0.0
doppler_bin: 8
bearing: -35.4443778992
intensity: 27.2916469574
---
header: 
  seq: 276572
  stamp: 
    secs: 1561681722
    nsecs: 236224386
  frame_id: "ti_mmwave"
point_id: 0
x: 0.01171875
y: -0.0390625
z: -0.0078125
range: 0.0435769706964
velocity: 0.0
doppler_bin: 8
bearing: -73.3007583618
intensity: 30.7918128967
---
header: 
  seq: 276573
  stamp: 
    secs: 1561681722
    nsecs: 236285214
  frame_id: "ti_mmwave"
point_id: 1
x: 0.017578125
y: -0.080078125
z: -0.0078125
range: 0.0871539413929
velocity: 0.0
doppler_bin: 8
bearing: -77.6192398071
intensity: 32.0085067749
---
header: 
  seq: 276574
  stamp: 
    secs: 1561681722
    nsecs: 236302476
  frame_id: "ti_mmwave"
point_id: 2
x: 0.041015625
y: -0.115234375
z: -0.0078125
range: 0.130730912089
velocity: 0.0
doppler_bin: 8
bearing: -70.4077224731
intensity: 30.2816448212
---
header: 
  seq: 276575
  stamp: 
    secs: 1561681722
    nsecs: 236317677
  frame_id: "ti_mmwave"
point_id: 3
x: 0.056640625
y: -0.154296875
z: 0.005859375
range: 0.174307882786
velocity: 0.0
doppler_bin: 8
bearing: -69.8423843384
intensity: 25.5266819
---
header: 
  seq: 276576
  stamp: 
    secs: 1561681722
    nsecs: 236423551
  frame_id: "ti_mmwave"
point_id: 4
x: 0.3046875
y: -0.080078125
z: -1.228515625
range: 1.35088610649
velocity: 0.0
doppler_bin: 8
bearing: -14.7254829407
intensity: 21.9312458038
---
header: 
  seq: 276577
  stamp: 
    secs: 1561681722
    nsecs: 236452444
  frame_id: "ti_mmwave"
point_id: 5
x: 0.34375
y: -0.041015625
z: 1.26171875
range: 1.39446306229
velocity: 0.0
doppler_bin: 8
bearing: -6.80425977707
intensity: 23.2837963104
---
header: 
  seq: 276578
  stamp: 
    secs: 1561681722
    nsecs: 236500181
  frame_id: "ti_mmwave"
point_id: 6
x: 0.435546875
y: -0.0
z: 1.27734375
range: 1.43804001808
velocity: 0.0
doppler_bin: 8
bearing: -0.0
intensity: 21.9033164978
---
header: 
  seq: 276579
  stamp: 
    secs: 1561681722
    nsecs: 236517416
  frame_id: "ti_mmwave"
point_id: 7
x: 2.37890625
y: -0.376953125
z: -0.15625
range: 2.5710413456
velocity: 0.0
doppler_bin: 8
bearing: -9.00402641296
intensity: 29.5664863586
---
header: 
  seq: 276580
  stamp: 
    secs: 1561681722
    nsecs: 236535381
  frame_id: "ti_mmwave"
point_id: 8
x: 2.419921875
y: -0.3828125
z: -0.13671875
range: 2.61461830139
velocity: 0.0
doppler_bin: 8
bearing: -8.98924827576
intensity: 31.1925582886
---
header: 
  seq: 276581
  stamp: 
    secs: 1561681722
    nsecs: 236582565
  frame_id: "ti_mmwave"
point_id: 9
x: 2.47265625
y: -0.3125
z: -0.125
range: 2.65819525719
velocity: 0.0
doppler_bin: 8
bearing: -7.20298528671
intensity: 30.2775726318
---
header: 
  seq: 276582
  stamp: 
    secs: 1561681722
    nsecs: 236600474
  frame_id: "ti_mmwave"
point_id: 10
x: 2.513671875
y: -0.31640625
z: -0.103515625
range: 2.70177221298
velocity: 0.0
doppler_bin: 8
bearing: -7.17432498932
intensity: 26.6558094025
---
header: 
  seq: 276583
  stamp: 
    secs: 1561681722
    nsecs: 236614257
  frame_id: "ti_mmwave"
point_id: 11
x: 2.546875
y: -0.263671875
z: 1.185546875
range: 3.00681090355
velocity: 0.0
doppler_bin: 8
bearing: -5.91063833237
intensity: 29.7034683228
---
header: 
  seq: 276584
  stamp: 
    secs: 1561681722
    nsecs: 236658636
  frame_id: "ti_mmwave"
point_id: 12
x: 2.607421875
y: -0.267578125
z: 1.154296875
range: 3.05038785934
velocity: 0.0
doppler_bin: 8
bearing: -5.85928010941
intensity: 32.8555717468
---
header: 
  seq: 276585
  stamp: 
    secs: 1561681722
    nsecs: 236672630
  frame_id: "ti_mmwave"
point_id: 13
x: 2.66015625
y: -0.181640625
z: 1.15234375
range: 3.09396481514
velocity: 0.0
doppler_bin: 8
bearing: -3.90620398521
intensity: 31.9783172607
---
header: 
  seq: 276586
  stamp: 
    secs: 1561681722
    nsecs: 236690224
  frame_id: "ti_mmwave"
point_id: 14
x: 4.41796875
y: -0.287109375
z: 1.177734375
range: 4.88062095642
velocity: 0.0
doppler_bin: 8
bearing: -3.71823716164
intensity: 30.6818580627
---
header: 
  seq: 276587
  stamp: 
    secs: 1561681722
    nsecs: 236733951
  frame_id: "ti_mmwave"
point_id: 15
x: 4.47265625
y: -0.2890625
z: 1.134765625
range: 4.9241976738
velocity: 0.0
doppler_bin: 8
bearing: -3.6978161335
intensity: 30.2816448212
---
header: 
  seq: 276588
  stamp: 
    secs: 1561681722
    nsecs: 236748958
  frame_id: "ti_mmwave"
point_id: 16
x: 4.84375
y: -0.46484375
z: 0.912109375
range: 5.27281332016
velocity: 0.0
doppler_bin: 8
bearing: -5.48175907135
intensity: 30.9061069489
---
header: 
  seq: 276589
  stamp: 
    secs: 1561681722
    nsecs: 236795412
  frame_id: "ti_mmwave"
point_id: 18
x: 0.041015625
y: -0.033203125
z: 0.0625
range: 0.0871539413929
velocity: 0.0
doppler_bin: 8
bearing: -38.9909973145
intensity: 30.1283721924
---
header: 
  seq: 276590
  stamp: 
    secs: 1561681722
    nsecs: 236805964
  frame_id: "ti_mmwave"
point_id: 19
x: 0.052734375
y: -0.04296875
z: 0.103515625
range: 0.130730912089
velocity: 0.0
doppler_bin: 8
bearing: -39.1736602783
intensity: 29.0091304779
---
header: 
  seq: 276591
  stamp: 
    secs: 1561681722
    nsecs: 236846852
  frame_id: "ti_mmwave"
point_id: 21
x: 1.119140625
y: -0.515625
z: 0.30078125
range: 1.35088610649
velocity: 0.0
doppler_bin: 8
bearing: -24.7370834351
intensity: 19.0308990479
---
header: 
  seq: 276592
  stamp: 
    secs: 1561681722
    nsecs: 236917594
  frame_id: "ti_mmwave"
point_id: 22
x: 2.78125
y: -2.00390625
z: -3.0390625
range: 4.88062095642
velocity: 0.0
doppler_bin: 8
bearing: -35.7729568481
intensity: 27.8247261047
---
header: 
  seq: 276593
  stamp: 
    secs: 1561681722
    nsecs: 236945559
  frame_id: "ti_mmwave"
point_id: 23
x: 2.83984375
y: -2.021484375
z: -3.03515625
range: 4.9241976738
velocity: 0.0
doppler_bin: 8
bearing: -35.4443778992
intensity: 27.3798732758
---
header: 
  seq: 276594
  stamp: 
    secs: 1561681722
    nsecs: 294591975
  frame_id: "ti_mmwave"
point_id: 0
x: 0.01171875
y: -0.0390625
z: -0.0078125
range: 0.0435769706964
velocity: 0.0
doppler_bin: 8
bearing: -73.3007583618
intensity: 30.788192749
---
header: 
  seq: 276595
  stamp: 
    secs: 1561681722
    nsecs: 294660923
  frame_id: "ti_mmwave"
point_id: 1
x: 0.017578125
y: -0.080078125
z: -0.0078125
range: 0.0871539413929
velocity: 0.0
doppler_bin: 8
bearing: -77.6192398071
intensity: 32.0112380981
---
header: 
  seq: 276596
  stamp: 
    secs: 1561681722
    nsecs: 294671798
  frame_id: "ti_mmwave"
point_id: 2
x: 0.041015625
y: -0.115234375
z: -0.0078125
range: 0.130730912089
velocity: 0.0
doppler_bin: 8
bearing: -70.4077224731
intensity: 30.2775726318
---
header: 
  seq: 276597
  stamp: 
    secs: 1561681722
    nsecs: 294679923
  frame_id: "ti_mmwave"
point_id: 3
x: 0.056640625
y: -0.154296875
z: 0.005859375
range: 0.174307882786
velocity: 0.0
doppler_bin: 8
bearing: -69.8423843384
intensity: 25.5144996643
---
header: 
  seq: 276598
  stamp: 
    secs: 1561681722
    nsecs: 294687998
  frame_id: "ti_mmwave"
point_id: 4
x: 0.27734375
y: -0.080078125
z: -1.234375
range: 1.35088610649
velocity: 0.0
doppler_bin: 8
bearing: -16.1051425934
intensity: 21.9312458038
---
header: 
  seq: 276599
  stamp: 
    secs: 1561681722
    nsecs: 294695808
  frame_id: "ti_mmwave"
point_id: 5
x: 0.369140625
y: -0.041015625
z: 1.255859375
range: 1.39446306229
velocity: 0.0
doppler_bin: 8
bearing: -6.34019184113
intensity: 23.2837963104
---
header: 
  seq: 276600
  stamp: 
    secs: 1561681722
    nsecs: 294703600
  frame_id: "ti_mmwave"
point_id: 6
x: 0.4453125
y: -0.0
z: 1.275390625
range: 1.43804001808
velocity: 0.0
doppler_bin: 8
bearing: -0.0
intensity: 21.9589958191
---
header: 
