header: 
  seq: 261961
  stamp: 
    secs: 1561681700
    nsecs: 334758443
  frame_id: "ti_mmwave"
point_id: 0
x: 0.01171875
y: -0.0390625
z: -0.0078125
range: 0.0435769706964
velocity: 0.0
doppler_bin: 8
bearing: -73.3007583618
intensity: 30.7918128967
---
header: 
  seq: 261962
  stamp: 
    secs: 1561681700
    nsecs: 334836379
  frame_id: "ti_mmwave"
point_id: 1
x: 0.017578125
y: -0.080078125
z: -0.0078125
range: 0.0871539413929
velocity: 0.0
doppler_bin: 8
bearing: -77.6192398071
intensity: 32.0194320679
---
header: 
  seq: 261963
  stamp: 
    secs: 1561681700
    nsecs: 334847697
  frame_id: "ti_mmwave"
point_id: 2
x: 0.041015625
y: -0.115234375
z: -0.0078125
range: 0.130730912089
velocity: 0.0
doppler_bin: 8
bearing: -70.4077224731
intensity: 30.2897777557
---
header: 
  seq: 261964
  stamp: 
    secs: 1561681700
    nsecs: 334855625
  frame_id: "ti_mmwave"
point_id: 3
x: 0.056640625
y: -0.154296875
z: 0.00390625
range: 0.174307882786
velocity: 0.0
doppler_bin: 8
bearing: -69.8423843384
intensity: 25.5388298035
---
header: 
  seq: 261965
  stamp: 
    secs: 1561681700
    nsecs: 334863913
  frame_id: "ti_mmwave"
point_id: 4
x: 0.9921875
y: -0.572265625
z: -0.03515625
range: 1.22015523911
velocity: 0.0
doppler_bin: 8
bearing: -29.9751319885
intensity: 19.9563522339
---
header: 
  seq: 261966
  stamp: 
    secs: 1561681700
    nsecs: 334871788
  frame_id: "ti_mmwave"
point_id: 5
x: 1.064453125
y: -0.51953125
z: -0.072265625
range: 1.2637321949
velocity: 0.0
doppler_bin: 8
bearing: -26.0157718658
intensity: 27.0156803131
---
header: 
  seq: 261967
  stamp: 
    secs: 1561681700
    nsecs: 334879705
  frame_id: "ti_mmwave"
point_id: 6
x: 1.103515625
y: -0.537109375
z: -0.03125
range: 1.3073091507
velocity: 0.0
doppler_bin: 8
bearing: -25.9533748627
intensity: 30.5269393921
---
header: 
  seq: 261968
  stamp: 
    secs: 1561681700
    nsecs: 334889604
  frame_id: "ti_mmwave"
point_id: 7
x: 1.138671875
y: -0.5546875
z: -0.072265625
range: 1.35088610649
velocity: 0.0
doppler_bin: 8
bearing: -25.9723587036
intensity: 30.0987567902
---
header: 
  seq: 261969
  stamp: 
    secs: 1561681700
    nsecs: 334897613
  frame_id: "ti_mmwave"
point_id: 8
x: 1.15234375
y: -0.53125
z: -0.3203125
range: 1.39446306229
velocity: 0.0
doppler_bin: 8
bearing: -24.7505016327
intensity: 23.5218257904
---
header: 
  seq: 261970
  stamp: 
    secs: 1561681700
    nsecs: 334906432
  frame_id: "ti_mmwave"
point_id: 9
x: 1.19921875
y: -0.505859375
z: 0.35546875
range: 1.43804001808
velocity: 0.0
doppler_bin: 8
bearing: -22.8711891174
intensity: 24.9968700409
---
header: 
  seq: 261971
  stamp: 
    secs: 1561681700
    nsecs: 334913984
  frame_id: "ti_mmwave"
point_id: 10
x: 1.26953125
y: -0.521484375
z: 0.23046875
range: 1.48161697388
velocity: 0.0
doppler_bin: 8
bearing: -22.3313503265
intensity: 25.550945282
---
header: 
  seq: 261972
  stamp: 
    secs: 1561681700
    nsecs: 334921969
  frame_id: "ti_mmwave"
point_id: 11
x: 2.53125
y: -0.263671875
z: 1.220703125
range: 3.00681090355
velocity: 0.0
doppler_bin: 8
bearing: -5.94686317444
intensity: 29.5036487579
---
header: 
  seq: 261973
  stamp: 
    secs: 1561681700
    nsecs: 334930050
  frame_id: "ti_mmwave"
point_id: 12
x: 2.591796875
y: -0.267578125
z: 1.189453125
range: 3.05038785934
velocity: 0.0
doppler_bin: 8
bearing: -5.89435625076
intensity: 32.9070205688
---
header: 
  seq: 261974
  stamp: 
    secs: 1561681700
    nsecs: 334939025
  frame_id: "ti_mmwave"
point_id: 13
x: 2.638671875
y: -0.181640625
z: 1.201171875
range: 3.09396481514
velocity: 0.0
doppler_bin: 8
bearing: -3.93790841103
intensity: 32.2685775757
---
header: 
  seq: 261975
  stamp: 
    secs: 1561681700
    nsecs: 334948522
  frame_id: "ti_mmwave"
point_id: 14
x: 4.431640625
y: -0.287109375
z: 1.123046875
range: 4.88062095642
velocity: 0.0
doppler_bin: 8
bearing: -3.70679831505
intensity: 30.6220588684
---
header: 
  seq: 261976
  stamp: 
    secs: 1561681700
    nsecs: 334956910
  frame_id: "ti_mmwave"
point_id: 15
x: 4.443359375
y: -0.43359375
z: 1.19921875
range: 4.9241976738
velocity: 0.0
doppler_bin: 8
bearing: -5.57341480255
intensity: 30.1870040894
---
header: 
  seq: 261977
  stamp: 
    secs: 1561681700
    nsecs: 334965030
  frame_id: "ti_mmwave"
point_id: 16
x: 4.703125
y: -0.296875
z: -0.552734375
range: 5.0549287796
velocity: 0.0
doppler_bin: 8
bearing: -3.61188483238
intensity: 29.1750545502
---
header: 
  seq: 261978
  stamp: 
    secs: 1561681700
    nsecs: 334988408
  frame_id: "ti_mmwave"
point_id: 17
x: 4.736328125
y: -0.44921875
z: -0.515625
range: 5.09850549698
velocity: 0.0
doppler_bin: 8
bearing: -5.41803121567
intensity: 33.2735900879
---
header: 
  seq: 261979
  stamp: 
    secs: 1561681700
    nsecs: 334998808
  frame_id: "ti_mmwave"
point_id: 18
x: 4.78515625
y: -0.453125
z: -0.447265625
range: 5.14208269119
velocity: 0.0
doppler_bin: 8
bearing: -5.40942907333
intensity: 33.981136322
---
header: 
  seq: 261980
  stamp: 
    secs: 1561681700
    nsecs: 335099932
  frame_id: "ti_mmwave"
point_id: 19
x: 4.83984375
y: -0.45703125
z: -0.267578125
range: 5.18565940857
velocity: 0.0
doppler_bin: 8
bearing: -5.39450025558
intensity: 31.0243377686
---
header: 
  seq: 261981
  stamp: 
    secs: 1561681700
    nsecs: 335110349
  frame_id: "ti_mmwave"
point_id: 20
x: 4.837890625
y: -0.4609375
z: 0.685546875
range: 5.22923660278
velocity: 0.0
doppler_bin: 8
bearing: -5.44251489639
intensity: 29.6988162994
---
header: 
  seq: 261982
  stamp: 
    secs: 1561681700
    nsecs: 335120270
  frame_id: "ti_mmwave"
point_id: 21
x: 4.8984375
y: -0.30859375
z: 0.638671875
range: 5.27281332016
velocity: 0.0
doppler_bin: 8
bearing: -3.60477876663
intensity: 30.9166698456
---
header: 
  seq: 261983
  stamp: 
    secs: 1561681700
    nsecs: 335132201
  frame_id: "ti_mmwave"
point_id: 23
x: 0.041015625
y: -0.033203125
z: 0.0625
range: 0.0871539413929
velocity: 0.0
doppler_bin: 8
bearing: -38.9909973145
intensity: 30.1367969513
---
header: 
  seq: 261984
  stamp: 
    secs: 1561681700
    nsecs: 335144314
  frame_id: "ti_mmwave"
point_id: 24
x: 0.052734375
y: -0.04296875
z: 0.103515625
range: 0.130730912089
velocity: 0.0
doppler_bin: 8
bearing: -39.1736602783
intensity: 29.020029068
---
header: 
  seq: 261985
  stamp: 
    secs: 1561681700
    nsecs: 335159625
  frame_id: "ti_mmwave"
point_id: 26
x: 0.498046875
y: -0.1796875
z: -1.015625
range: 1.22015523911
velocity: 0.0
doppler_bin: 8
bearing: -19.8386478424
intensity: 19.2941894531
---
header: 
  seq: 261986
  stamp: 
    secs: 1561681700
    nsecs: 336544942
  frame_id: "ti_mmwave"
point_id: 0
x: 0.01171875
y: -0.0390625
z: -0.0078125
range: 0.0435769706964
velocity: 0.0
doppler_bin: 8
bearing: -73.3007583618
intensity: 30.7954292297
---
header: 
  seq: 261987
  stamp: 
    secs: 1561681700
    nsecs: 336602789
  frame_id: "ti_mmwave"
point_id: 1
x: 0.017578125
y: -0.080078125
z: -0.0078125
range: 0.0871539413929
velocity: 0.0
doppler_bin: 8
bearing: -77.6192398071
intensity: 32.0194320679
---
header: 
  seq: 261988
  stamp: 
    secs: 1561681700
    nsecs: 336621046
  frame_id: "ti_mmwave"
point_id: 2
x: 0.041015625
y: -0.115234375
z: -0.0078125
range: 0.130730912089
velocity: 0.0
doppler_bin: 8
bearing: -70.4077224731
intensity: 30.2978954315
---
header: 
  seq: 261989
  stamp: 
    secs: 1561681700
    nsecs: 336632573
  frame_id: "ti_mmwave"
point_id: 3
x: 0.056640625
y: -0.154296875
z: 0.005859375
range: 0.174307882786
velocity: 0.0
doppler_bin: 8
bearing: -69.8423843384
intensity: 25.550945282
---
header: 
  seq: 261990
  stamp: 
    secs: 1561681700
    nsecs: 336640697
  frame_id: "ti_mmwave"
point_id: 4
x: 1.060546875
y: -0.4296875
z: -0.0390625
range: 1.22015523911
velocity: 0.0
doppler_bin: 8
bearing: -22.0556507111
intensity: 25.0785579681
---
header: 
  seq: 261991
  stamp: 
    secs: 1561681700
    nsecs: 336648817
  frame_id: "ti_mmwave"
point_id: 5
x: 1.107421875
y: -0.408203125
z: -0.12109375
range: 1.2637321949
velocity: 0.0
doppler_bin: 8
bearing: -20.2342262268
intensity: 29.3550720215
---
header: 
  seq: 261992
  stamp: 
    secs: 1561681700
    nsecs: 336659412
  frame_id: "ti_mmwave"
point_id: 6
x: 1.123046875
y: -0.421875
z: -0.26171875
range: 1.3073091507
velocity: 0.0
doppler_bin: 8
bearing: -20.5887985229
intensity: 29.5951843262
---
header: 
  seq: 261993
  stamp: 
    secs: 1561681700
    nsecs: 336798588
  frame_id: "ti_mmwave"
point_id: 7
x: 1.046875
y: -0.5546875
z: 0.453125
range: 1.35088610649
velocity: 0.0
doppler_bin: 8
bearing: -27.9169120789
intensity: 28.3186969757
---
header: 
  seq: 261994
  stamp: 
    secs: 1561681700
    nsecs: 336827640
  frame_id: "ti_mmwave"
point_id: 8
x: 1.14453125
y: -0.61328125
z: 0.171875
range: 1.39446306229
velocity: 0.0
doppler_bin: 8
bearing: -28.184015274
intensity: 27.2181053162
---
header: 
  seq: 261995
  stamp: 
    secs: 1561681700
    nsecs: 336862213
  frame_id: "ti_mmwave"
point_id: 9
x: 1.2265625
y: -0.548828125
z: 0.1328125
range: 1.43804001808
velocity: 0.0
doppler_bin: 8
bearing: -24.1062335968
intensity: 26.3548374176
---
header: 
  seq: 261996
  stamp: 
    secs: 1561681700
    nsecs: 336890254
  frame_id: "ti_mmwave"
point_id: 10
x: 1.28125
y: -0.521484375
z: 0.140625
range: 1.48161697388
velocity: 0.0
doppler_bin: 8
bearing: -22.1469230652
intensity: 25.15873909
---
header: 
  seq: 261997
  stamp: 
    secs: 1561681700
    nsecs: 336958883
  frame_id: "ti_mmwave"
point_id: 11
x: 2.546875
y: -0.263671875
z: 1.189453125
range: 3.00681090355
velocity: 0.0
doppler_bin: 8
bearing: -5.91063833237
intensity: 29.527923584
---
header: 
  seq: 261998
  stamp: 
    secs: 1561681700
    nsecs: 336975276
  frame_id: "ti_mmwave"
point_id: 12
x: 2.62109375
y: -0.267578125
z: 1.123046875
range: 3.05038785934
velocity: 0.0
doppler_bin: 8
bearing: -5.82892894745
intensity: 32.810333252
---
header: 
  seq: 261999
  stamp: 
    secs: 1561681700
    nsecs: 336987193
  frame_id: "ti_mmwave"
point_id: 13
x: 2.703125
y: -0.181640625
z: 1.044921875
range: 3.09396481514
velocity: 0.0
doppler_bin: 8
bearing: -3.84429860115
intensity: 32.0844154358
---
header: 
  seq: 262000
  stamp: 
    secs: 1561681700
    nsecs: 337000140
  frame_id: "ti_mmwave"
point_id: 14
x: 4.435546875
y: -0.287109375
z: 1.111328125
range: 4.88062095642
velocity: 0.0
doppler_bin: 8
bearing: -3.70354294777
intensity: 30.6483230591
---
header: 
  seq: 262001
  stamp: 
    secs: 1561681700
    nsecs: 337012599
  frame_id: "ti_mmwave"
point_id: 15
x: 4.439453125
y: -0.43359375
z: 1.208984375
range: 4.9241976738
velocity: 0.0
doppler_bin: 8
bearing: -5.57828807831
intensity: 30.3382568359
---
header: 
  seq: 262002
  stamp: 
    secs: 1561681700
    nsecs: 337029780
  frame_id: "ti_mmwave"
point_id: 16
x: 4.68359375
y: -0.4453125
z: -0.611328125
range: 5.0549287796
velocity: 0.0
doppler_bin: 8
bearing: -5.43131160736
intensity: 29.3901977539
---
header: 
  seq: 262003
  stamp: 
    secs: 1561681700
    nsecs: 337038659
  frame_id: "ti_mmwave"
point_id: 17
x: 4.73828125
y: -0.44921875
z: -0.509765625
range: 5.09850549698
velocity: 0.0
doppler_bin: 8
bearing: -5.4158115387
intensity: 33.4399909973
---
header: 
  seq: 262004
  stamp: 
    secs: 1561681700
    nsecs: 337069073
  frame_id: "ti_mmwave"
point_id: 18
x: 4.78515625
y: -0.453125
z: -0.4453125
range: 5.14208269119
velocity: 0.0
doppler_bin: 8
bearing: -5.40942907333
intensity: 34.126285553
---
header: 
  seq: 262005
  stamp: 
    secs: 1561681700
    nsecs: 337093504
  frame_id: "ti_mmwave"
point_id: 19
x: 4.837890625
y: -0.45703125
z: -0.2890625
range: 5.18565940857
velocity: 0.0
doppler_bin: 8
bearing: -5.39666557312
intensity: 31.0856494904
---
header: 
  seq: 262006
  stamp: 
    secs: 1561681700
    nsecs: 337185730
  frame_id: "ti_mmwave"
point_id: 20
x: 4.830078125
y: -0.4609375
z: 0.740234375
range: 5.22923660278
velocity: 0.0
doppler_bin: 8
bearing: -5.45126533508
intensity: 29.6142101288
---
header: 
  seq: 262007
  stamp: 
    secs: 1561681700
    nsecs: 337203016
  frame_id: "ti_mmwave"
point_id: 21
x: 4.857421875
y: -0.46484375
z: 0.828125
range: 5.27281332016
velocity: 0.0
doppler_bin: 8
bearing: -5.46642303467
intensity: 30.9864368439
---
header: 
  seq: 262008
  stamp: 
    secs: 1561681700
    nsecs: 337219968
  frame_id: "ti_mmwave"
point_id: 23
x: 0.041015625
y: -0.033203125
z: 0.0625
range: 0.0871539413929
velocity: 0.0
doppler_bin: 8
bearing: -38.9909973145
intensity: 30.141002655
---
header: 
  seq: 262009
  stamp: 
    secs: 1561681700
    nsecs: 337236038
  frame_id: "ti_mmwave"
point_id: 24
x: 0.052734375
y: -0.04296875
z: 0.103515625
range: 0.130730912089
velocity: 0.0
doppler_bin: 8
bearing: -39.1736602783
intensity: 29.0308990479
---
header: 
  seq: 262010
  stamp: 
    secs: 1561681700
    nsecs: 337251895
  frame_id: "ti_mmwave"
point_id: 26
x: 1.052734375
y: -0.634765625
z: 0.3125
range: 1.35088610649
velocity: 0.0
doppler_bin: 8
bearing: -31.0886516571
intensity: 28.3058872223
---
header: 
  seq: 262011
  stamp: 
    secs: 1561681700
    nsecs: 337263968
  frame_id: "ti_mmwave"
point_id: 27
x: 0.71484375
y: -0.205078125
z: 1.078125
range: 1.39446306229
velocity: 0.0
doppler_bin: 8
bearing: -16.0074043274
intensity: 25.6584777832
---
header: 
  seq: 262012
  stamp: 
    secs: 1561681700
    nsecs: 337275688
  frame_id: "ti_mmwave"
point_id: 28
x: 0.7421875
y: -0.083984375
z: 1.123046875
range: 1.43804001808
velocity: 0.0
doppler_bin: 8
bearing: -6.45600748062
intensity: 24.1497325897
---
header: 
  seq: 262013
  stamp: 
    secs: 1561681700
    nsecs: 337288322
  frame_id: "ti_mmwave"
point_id: 29
x: 0.51171875
y: -0.04296875
z: 1.29296875
range: 1.48161697388
velocity: 0.0
doppler_bin: 8
bearing: -4.79983615875
intensity: 22.9225616455
---
header: 
  seq: 262014
  stamp: 
    secs: 1561681700
    nsecs: 394688915
  frame_id: "ti_mmwave"
point_id: 0
x: 0.01171875
y: -0.0390625
z: -0.0078125
range: 0.0435769706964
velocity: 0.0
doppler_bin: 8
bearing: -73.3007583618
intensity: 30.7954292297
---
header: 
  seq: 262015
  stamp: 
    secs: 1561681700
    nsecs: 394765537
  frame_id: "ti_mmwave"
point_id: 1
x: 0.017578125
y: -0.080078125
z: -0.0078125
range: 0.0871539413929
velocity: 0.0
doppler_bin: 8
bearing: -77.6192398071
intensity: 32.0194320679
---
header: 
  seq: 262016
  stamp: 
    secs: 1561681700
    nsecs: 394776301
  frame_id: "ti_mmwave"
point_id: 2
x: 0.041015625
y: -0.115234375
z: -0.0078125
range: 0.130730912089
velocity: 0.0
doppler_bin: 8
bearing: -70.4077224731
intensity: 30.2897777557
---
header: 
  seq: 262017
  stamp: 
    secs: 1561681700
    nsecs: 394784693
  frame_id: "ti_mmwave"
point_id: 3
x: 0.056640625
y: -0.154296875
z: 0.005859375
range: 0.174307882786
velocity: 0.0
doppler_bin: 8
bearing: -69.8423843384
intensity: 25.5388298035
---
header: 
  seq: 262018
  stamp: 
    secs: 1561681700
    nsecs: 394794032
  frame_id: "ti_mmwave"
point_id: 4
x: 1.048828125
y: -0.345703125
z: -0.025390625
range: 1.1765781641
velocity: 0.0
doppler_bin: 8
bearing: -18.2426815033
intensity: 19.9563522339
---
header: 
  seq: 262019
  stamp: 
    secs: 1561681700
    nsecs: 394802896
  frame_id: "ti_mmwave"
point_id: 5
x: 1.04296875
y: -0.556640625
z: 0.099609375
range: 1.2637321949
velocity: 0.0
doppler_bin: 8
bearing: -28.0891914368
intensity: 25.7863922119
---
header: 
  seq: 262020
  stamp: 
    secs: 1561681700
    nsecs: 394810945
  frame_id: "ti_mmwave"
point_id: 6
x: 1.09765625
y: -0.537109375
z: 0.11328125
range: 1.3073091507
velocity: 0.0
doppler_bin: 8
bearing: -26.0736064911
intensity: 29.5664863586
---
header: 
  seq: 262021
  stamp: 
    secs: 1561681700
    nsecs: 394819438
  frame_id: "ti_mmwave"
point_id: 7
x: 1.115234375
y: -0.59375
z: 0.11328125
range: 1.35088610649
velocity: 0.0
doppler_bin: 8
bearing: -28.0308055878
intensity: 28.0955963135
---
header: 
  seq: 262022
  stamp: 
    secs: 1561681700
    nsecs: 394828744
  frame_id: "ti_mmwave"
point_id: 8
x: 1.17578125
y: -0.24609375
z: -0.51953125
range: 1.39446306229
velocity: 0.0
doppler_bin: 8
bearing: -11.8214883804
intensity: 24.3616256714
---
header: 
  seq: 262023
  stamp: 
    secs: 1561681700
    nsecs: 394837477
  frame_id: "ti_mmwave"
point_id: 9
x: 1.24609375
y: -0.505859375
z: 0.12109375
range: 1.43804001808
velocity: 0.0
doppler_bin: 8
bearing: -22.0949935913
intensity: 25.3275432587
---
header: 
  seq: 262024
  stamp: 
    secs: 1561681700
    nsecs: 394845540
  frame_id: "ti_mmwave"
point_id: 10
x: 2.546875
y: -0.263671875
z: 1.1875
range: 3.00681090355
velocity: 0.0
doppler_bin: 8
bearing: -5.91063833237
intensity: 29.4743366241
---
header: 
  seq: 262025
  stamp: 
    secs: 1561681700
    nsecs: 394853979
  frame_id: "ti_mmwave"
point_id: 11
x: 2.62109375
y: -0.267578125
z: 1.123046875
range: 3.05038785934
velocity: 0.0
doppler_bin: 8
bearing: -5.82892894745
intensity: 32.743888855
---
header: 
  seq: 262026
  stamp: 
    secs: 1561681700
    nsecs: 394863662
  frame_id: "ti_mmwave"
point_id: 12
x: 2.705078125
y: -0.181640625
z: 1.04296875
range: 3.09396481514
velocity: 0.0
doppler_bin: 8
bearing: -3.84153103828
intensity: 31.9228858948
---
header: 
  seq: 262027
  stamp: 
    secs: 1561681700
    nsecs: 394872335
  frame_id: "ti_mmwave"
point_id: 13
x: 4.423828125
y: -0.287109375
z: 1.16015625
range: 4.88062095642
velocity: 0.0
doppler_bin: 8
bearing: -3.71332621574
intensity: 30.6855697632
---
header: 
  seq: 262028
  stamp: 
    secs: 1561681700
    nsecs: 394881639
  frame_id: "ti_mmwave"
point_id: 14
x: 4.41015625
y: -0.43359375
z: 1.314453125
range: 4.9241976738
velocity: 0.0
doppler_bin: 8
bearing: -5.61510896683
intensity: 30.4178733826
---
header: 
  seq: 262029
  stamp: 
    secs: 1561681700
    nsecs: 394890498
  frame_id: "ti_mmwave"
point_id: 15
x: 4.685546875
y: -0.4453125
z: -0.599609375
range: 5.0549287796
velocity: 0.0
doppler_bin: 8
bearing: -5.42906141281
intensity: 29.4546852112
---
header: 
  seq: 262030
  stamp: 
    secs: 1561681700
    nsecs: 394898324
  frame_id: "ti_mmwave"
point_id: 16
x: 4.720703125
y: -0.59765625
z: -0.517578125
range: 5.09850549698
velocity: 0.0
doppler_bin: 8
bearing: -7.21544361115
intensity: 33.4596138
---
header: 
  seq: 262031
  stamp: 
    secs: 1561681700
    nsecs: 394906593
  frame_id: "ti_mmwave"
point_id: 17
x: 4.783203125
y: -0.453125
z: -0.47265625
range: 5.14208269119
velocity: 0.0
doppler_bin: 8
bearing: -5.41162490845
intensity: 34.1043968201
---
header: 
  seq: 262032
  stamp: 
    secs: 1561681700
    nsecs: 395091255
  frame_id: "ti_mmwave"
point_id: 18
x: 4.8359375
y: -0.45703125
z: -0.314453125
range: 5.18565940857
velocity: 0.0
doppler_bin: 8
bearing: -5.39883232117
intensity: 30.9482040405
---
header: 
  seq: 262033
  stamp: 
    secs: 1561681700
    nsecs: 395110284
  frame_id: "ti_mmwave"
point_id: 19
x: 4.84765625
y: -0.46484375
z: 0.88671875
range: 5.27281332016
velocity: 0.0
doppler_bin: 8
bearing: -5.47736883163
intensity: 30.9201850891
---
header: 
  seq: 262034
  stamp: 
    secs: 1561681700
    nsecs: 395122369
  frame_id: "ti_mmwave"
point_id: 20
x: 1.087890625
y: -0.357421875
z: 0.044921875
range: 1.22015523911
velocity: -0.614668667316
doppler_bin: 7
bearing: -18.1877193451
intensity: 21.2385158539
---
header: 
  seq: 262035
  stamp: 
    secs: 1561681700
    nsecs: 395133115
  frame_id: "ti_mmwave"
point_id: 22
x: 0.041015625
y: -0.033203125
z: 0.0625
range: 0.0871539413929
velocity: 0.0
doppler_bin: 8
bearing: -38.9909973145
intensity: 30.1452045441
---
header: 
  seq: 262036
  stamp: 
    secs: 1561681700
    nsecs: 395141565
  frame_id: "ti_mmwave"
point_id: 23
x: 0.052734375
y: -0.04296875
z: 0.103515625
range: 0.130730912089
velocity: 0.0
doppler_bin: 8
bearing: -39.1736602783
intensity: 29.0254669189
---
header: 
  seq: 262037
  stamp: 
    secs: 1561681700
    nsecs: 395151039
  frame_id: "ti_mmwave"
point_id: 25
x: 1.205078125
y: -0.328125
z: -0.39453125
range: 1.39446306229
velocity: 0.0
doppler_bin: 8
bearing: -15.231543541
intensity: 24.3296928406
---
header: 
  seq: 262038
  stamp: 
    secs: 1561681700
    nsecs: 396428693
  frame_id: "ti_mmwave"
point_id: 0
x: 0.01171875
y: -0.0390625
z: -0.0078125
range: 0.0435769706964
velocity: 0.0
doppler_bin: 8
bearing: -73.3007583618
intensity: 30.7990455627
---
header: 
  seq: 262039
  stamp: 
    secs: 1561681700
    nsecs: 396479731
  frame_id: "ti_mmwave"
point_id: 1
x: 0.017578125
y: -0.080078125
z: -0.0078125
range: 0.0871539413929
velocity: 0.0
doppler_bin: 8
bearing: -77.6192398071
intensity: 32.0194320679
---
header: 
  seq: 262040
  stamp: 
    secs: 1561681700
    nsecs: 396490945
  frame_id: "ti_mmwave"
point_id: 2
x: 0.041015625
y: -0.115234375
z: -0.0078125
range: 0.130730912089
velocity: 0.0
doppler_bin: 8
bearing: -70.4077224731
intensity: 30.2897777557
---
header: 
  seq: 262041
  stamp: 
    secs: 1561681700
    nsecs: 396499098
  frame_id: "ti_mmwave"
point_id: 3
x: 0.056640625
y: -0.154296875
z: 0.005859375
range: 0.174307882786
velocity: 0.0
doppler_bin: 8
bearing: -69.8423843384
intensity: 25.5388298035
---
header: 
  seq: 262042
  stamp: 
    secs: 1561681700
    nsecs: 396508677
  frame_id: "ti_mmwave"
point_id: 4
x: 1.048828125
y: -0.310546875
z: -0.15234375
range: 1.1765781641
velocity: 0.0
doppler_bin: 8
bearing: -16.4934616089
intensity: 21.3672065735
---
header: 
  seq: 262043
  stamp: 
    secs: 1561681700
    nsecs: 396517354
  frame_id: "ti_mmwave"
point_id: 5
x: 1.046875
y: -0.46484375
z: 0.005859375
range: 1.22015523911
velocity: 0.0
doppler_bin: 8
bearing: -23.9426498413
intensity: 23.031961441
---
header: 
  seq: 262044
  stamp: 
    secs: 1561681700
    nsecs: 396526889
  frame_id: "ti_mmwave"
point_id: 6
x: 1.08203125
y: -0.482421875
z: -0.052734375
range: 1.2637321949
velocity: 0.0
doppler_bin: 8
bearing: -24.029624939
intensity: 29.4001808167
---
header: 
  seq: 262045
  stamp: 
    secs: 1561681700
    nsecs: 396536753
  frame_id: "ti_mmwave"
point_id: 7
x: 1.103515625
y: -0.537109375
z: -0.029296875
range: 1.3073091507
velocity: 0.0
doppler_bin: 8
bearing: -25.9533748627
intensity: 31.2645606995
---
header: 
  seq: 262046
  stamp: 
    secs: 1561681700
    nsecs: 396548085
  frame_id: "ti_mmwave"
point_id: 8
x: 1.138671875
y: -0.5546875
z: 0.048828125
range: 1.35088610649
velocity: 0.0
doppler_bin: 8
bearing: -25.9723587036
intensity: 29.609462738
---
header: 
  seq: 262047
  stamp: 
    secs: 1561681700
    nsecs: 396614510
  frame_id: "ti_mmwave"
point_id: 9
x: 1.18359375
y: -0.53125
z: 0.169921875
range: 1.39446306229
velocity: 0.0
doppler_bin: 8
bearing: -24.1726837158
intensity: 25.831987381
---
header: 
  seq: 262048
  stamp: 
    secs: 1561681700
    nsecs: 396623227
  frame_id: "ti_mmwave"
point_id: 10
x: 1.21875
y: -0.505859375
z: 0.28515625
range: 1.43804001808
velocity: 0.0
doppler_bin: 8
bearing: -22.5415821075
intensity: 24.683473587
---
header: 
  seq: 262049
  stamp: 
    secs: 1561681700
    nsecs: 396631647
  frame_id: "ti_mmwave"
point_id: 11
x: 2.54296875
y: -0.263671875
z: 1.197265625
range: 3.00681090355
velocity: 0.0
doppler_bin: 8
bearing: -5.91965341568
intensity: 29.5520648956
---
header: 
  seq: 262050
  stamp: 
    secs: 1561681700
    nsecs: 396640640
  frame_id: "ti_mmwave"
point_id: 12
x: 2.61328125
y: -0.267578125
z: 1.140625
range: 3.05038785934
velocity: 0.0
doppler_bin: 8
bearing: -5.84623432159
intensity: 32.8757781982
---
header: 
  seq: 262051
  stamp: 
    secs: 1561681700
    nsecs: 396648740
  frame_id: "ti_mmwave"
point_id: 13
x: 2.69140625
y: -0.181640625
z: 1.076171875
range: 3.09396481514
velocity: 0.0
doppler_bin: 8
bearing: -3.86098694801
intensity: 32.1722068787
---
header: 
  seq: 262052
  stamp: 
    secs: 1561681700
    nsecs: 396657260
  frame_id: "ti_mmwave"
point_id: 14
x: 4.423828125
y: -0.287109375
z: 1.154296875
range: 4.88062095642
velocity: 0.0
doppler_bin: 8
bearing: -3.71332621574
intensity: 30.7481651306
---
header: 
  seq: 262053
  stamp: 
    secs: 1561681700
    nsecs: 396665110
  frame_id: "ti_mmwave"
point_id: 15
x: 4.4296875
y: -0.43359375
z: 1.25
range: 4.9241976738
velocity: 0.0
doppler_bin: 8
bearing: -5.59050750732
intensity: 30.496055603
---
header: 
  seq: 262054
  stamp: 
    secs: 1561681700
    nsecs: 396672735
  frame_id: "ti_mmwave"
point_id: 16
x: 4.6875
y: -0.4453125
z: -0.595703125
range: 5.0549287796
velocity: 0.0
doppler_bin: 8
bearing: -5.42681217194
intensity: 29.4939002991
---
header: 
  seq: 262055
  stamp: 
    secs: 1561681700
    nsecs: 396680354
  frame_id: "ti_mmwave"
point_id: 17
x: 4.720703125
y: -0.59765625
z: -0.51953125
range: 5.09850549698
velocity: 0.0
doppler_bin: 8
bearing: -7.21544361115
intensity: 33.4183006287
---
header: 
  seq: 262056
  stamp: 
    secs: 1561681700
    nsecs: 396687876
  frame_id: "ti_mmwave"
point_id: 18
x: 4.78515625
y: -0.453125
z: -0.451171875
range: 5.14208269119
velocity: 0.0
doppler_bin: 8
bearing: -5.40942907333
intensity: 34.0157279968
---
header: 
  seq: 262057
  stamp: 
    secs: 1561681700
    nsecs: 396695360
  frame_id: "ti_mmwave"
point_id: 19
x: 4.837890625
y: -0.45703125
z: -0.2890625
range: 5.18565940857
velocity: 0.0
doppler_bin: 8
bearing: -5.39666557312
intensity: 30.7591171265
---
header: 
  seq: 262058
  stamp: 
    secs: 1561681700
    nsecs: 396703147
  frame_id: "ti_mmwave"
point_id: 20
x: 4.865234375
y: -0.30859375
z: 0.861328125
range: 5.27281332016
velocity: 0.0
doppler_bin: 8
bearing: -3.62931442261
intensity: 30.8493366241
---
header: 
  seq: 262059
  stamp: 
    secs: 1561681700
    nsecs: 396714177
  frame_id: "ti_mmwave"
point_id: 22
x: 0.041015625
y: -0.033203125
z: 0.0625
range: 0.0871539413929
velocity: 0.0
doppler_bin: 8
bearing: -38.9909973145
intensity: 30.141002655
---
header: 
  seq: 262060
  stamp: 
    secs: 1561681700
    nsecs: 396722729
  frame_id: "ti_mmwave"
point_id: 23
x: 0.052734375
y: -0.04296875
z: 0.103515625
range: 0.130730912089
velocity: 0.0
doppler_bin: 8
bearing: -39.1736602783
intensity: 29.020029068
---
header: 
  seq: 262061
  stamp: 
    secs: 1561681700
    nsecs: 396734260
  frame_id: "ti_mmwave"
point_id: 26
x: 0.5859375
y: -0.04296875
z: -1.21484375
range: 1.43804001808
velocity: 0.0
doppler_bin: 8
bearing: -4.19418287277
intensity: 23.5024795532
---
header: 
  seq: 262062
  stamp: 
    secs: 1561681700
    nsecs: 454871745
  frame_id: "ti_mmwave"
point_id: 0
x: 0.01171875
y: -0.0390625
z: -0.0078125
range: 0.0435769706964
velocity: 0.0
doppler_bin: 8
bearing: -73.3007583618
intensity: 30.7954292297
---
header: 
  seq: 262063
  stamp: 
    secs: 1561681700
    nsecs: 454944083
  frame_id: "ti_mmwave"
point_id: 1
x: 0.017578125
y: -0.080078125
z: -0.0078125
range: 0.0871539413929
velocity: 0.0
doppler_bin: 8
bearing: -77.6192398071
intensity: 32.0221595764
---
header: 
  seq: 262064
  stamp: 
    secs: 1561681700
    nsecs: 454958496
  frame_id: "ti_mmwave"
point_id: 2
x: 0.041015625
y: -0.115234375
z: -0.0078125
range: 0.130730912089
velocity: 0.0
doppler_bin: 8
bearing: -70.4077224731
intensity: 30.293838501
---
header: 
  seq: 262065
  stamp: 
    secs: 1561681700
    nsecs: 454967182
  frame_id: "ti_mmwave"
point_id: 3
x: 0.056640625
y: -0.154296875
z: 0.00390625
range: 0.174307882786
velocity: 0.0
doppler_bin: 8
bearing: -69.8423843384
intensity: 25.550945282
---
header: 
  seq: 262066
  stamp: 
    secs: 1561681700
    nsecs: 454978686
  frame_id: "ti_mmwave"
point_id: 4
x: 1.044921875
y: -0.46484375
z: -0.068359375
range: 1.22015523911
velocity: 0.0
doppler_bin: 8
bearing: -23.9823589325
intensity: 25.6820163727
---
header: 
  seq: 262067
  stamp: 
    secs: 1561681700
    nsecs: 454986758
  frame_id: "ti_mmwave"
point_id: 5
x: 1.080078125
y: -0.482421875
z: -0.091796875
range: 1.2637321949
velocity: 0.0
doppler_bin: 8
bearing: -24.0681476593
intensity: 30.3342380524
---
header: 
  seq: 262068
  stamp: 
    secs: 1561681700
    nsecs: 454994860
  frame_id: "ti_mmwave"
point_id: 6
x: 1.1171875
y: -0.498046875
z: -0.0859375
range: 1.3073091507
velocity: 0.0
doppler_bin: 8
bearing: -24.027513504
intensity: 31.095785141
---
header: 
  seq: 262069
  stamp: 
    secs: 1561681700
    nsecs: 455002900
  frame_id: "ti_mmwave"
point_id: 7
x: 1.138671875
y: -0.5546875
z: -0.060546875
range: 1.35088610649
velocity: 0.0
doppler_bin: 8
bearing: -25.9723587036
intensity: 28.0753498077
---
header: 
  seq: 262070
  stamp: 
    secs: 1561681700
    nsecs: 455011678
  frame_id: "ti_mmwave"
point_id: 8
x: 1.216796875
y: -0.3671875
z: -0.3125
range: 1.39446306229
velocity: 0.0
doppler_bin: 8
bearing: -16.7920093536
intensity: 24.7129173279
---
header: 
  seq: 262071
  stamp: 
    secs: 1561681700
    nsecs: 455021092
  frame_id: "ti_mmwave"
point_id: 9
x: 1.291015625
y: -0.337890625
z: -0.19921875
range: 1.43804001808
velocity: 0.0
doppler_bin: 8
bearing: -14.6667346954
intensity: 23.9093513489
---
header: 
  seq: 262072
  stamp: 
    secs: 1561681700
    nsecs: 455211134
  frame_id: "ti_mmwave"
point_id: 10
x: 2.541015625
y: -0.263671875
z: 1.19921875
range: 3.00681090355
velocity: 0.0
doppler_bin: 8
bearing: -5.92417097092
intensity: 29.4694328308
---
header: 
  seq: 262073
  stamp: 
    secs: 1561681700
    nsecs: 455231061
  frame_id: "ti_mmwave"
point_id: 11
x: 2.59765625
y: -0.267578125
z: 1.17578125
range: 3.05038785934
velocity: 0.0
doppler_bin: 8
bearing: -5.88115358353
intensity: 32.7898216248
---
header: 
  seq: 262074
  stamp: 
    secs: 1561681700
    nsecs: 455239083
  frame_id: "ti_mmwave"
point_id: 12
x: 2.642578125
y: -0.181640625
z: 1.189453125
range: 3.09396481514
velocity: 0.0
doppler_bin: 8
bearing: -3.93210625648
intensity: 31.9755630493
---
header: 
  seq: 262075
  stamp: 
    secs: 1561681700
    nsecs: 455247436
  frame_id: "ti_mmwave"
point_id: 13
x: 4.423828125
y: -0.287109375
z: 1.158203125
range: 4.88062095642
velocity: 0.0
doppler_bin: 8
bearing: -3.71332621574
intensity: 30.6595306396
---
header: 
  seq: 262076
  stamp: 
    secs: 1561681700
    nsecs: 455256485
  frame_id: "ti_mmwave"
point_id: 14
x: 4.42578125
y: -0.43359375
z: 1.259765625
range: 4.9241976738
velocity: 0.0
doppler_bin: 8
bearing: -5.59541082382
intensity: 30.3221569061
---
header: 
  seq: 262077
  stamp: 
    secs: 1561681700
    nsecs: 455264648
  frame_id: "ti_mmwave"
point_id: 15
x: 4.703125
y: -0.296875
z: -0.55078125
range: 5.0549287796
velocity: 0.0
doppler_bin: 8
bearing: -3.61188483238
intensity: 29.484128952
---
header: 
  seq: 262078
  stamp: 
    secs: 1561681700
    nsecs: 455274728
  frame_id: "ti_mmwave"
point_id: 16
x: 4.73828125
y: -0.44921875
z: -0.501953125
range: 5.09850549698
velocity: 0.0
doppler_bin: 8
bearing: -5.4158115387
intensity: 33.4615745544
---
header: 
  seq: 262079
  stamp: 
    secs: 1561681700
    nsecs: 455283376
  frame_id: "ti_mmwave"
point_id: 17
x: 4.787109375
y: -0.453125
z: -0.431640625
range: 5.14208269119
velocity: 0.0
doppler_bin: 8
bearing: -5.40723514557
intensity: 34.1863250732
---
header: 
  seq: 262080
  stamp: 
    secs: 1561681700
    nsecs: 455297694
  frame_id: "ti_mmwave"
point_id: 18
x: 4.837890625
y: -0.45703125
z: -0.275390625
range: 5.18565940857
velocity: 0.0
doppler_bin: 8
bearing: -5.39666557312
intensity: 31.2807598114
---
header: 
  seq: 262081
  stamp: 
    secs: 1561681700
    nsecs: 455351646
  frame_id: "ti_mmwave"
point_id: 19
x: 4.822265625
y: -0.4609375
z: 0.796875
range: 5.22923660278
velocity: 0.0
doppler_bin: 8
bearing: -5.46004343033
intensity: 29.6614170074
---
header: 
  seq: 262082
  stamp: 
    secs: 1561681700
    nsecs: 455384693
  frame_id: "ti_mmwave"
point_id: 20
x: 4.833984375
y: -0.46484375
z: 0.958984375
range: 5.27281332016
velocity: 0.0
doppler_bin: 8
bearing: -5.49276590347
intensity: 31.1092624664
---
header: 
  seq: 262083
  stamp: 
    secs: 1561681700
    nsecs: 455400693
  frame_id: "ti_mmwave"
point_id: 22
x: 0.041015625
y: -0.033203125
z: 0.0625
range: 0.0871539413929
velocity: 0.0
doppler_bin: 8
bearing: -38.9909973145
intensity: 30.141002655
---
header: 
  seq: 262084
  stamp: 
    secs: 1561681700
    nsecs: 455410224
  frame_id: "ti_mmwave"
point_id: 23
x: 0.052734375
y: -0.04296875
z: 0.103515625
range: 0.130730912089
velocity: 0.0
doppler_bin: 8
bearing: -39.1736602783
intensity: 29.0254669189
---
header: 
  seq: 262085
  stamp: 
    secs: 1561681700
    nsecs: 455423932
  frame_id: "ti_mmwave"
point_id: 25
x: 0.728515625
y: 0.041015625
z: 1.0859375
range: 1.39446306229
velocity: 0.0
doppler_bin: 8
bearing: 3.22236585617
intensity: 22.2271652222
---
header: 
  seq: 262086
  stamp: 
    secs: 1561681700
    nsecs: 456448693
  frame_id: "ti_mmwave"
point_id: 0
x: 0.01171875
y: -0.0390625
z: -0.0078125
range: 0.0435769706964
velocity: 0.0
doppler_bin: 8
bearing: -73.3007583618
intensity: 30.8026561737
---
header: 
  seq: 262087
  stamp: 
    secs: 1561681700
    nsecs: 456495888
  frame_id: "ti_mmwave"
point_id: 1
x: 0.017578125
y: -0.080078125
z: -0.0078125
range: 0.0871539413929
velocity: 0.0
doppler_bin: 8
bearing: -77.6192398071
intensity: 32.0248832703
---
header: 
  seq: 262088
  stamp: 
    secs: 1561681700
    nsecs: 456508020
  frame_id: "ti_mmwave"
point_id: 2
x: 0.041015625
y: -0.115234375
z: -0.0078125
range: 0.130730912089
velocity: 0.0
doppler_bin: 8
bearing: -70.4077224731
intensity: 30.2978954315
---
header: 
  seq: 262089
  stamp: 
    secs: 1561681700
    nsecs: 456517165
  frame_id: "ti_mmwave"
point_id: 3
x: 0.056640625
y: -0.154296875
z: 0.005859375
range: 0.174307882786
velocity: 0.0
doppler_bin: 8
bearing: -69.8423843384
intensity: 25.550945282
---
header: 
  seq: 262090
  stamp: 
    secs: 1561681700
    nsecs: 456525657
  frame_id: "ti_mmwave"
point_id: 4
x: 1.072265625
y: -0.39453125
z: 0.072265625
range: 1.22015523911
velocity: 0.0
doppler_bin: 8
bearing: -20.200674057
intensity: 23.6921577454
---
header: 
  seq: 262091
  stamp: 
    secs: 1561681700
    nsecs: 456535663
  frame_id: "ti_mmwave"
point_id: 5
x: 1.080078125
y: -0.37109375
z: 0.32421875
range: 1.2637321949
velocity: 0.0
doppler_bin: 8
bearing: -18.9617214203
intensity: 22.8330116272
---
header: 
  seq: 262092
  stamp: 
    secs: 1561681700
    nsecs: 456596259
  frame_id: "ti_mmwave"
point_id: 6
x: 1.087890625
y: -0.537109375
z: 0.189453125
range: 1.3073091507
velocity: 0.0
doppler_bin: 8
bearing: -26.2763061523
intensity: 27.3158874512
---
header: 
  seq: 262093
  stamp: 
    secs: 1561681700
    nsecs: 456610379
  frame_id: "ti_mmwave"
point_id: 7
x: 1.158203125
y: -0.515625
z: -0.05078125
range: 1.35088610649
velocity: 0.0
doppler_bin: 8
bearing: -23.998336792
intensity: 28.8309345245
---
header: 
  seq: 262094
  stamp: 
    secs: 1561681700
    nsecs: 456622426
  frame_id: "ti_mmwave"
point_id: 8
x: 1.20703125
y: -0.490234375
z: -0.1171875
range: 1.39446306229
velocity: 0.0
doppler_bin: 8
bearing: -22.1044750214
intensity: 27.1767044067
---
header: 
  seq: 262095
  stamp: 
    secs: 1561681700
    nsecs: 456633675
  frame_id: "ti_mmwave"
point_id: 9
x: 2.537109375
y: -0.263671875
z: 1.208984375
range: 3.00681090355
velocity: 0.0
doppler_bin: 8
bearing: -5.93322753906
intensity: 29.527923584
---
header: 
  seq: 262096
  stamp: 
    secs: 1561681700
    nsecs: 456646830
  frame_id: "ti_mmwave"
point_id: 10
x: 2.59765625
y: -0.267578125
z: 1.17578125
range: 3.05038785934
velocity: 0.0
doppler_bin: 8
bearing: -5.88115358353
intensity: 32.8397941589
---
header: 
  seq: 262097
  stamp: 
    secs: 1561681700
    nsecs: 456655736
  frame_id: "ti_mmwave"
point_id: 11
x: 2.6484375
y: -0.181640625
z: 1.17578125
range: 3.09396481514
velocity: 0.0
doppler_bin: 8
bearing: -3.92343401909
intensity: 32.0763435364
---
header: 
  seq: 262098
  stamp: 
    secs: 1561681700
    nsecs: 456664853
  frame_id: "ti_mmwave"
point_id: 12
x: 4.42578125
y: -0.287109375
z: 1.150390625
range: 4.88062095642
velocity: 0.0
doppler_bin: 8
bearing: -3.7116920948
intensity: 30.696680069
---
header: 
  seq: 262099
  stamp: 
    secs: 1561681700
    nsecs: 456672784
  frame_id: "ti_mmwave"
point_id: 13
x: 4.427734375
y: -0.43359375
z: 1.251953125
range: 4.9241976738
velocity: 0.0
doppler_bin: 8
bearing: -5.59295797348
intensity: 30.310043335
---
header: 
  seq: 262100
  stamp: 
    secs: 1561681700
    nsecs: 456680740
  frame_id: "ti_mmwave"
point_id: 14
x: 4.73828125
y: -0.44921875
z: -0.51171875
range: 5.09850549698
velocity: 0.0
doppler_bin: 8
bearing: -5.4158115387
intensity: 33.2221946716
---
header: 
  seq: 262101
  stamp: 
    secs: 1561681700
    nsecs: 456688778
  frame_id: "ti_mmwave"
point_id: 15
x: 4.783203125
y: -0.453125
z: -0.45703125
range: 5.14208269119
velocity: 0.0
doppler_bin: 8
bearing: -5.41162490845
intensity: 33.8898887634
---
header: 
  seq: 262102
  stamp: 
    secs: 1561681700
    nsecs: 456693812
  frame_id: "ti_mmwave"
point_id: 16
x: 4.837890625
y: -0.45703125
z: -0.291015625
range: 5.18565940857
velocity: 0.0
doppler_bin: 8
bearing: -5.39666557312
intensity: 30.8529052734
---
header: 
  seq: 262103
  stamp: 
    secs: 1561681700
    nsecs: 456717092
  frame_id: "ti_mmwave"
point_id: 17
x: 4.83203125
y: -0.4609375
z: 0.732421875
range: 5.22923660278
velocity: 0.0
doppler_bin: 8
bearing: -5.44907474518
intensity: 29.8000335693
---
header: 
  seq: 262104
  stamp: 
    secs: 1561681700
    nsecs: 456729096
  frame_id: "ti_mmwave"
point_id: 18
x: 4.87890625
y: -0.30859375
z: 0.771484375
range: 5.27281332016
velocity: 0.0
doppler_bin: 8
bearing: -3.61917114258
intensity: 31.0448703766
---
header: 
  seq: 262105
  stamp: 
    secs: 1561681700
    nsecs: 456784902
  frame_id: "ti_mmwave"
point_id: 19
x: 1.234375
y: -0.46484375
z: 0.291015625
range: 1.43804001808
velocity: -0.614668667316
doppler_bin: 7
bearing: -20.6354827881
intensity: 24.5788192749
---
header: 
  seq: 262106
  stamp: 
    secs: 1561681700
    nsecs: 456795432
  frame_id: "ti_mmwave"
point_id: 21
x: 0.041015625
y: -0.033203125
z: 0.0625
range: 0.0871539413929
velocity: 0.0
doppler_bin: 8
bearing: -38.9909973145
intensity: 30.1452045441
---
header: 
  seq: 262107
  stamp: 
    secs: 1561681700
    nsecs: 456803936
  frame_id: "ti_mmwave"
point_id: 22
x: 0.052734375
y: -0.04296875
z: 0.103515625
range: 0.130730912089
velocity: 0.0
doppler_bin: 8
bearing: -39.1736602783
intensity: 29.0308990479
---
header: 
  seq: 262108
  stamp: 
    secs: 1561681700
    nsecs: 514703257
  frame_id: "ti_mmwave"
point_id: 0
x: 0.01171875
y: -0.0390625
z: -0.0078125
range: 0.0435769706964
velocity: 0.0
doppler_bin: 8
bearing: -73.3007583618
intensity: 30.7990455627
---
header: 
  seq: 262109
  stamp: 
    secs: 1561681700
    nsecs: 514782579
  frame_id: "ti_mmwave"
point_id: 1
x: 0.017578125
y: -0.080078125
z: -0.0078125
range: 0.0871539413929
velocity: 0.0
doppler_bin: 8
bearing: -77.6192398071
intensity: 32.0221595764
---
header: 
  seq: 262110
  stamp: 
    secs: 1561681700
    nsecs: 514799330
  frame_id: "ti_mmwave"
point_id: 2
x: 0.041015625
y: -0.115234375
z: -0.0078125
range: 0.130730912089
velocity: 0.0
doppler_bin: 8
bearing: -70.4077224731
intensity: 30.293838501
---
header: 
  seq: 262111
  stamp: 
    secs: 1561681700
    nsecs: 514816491
  frame_id: "ti_mmwave"
point_id: 3
x: 0.056640625
y: -0.154296875
z: 0.00390625
range: 0.174307882786
velocity: 0.0
doppler_bin: 8
bearing: -69.8423843384
intensity: 25.5388298035
---
header: 
  seq: 262112
  stamp: 
    secs: 1561681700
    nsecs: 514825284
  frame_id: "ti_mmwave"
point_id: 4
x: 1.037109375
y: -0.310546875
z: -0.220703125
range: 1.1765781641
velocity: 0.0
doppler_bin: 8
bearing: -16.6695404053
intensity: 20.7554702759
---
header: 
  seq: 262113
  stamp: 
    secs: 1561681700
    nsecs: 514833719
  frame_id: "ti_mmwave"
point_id: 5
x: 1.0546875
y: -0.4296875
z: -0.115234375
range: 1.22015523911
velocity: 0.0
doppler_bin: 8
bearing: -22.1663455963
intensity: 26.0530509949
---
header: 
  seq: 262114
  stamp: 
    secs: 1561681700
    nsecs: 514982782
  frame_id: "ti_mmwave"
point_id: 6
x: 1.0859375
y: -0.4453125
z: -0.171875
range: 1.2637321949
velocity: 0.0
doppler_bin: 8
bearing: -22.2971572876
intensity: 31.3033370972
---
header: 
  seq: 262115
  stamp: 
    secs: 1561681700
    nsecs: 515011672
  frame_id: "ti_mmwave"
point_id: 7
x: 1.123046875
y: -0.4609375
z: -0.17578125
range: 1.3073091507
velocity: 0.0
doppler_bin: 8
bearing: -22.3149528503
intensity: 33.1449928284
---
header: 
  seq: 262116
  stamp: 
    secs: 1561681700
    nsecs: 515027782
  frame_id: "ti_mmwave"
point_id: 8
x: 1.15234375
y: -0.515625
z: -0.12109375
range: 1.35088610649
velocity: 0.0
doppler_bin: 8
bearing: -24.1064929962
intensity: 32.4004974365
---
header: 
  seq: 262117
  stamp: 
    secs: 1561681700
    nsecs: 515037408
  frame_id: "ti_mmwave"
point_id: 9
x: 1.212890625
y: -0.490234375
z: 0.037109375
range: 1.39446306229
velocity: 0.0
doppler_bin: 8
bearing: -22.0079078674
intensity: 29.5951843262
---
header: 
  seq: 262118
  stamp: 
    secs: 1561681700
    nsecs: 515103693
  frame_id: "ti_mmwave"
point_id: 10
x: 2.544921875
y: -0.263671875
z: 1.19140625
range: 3.00681090355
velocity: 0.0
doppler_bin: 8
bearing: -5.91514253616
intensity: 29.4743366241
---
header: 
  seq: 262119
  stamp: 
    secs: 1561681700
    nsecs: 515114905
  frame_id: "ti_mmwave"
point_id: 11
x: 2.60546875
y: -0.267578125
z: 1.158203125
range: 3.05038785934
velocity: 0.0
doppler_bin: 8
bearing: -5.86364221573
intensity: 32.7852478027
---
header: 
  seq: 262120
  stamp: 
    secs: 1561681700
    nsecs: 515122737
  frame_id: "ti_mmwave"
point_id: 12
x: 2.66796875
y: -0.181640625
z: 1.134765625
range: 3.09396481514
velocity: 0.0
doppler_bin: 8
bearing: -3.89480042458
intensity: 32.0330505371
---
header: 
  seq: 262121
  stamp: 
    secs: 1561681700
    nsecs: 515130820
  frame_id: "ti_mmwave"
point_id: 13
x: 4.435546875
y: -0.287109375
z: 1.109375
range: 4.88062095642
velocity: 0.0
doppler_bin: 8
bearing: -3.70354294777
intensity: 30.5422992706
---
header: 
  seq: 262122
  stamp: 
    secs: 1561681700
    nsecs: 515138843
  frame_id: "ti_mmwave"
point_id: 14
x: 4.458984375
y: -0.43359375
z: 1.138671875
range: 4.9241976738
velocity: 0.0
doppler_bin: 8
bearing: -5.55400657654
intensity: 30.064661026
---
header: 
  seq: 262123
  stamp: 
    secs: 1561681700
    nsecs: 515147026
  frame_id: "ti_mmwave"
point_id: 15
x: 4.73828125
y: -0.44921875
z: -0.5078125
range: 5.09850549698
velocity: 0.0
doppler_bin: 8
bearing: -5.4158115387
intensity: 32.7669143677
---
header: 
  seq: 262124
  stamp: 
    secs: 1561681700
    nsecs: 515152146
  frame_id: "ti_mmwave"
point_id: 16
x: 4.787109375
y: -0.453125
z: -0.431640625
range: 5.14208269119
velocity: 0.0
doppler_bin: 8
bearing: -5.40723514557
intensity: 33.3565826416
---
header: 
  seq: 262125
  stamp: 
    secs: 1561681700
    nsecs: 515172257
  frame_id: "ti_mmwave"
point_id: 17
x: 4.84375
y: -0.45703125
z: -0.185546875
range: 5.18565940857
velocity: 0.0
doppler_bin: 8
bearing: -5.3901758194
intensity: 30.1072387695
---
header: 
  seq: 262126
  stamp: 
    secs: 1561681700
    nsecs: 515183188
  frame_id: "ti_mmwave"
point_id: 18
x: 4.875
y: -0.30859375
z: 0.79296875
range: 5.27281332016
velocity: 0.0
doppler_bin: 8
bearing: -3.62206339836
intensity: 30.9482040405
---
header: 
  seq: 262127
  stamp: 
    secs: 1561681700
    nsecs: 515267700
  frame_id: "ti_mmwave"
point_id: 19
x: 1.2421875
y: -0.505859375
z: 0.14453125
range: 1.43804001808
velocity: -0.614668667316
doppler_bin: 7
bearing: -22.1577606201
intensity: 26.180480957
---
header: 
  seq: 262128
  stamp: 
    secs: 1561681700
    nsecs: 515292271
  frame_id: "ti_mmwave"
point_id: 21
x: 0.041015625
y: -0.033203125
z: 0.0625
range: 0.0871539413929
velocity: 0.0
doppler_bin: 8
bearing: -38.9909973145
intensity: 30.1494026184
---
header: 
  seq: 262129
  stamp: 
    secs: 1561681700
    nsecs: 515306303
  frame_id: "ti_mmwave"
point_id: 22
x: 0.052734375
y: -0.04296875
z: 0.103515625
range: 0.130730912089
velocity: 0.0
doppler_bin: 8
bearing: -39.1736602783
intensity: 29.0308990479
---
header: 
  seq: 262130
  stamp: 
    secs: 1561681700
    nsecs: 516221127
  frame_id: "ti_mmwave"
point_id: 0
x: 0.01171875
y: -0.0390625
z: -0.0078125
range: 0.0435769706964
velocity: 0.0
doppler_bin: 8
bearing: -73.3007583618
intensity: 30.7990455627
---
header: 
  seq: 262131
  stamp: 
    secs: 1561681700
    nsecs: 516277543
  frame_id: "ti_mmwave"
point_id: 1
x: 0.017578125
y: -0.080078125
z: -0.0078125
range: 0.0871539413929
velocity: 0.0
doppler_bin: 8
bearing: -77.6192398071
intensity: 32.0194320679
---
header: 
  seq: 262132
  stamp: 
    secs: 1561681700
    nsecs: 516295325
  frame_id: "ti_mmwave"
point_id: 2
x: 0.041015625
y: -0.115234375
z: -0.0078125
range: 0.130730912089
velocity: 0.0
doppler_bin: 8
bearing: -70.4077224731
intensity: 30.2897777557
---
header: 
  seq: 262133
  stamp: 
    secs: 1561681700
    nsecs: 516307892
  frame_id: "ti_mmwave"
point_id: 3
x: 0.056640625
y: -0.154296875
z: 0.00390625
range: 0.174307882786
velocity: 0.0
doppler_bin: 8
bearing: -69.8423843384
intensity: 25.5388298035
---
header: 
  seq: 262134
  stamp: 
    secs: 1561681700
    nsecs: 516321872
  frame_id: "ti_mmwave"
point_id: 4
x: 1.013671875
y: -0.310546875
z: -0.3125
range: 1.1765781641
velocity: 0.0
doppler_bin: 8
bearing: -17.0328826904
intensity: 20.5307846069
---
header: 
  seq: 262135
  stamp: 
    secs: 1561681700
    nsecs: 516336200
  frame_id: "ti_mmwave"
point_id: 5
x: 1.06640625
y: -0.357421875
z: -0.21875
range: 1.22015523911
velocity: 0.0
doppler_bin: 8
bearing: -18.529340744
intensity: 25.4530715942
---
header: 
  seq: 262136
  stamp: 
    secs: 1561681700
    nsecs: 516350635
  frame_id: "ti_mmwave"
point_id: 6
x: 1.095703125
y: -0.408203125
z: -0.197265625
range: 1.2637321949
velocity: 0.0
doppler_bin: 8
bearing: -20.4328289032
intensity: 28.1023254395
---
header: 
  seq: 262137
  stamp: 
    secs: 1561681700
    nsecs: 516363467
  frame_id: "ti_mmwave"
point_id: 7
x: 1.130859375
y: -0.3828125
z: -0.28515625
range: 1.3073091507
velocity: 0.0
doppler_bin: 8
bearing: -18.7017154694
intensity: 25.6702632904
---
header: 
  seq: 262138
  stamp: 
    secs: 1561681700
    nsecs: 516380169
  frame_id: "ti_mmwave"
point_id: 8
x: 2.556640625
y: -0.263671875
z: 1.166015625
range: 3.00681090355
velocity: 0.0
doppler_bin: 8
bearing: -5.88822031021
intensity: 29.4497585297
---
header: 
  seq: 262139
  stamp: 
    secs: 1561681700
    nsecs: 516415721
  frame_id: "ti_mmwave"
point_id: 9
x: 2.60546875
y: -0.267578125
z: 1.15625
range: 3.05038785934
velocity: 0.0
doppler_bin: 8
bearing: -5.86364221573
intensity: 32.8012275696
---
header: 
  seq: 262140
  stamp: 
    secs: 1561681700
    nsecs: 516429053
  frame_id: "ti_mmwave"
point_id: 10
x: 2.66015625
y: -0.181640625
z: 1.150390625
range: 3.09396481514
velocity: 0.0
doppler_bin: 8
bearing: -3.90620398521
intensity: 32.030330658
---
header: 
  seq: 262141
  stamp: 
    secs: 1561681700
    nsecs: 516441514
  frame_id: "ti_mmwave"
point_id: 11
x: 4.4453125
y: -0.287109375
z: 1.068359375
range: 4.88062095642
velocity: 0.0
doppler_bin: 8
bearing: -3.69542956352
intensity: 30.5192394257
---
header: 
  seq: 262142
  stamp: 
    secs: 1561681700
    nsecs: 516454180
  frame_id: "ti_mmwave"
point_id: 12
x: 4.48046875
y: -0.43359375
z: 1.05078125
range: 4.9241976738
velocity: 0.0
doppler_bin: 8
bearing: -5.52754020691
intensity: 30.0216598511
---
header: 
  seq: 262143
  stamp: 
    secs: 1561681700
    nsecs: 516468580
  frame_id: "ti_mmwave"
point_id: 13
x: 4.685546875
y: -0.4453125
z: -0.6015625
range: 5.0549287796
velocity: 0.0
doppler_bin: 8
bearing: -5.42906141281
intensity: 29.3298072815
---
header: 
  seq: 262144
  stamp: 
    secs: 1561681700
    nsecs: 516481764
  frame_id: "ti_mmwave"
point_id: 14
x: 4.720703125
y: -0.59765625
z: -0.515625
range: 5.09850549698
velocity: 0.0
doppler_bin: 8
bearing: -7.21544361115
intensity: 33.3304405212
---
header: 
  seq: 262145
  stamp: 
    secs: 1561681700
    nsecs: 516496063
  frame_id: "ti_mmwave"
point_id: 15
x: 4.78515625
y: -0.453125
z: -0.451171875
range: 5.14208269119
velocity: 0.0
doppler_bin: 8
bearing: -5.40942907333
intensity: 33.9794006348
---
header: 
  seq: 262146
  stamp: 
    secs: 1561681700
    nsecs: 516509027
  frame_id: "ti_mmwave"
point_id: 16
x: 4.8359375
y: -0.45703125
z: -0.314453125
range: 5.18565940857
velocity: 0.0
doppler_bin: 8
bearing: -5.39883232117
intensity: 30.6520614624
---
header: 
  seq: 262147
  stamp: 
    secs: 1561681700
    nsecs: 516521230
  frame_id: "ti_mmwave"
point_id: 17
x: 4.861328125
y: -0.46484375
z: 0.802734375
range: 5.27281332016
velocity: 0.0
doppler_bin: 8
bearing: -5.46205759048
intensity: 30.8098697662
---
header: 
  seq: 262148
  stamp: 
    secs: 1561681700
    nsecs: 516533673
  frame_id: "ti_mmwave"
point_id: 18
x: 1.140625
y: -0.474609375
z: 0.28125
range: 1.35088610649
velocity: -0.614668667316
doppler_bin: 7
bearing: -22.5919933319
intensity: 26.4836006165
---
header: 
  seq: 262149
  stamp: 
    secs: 1561681700
    nsecs: 516547204
  frame_id: "ti_mmwave"
point_id: 19
x: 1.1875
y: -0.53125
z: 0.142578125
range: 1.39446306229
velocity: -0.614668667316
doppler_bin: 7
bearing: -24.1022357941
intensity: 26.4345264435
---
header: 
  seq: 262150
  stamp: 
    secs: 1561681700
    nsecs: 516564496
  frame_id: "ti_mmwave"
point_id: 21
x: 0.041015625
y: -0.033203125
z: 0.0625
range: 0.0871539413929
velocity: 0.0
doppler_bin: 8
bearing: -38.9909973145
intensity: 30.1452045441
---
header: 
  seq: 262151
  stamp: 
    secs: 1561681700
    nsecs: 516579039
  frame_id: "ti_mmwave"
point_id: 22
x: 0.052734375
y: -0.04296875
z: 0.103515625
range: 0.130730912089
velocity: 0.0
doppler_bin: 8
bearing: -39.1736602783
intensity: 29.0254669189
---
header: 
  seq: 262152
  stamp: 
    secs: 1561681700
    nsecs: 574733812
  frame_id: "ti_mmwave"
point_id: 0
x: 0.01171875
y: -0.0390625
z: -0.0078125
range: 0.0435769706964
velocity: 0.0
doppler_bin: 8
bearing: -73.3007583618
intensity: 30.7954292297
---
header: 
  seq: 262153
  stamp: 
    secs: 1561681700
    nsecs: 574808173
  frame_id: "ti_mmwave"
point_id: 1
x: 0.017578125
y: -0.080078125
z: -0.0078125
range: 0.0871539413929
velocity: 0.0
doppler_bin: 8
bearing: -77.6192398071
intensity: 32.0221595764
---
header: 
  seq: 262154
  stamp: 
    secs: 1561681700
    nsecs: 574818973
  frame_id: "ti_mmwave"
point_id: 2
x: 0.041015625
y: -0.115234375
z: -0.0078125
range: 0.130730912089
velocity: 0.0
doppler_bin: 8
bearing: -70.4077224731
intensity: 30.293838501
---
header: 
  seq: 262155
  stamp: 
    secs: 1561681700
    nsecs: 574830983
  frame_id: "ti_mmwave"
point_id: 3
x: 0.056640625
y: -0.154296875
z: 0.00390625
range: 0.174307882786
velocity: 0.0
doppler_bin: 8
bearing: -69.8423843384
intensity: 25.5388298035
---
header: 
  seq: 262156
  stamp: 
    secs: 1561681700
    nsecs: 574839418
  frame_id: "ti_mmwave"
point_id: 4
x: 1.078125
y: -0.482421875
z: -0.11328125
range: 1.2637321949
velocity: 0.0
doppler_bin: 8
bearing: -24.1067867279
intensity: 22.4054927826
---
header: 
  seq: 262157
  stamp: 
    secs: 1561681700
    nsecs: 574847199
  frame_id: "ti_mmwave"
point_id: 5
x: 1.103515625
y: -0.537109375
z: -0.02734375
range: 1.3073091507
velocity: 0.0
doppler_bin: 8
bearing: -25.9533748627
intensity: 26.5224628448
---
header: 
  seq: 262158
  stamp: 
    secs: 1561681700
    nsecs: 574855003
  frame_id: "ti_mmwave"
point_id: 6
x: 1.158203125
y: -0.515625
z: -0.052734375
range: 1.35088610649
velocity: 0.0
doppler_bin: 8
bearing: -23.998336792
intensity: 28.0071716309
---
header: 
  seq: 262159
  stamp: 
    secs: 1561681700
    nsecs: 574862928
  frame_id: "ti_mmwave"
point_id: 7
x: 1.19140625
y: -0.53125
z: -0.1015625
range: 1.39446306229
velocity: 0.0
doppler_bin: 8
bearing: -24.0321712494
intensity: 25.8994960785
---
header: 
  seq: 262160
  stamp: 
    secs: 1561681700
    nsecs: 574870674
  frame_id: "ti_mmwave"
point_id: 8
x: 2.55078125
y: -0.263671875
z: 1.177734375
range: 3.00681090355
velocity: 0.0
doppler_bin: 8
bearing: -5.90165042877
intensity: 29.4398880005
---
header: 
  seq: 262161
  stamp: 
    secs: 1561681700
    nsecs: 574878553
  frame_id: "ti_mmwave"
point_id: 9
x: 2.60546875
y: -0.267578125
z: 1.158203125
range: 3.05038785934
velocity: 0.0
doppler_bin: 8
bearing: -5.86364221573
intensity: 32.7875366211
---
header: 
  seq: 262162
  stamp: 
    secs: 1561681700
    nsecs: 574888065
  frame_id: "ti_mmwave"
point_id: 10
x: 2.65625
y: -0.181640625
z: 1.16015625
range: 3.09396481514
velocity: 0.0
doppler_bin: 8
bearing: -3.91193032265
intensity: 32.0384864807
---
header: 
  seq: 262163
  stamp: 
    secs: 1561681700
    nsecs: 574896569
  frame_id: "ti_mmwave"
point_id: 11
x: 4.439453125
y: -0.287109375
z: 1.09765625
range: 4.88062095642
velocity: 0.0
doppler_bin: 8
bearing: -3.70029330254
intensity: 30.5994186401
---
header: 
  seq: 262164
  stamp: 
    secs: 1561681700
    nsecs: 574905330
  frame_id: "ti_mmwave"
point_id: 12
x: 4.458984375
y: -0.43359375
z: 1.142578125
range: 4.9241976738
velocity: 0.0
doppler_bin: 8
bearing: -5.55400657654
intensity: 30.2201576233
---
header: 
  seq: 262165
  stamp: 
    secs: 1561681700
    nsecs: 574914174
  frame_id: "ti_mmwave"
point_id: 13
x: 4.751953125
y: -0.298828125
z: -0.484375
range: 5.09850549698
velocity: 0.0
doppler_bin: 8
bearing: -3.59832549095
intensity: 32.73695755
---
header: 
  seq: 262166
  stamp: 
    secs: 1561681700
    nsecs: 574922694
  frame_id: "ti_mmwave"
point_id: 14
x: 4.787109375
y: -0.453125
z: -0.421875
range: 5.14208269119
velocity: 0.0
doppler_bin: 8
bearing: -5.40723514557
intensity: 33.2899093628
---
header: 
  seq: 262167
  stamp: 
    secs: 1561681700
    nsecs: 574931466
  frame_id: "ti_mmwave"
point_id: 15
x: 4.841796875
y: -0.45703125
z: -0.197265625
range: 5.18565940857
velocity: 0.0
doppler_bin: 8
bearing: -5.39233732224
intensity: 29.9387683868
---
header: 
  seq: 262168
  stamp: 
    secs: 1561681700
    nsecs: 574940387
  frame_id: "ti_mmwave"
point_id: 16
x: 4.861328125
y: -0.46484375
z: 0.802734375
range: 5.27281332016
velocity: 0.0
doppler_bin: 8
bearing: -5.46205759048
intensity: 30.86003685
---
header: 
  seq: 262169
  stamp: 
    secs: 1561681700
    nsecs: 574951716
  frame_id: "ti_mmwave"
point_id: 18
x: 0.041015625
y: -0.033203125
z: 0.0625
range: 0.0871539413929
velocity: 0.0
doppler_bin: 8
bearing: -38.9909973145
intensity: 30.141002655
---
header: 
  seq: 262170
  stamp: 
    secs: 1561681700
    nsecs: 574960205
  frame_id: "ti_mmwave"
point_id: 19
x: 0.052734375
y: -0.04296875
z: 0.103515625
range: 0.130730912089
velocity: 0.0
doppler_bin: 8
bearing: -39.1736602783
intensity: 29.0254669189
---
header: 
  seq: 262171
  stamp: 
    secs: 1561681700
    nsecs: 575133497
  frame_id: "ti_mmwave"
point_id: 21
x: 4.720703125
y: -0.59765625
z: -0.51171875
range: 5.09850549698
velocity: 0.0
doppler_bin: 8
bearing: -7.21544361115
intensity: 32.7230567932
---
header: 
  seq: 262172
  stamp: 
    secs: 1561681700
    nsecs: 634748812
  frame_id: "ti_mmwave"
point_id: 0
x: 0.01171875
y: -0.0390625
z: -0.0078125
range: 0.0435769706964
velocity: 0.0
doppler_bin: 8
bearing: -73.3007583618
intensity: 30.7918128967
---
header: 
  seq: 262173
  stamp: 
    secs: 1561681700
    nsecs: 634832627
  frame_id: "ti_mmwave"
point_id: 1
x: 0.017578125
y: -0.080078125
z: -0.0078125
range: 0.0871539413929
velocity: 0.0
doppler_bin: 8
bearing: -77.6192398071
intensity: 32.0194320679
---
header: 
  seq: 262174
  stamp: 
    secs: 1561681700
    nsecs: 634843787
  frame_id: "ti_mmwave"
point_id: 2
x: 0.041015625
y: -0.115234375
z: -0.0078125
range: 0.130730912089
velocity: 0.0
doppler_bin: 8
bearing: -70.4077224731
intensity: 30.2897777557
---
header: 
  seq: 262175
  stamp: 
    secs: 1561681700
    nsecs: 634854466
  frame_id: "ti_mmwave"
point_id: 3
x: 0.056640625
y: -0.154296875
z: 0.005859375
range: 0.174307882786
velocity: 0.0
doppler_bin: 8
bearing: -69.8423843384
intensity: 25.5388298035
---
header: 
  seq: 262176
  stamp: 
    secs: 1561681700
    nsecs: 634863185
  frame_id: "ti_mmwave"
point_id: 4
x: 1.046875
y: -0.46484375
z: -0.013671875
range: 1.22015523911
velocity: 0.0
doppler_bin: 8
bearing: -23.9426498413
intensity: 21.7026176453
---
header: 
  seq: 262177
  stamp: 
    secs: 1561681700
    nsecs: 634871934
  frame_id: "ti_mmwave"
point_id: 5
x: 1.083984375
y: -0.482421875
z: -0.029296875
range: 1.2637321949
velocity: 0.0
doppler_bin: 8
bearing: -23.9912185669
intensity: 26.4048137665
---
header: 
  seq: 262178
  stamp: 
    secs: 1561681700
    nsecs: 634883601
  frame_id: "ti_mmwave"
point_id: 6
x: 1.09765625
y: -0.537109375
z: -0.107421875
range: 1.3073091507
velocity: 0.0
doppler_bin: 8
bearing: -26.0736064911
intensity: 26.3245735168
---
header: 
  seq: 262179
  stamp: 
    secs: 1561681700
    nsecs: 635062772
  frame_id: "ti_mmwave"
point_id: 7
x: 0.828125
y: -0.119140625
z: -0.953125
range: 1.35088610649
velocity: 0.0
doppler_bin: 8
bearing: -8.18684959412
intensity: 21.7318630219
---
header: 
  seq: 262180
  stamp: 
    secs: 1561681700
    nsecs: 635104108
  frame_id: "ti_mmwave"
point_id: 8
x: 0.529296875
y: -0.08203125
z: -1.193359375
range: 1.39446306229
velocity: 0.0
doppler_bin: 8
bearing: -8.80970096588
intensity: 23.7657699585
---
header: 
  seq: 262181
  stamp: 
    secs: 1561681700
    nsecs: 635160050
  frame_id: "ti_mmwave"
point_id: 9
x: 2.5625
y: -0.263671875
z: 1.15625
range: 3.00681090355
velocity: 0.0
doppler_bin: 8
bearing: -5.87485074997
intensity: 29.4398880005
---
header: 
  seq: 262182
  stamp: 
    secs: 1561681700
    nsecs: 635203252
  frame_id: "ti_mmwave"
point_id: 10
x: 2.607421875
y: -0.267578125
z: 1.15234375
range: 3.05038785934
velocity: 0.0
doppler_bin: 8
bearing: -5.85928010941
intensity: 32.7783851624
---
header: 
  seq: 262183
  stamp: 
    secs: 1561681700
    nsecs: 635212707
  frame_id: "ti_mmwave"
point_id: 11
x: 2.666015625
y: -0.181640625
z: 1.138671875
range: 3.09396481514
velocity: 0.0
doppler_bin: 8
bearing: -3.89764523506
intensity: 31.9645252228
---
header: 
  seq: 262184
  stamp: 
    secs: 1561681700
    nsecs: 635221176
  frame_id: "ti_mmwave"
point_id: 12
x: 4.43359375
y: -0.287109375
z: 1.115234375
range: 4.88062095642
velocity: 0.0
doppler_bin: 8
bearing: -3.70517015457
intensity: 30.5994186401
---
header: 
  seq: 262185
  stamp: 
    secs: 1561681700
    nsecs: 635227180
  frame_id: "ti_mmwave"
point_id: 13
x: 4.447265625
y: -0.43359375
z: 1.18359375
range: 4.9241976738
velocity: 0.0
doppler_bin: 8
bearing: -5.56855010986
intensity: 30.2242832184
---
header: 
  seq: 262186
  stamp: 
    secs: 1561681700
    nsecs: 635249774
  frame_id: "ti_mmwave"
point_id: 14
x: 4.6875
y: -0.4453125
z: -0.59375
range: 5.0549287796
velocity: 0.0
doppler_bin: 8
bearing: -5.42681217194
intensity: 29.3298072815
---
header: 
  seq: 262187
  stamp: 
    secs: 1561681700
    nsecs: 635324950
  frame_id: "ti_mmwave"
point_id: 15
x: 4.71875
y: -0.59765625
z: -0.533203125
range: 5.09850549698
velocity: 0.0
doppler_bin: 8
bearing: -7.21839857101
intensity: 33.3264045715
---
header: 
  seq: 262188
  stamp: 
    secs: 1561681700
    nsecs: 635344888
  frame_id: "ti_mmwave"
point_id: 16
x: 4.78125
y: -0.453125
z: -0.482421875
range: 5.14208269119
velocity: 0.0
doppler_bin: 8
bearing: -5.41382265091
intensity: 33.9724464417
---
header: 
  seq: 262189
  stamp: 
    secs: 1561681700
    nsecs: 635396175
  frame_id: "ti_mmwave"
point_id: 17
x: 4.83203125
y: -0.45703125
z: -0.365234375
range: 5.18565940857
velocity: 0.0
doppler_bin: 8
bearing: -5.40317106247
intensity: 30.6557979584
---
header: 
  seq: 262190
  stamp: 
    secs: 1561681700
    nsecs: 635452283
  frame_id: "ti_mmwave"
point_id: 18
x: 4.86328125
y: -0.46484375
z: 0.791015625
range: 5.27281332016
velocity: 0.0
doppler_bin: 8
bearing: -5.459877491
intensity: 30.8026561737
---
header: 
  seq: 262191
  stamp: 
    secs: 1561681700
    nsecs: 635464442
  frame_id: "ti_mmwave"
point_id: 20
x: 0.041015625
y: -0.033203125
z: 0.0625
range: 0.0871539413929
velocity: 0.0
doppler_bin: 8
bearing: -38.9909973145
intensity: 30.1367969513
---
header: 
  seq: 262192
  stamp: 
    secs: 1561681700
    nsecs: 635472942
  frame_id: "ti_mmwave"
point_id: 21
x: 0.052734375
y: -0.04296875
z: 0.103515625
range: 0.130730912089
velocity: 0.0
doppler_bin: 8
bearing: -39.1736602783
intensity: 29.020029068
---
header: 
  seq: 262193
  stamp: 
