header: 
  seq: 305848
  stamp: 
    secs: 1561681766
    nsecs: 934718582
  frame_id: "ti_mmwave"
point_id: 0
x: 0.01171875
y: -0.0390625
z: -0.0078125
range: 0.0435769706964
velocity: 0.0
doppler_bin: 8
bearing: -73.3007583618
intensity: 30.7591171265
---
header: 
  seq: 305849
  stamp: 
    secs: 1561681766
    nsecs: 934795144
  frame_id: "ti_mmwave"
point_id: 1
x: 0.017578125
y: -0.080078125
z: -0.0078125
range: 0.0871539413929
velocity: 0.0
doppler_bin: 8
bearing: -77.6192398071
intensity: 31.9893188477
---
header: 
  seq: 305850
  stamp: 
    secs: 1561681766
    nsecs: 934811283
  frame_id: "ti_mmwave"
point_id: 2
x: 0.041015625
y: -0.115234375
z: -0.0078125
range: 0.130730912089
velocity: 0.0
doppler_bin: 8
bearing: -70.4077224731
intensity: 30.2571544647
---
header: 
  seq: 305851
  stamp: 
    secs: 1561681766
    nsecs: 934827566
  frame_id: "ti_mmwave"
point_id: 3
x: 0.056640625
y: -0.154296875
z: 0.005859375
range: 0.174307882786
velocity: 0.0
doppler_bin: 8
bearing: -69.8423843384
intensity: 25.5144996643
---
header: 
  seq: 305852
  stamp: 
    secs: 1561681766
    nsecs: 934838426
  frame_id: "ti_mmwave"
point_id: 4
x: 0.310546875
y: -0.080078125
z: -1.2265625
range: 1.35088610649
velocity: 0.0
doppler_bin: 8
bearing: -14.4593963623
intensity: 21.9033164978
---
header: 
  seq: 305853
  stamp: 
    secs: 1561681766
    nsecs: 934916744
  frame_id: "ti_mmwave"
point_id: 5
x: 0.330078125
y: -0.041015625
z: 1.265625
range: 1.39446306229
velocity: 0.0
doppler_bin: 8
bearing: -7.0832862854
intensity: 23.2428245544
---
header: 
  seq: 305854
  stamp: 
    secs: 1561681766
    nsecs: 934930862
  frame_id: "ti_mmwave"
point_id: 6
x: 0.41015625
y: -0.0
z: 1.287109375
range: 1.43804001808
velocity: 0.0
doppler_bin: 8
bearing: -0.0
intensity: 21.875207901
---
header: 
  seq: 305855
  stamp: 
    secs: 1561681766
    nsecs: 934944341
  frame_id: "ti_mmwave"
point_id: 7
x: 2.5546875
y: -0.263671875
z: 1.171875
range: 3.00681090355
velocity: 0.0
doppler_bin: 8
bearing: -5.89269018173
intensity: 29.3951931
---
header: 
  seq: 305856
  stamp: 
    secs: 1561681766
    nsecs: 934957202
  frame_id: "ti_mmwave"
point_id: 8
x: 2.603515625
y: -0.267578125
z: 1.162109375
range: 3.05038785934
velocity: 0.0
doppler_bin: 8
bearing: -5.8680100441
intensity: 32.7852478027
---
header: 
  seq: 305857
  stamp: 
    secs: 1561681766
    nsecs: 934969774
  frame_id: "ti_mmwave"
point_id: 9
x: 2.65625
y: -0.181640625
z: 1.162109375
range: 3.09396481514
velocity: 0.0
doppler_bin: 8
bearing: -3.91193032265
intensity: 32.0547485352
---
header: 
  seq: 305858
  stamp: 
    secs: 1561681766
    nsecs: 934982441
  frame_id: "ti_mmwave"
point_id: 10
x: 4.41015625
y: -0.287109375
z: 1.205078125
range: 4.88062095642
velocity: 0.0
doppler_bin: 8
bearing: -3.72480559349
intensity: 30.6182937622
---
header: 
  seq: 305859
  stamp: 
    secs: 1561681766
    nsecs: 934995941
  frame_id: "ti_mmwave"
point_id: 11
x: 4.4140625
y: -0.43359375
z: 1.30078125
range: 4.9241976738
velocity: 0.0
doppler_bin: 8
bearing: -5.61017084122
intensity: 30.2571544647
---
header: 
  seq: 305860
  stamp: 
    secs: 1561681766
    nsecs: 935010263
  frame_id: "ti_mmwave"
point_id: 12
x: 4.748046875
y: -0.298828125
z: -0.51953125
range: 5.09850549698
velocity: 0.0
doppler_bin: 8
bearing: -3.60127830505
intensity: 33.1407814026
---
header: 
  seq: 305861
  stamp: 
    secs: 1561681766
    nsecs: 935023097
  frame_id: "ti_mmwave"
point_id: 13
x: 4.78515625
y: -0.453125
z: -0.43359375
range: 5.14208269119
velocity: 0.0
doppler_bin: 8
bearing: -5.40942907333
intensity: 33.7419815063
---
header: 
  seq: 305862
  stamp: 
    secs: 1561681766
    nsecs: 935037957
  frame_id: "ti_mmwave"
point_id: 14
x: 4.83984375
y: -0.45703125
z: -0.25390625
range: 5.18565940857
velocity: 0.0
doppler_bin: 8
bearing: -5.39450025558
intensity: 30.484418869
---
header: 
  seq: 305863
  stamp: 
    secs: 1561681766
    nsecs: 935052305
  frame_id: "ti_mmwave"
point_id: 15
x: 4.810546875
y: -0.4609375
z: 0.857421875
range: 5.22923660278
velocity: 0.0
doppler_bin: 8
bearing: -5.47326421738
intensity: 29.5327625275
---
header: 
  seq: 305864
  stamp: 
    secs: 1561681766
    nsecs: 935060799
  frame_id: "ti_mmwave"
point_id: 16
x: 4.837890625
y: -0.46484375
z: 0.935546875
range: 5.27281332016
velocity: 0.0
doppler_bin: 8
bearing: -5.48835754395
intensity: 30.6483230591
---
header: 
  seq: 305865
  stamp: 
    secs: 1561681766
    nsecs: 935090358
  frame_id: "ti_mmwave"
point_id: 18
x: 0.041015625
y: -0.033203125
z: 0.0625
range: 0.0871539413929
velocity: 0.0
doppler_bin: 8
bearing: -38.9909973145
intensity: 30.1199302673
---
header: 
  seq: 305866
  stamp: 
    secs: 1561681766
    nsecs: 935164370
  frame_id: "ti_mmwave"
point_id: 19
x: 0.052734375
y: -0.04296875
z: 0.103515625
range: 0.130730912089
velocity: 0.0
doppler_bin: 8
bearing: -39.1736602783
intensity: 29.0091304779
---
header: 
  seq: 305867
  stamp: 
    secs: 1561681766
    nsecs: 935190499
  frame_id: "ti_mmwave"
point_id: 21
x: 1.1171875
y: -0.515625
z: 0.306640625
range: 1.35088610649
velocity: 0.0
doppler_bin: 8
bearing: -24.7751407623
intensity: 19.1381378174
---
header: 
  seq: 305868
  stamp: 
    secs: 1561681766
    nsecs: 935204540
  frame_id: "ti_mmwave"
point_id: 22
x: 2.78125
y: -2.00390625
z: -3.0390625
range: 4.88062095642
velocity: 0.0
doppler_bin: 8
bearing: -35.7729568481
intensity: 27.774269104
---
header: 
  seq: 305869
  stamp: 
    secs: 1561681766
    nsecs: 935217426
  frame_id: "ti_mmwave"
point_id: 23
x: 2.833984375
y: -2.021484375
z: -3.041015625
range: 4.9241976738
velocity: 0.0
doppler_bin: 8
bearing: -35.5003089905
intensity: 27.3719272614
---
header: 
  seq: 305870
  stamp: 
    secs: 1561681766
    nsecs: 935231741
  frame_id: "ti_mmwave"
point_id: 24
x: 4.71875
y: -0.59765625
z: -0.52734375
range: 5.09850549698
velocity: 0.0
doppler_bin: 8
bearing: -7.21839857101
intensity: 33.1217727661
---
header: 
  seq: 305871
  stamp: 
    secs: 1561681766
    nsecs: 936504468
  frame_id: "ti_mmwave"
point_id: 0
x: 0.01171875
y: -0.0390625
z: -0.0078125
range: 0.0435769706964
velocity: 0.0
doppler_bin: 8
bearing: -73.3007583618
intensity: 30.7700424194
---
header: 
  seq: 305872
  stamp: 
    secs: 1561681766
    nsecs: 936598640
  frame_id: "ti_mmwave"
point_id: 1
x: 0.017578125
y: -0.080078125
z: -0.0078125
range: 0.0871539413929
velocity: 0.0
doppler_bin: 8
bearing: -77.6192398071
intensity: 31.9975509644
---
header: 
  seq: 305873
  stamp: 
    secs: 1561681766
    nsecs: 936616353
  frame_id: "ti_mmwave"
point_id: 2
x: 0.041015625
y: -0.115234375
z: -0.0078125
range: 0.130730912089
velocity: 0.0
doppler_bin: 8
bearing: -70.4077224731
intensity: 30.2653331757
---
header: 
  seq: 305874
  stamp: 
    secs: 1561681766
    nsecs: 936628275
  frame_id: "ti_mmwave"
point_id: 3
x: 0.056640625
y: -0.154296875
z: 0.005859375
range: 0.174307882786
velocity: 0.0
doppler_bin: 8
bearing: -69.8423843384
intensity: 25.5266819
---
header: 
  seq: 305875
  stamp: 
    secs: 1561681766
    nsecs: 936639753
  frame_id: "ti_mmwave"
point_id: 4
x: 0.341796875
y: -0.080078125
z: -1.21875
range: 1.35088610649
velocity: 0.0
doppler_bin: 8
bearing: -13.1857614517
intensity: 21.875207901
---
header: 
  seq: 305876
  stamp: 
    secs: 1561681766
    nsecs: 936650628
  frame_id: "ti_mmwave"
point_id: 5
x: 0.32421875
y: -0.041015625
z: 1.267578125
range: 1.39446306229
velocity: 0.0
doppler_bin: 8
bearing: -7.20996236801
intensity: 23.2428245544
---
header: 
  seq: 305877
  stamp: 
    secs: 1561681766
    nsecs: 936661597
  frame_id: "ti_mmwave"
point_id: 6
x: 0.412109375
y: -0.0
z: 1.28515625
range: 1.43804001808
velocity: 0.0
doppler_bin: 8
bearing: -0.0
intensity: 21.9033164978
---
header: 
  seq: 305878
  stamp: 
    secs: 1561681766
    nsecs: 936672173
  frame_id: "ti_mmwave"
point_id: 7
x: 1.7421875
y: 0.44921875
z: -0.025390625
range: 1.91738677025
velocity: 0.0
doppler_bin: 8
bearing: 14.4586381912
intensity: 28.1157493591
---
header: 
  seq: 305879
  stamp: 
    secs: 1561681766
    nsecs: 936685461
  frame_id: "ti_mmwave"
point_id: 8
x: 1.78125
y: 0.4609375
z: 0.046875
range: 1.96096372604
velocity: 0.0
doppler_bin: 8
bearing: 14.5082883835
intensity: 29.5568771362
---
header: 
  seq: 305880
  stamp: 
    secs: 1561681766
    nsecs: 936698758
  frame_id: "ti_mmwave"
point_id: 9
x: 1.80078125
y: 0.529296875
z: 0.140625
range: 2.00454068184
velocity: 0.0
doppler_bin: 8
bearing: 16.3794460297
intensity: 29.4645233154
---
header: 
  seq: 305881
  stamp: 
    secs: 1561681766
    nsecs: 936710737
  frame_id: "ti_mmwave"
point_id: 10
x: 1.845703125
y: 0.541015625
z: 0.02734375
range: 2.04811763763
velocity: 0.0
doppler_bin: 8
bearing: 16.3370056152
intensity: 27.8247261047
---
header: 
  seq: 305882
  stamp: 
    secs: 1561681766
    nsecs: 936721390
  frame_id: "ti_mmwave"
point_id: 11
x: 2.515625
y: -0.263671875
z: 1.25390625
range: 3.00681090355
velocity: 0.0
doppler_bin: 8
bearing: -5.98353290558
intensity: 29.4743366241
---
header: 
  seq: 305883
  stamp: 
    secs: 1561681766
    nsecs: 936733174
  frame_id: "ti_mmwave"
point_id: 12
x: 2.599609375
y: -0.267578125
z: 1.171875
range: 3.05038785934
velocity: 0.0
doppler_bin: 8
bearing: -5.87676620483
intensity: 32.7852478027
---
header: 
  seq: 305884
  stamp: 
    secs: 1561681766
    nsecs: 936745204
  frame_id: "ti_mmwave"
point_id: 13
x: 2.658203125
y: -0.181640625
z: 1.15625
range: 3.09396481514
velocity: 0.0
doppler_bin: 8
bearing: -3.90906453133
intensity: 32.030330658
---
header: 
  seq: 305885
  stamp: 
    secs: 1561681766
    nsecs: 936756565
  frame_id: "ti_mmwave"
point_id: 14
x: 4.4140625
y: -0.287109375
z: 1.193359375
range: 4.88062095642
velocity: 0.0
doppler_bin: 8
bearing: -3.72151875496
intensity: 30.6595306396
---
header: 
  seq: 305886
  stamp: 
    secs: 1561681766
    nsecs: 936769305
  frame_id: "ti_mmwave"
point_id: 15
x: 4.44921875
y: -0.2890625
z: 1.21875
range: 4.9241976738
velocity: 0.0
doppler_bin: 8
bearing: -3.71724081039
intensity: 30.2816448212
---
header: 
  seq: 305887
  stamp: 
    secs: 1561681766
    nsecs: 936780799
  frame_id: "ti_mmwave"
point_id: 16
x: 4.74609375
y: -0.298828125
z: -0.544921875
range: 5.09850549698
velocity: 0.0
doppler_bin: 8
bearing: -3.60275626183
intensity: 33.0362815857
---
header: 
  seq: 305888
  stamp: 
    secs: 1561681766
    nsecs: 936792218
  frame_id: "ti_mmwave"
point_id: 17
x: 4.78515625
y: -0.453125
z: -0.435546875
range: 5.14208269119
velocity: 0.0
doppler_bin: 8
bearing: -5.40942907333
intensity: 33.7125244141
---
header: 
  seq: 305889
  stamp: 
    secs: 1561681766
    nsecs: 936806655
  frame_id: "ti_mmwave"
point_id: 18
x: 4.841796875
y: -0.45703125
z: -0.205078125
range: 5.18565940857
velocity: 0.0
doppler_bin: 8
bearing: -5.39233732224
intensity: 30.561422348
---
header: 
  seq: 305890
  stamp: 
    secs: 1561681766
    nsecs: 936818099
  frame_id: "ti_mmwave"
point_id: 19
x: 4.82421875
y: -0.4609375
z: 0.783203125
range: 5.22923660278
velocity: 0.0
doppler_bin: 8
bearing: -5.4578461647
intensity: 29.6473083496
---
header: 
  seq: 305891
  stamp: 
    secs: 1561681766
    nsecs: 936829245
  frame_id: "ti_mmwave"
point_id: 20
x: 4.841796875
y: -0.46484375
z: 0.919921875
range: 5.27281332016
velocity: 0.0
doppler_bin: 8
bearing: -5.48395681381
intensity: 30.7040729523
---
header: 
  seq: 305892
  stamp: 
    secs: 1561681766
    nsecs: 936845145
  frame_id: "ti_mmwave"
point_id: 22
x: 0.041015625
y: -0.033203125
z: 0.0625
range: 0.0871539413929
velocity: 0.0
doppler_bin: 8
bearing: -38.9909973145
intensity: 30.1199302673
---
header: 
  seq: 305893
  stamp: 
    secs: 1561681766
    nsecs: 936857966
  frame_id: "ti_mmwave"
point_id: 23
x: 0.052734375
y: -0.04296875
z: 0.103515625
range: 0.130730912089
velocity: 0.0
doppler_bin: 8
bearing: -39.1736602783
intensity: 28.9982051849
---
header: 
  seq: 305894
  stamp: 
    secs: 1561681766
    nsecs: 936872128
  frame_id: "ti_mmwave"
point_id: 25
x: 1.1171875
y: -0.515625
z: 0.310546875
range: 1.35088610649
velocity: 0.0
doppler_bin: 8
bearing: -24.7751407623
intensity: 19.0308990479
---
header: 
  seq: 305895
  stamp: 
    secs: 1561681766
    nsecs: 936903483
  frame_id: "ti_mmwave"
point_id: 26
x: 2.77734375
y: -2.00390625
z: -3.04296875
range: 4.88062095642
velocity: 0.0
doppler_bin: 8
bearing: -35.811164856
intensity: 27.774269104
---
header: 
  seq: 305896
  stamp: 
    secs: 1561681766
    nsecs: 936916966
  frame_id: "ti_mmwave"
point_id: 27
x: 2.708984375
y: -2.021484375
z: -3.15234375
range: 4.9241976738
velocity: 0.0
doppler_bin: 8
bearing: -36.7308502197
intensity: 27.3878059387
---
header: 
  seq: 305897
  stamp: 
    secs: 1561681766
    nsecs: 994595246
  frame_id: "ti_mmwave"
point_id: 0
x: 0.01171875
y: -0.0390625
z: -0.0078125
range: 0.0435769706964
velocity: 0.0
doppler_bin: 8
bearing: -73.3007583618
intensity: 30.7736797333
---
header: 
  seq: 305898
  stamp: 
    secs: 1561681766
    nsecs: 994676430
  frame_id: "ti_mmwave"
point_id: 1
x: 0.017578125
y: -0.080078125
z: -0.0078125
range: 0.0871539413929
velocity: 0.0
doppler_bin: 8
bearing: -77.6192398071
intensity: 31.994808197
---
header: 
  seq: 305899
  stamp: 
    secs: 1561681766
    nsecs: 994690821
  frame_id: "ti_mmwave"
point_id: 2
x: 0.041015625
y: -0.115234375
z: -0.0078125
range: 0.130730912089
velocity: 0.0
doppler_bin: 8
bearing: -70.4077224731
intensity: 30.2653331757
---
header: 
  seq: 305900
  stamp: 
    secs: 1561681766
    nsecs: 994701258
  frame_id: "ti_mmwave"
point_id: 3
x: 0.056640625
y: -0.154296875
z: 0.005859375
range: 0.174307882786
velocity: 0.0
doppler_bin: 8
bearing: -69.8423843384
intensity: 25.5266819
---
header: 
  seq: 305901
  stamp: 
    secs: 1561681766
    nsecs: 994709595
  frame_id: "ti_mmwave"
point_id: 4
x: 0.294921875
y: -0.080078125
z: -1.23046875
range: 1.35088610649
velocity: 0.0
doppler_bin: 8
bearing: -15.1908855438
intensity: 21.8469142914
---
header: 
  seq: 305902
  stamp: 
    secs: 1561681766
    nsecs: 994717845
  frame_id: "ti_mmwave"
point_id: 5
x: 0.345703125
y: -0.041015625
z: 1.26171875
range: 1.39446306229
velocity: 0.0
doppler_bin: 8
bearing: -6.76617479324
intensity: 23.2428245544
---
header: 
  seq: 305903
  stamp: 
    secs: 1561681766
    nsecs: 994738425
  frame_id: "ti_mmwave"
point_id: 6
x: 0.443359375
y: -0.0
z: 1.275390625
range: 1.43804001808
velocity: 0.0
doppler_bin: 8
bearing: -0.0
intensity: 21.875207901
---
header: 
  seq: 305904
  stamp: 
    secs: 1561681766
    nsecs: 994753466
  frame_id: "ti_mmwave"
point_id: 7
x: 1.77734375
y: 0.4609375
z: -0.1328125
range: 1.96096372604
velocity: 0.0
doppler_bin: 8
bearing: 14.5388259888
intensity: 27.7378635406
---
header: 
  seq: 305905
  stamp: 
    secs: 1561681766
    nsecs: 994763239
  frame_id: "ti_mmwave"
point_id: 8
x: 1.8046875
y: 0.529296875
z: -0.025390625
range: 2.00454068184
velocity: 0.0
doppler_bin: 8
bearing: 16.3458881378
intensity: 27.9169063568
---
header: 
  seq: 305906
  stamp: 
    secs: 1561681766
    nsecs: 994840596
  frame_id: "ti_mmwave"
point_id: 9
x: 2.546875
y: -0.263671875
z: 1.189453125
range: 3.00681090355
velocity: 0.0
doppler_bin: 8
bearing: -5.91063833237
intensity: 29.4398880005
---
header: 
  seq: 305907
  stamp: 
    secs: 1561681766
    nsecs: 994849738
  frame_id: "ti_mmwave"
point_id: 10
x: 2.599609375
y: -0.267578125
z: 1.171875
range: 3.05038785934
velocity: 0.0
doppler_bin: 8
bearing: -5.87676620483
intensity: 32.7829627991
---
header: 
  seq: 305908
  stamp: 
    secs: 1561681766
    nsecs: 994858008
  frame_id: "ti_mmwave"
point_id: 11
x: 2.65234375
y: -0.181640625
z: 1.169921875
range: 3.09396481514
velocity: 0.0
doppler_bin: 8
bearing: -3.9176735878
intensity: 32.0194320679
---
header: 
  seq: 305909
  stamp: 
    secs: 1561681766
    nsecs: 994865576
  frame_id: "ti_mmwave"
point_id: 12
x: 4.408203125
y: -0.287109375
z: 1.212890625
range: 4.88062095642
velocity: 0.0
doppler_bin: 8
bearing: -3.72645139694
intensity: 30.6557979584
---
header: 
  seq: 305910
  stamp: 
    secs: 1561681766
    nsecs: 994872853
  frame_id: "ti_mmwave"
point_id: 13
x: 4.3984375
y: -0.43359375
z: 1.3515625
range: 4.9241976738
velocity: 0.0
doppler_bin: 8
bearing: -5.62997293472
intensity: 30.293838501
---
header: 
  seq: 305911
  stamp: 
    secs: 1561681766
    nsecs: 994880127
  frame_id: "ti_mmwave"
point_id: 14
x: 4.71875
y: -0.59765625
z: -0.5390625
range: 5.09850549698
velocity: 0.0
doppler_bin: 8
bearing: -7.21839857101
intensity: 33.0427513123
---
header: 
  seq: 305912
  stamp: 
    secs: 1561681766
    nsecs: 994888743
  frame_id: "ti_mmwave"
point_id: 15
x: 4.783203125
y: -0.453125
z: -0.45703125
range: 5.14208269119
velocity: 0.0
doppler_bin: 8
bearing: -5.41162490845
intensity: 33.6698303223
---
header: 
  seq: 305913
  stamp: 
    secs: 1561681766
    nsecs: 994896220
  frame_id: "ti_mmwave"
point_id: 16
x: 4.83984375
y: -0.45703125
z: -0.265625
range: 5.18565940857
velocity: 0.0
doppler_bin: 8
bearing: -5.39450025558
intensity: 30.4257545471
---
header: 
  seq: 305914
  stamp: 
    secs: 1561681766
    nsecs: 994904804
  frame_id: "ti_mmwave"
point_id: 17
x: 4.81640625
y: -0.4609375
z: 0.833984375
range: 5.22923660278
velocity: 0.0
doppler_bin: 8
bearing: -5.46664571762
intensity: 29.5085144043
---
header: 
  seq: 305915
  stamp: 
    secs: 1561681766
    nsecs: 994912208
  frame_id: "ti_mmwave"
point_id: 18
x: 4.84765625
y: -0.46484375
z: 0.884765625
range: 5.27281332016
velocity: 0.0
doppler_bin: 8
bearing: -5.47736883163
intensity: 30.6182937622
---
header: 
  seq: 305916
  stamp: 
    secs: 1561681766
    nsecs: 994922262
  frame_id: "ti_mmwave"
point_id: 20
x: 0.041015625
y: -0.033203125
z: 0.0625
range: 0.0871539413929
velocity: 0.0
doppler_bin: 8
bearing: -38.9909973145
intensity: 30.1241531372
---
header: 
  seq: 305917
  stamp: 
    secs: 1561681766
    nsecs: 994929929
  frame_id: "ti_mmwave"
point_id: 21
x: 0.052734375
y: -0.04296875
z: 0.103515625
range: 0.130730912089
velocity: 0.0
doppler_bin: 8
bearing: -39.1736602783
intensity: 29.0036716461
---
header: 
  seq: 305918
  stamp: 
    secs: 1561681766
    nsecs: 994939191
  frame_id: "ti_mmwave"
point_id: 23
x: 1.115234375
y: -0.515625
z: 0.31640625
range: 1.35088610649
velocity: 0.0
doppler_bin: 8
bearing: -24.8133087158
intensity: 19.0308990479
---
header: 
  seq: 305919
  stamp: 
    secs: 1561681766
    nsecs: 994949559
  frame_id: "ti_mmwave"
point_id: 24
x: 2.748046875
y: -2.00390625
z: -3.0703125
range: 4.88062095642
velocity: 0.0
doppler_bin: 8
bearing: -36.0999488831
intensity: 27.8247261047
---
header: 
  seq: 305920
  stamp: 
    secs: 1561681766
    nsecs: 994957020
  frame_id: "ti_mmwave"
point_id: 25
x: 2.765625
y: -2.021484375
z: -3.103515625
range: 4.9241976738
velocity: 0.0
doppler_bin: 8
bearing: -36.1642723083
intensity: 27.5127906799
---
header: 
  seq: 305921
  stamp: 
    secs: 1561681766
    nsecs: 996162390
  frame_id: "ti_mmwave"
point_id: 0
x: 0.01171875
y: -0.0390625
z: -0.0078125
range: 0.0435769706964
velocity: 0.0
doppler_bin: 8
bearing: -73.3007583618
intensity: 30.7627620697
---
header: 
  seq: 305922
  stamp: 
    secs: 1561681766
    nsecs: 996215958
  frame_id: "ti_mmwave"
point_id: 1
x: 0.017578125
y: -0.080078125
z: -0.0078125
range: 0.0871539413929
velocity: 0.0
doppler_bin: 8
bearing: -77.6192398071
intensity: 31.9920654297
---
header: 
  seq: 305923
  stamp: 
    secs: 1561681766
    nsecs: 996232061
  frame_id: "ti_mmwave"
point_id: 2
x: 0.041015625
y: -0.115234375
z: -0.0078125
range: 0.130730912089
velocity: 0.0
doppler_bin: 8
bearing: -70.4077224731
intensity: 30.2653331757
---
header: 
  seq: 305924
  stamp: 
    secs: 1561681766
    nsecs: 996245212
  frame_id: "ti_mmwave"
point_id: 3
x: 0.056640625
y: -0.154296875
z: 0.005859375
range: 0.174307882786
velocity: 0.0
doppler_bin: 8
bearing: -69.8423843384
intensity: 25.5144996643
---
header: 
  seq: 305925
  stamp: 
    secs: 1561681766
    nsecs: 996314978
  frame_id: "ti_mmwave"
point_id: 4
x: 0.298828125
y: -0.080078125
z: -1.23046875
range: 1.35088610649
velocity: 0.0
doppler_bin: 8
bearing: -15.0013189316
intensity: 21.875207901
---
header: 
  seq: 305926
  stamp: 
    secs: 1561681766
    nsecs: 996331650
  frame_id: "ti_mmwave"
point_id: 5
x: 0.357421875
y: -0.041015625
z: 1.259765625
range: 1.39446306229
velocity: 0.0
doppler_bin: 8
bearing: -6.54629087448
intensity: 23.2633590698
---
header: 
  seq: 305927
  stamp: 
    secs: 1561681766
    nsecs: 996343763
  frame_id: "ti_mmwave"
point_id: 6
x: 0.447265625
y: -0.0
z: 1.2734375
range: 1.43804001808
velocity: 0.0
doppler_bin: 8
bearing: -0.0
intensity: 21.9033164978
---
header: 
  seq: 305928
  stamp: 
    secs: 1561681766
    nsecs: 996355872
  frame_id: "ti_mmwave"
point_id: 7
x: 1.7421875
y: 0.44921875
z: 0.03125
range: 1.91738677025
velocity: 0.0
doppler_bin: 8
bearing: 14.4586381912
intensity: 26.4738292694
---
header: 
  seq: 305929
  stamp: 
    secs: 1561681766
    nsecs: 996368054
  frame_id: "ti_mmwave"
point_id: 8
x: 1.78125
y: 0.4609375
z: 0.0390625
range: 1.96096372604
velocity: 0.0
doppler_bin: 8
bearing: 14.5082883835
intensity: 27.8958072662
---
header: 
  seq: 305930
  stamp: 
    secs: 1561681766
    nsecs: 996382045
  frame_id: "ti_mmwave"
point_id: 9
x: 1.802734375
y: 0.529296875
z: 0.09765625
range: 2.00454068184
velocity: 0.0
doppler_bin: 8
bearing: 16.3626499176
intensity: 27.3559894562
---
header: 
  seq: 305931
  stamp: 
    secs: 1561681766
    nsecs: 996429347
  frame_id: "ti_mmwave"
point_id: 10
x: 2.541015625
y: -0.263671875
z: 1.19921875
range: 3.00681090355
velocity: 0.0
doppler_bin: 8
bearing: -5.92417097092
intensity: 29.4546852112
---
header: 
  seq: 305932
  stamp: 
    secs: 1561681766
    nsecs: 996446396
  frame_id: "ti_mmwave"
point_id: 11
x: 2.6015625
y: -0.267578125
z: 1.16796875
range: 3.05038785934
velocity: 0.0
doppler_bin: 8
bearing: -5.87238502502
intensity: 32.7898216248
---
header: 
  seq: 305933
  stamp: 
    secs: 1561681766
    nsecs: 996458464
  frame_id: "ti_mmwave"
point_id: 12
x: 2.65625
y: -0.181640625
z: 1.162109375
range: 3.09396481514
velocity: 0.0
doppler_bin: 8
bearing: -3.91193032265
intensity: 32.0357666016
---
header: 
  seq: 305934
  stamp: 
    secs: 1561681766
    nsecs: 996472149
  frame_id: "ti_mmwave"
point_id: 13
x: 4.412109375
y: -0.287109375
z: 1.203125
range: 4.88062095642
velocity: 0.0
doppler_bin: 8
bearing: -3.72316122055
intensity: 30.6818580627
---
header: 
  seq: 305935
  stamp: 
    secs: 1561681766
    nsecs: 996484868
  frame_id: "ti_mmwave"
point_id: 14
x: 4.435546875
y: -0.43359375
z: 1.23046875
range: 4.9241976738
velocity: 0.0
doppler_bin: 8
bearing: -5.5831694603
intensity: 30.310043335
---
header: 
  seq: 305936
  stamp: 
    secs: 1561681766
    nsecs: 996493494
  frame_id: "ti_mmwave"
point_id: 15
x: 4.734375
y: -0.44921875
z: -0.541015625
range: 5.09850549698
velocity: 0.0
doppler_bin: 8
bearing: -5.42025327682
intensity: 33.0102996826
---
header: 
  seq: 305937
  stamp: 
    secs: 1561681766
    nsecs: 996550437
  frame_id: "ti_mmwave"
point_id: 16
x: 4.787109375
y: -0.453125
z: -0.42578125
range: 5.14208269119
velocity: 0.0
doppler_bin: 8
bearing: -5.40723514557
intensity: 33.6865882874
---
header: 
  seq: 305938
  stamp: 
    secs: 1561681766
    nsecs: 996565243
  frame_id: "ti_mmwave"
point_id: 17
x: 4.841796875
y: -0.45703125
z: -0.19921875
range: 5.18565940857
velocity: 0.0
doppler_bin: 8
bearing: -5.39233732224
intensity: 30.5153846741
---
header: 
  seq: 305939
  stamp: 
    secs: 1561681766
    nsecs: 996579441
  frame_id: "ti_mmwave"
point_id: 18
x: 4.81640625
y: -0.4609375
z: 0.828125
range: 5.22923660278
velocity: 0.0
doppler_bin: 8
bearing: -5.46664571762
intensity: 29.5664863586
---
header: 
  seq: 305940
  stamp: 
    secs: 1561681766
    nsecs: 996592297
  frame_id: "ti_mmwave"
point_id: 19
x: 4.83984375
y: -0.46484375
z: 0.9296875
range: 5.27281332016
velocity: 0.0
doppler_bin: 8
bearing: -5.48615646362
intensity: 30.6855697632
---
header: 
  seq: 305941
  stamp: 
    secs: 1561681766
    nsecs: 996608284
  frame_id: "ti_mmwave"
point_id: 21
x: 0.041015625
y: -0.033203125
z: 0.0625
range: 0.0871539413929
velocity: 0.0
doppler_bin: 8
bearing: -38.9909973145
intensity: 30.1241531372
---
header: 
  seq: 305942
  stamp: 
    secs: 1561681766
    nsecs: 996651008
  frame_id: "ti_mmwave"
point_id: 22
x: 0.052734375
y: -0.04296875
z: 0.103515625
range: 0.130730912089
velocity: 0.0
doppler_bin: 8
bearing: -39.1736602783
intensity: 29.0036716461
---
header: 
  seq: 305943
  stamp: 
    secs: 1561681766
    nsecs: 996668029
  frame_id: "ti_mmwave"
point_id: 24
x: 2.763671875
y: -2.00390625
z: -3.056640625
range: 4.88062095642
velocity: 0.0
doppler_bin: 8
bearing: -35.9454307556
intensity: 27.8031730652
---
header: 
  seq: 305944
  stamp: 
    secs: 1561681766
    nsecs: 996718572
  frame_id: "ti_mmwave"
point_id: 25
x: 2.69921875
y: -2.021484375
z: -3.16015625
range: 4.9241976738
velocity: 0.0
doppler_bin: 8
bearing: -36.830078125
intensity: 27.4429302216
---
header: 
  seq: 305945
  stamp: 
    secs: 1561681767
    nsecs:  54814906
  frame_id: "ti_mmwave"
point_id: 0
x: 0.01171875
y: -0.0390625
z: -0.0078125
range: 0.0435769706964
velocity: 0.0
doppler_bin: 8
bearing: -73.3007583618
intensity: 30.7664051056
---
header: 
  seq: 305946
  stamp: 
    secs: 1561681767
    nsecs:  54898947
  frame_id: "ti_mmwave"
point_id: 1
x: 0.017578125
y: -0.080078125
z: -0.0078125
range: 0.0871539413929
velocity: 0.0
doppler_bin: 8
bearing: -77.6192398071
intensity: 31.994808197
---
header: 
  seq: 305947
  stamp: 
    secs: 1561681767
    nsecs:  54918086
  frame_id: "ti_mmwave"
point_id: 2
x: 0.041015625
y: -0.115234375
z: -0.0078125
range: 0.130730912089
velocity: 0.0
doppler_bin: 8
bearing: -70.4077224731
intensity: 30.2694168091
---
header: 
  seq: 305948
  stamp: 
    secs: 1561681767
    nsecs:  54933074
  frame_id: "ti_mmwave"
point_id: 3
x: 0.056640625
y: -0.154296875
z: 0.005859375
range: 0.174307882786
velocity: 0.0
doppler_bin: 8
bearing: -69.8423843384
intensity: 25.5388298035
---
header: 
  seq: 305949
  stamp: 
    secs: 1561681767
    nsecs:  54943589
  frame_id: "ti_mmwave"
point_id: 4
x: 0.314453125
y: -0.080078125
z: -1.2265625
range: 1.35088610649
velocity: 0.0
doppler_bin: 8
bearing: -14.2871713638
intensity: 21.8469142914
---
header: 
  seq: 305950
  stamp: 
    secs: 1561681767
    nsecs:  55022628
  frame_id: "ti_mmwave"
point_id: 5
x: 0.34765625
y: -0.041015625
z: 1.26171875
range: 1.39446306229
velocity: 0.0
doppler_bin: 8
bearing: -6.7285118103
intensity: 23.2221927643
---
header: 
  seq: 305951
  stamp: 
    secs: 1561681767
    nsecs:  55039132
  frame_id: "ti_mmwave"
point_id: 6
x: 0.4375
y: -0.0
z: 1.27734375
range: 1.43804001808
velocity: 0.0
doppler_bin: 8
bearing: -0.0
intensity: 21.875207901
---
header: 
  seq: 305952
  stamp: 
    secs: 1561681767
    nsecs:  55054019
  frame_id: "ti_mmwave"
point_id: 7
x: 1.80078125
y: 0.529296875
z: 0.13671875
range: 2.00454068184
velocity: 0.0
doppler_bin: 8
bearing: 16.3794460297
intensity: 26.839471817
---
header: 
  seq: 305953
  stamp: 
    secs: 1561681767
    nsecs:  55064768
  frame_id: "ti_mmwave"
point_id: 8
x: 1.84375
y: 0.541015625
z: 0.0390625
range: 2.04811763763
velocity: 0.0
doppler_bin: 8
bearing: 16.3533878326
intensity: 27.5587482452
---
header: 
  seq: 305954
  stamp: 
    secs: 1561681767
    nsecs:  55076839
  frame_id: "ti_mmwave"
point_id: 9
x: 2.525390625
y: -0.263671875
z: 1.23046875
range: 3.00681090355
velocity: 0.0
doppler_bin: 8
bearing: -5.96056175232
intensity: 29.4001808167
---
header: 
  seq: 305955
  stamp: 
    secs: 1561681767
    nsecs:  55087139
  frame_id: "ti_mmwave"
point_id: 10
x: 2.599609375
y: -0.267578125
z: 1.169921875
range: 3.05038785934
velocity: 0.0
doppler_bin: 8
bearing: -5.87676620483
intensity: 32.7692108154
---
header: 
  seq: 305956
  stamp: 
    secs: 1561681767
    nsecs:  55097626
  frame_id: "ti_mmwave"
point_id: 11
x: 2.658203125
y: -0.181640625
z: 1.15625
range: 3.09396481514
velocity: 0.0
doppler_bin: 8
bearing: -3.90906453133
intensity: 32.0248832703
---
header: 
  seq: 305957
  stamp: 
    secs: 1561681767
    nsecs:  55109165
  frame_id: "ti_mmwave"
point_id: 12
x: 4.416015625
y: -0.287109375
z: 1.18359375
range: 4.88062095642
velocity: 0.0
doppler_bin: 8
bearing: -3.71987724304
intensity: 30.6707077026
---
header: 
  seq: 305958
  stamp: 
    secs: 1561681767
    nsecs:  55120644
  frame_id: "ti_mmwave"
point_id: 13
x: 4.451171875
y: -0.2890625
z: 1.21484375
range: 4.9241976738
velocity: 0.0
doppler_bin: 8
bearing: -3.71561431885
intensity: 30.310043335
---
header: 
  seq: 305959
  stamp: 
    secs: 1561681767
    nsecs:  55134226
  frame_id: "ti_mmwave"
point_id: 14
x: 4.671875
y: -0.4453125
z: -0.705078125
range: 5.0549287796
velocity: 0.0
doppler_bin: 8
bearing: -5.44485330582
intensity: 29.3951931
---
header: 
  seq: 305960
  stamp: 
    secs: 1561681767
    nsecs:  55145435
  frame_id: "ti_mmwave"
point_id: 15
x: 4.744140625
y: -0.298828125
z: -0.55078125
range: 5.09850549698
velocity: 0.0
doppler_bin: 8
bearing: -3.60423564911
intensity: 33.0856437683
---
header: 
  seq: 305961
  stamp: 
    secs: 1561681767
    nsecs:  55157170
  frame_id: "ti_mmwave"
point_id: 16
x: 4.78515625
y: -0.453125
z: -0.451171875
range: 5.14208269119
velocity: 0.0
doppler_bin: 8
bearing: -5.40942907333
intensity: 33.6772842407
---
header: 
  seq: 305962
  stamp: 
    secs: 1561681767
    nsecs:  55170511
  frame_id: "ti_mmwave"
point_id: 17
x: 4.841796875
y: -0.45703125
z: -0.220703125
range: 5.18565940857
velocity: 0.0
doppler_bin: 8
bearing: -5.39233732224
intensity: 30.3221569061
---
header: 
  seq: 305963
  stamp: 
    secs: 1561681767
    nsecs:  55184085
  frame_id: "ti_mmwave"
point_id: 18
x: 4.818359375
y: -0.4609375
z: 0.8125
range: 5.22923660278
velocity: 0.0
doppler_bin: 8
bearing: -5.46444320679
intensity: 29.5036487579
---
header: 
  seq: 305964
  stamp: 
    secs: 1561681767
    nsecs:  55193543
  frame_id: "ti_mmwave"
point_id: 19
x: 4.84375
y: -0.46484375
z: 0.912109375
range: 5.27281332016
velocity: 0.0
doppler_bin: 8
bearing: -5.48175907135
intensity: 30.6595306396
---
header: 
  seq: 305965
  stamp: 
    secs: 1561681767
    nsecs:  55272416
  frame_id: "ti_mmwave"
point_id: 21
x: 0.041015625
y: -0.033203125
z: 0.0625
range: 0.0871539413929
velocity: 0.0
doppler_bin: 8
bearing: -38.9909973145
intensity: 30.1199302673
---
header: 
  seq: 305966
  stamp: 
    secs: 1561681767
    nsecs:  55290889
  frame_id: "ti_mmwave"
point_id: 22
x: 0.052734375
y: -0.04296875
z: 0.103515625
range: 0.130730912089
velocity: 0.0
doppler_bin: 8
bearing: -39.1736602783
intensity: 28.9982051849
---
header: 
  seq: 305967
  stamp: 
    secs: 1561681767
    nsecs:  55306650
  frame_id: "ti_mmwave"
point_id: 24
x: 1.119140625
y: -0.515625
z: 0.298828125
range: 1.35088610649
velocity: 0.0
doppler_bin: 8
bearing: -24.7370834351
intensity: 19.0308990479
---
header: 
  seq: 305968
  stamp: 
    secs: 1561681767
    nsecs:  55320505
  frame_id: "ti_mmwave"
point_id: 25
x: 2.73046875
y: -2.00390625
z: -3.083984375
range: 4.88062095642
velocity: 0.0
doppler_bin: 8
bearing: -36.2751502991
intensity: 27.8532981873
---
header: 
  seq: 305969
  stamp: 
    secs: 1561681767
    nsecs:  55335565
  frame_id: "ti_mmwave"
point_id: 26
x: 2.712890625
y: -2.021484375
z: -3.150390625
range: 4.9241976738
velocity: 0.0
doppler_bin: 8
bearing: -36.691280365
intensity: 27.466342926
---
header: 
  seq: 305970
  stamp: 
    secs: 1561681767
    nsecs:  55351056
  frame_id: "ti_mmwave"
point_id: 27
x: 4.71484375
y: -0.59765625
z: -0.56640625
range: 5.09850549698
velocity: 0.0
doppler_bin: 8
bearing: -7.22431516647
intensity: 33.0770988464
---
header: 
  seq: 305971
  stamp: 
    secs: 1561681767
    nsecs:  56537606
  frame_id: "ti_mmwave"
point_id: 0
x: 0.01171875
y: -0.0390625
z: -0.0078125
range: 0.0435769706964
velocity: 0.0
doppler_bin: 8
bearing: -73.3007583618
intensity: 30.7664051056
---
header: 
  seq: 305972
  stamp: 
    secs: 1561681767
    nsecs:  56578210
  frame_id: "ti_mmwave"
point_id: 1
x: 0.017578125
y: -0.080078125
z: -0.0078125
range: 0.0871539413929
velocity: 0.0
doppler_bin: 8
bearing: -77.6192398071
intensity: 31.9920654297
---
header: 
  seq: 305973
  stamp: 
    secs: 1561681767
    nsecs:  56593036
  frame_id: "ti_mmwave"
point_id: 2
x: 0.041015625
y: -0.115234375
z: -0.0078125
range: 0.130730912089
velocity: 0.0
doppler_bin: 8
bearing: -70.4077224731
intensity: 30.2612457275
---
header: 
  seq: 305974
  stamp: 
    secs: 1561681767
    nsecs:  56608727
  frame_id: "ti_mmwave"
point_id: 3
x: 0.056640625
y: -0.154296875
z: 0.005859375
range: 0.174307882786
velocity: 0.0
doppler_bin: 8
bearing: -69.8423843384
intensity: 25.5022830963
---
header: 
  seq: 305975
  stamp: 
    secs: 1561681767
    nsecs:  56656077
  frame_id: "ti_mmwave"
point_id: 4
x: 0.330078125
y: -0.080078125
z: -1.22265625
range: 1.35088610649
velocity: 0.0
doppler_bin: 8
bearing: -13.6366977692
intensity: 21.8469142914
---
header: 
  seq: 305976
  stamp: 
    secs: 1561681767
    nsecs:  56667911
  frame_id: "ti_mmwave"
point_id: 5
x: 0.32421875
y: -0.041015625
z: 1.267578125
range: 1.39446306229
velocity: 0.0
doppler_bin: 8
bearing: -7.20996236801
intensity: 23.2428245544
---
header: 
  seq: 305977
  stamp: 
    secs: 1561681767
    nsecs:  56678919
  frame_id: "ti_mmwave"
point_id: 6
x: 0.41015625
y: -0.0
z: 1.287109375
range: 1.43804001808
velocity: 0.0
doppler_bin: 8
bearing: -0.0
intensity: 21.8469142914
---
header: 
  seq: 305978
  stamp: 
    secs: 1561681767
    nsecs:  56692396
  frame_id: "ti_mmwave"
point_id: 7
x: 1.80078125
y: 0.529296875
z: 0.12890625
range: 2.00454068184
velocity: 0.0
doppler_bin: 8
bearing: 16.3794460297
intensity: 28.3186969757
---
header: 
  seq: 305979
  stamp: 
    secs: 1561681767
    nsecs:  56706620
  frame_id: "ti_mmwave"
point_id: 8
x: 1.853515625
y: 0.48046875
z: 0.18359375
range: 2.04811763763
velocity: 0.0
doppler_bin: 8
bearing: 14.5323591232
intensity: 28.1557769775
---
header: 
  seq: 305980
  stamp: 
    secs: 1561681767
    nsecs:  56720035
  frame_id: "ti_mmwave"
point_id: 9
x: 2.55859375
y: -0.263671875
z: 1.162109375
range: 3.00681090355
velocity: 0.0
doppler_bin: 8
bearing: -5.88375711441
intensity: 29.4743366241
---
header: 
  seq: 305981
  stamp: 
    secs: 1561681767
    nsecs:  56769041
  frame_id: "ti_mmwave"
point_id: 10
x: 2.599609375
y: -0.267578125
z: 1.16796875
range: 3.05038785934
velocity: 0.0
doppler_bin: 8
bearing: -5.87676620483
intensity: 32.8012275696
---
header: 
  seq: 305982
  stamp: 
    secs: 1561681767
    nsecs:  56783678
  frame_id: "ti_mmwave"
point_id: 11
x: 2.65625
y: -0.181640625
z: 1.162109375
range: 3.09396481514
velocity: 0.0
doppler_bin: 8
bearing: -3.91193032265
intensity: 32.0601577759
---
header: 
  seq: 305983
  stamp: 
    secs: 1561681767
    nsecs:  56797543
  frame_id: "ti_mmwave"
point_id: 12
x: 4.4140625
y: -0.287109375
z: 1.19140625
range: 4.88062095642
velocity: 0.0
doppler_bin: 8
bearing: -3.72151875496
intensity: 30.6520614624
---
header: 
  seq: 305984
  stamp: 
    secs: 1561681767
    nsecs:  56810918
  frame_id: "ti_mmwave"
point_id: 13
x: 4.455078125
y: -0.2890625
z: 1.201171875
range: 4.9241976738
velocity: 0.0
doppler_bin: 8
bearing: -3.71236538887
intensity: 30.3140850067
---
header: 
  seq: 305985
  stamp: 
    secs: 1561681767
    nsecs:  56827194
  frame_id: "ti_mmwave"
point_id: 14
x: 4.71875
y: -0.59765625
z: -0.525390625
range: 5.09850549698
velocity: 0.0
doppler_bin: 8
bearing: -7.21839857101
intensity: 33.0168113708
---
header: 
  seq: 305986
  stamp: 
    secs: 1561681767
    nsecs:  56865989
  frame_id: "ti_mmwave"
point_id: 15
x: 4.787109375
y: -0.453125
z: -0.427734375
range: 5.14208269119
velocity: 0.0
doppler_bin: 8
bearing: -5.40723514557
intensity: 33.7051315308
---
header: 
  seq: 305987
  stamp: 
    secs: 1561681767
    nsecs:  56879760
  frame_id: "ti_mmwave"
point_id: 16
x: 4.841796875
y: -0.45703125
z: -0.197265625
range: 5.18565940857
velocity: 0.0
doppler_bin: 8
bearing: -5.39233732224
intensity: 30.5346260071
---
header: 
  seq: 305988
  stamp: 
    secs: 1561681767
    nsecs:  56890693
  frame_id: "ti_mmwave"
point_id: 17
x: 4.818359375
y: -0.4609375
z: 0.818359375
range: 5.22923660278
velocity: 0.0
doppler_bin: 8
bearing: -5.46444320679
intensity: 29.6425971985
---
header: 
  seq: 305989
  stamp: 
    secs: 1561681767
    nsecs:  56903026
  frame_id: "ti_mmwave"
point_id: 18
x: 4.849609375
y: -0.46484375
z: 0.873046875
range: 5.27281332016
velocity: 0.0
doppler_bin: 8
bearing: -5.47517633438
intensity: 30.696680069
---
header: 
  seq: 305990
  stamp: 
    secs: 1561681767
    nsecs:  56920193
  frame_id: "ti_mmwave"
point_id: 20
x: 0.041015625
y: -0.033203125
z: 0.0625
range: 0.0871539413929
velocity: 0.0
doppler_bin: 8
bearing: -38.9909973145
intensity: 30.1199302673
---
header: 
  seq: 305991
  stamp: 
    secs: 1561681767
    nsecs:  56933045
  frame_id: "ti_mmwave"
point_id: 21
x: 0.052734375
y: -0.04296875
z: 0.103515625
range: 0.130730912089
velocity: 0.0
doppler_bin: 8
bearing: -39.1736602783
intensity: 28.9982051849
---
header: 
  seq: 305992
  stamp: 
    secs: 1561681767
    nsecs:  56979526
  frame_id: "ti_mmwave"
point_id: 23
x: 2.7578125
y: -2.00390625
z: -3.060546875
range: 4.88062095642
velocity: 0.0
doppler_bin: 8
bearing: -36.003238678
intensity: 27.8247261047
---
header: 
  seq: 305993
  stamp: 
    secs: 1561681767
    nsecs:  56995962
  frame_id: "ti_mmwave"
point_id: 24
x: 2.783203125
y: -2.021484375
z: -3.087890625
range: 4.9241976738
velocity: 0.0
doppler_bin: 8
bearing: -35.9914970398
intensity: 27.4036273956
---
header: 
  seq: 305994
  stamp: 
    secs: 1561681767
    nsecs:  57011345
  frame_id: "ti_mmwave"
point_id: 25
x: 4.748046875
y: -0.298828125
z: -0.513671875
range: 5.09850549698
velocity: 0.0
doppler_bin: 8
bearing: -3.60127830505
intensity: 33.0124702454
---
header: 
  seq: 305995
  stamp: 
    secs: 1561681767
    nsecs: 114838958
  frame_id: "ti_mmwave"
point_id: 0
x: 0.01171875
y: -0.0390625
z: -0.0078125
range: 0.0435769706964
velocity: 0.0
doppler_bin: 8
bearing: -73.3007583618
intensity: 30.7736797333
---
header: 
  seq: 305996
  stamp: 
    secs: 1561681767
    nsecs: 114920027
  frame_id: "ti_mmwave"
point_id: 1
x: 0.017578125
y: -0.080078125
z: -0.0078125
range: 0.0871539413929
velocity: 0.0
doppler_bin: 8
bearing: -77.6192398071
intensity: 31.994808197
---
header: 
  seq: 305997
  stamp: 
    secs: 1561681767
    nsecs: 114937877
  frame_id: "ti_mmwave"
point_id: 2
x: 0.041015625
y: -0.115234375
z: -0.0078125
range: 0.130730912089
velocity: 0.0
doppler_bin: 8
bearing: -70.4077224731
intensity: 30.2694168091
---
header: 
  seq: 305998
  stamp: 
    secs: 1561681767
    nsecs: 114950244
  frame_id: "ti_mmwave"
point_id: 3
x: 0.056640625
y: -0.154296875
z: 0.005859375
range: 0.174307882786
velocity: 0.0
doppler_bin: 8
bearing: -69.8423843384
intensity: 25.5266819
---
header: 
  seq: 305999
  stamp: 
    secs: 1561681767
    nsecs: 114978366
  frame_id: "ti_mmwave"
point_id: 4
x: 0.32421875
y: -0.080078125
z: -1.22265625
range: 1.35088610649
velocity: 0.0
doppler_bin: 8
bearing: -13.8737030029
intensity: 21.9312458038
---
header: 
  seq: 306000
  stamp: 
    secs: 1561681767
    nsecs: 115059429
  frame_id: "ti_mmwave"
point_id: 5
x: 0.337890625
y: -0.041015625
z: 1.263671875
range: 1.39446306229
velocity: 0.0
doppler_bin: 8
bearing: -6.92111730576
intensity: 23.2633590698
---
header: 
  seq: 306001
  stamp: 
    secs: 1561681767
    nsecs: 115077676
  frame_id: "ti_mmwave"
point_id: 6
x: 0.435546875
y: -0.0
z: 1.27734375
range: 1.43804001808
velocity: 0.0
doppler_bin: 8
bearing: -0.0
intensity: 21.875207901
---
header: 
  seq: 306002
  stamp: 
    secs: 1561681767
    nsecs: 115091436
  frame_id: "ti_mmwave"
point_id: 7
x: 1.728515625
y: 0.39453125
z: -0.3125
range: 1.91738677025
velocity: 0.0
doppler_bin: 8
bearing: 12.8574209213
intensity: 26.6181259155
---
header: 
  seq: 306003
  stamp: 
    secs: 1561681767
    nsecs: 115102157
  frame_id: "ti_mmwave"
point_id: 8
x: 1.7734375
y: 0.40234375
z: -0.28125
range: 1.96096372604
velocity: 0.0
doppler_bin: 8
bearing: 12.7824459076
intensity: 28.1424751282
---
header: 
  seq: 306004
  stamp: 
    secs: 1561681767
    nsecs: 115113191
  frame_id: "ti_mmwave"
point_id: 9
x: 1.830078125
y: 0.412109375
z: -0.158203125
range: 2.00454068184
velocity: 0.0
doppler_bin: 8
bearing: 12.6905679703
intensity: 27.4507484436
---
header: 
  seq: 306005
  stamp: 
    secs: 1561681767
    nsecs: 115124162
  frame_id: "ti_mmwave"
point_id: 10
x: 2.53515625
y: -0.263671875
z: 1.2109375
range: 3.00681090355
velocity: 0.0
doppler_bin: 8
bearing: -5.9377655983
intensity: 29.4349460602
---
header: 
  seq: 306006
  stamp: 
    secs: 1561681767
    nsecs: 115136360
  frame_id: "ti_mmwave"
point_id: 11
x: 2.59765625
y: -0.267578125
z: 1.17578125
range: 3.05038785934
velocity: 0.0
doppler_bin: 8
bearing: -5.88115358353
intensity: 32.8012275696
---
header: 
  seq: 306007
  stamp: 
    secs: 1561681767
    nsecs: 115147758
  frame_id: "ti_mmwave"
point_id: 12
x: 2.654296875
y: -0.181640625
z: 1.1640625
range: 3.09396481514
velocity: 0.0
doppler_bin: 8
bearing: -3.91479969025
intensity: 32.0520439148
---
header: 
  seq: 306008
  stamp: 
    secs: 1561681767
    nsecs: 115160638
  frame_id: "ti_mmwave"
point_id: 13
x: 4.4140625
y: -0.287109375
z: 1.189453125
range: 4.88062095642
velocity: 0.0
doppler_bin: 8
bearing: -3.72151875496
intensity: 30.6483230591
---
header: 
  seq: 306009
  stamp: 
    secs: 1561681767
    nsecs: 115171436
  frame_id: "ti_mmwave"
point_id: 14
x: 4.431640625
y: -0.43359375
z: 1.2421875
range: 4.9241976738
velocity: 0.0
doppler_bin: 8
bearing: -5.58805942535
intensity: 30.2857131958
---
header: 
  seq: 306010
  stamp: 
    secs: 1561681767
    nsecs: 115186533
  frame_id: "ti_mmwave"
point_id: 15
x: 4.720703125
y: -0.59765625
z: -0.517578125
range: 5.09850549698
velocity: 0.0
doppler_bin: 8
bearing: -7.21544361115
intensity: 33.0556640625
---
header: 
  seq: 306011
  stamp: 
    secs: 1561681767
    nsecs: 115199482
  frame_id: "ti_mmwave"
point_id: 16
x: 4.787109375
y: -0.453125
z: -0.419921875
range: 5.14208269119
velocity: 0.0
doppler_bin: 8
bearing: -5.40723514557
intensity: 33.6847267151
---
header: 
  seq: 306012
  stamp: 
    secs: 1561681767
    nsecs: 115223587
  frame_id: "ti_mmwave"
point_id: 17
x: 4.841796875
y: -0.45703125
z: -0.220703125
range: 5.18565940857
velocity: 0.0
doppler_bin: 8
bearing: -5.39233732224
intensity: 30.4532299042
---
header: 
  seq: 306013
  stamp: 
    secs: 1561681767
    nsecs: 115297316
  frame_id: "ti_mmwave"
point_id: 18
x: 4.814453125
y: -0.4609375
z: 0.84375
range: 5.22923660278
velocity: 0.0
doppler_bin: 8
bearing: -5.46884965897
intensity: 29.5036487579
---
header: 
  seq: 306014
  stamp: 
    secs: 1561681767
    nsecs: 115315004
  frame_id: "ti_mmwave"
point_id: 19
x: 4.845703125
y: -0.46484375
z: 0.89453125
range: 5.27281332016
velocity: 0.0
doppler_bin: 8
bearing: -5.47956323624
intensity: 30.6445808411
---
header: 
  seq: 306015
  stamp: 
    secs: 1561681767
    nsecs: 115331703
  frame_id: "ti_mmwave"
point_id: 21
x: 0.041015625
y: -0.033203125
z: 0.0625
range: 0.0871539413929
velocity: 0.0
doppler_bin: 8
bearing: -38.9909973145
intensity: 30.1199302673
---
header: 
  seq: 306016
  stamp: 
    secs: 1561681767
    nsecs: 115345739
  frame_id: "ti_mmwave"
point_id: 22
x: 0.052734375
y: -0.04296875
z: 0.103515625
range: 0.130730912089
velocity: 0.0
doppler_bin: 8
bearing: -39.1736602783
intensity: 28.9927310944
---
header: 
  seq: 306017
  stamp: 
    secs: 1561681767
    nsecs: 115398120
  frame_id: "ti_mmwave"
point_id: 24
x: 2.765625
y: -2.00390625
z: -3.052734375
range: 4.88062095642
velocity: 0.0
doppler_bin: 8
bearing: -35.9261932373
intensity: 27.7959651947
---
header: 
  seq: 306018
  stamp: 
    secs: 1561681767
    nsecs: 115423422
  frame_id: "ti_mmwave"
point_id: 25
x: 2.720703125
y: -2.021484375
z: -3.142578125
range: 4.9241976738
velocity: 0.0
doppler_bin: 8
bearing: -36.6123771667
intensity: 27.4272518158
---
header: 
  seq: 306019
  stamp: 
    secs: 1561681767
    nsecs: 116313524
  frame_id: "ti_mmwave"
point_id: 0
x: 0.01171875
y: -0.0390625
z: -0.0078125
range: 0.0435769706964
velocity: 0.0
doppler_bin: 8
bearing: -73.3007583618
intensity: 30.7773113251
---
header: 
  seq: 306020
  stamp: 
    secs: 1561681767
    nsecs: 116378608
  frame_id: "ti_mmwave"
point_id: 1
x: 0.017578125
y: -0.080078125
z: -0.0078125
range: 0.0871539413929
velocity: 0.0
doppler_bin: 8
bearing: -77.6192398071
intensity: 31.994808197
---
header: 
  seq: 306021
  stamp: 
    secs: 1561681767
    nsecs: 116395066
  frame_id: "ti_mmwave"
point_id: 2
x: 0.041015625
y: -0.115234375
z: -0.0078125
range: 0.130730912089
velocity: 0.0
doppler_bin: 8
bearing: -70.4077224731
intensity: 30.2612457275
---
header: 
  seq: 306022
  stamp: 
    secs: 1561681767
    nsecs: 116409158
  frame_id: "ti_mmwave"
point_id: 3
x: 0.056640625
y: -0.154296875
z: 0.005859375
range: 0.174307882786
velocity: 0.0
doppler_bin: 8
bearing: -69.8423843384
intensity: 25.5144996643
---
header: 
  seq: 306023
  stamp: 
    secs: 1561681767
    nsecs: 116501694
  frame_id: "ti_mmwave"
point_id: 4
x: 0.30859375
y: -0.080078125
z: -1.228515625
range: 1.35088610649
velocity: 0.0
doppler_bin: 8
bearing: -14.547039032
intensity: 21.875207901
---
header: 
  seq: 306024
  stamp: 
    secs: 1561681767
    nsecs: 116523607
  frame_id: "ti_mmwave"
point_id: 5
x: 0.349609375
y: -0.041015625
z: 1.259765625
range: 1.39446306229
velocity: 0.0
doppler_bin: 8
bearing: -6.69126462936
intensity: 23.2633590698
---
header: 
  seq: 306025
  stamp: 
    secs: 1561681767
    nsecs: 116541792
  frame_id: "ti_mmwave"
point_id: 6
x: 0.451171875
y: -0.0
z: 1.2734375
range: 1.43804001808
velocity: 0.0
doppler_bin: 8
bearing: -0.0
intensity: 21.9033164978
---
header: 
  seq: 306026
  stamp: 
    secs: 1561681767
    nsecs: 116588941
  frame_id: "ti_mmwave"
point_id: 7
x: 2.56640625
y: -0.263671875
z: 1.146484375
range: 3.00681090355
velocity: 0.0
doppler_bin: 8
bearing: -5.86597156525
intensity: 29.4497585297
---
header: 
  seq: 306027
  stamp: 
    secs: 1561681767
    nsecs: 116604194
  frame_id: "ti_mmwave"
point_id: 8
x: 2.607421875
y: -0.267578125
z: 1.15234375
range: 3.05038785934
velocity: 0.0
doppler_bin: 8
bearing: -5.85928010941
intensity: 32.7875366211
---
header: 
  seq: 306028
  stamp: 
    secs: 1561681767
    nsecs: 116635292
  frame_id: "ti_mmwave"
point_id: 9
x: 2.66015625
y: -0.181640625
z: 1.15234375
range: 3.09396481514
velocity: 0.0
doppler_bin: 8
bearing: -3.90620398521
intensity: 32.0357666016
---
header: 
  seq: 306029
  stamp: 
    secs: 1561681767
    nsecs: 116659858
  frame_id: "ti_mmwave"
point_id: 10
x: 4.41015625
y: -0.287109375
z: 1.2109375
range: 4.88062095642
velocity: 0.0
doppler_bin: 8
bearing: -3.72480559349
intensity: 30.6370849609
---
header: 
  seq: 306030
  stamp: 
    secs: 1561681767
    nsecs: 116731437
  frame_id: "ti_mmwave"
point_id: 11
x: 4.416015625
y: -0.43359375
z: 1.294921875
range: 4.9241976738
velocity: 0.0
doppler_bin: 8
bearing: -5.60770559311
intensity: 30.2734966278
---
header: 
  seq: 306031
  stamp: 
    secs: 1561681767
    nsecs: 116747240
  frame_id: "ti_mmwave"
point_id: 12
x: 4.720703125
y: -0.59765625
z: -0.5078125
range: 5.09850549698
velocity: 0.0
doppler_bin: 8
bearing: -7.21544361115
intensity: 32.9994277954
---
header: 
  seq: 306032
  stamp: 
    secs: 1561681767
    nsecs: 116760892
  frame_id: "ti_mmwave"
point_id: 13
x: 4.787109375
y: -0.453125
z: -0.4140625
range: 5.14208269119
velocity: 0.0
doppler_bin: 8
bearing: -5.40723514557
intensity: 33.6492614746
---
header: 
  seq: 306033
  stamp: 
    secs: 1561681767
    nsecs: 116776995
  frame_id: "ti_mmwave"
point_id: 14
x: 4.84375
y: -0.45703125
z: -0.15625
range: 5.18565940857
velocity: 0.0
doppler_bin: 8
bearing: -5.3901758194
intensity: 30.4883003235
---
header: 
  seq: 306034
  stamp: 
    secs: 1561681767
    nsecs: 116792228
  frame_id: "ti_mmwave"
point_id: 15
x: 4.81640625
y: -0.4609375
z: 0.83203125
range: 5.22923660278
velocity: 0.0
doppler_bin: 8
bearing: -5.46664571762
intensity: 29.7034683228
---
header: 
  seq: 306035
  stamp: 
    secs: 1561681767
    nsecs: 116807198
  frame_id: "ti_mmwave"
point_id: 16
x: 4.84375
y: -0.46484375
z: 0.90625
range: 5.27281332016
velocity: 0.0
doppler_bin: 8
bearing: -5.48175907135
intensity: 30.7481651306
---
header: 
  seq: 306036
  stamp: 
    secs: 1561681767
    nsecs: 116869616
  frame_id: "ti_mmwave"
point_id: 18
x: 0.041015625
y: -0.033203125
z: 0.0625
range: 0.0871539413929
velocity: 0.0
doppler_bin: 8
bearing: -38.9909973145
intensity: 30.1199302673
---
header: 
  seq: 306037
  stamp: 
    secs: 1561681767
    nsecs: 116884485
  frame_id: "ti_mmwave"
point_id: 19
x: 0.052734375
y: -0.04296875
z: 0.103515625
range: 0.130730912089
velocity: 0.0
doppler_bin: 8
bearing: -39.1736602783
intensity: 29.0036716461
---
header: 
  seq: 306038
  stamp: 
    secs: 1561681767
    nsecs: 116902182
  frame_id: "ti_mmwave"
point_id: 21
x: 1.119140625
y: -0.515625
z: 0.30078125
range: 1.35088610649
velocity: 0.0
doppler_bin: 8
bearing: -24.7370834351
intensity: 18.9762706757
---
header: 
  seq: 306039
  stamp: 
    secs: 1561681767
    nsecs: 116915804
  frame_id: "ti_mmwave"
point_id: 22
x: 2.794921875
y: -2.00390625
z: -3.02734375
range: 4.88062095642
velocity: 0.0
doppler_bin: 8
bearing: -35.6398124695
intensity: 27.8103694916
---
header: 
  seq: 306040
  stamp: 
    secs: 1561681767
    nsecs: 116959607
  frame_id: "ti_mmwave"
point_id: 23
x: 2.82421875
y: -2.021484375
z: -3.048828125
range: 4.9241976738
velocity: 0.0
doppler_bin: 8
bearing: -35.5938606262
intensity: 27.4193916321
---
header: 
  seq: 306041
  stamp: 
    secs: 1561681767
    nsecs: 174533550
  frame_id: "ti_mmwave"
point_id: 0
x: 0.01171875
y: -0.0390625
z: -0.0078125
range: 0.0435769706964
velocity: 0.0
doppler_bin: 8
bearing: -73.3007583618
intensity: 30.7664051056
---
header: 
  seq: 306042
  stamp: 
    secs: 1561681767
    nsecs: 174622466
  frame_id: "ti_mmwave"
point_id: 1
x: 0.017578125
y: -0.080078125
z: -0.0078125
range: 0.0871539413929
velocity: 0.0
doppler_bin: 8
bearing: -77.6192398071
intensity: 31.994808197
---
header: 
  seq: 306043
  stamp: 
    secs: 1561681767
    nsecs: 174640130
  frame_id: "ti_mmwave"
point_id: 2
x: 0.041015625
y: -0.115234375
z: -0.0078125
range: 0.130730912089
velocity: 0.0
doppler_bin: 8
bearing: -70.4077224731
intensity: 30.2653331757
---
header: 
  seq: 306044
  stamp: 
    secs: 1561681767
    nsecs: 174653730
  frame_id: "ti_mmwave"
point_id: 3
x: 0.056640625
y: -0.154296875
z: 0.005859375
range: 0.174307882786
velocity: 0.0
doppler_bin: 8
bearing: -69.8423843384
intensity: 25.5144996643
---
header: 
  seq: 306045
  stamp: 
    secs: 1561681767
    nsecs: 174667398
  frame_id: "ti_mmwave"
point_id: 4
x: 0.302734375
y: -0.080078125
z: -1.228515625
range: 1.35088610649
velocity: 0.0
doppler_bin: 8
bearing: -14.8163175583
intensity: 21.875207901
---
header: 
  seq: 306046
  stamp: 
    secs: 1561681767
    nsecs: 174683489
  frame_id: "ti_mmwave"
point_id: 5
x: 0.34375
y: -0.041015625
z: 1.26171875
range: 1.39446306229
velocity: 0.0
doppler_bin: 8
bearing: -6.80425977707
intensity: 23.2633590698
---
header: 
  seq: 306047
  stamp: 
    secs: 1561681767
    nsecs: 174696935
  frame_id: "ti_mmwave"
point_id: 6
x: 0.4140625
y: -0.0
z: 1.28515625
range: 1.43804001808
velocity: 0.0
doppler_bin: 8
bearing: -0.0
intensity: 21.875207901
---
header: 
  seq: 306048
  stamp: 
    secs: 1561681767
    nsecs: 174710638
  frame_id: "ti_mmwave"
point_id: 7
x: 1.763671875
y: 0.517578125
z: -0.115234375
range: 1.96096372604
velocity: 0.0
doppler_bin: 8
bearing: 16.3551807404
intensity: 27.6937732697
---
header: 
  seq: 306049
  stamp: 
    secs: 1561681767
    nsecs: 174724447
  frame_id: "ti_mmwave"
point_id: 8
x: 1.783203125
y: 0.587890625
z: -0.125
range: 2.00454068184
velocity: 0.0
doppler_bin: 8
bearing: 18.2464790344
intensity: 27.0757026672
---
header: 
  seq: 306050
  stamp: 
    secs: 1561681767
    nsecs: 174739864
  frame_id: "ti_mmwave"
point_id: 9
x: 1.84765625
y: 0.48046875
z: -0.224609375
range: 2.04811763763
velocity: 0.0
doppler_bin: 8
bearing: 14.5764856339
intensity: 27.2427577972
---
header: 
  seq: 306051
  stamp: 
    secs: 1561681767
    nsecs: 174819844
  frame_id: "ti_mmwave"
point_id: 10
x: 2.552734375
y: -0.263671875
z: 1.173828125
range: 3.00681090355
velocity: 0.0
doppler_bin: 8
bearing: -5.89716720581
intensity: 29.4497585297
---
header: 
  seq: 306052
  stamp: 
    secs: 1561681767
    nsecs: 174835655
  frame_id: "ti_mmwave"
point_id: 11
x: 2.603515625
y: -0.267578125
z: 1.16015625
range: 3.05038785934
velocity: 0.0
doppler_bin: 8
bearing: -5.8680100441
intensity: 32.7875366211
---
header: 
  seq: 306053
  stamp: 
    secs: 1561681767
    nsecs: 174851135
  frame_id: "ti_mmwave"
point_id: 12
x: 2.658203125
y: -0.181640625
z: 1.154296875
range: 3.09396481514
velocity: 0.0
doppler_bin: 8
bearing: -3.90906453133
intensity: 32.0547485352
---
header: 
  seq: 306054
  stamp: 
    secs: 1561681767
    nsecs: 174864721
  frame_id: "ti_mmwave"
point_id: 13
x: 4.416015625
y: -0.287109375
z: 1.185546875
range: 4.88062095642
velocity: 0.0
doppler_bin: 8
bearing: -3.71987724304
intensity: 30.6818580627
---
header: 
  seq: 306055
  stamp: 
    secs: 1561681767
    nsecs: 174878947
  frame_id: "ti_mmwave"
point_id: 14
x: 4.470703125
y: -0.2890625
z: 1.142578125
range: 4.9241976738
velocity: 0.0
doppler_bin: 8
bearing: -3.69942688942
intensity: 30.3422718048
---
header: 
  seq: 306056
  stamp: 
    secs: 1561681767
    nsecs: 174891167
  frame_id: "ti_mmwave"
point_id: 15
x: 4.71484375
y: -0.59765625
z: -0.55859375
range: 5.09850549698
velocity: 0.0
doppler_bin: 8
bearing: -7.22431516647
intensity: 33.0211448669
---
header: 
  seq: 306057
  stamp: 
    secs: 1561681767
    nsecs: 174904143
  frame_id: "ti_mmwave"
point_id: 16
x: 4.787109375
y: -0.453125
z: -0.41796875
range: 5.14208269119
velocity: 0.0
doppler_bin: 8
bearing: -5.40723514557
intensity: 33.6398773193
---
header: 
  seq: 306058
  stamp: 
    secs: 1561681767
    nsecs: 174920275
  frame_id: "ti_mmwave"
point_id: 17
x: 4.84375
y: -0.45703125
z: -0.1484375
range: 5.18565940857
velocity: 0.0
doppler_bin: 8
bearing: -5.3901758194
intensity: 30.4610481262
---
header: 
  seq: 306059
  stamp: 
    secs: 1561681767
    nsecs: 174934425
  frame_id: "ti_mmwave"
point_id: 18
x: 4.8125
y: -0.4609375
z: 0.849609375
range: 5.22923660278
velocity: 0.0
doppler_bin: 8
bearing: -5.4710559845
intensity: 29.7863693237
---
header: 
  seq: 306060
  stamp: 
    secs: 1561681767
    nsecs: 174996186
  frame_id: "ti_mmwave"
point_id: 19
x: 4.837890625
y: -0.46484375
z: 0.94140625
range: 5.27281332016
velocity: 0.0
doppler_bin: 8
bearing: -5.48835754395
intensity: 30.7481651306
---
header: 
  seq: 306061
  stamp: 
    secs: 1561681767
    nsecs: 175014544
  frame_id: "ti_mmwave"
point_id: 21
x: 0.041015625
y: -0.033203125
z: 0.0625
range: 0.0871539413929
velocity: 0.0
doppler_bin: 8
bearing: -38.9909973145
intensity: 30.1199302673
---
header: 
  seq: 306062
  stamp: 
    secs: 1561681767
    nsecs: 175028655
  frame_id: "ti_mmwave"
point_id: 22
x: 0.052734375
y: -0.04296875
z: 0.103515625
range: 0.130730912089
velocity: 0.0
doppler_bin: 8
bearing: -39.1736602783
intensity: 28.9982051849
---
header: 
  seq: 306063
  stamp: 
    secs: 1561681767
    nsecs: 175045596
  frame_id: "ti_mmwave"
point_id: 24
x: 1.115234375
y: -0.515625
z: 0.3125
range: 1.35088610649
velocity: 0.0
doppler_bin: 8
bearing: -24.8133087158
intensity: 18.9209461212
---
header: 
  seq: 306064
  stamp: 
    secs: 1561681767
    nsecs: 175058851
  frame_id: "ti_mmwave"
point_id: 25
x: 2.76953125
y: -2.00390625
z: -3.048828125
range: 4.88062095642
velocity: 0.0
doppler_bin: 8
bearing: -35.8877792358
intensity: 27.774269104
---
header: 
  seq: 306065
  stamp: 
    secs: 1561681767
    nsecs: 175072136
  frame_id: "ti_mmwave"
point_id: 26
x: 2.65625
y: -2.021484375
z: -3.197265625
range: 4.9241976738
velocity: 0.0
doppler_bin: 8
bearing: -37.2722015381
intensity: 27.3639640808
---
header: 
  seq: 306066
  stamp: 
    secs: 1561681767
    nsecs: 175089500
  frame_id: "ti_mmwave"
point_id: 27
x: 4.74609375
y: -0.298828125
z: -0.537109375
range: 5.09850549698
velocity: 0.0
doppler_bin: 8
bearing: -3.60275626183
intensity: 33.0146408081
---
header: 
  seq: 306067
  stamp: 
    secs: 1561681767
    nsecs: 234597273
  frame_id: "ti_mmwave"
point_id: 0
x: 0.01171875
y: -0.0390625
z: -0.0078125
range: 0.0435769706964
velocity: 0.0
doppler_bin: 8
bearing: -73.3007583618
intensity: 30.7664051056
---
header: 
  seq: 306068
  stamp: 
    secs: 1561681767
    nsecs: 234675285
  frame_id: "ti_mmwave"
point_id: 1
x: 0.017578125
y: -0.080078125
z: -0.0078125
range: 0.0871539413929
velocity: 0.0
doppler_bin: 8
bearing: -77.6192398071
intensity: 31.994808197
---
header: 
  seq: 306069
  stamp: 
    secs: 1561681767
    nsecs: 234687195
  frame_id: "ti_mmwave"
point_id: 2
x: 0.041015625
y: -0.115234375
z: -0.0078125
range: 0.130730912089
velocity: 0.0
doppler_bin: 8
bearing: -70.4077224731
intensity: 30.2653331757
---
header: 
  seq: 306070
  stamp: 
    secs: 1561681767
    nsecs: 234695411
  frame_id: "ti_mmwave"
point_id: 3
x: 0.056640625
y: -0.154296875
z: 0.005859375
range: 0.174307882786
velocity: 0.0
doppler_bin: 8
bearing: -69.8423843384
intensity: 25.5266819
---
header: 
  seq: 306071
  stamp: 
    secs: 1561681767
    nsecs: 234703761
  frame_id: "ti_mmwave"
point_id: 4
x: 0.3203125
y: -0.080078125
z: -1.224609375
range: 1.35088610649
velocity: 0.0
doppler_bin: 8
bearing: -14.0362434387
intensity: 21.8469142914
---
header: 
  seq: 306072
  stamp: 
    secs: 1561681767
    nsecs: 234711578
  frame_id: "ti_mmwave"
point_id: 5
x: 0.3203125
y: -0.041015625
z: 1.267578125
range: 1.39446306229
velocity: 0.0
doppler_bin: 8
bearing: -7.29694652557
intensity: 23.2221927643
---
header: 
  seq: 306073
  stamp: 
    secs: 1561681767
    nsecs: 234721330
  frame_id: "ti_mmwave"
point_id: 6
x: 0.451171875
y: -0.0
z: 1.2734375
range: 1.43804001808
velocity: 0.0
doppler_bin: 8
bearing: -0.0
intensity: 21.875207901
---
header: 
  seq: 306074
  stamp: 
    secs: 1561681767
    nsecs: 234730812
  frame_id: "ti_mmwave"
point_id: 7
x: 1.7421875
y: 0.44921875
z: -0.02734375
range: 1.91738677025
velocity: 0.0
doppler_bin: 8
bearing: 14.4586381912
intensity: 26.541765213
---
header: 
  seq: 306075
  stamp: 
    secs: 1561681767
    nsecs: 234738823
  frame_id: "ti_mmwave"
point_id: 8
x: 2.544921875
y: -0.263671875
z: 1.193359375
range: 3.00681090355
velocity: 0.0
doppler_bin: 8
bearing: -5.91514253616
intensity: 29.4299964905
---
header: 
  seq: 306076
  stamp: 
    secs: 1561681767
    nsecs: 234747021
  frame_id: "ti_mmwave"
point_id: 9
x: 2.6015625
y: -0.267578125
z: 1.1640625
range: 3.05038785934
velocity: 0.0
doppler_bin: 8
bearing: -5.87238502502
intensity: 32.7737998962
---
header: 
  seq: 306077
  stamp: 
    secs: 1561681767
    nsecs: 234754952
  frame_id: "ti_mmwave"
point_id: 10
x: 2.658203125
y: -0.181640625
z: 1.158203125
range: 3.09396481514
velocity: 0.0
doppler_bin: 8
bearing: -3.90906453133
intensity: 32.0248832703
---
header: 
  seq: 306078
  stamp: 
    secs: 1561681767
    nsecs: 234762919
  frame_id: "ti_mmwave"
point_id: 11
x: 4.412109375
y: -0.287109375
z: 1.203125
range: 4.88062095642
velocity: 0.0
doppler_bin: 8
bearing: -3.72316122055
intensity: 30.6370849609
---
header: 
  seq: 306079
  stamp: 
    secs: 1561681767
    nsecs: 234771793
  frame_id: "ti_mmwave"
point_id: 12
x: 4.416015625
y: -0.43359375
z: 1.294921875
range: 4.9241976738
velocity: 0.0
doppler_bin: 8
bearing: -5.60770559311
intensity: 30.2325248718
---
header: 
  seq: 306080
  stamp: 
    secs: 1561681767
    nsecs: 234781139
  frame_id: "ti_mmwave"
point_id: 13
x: 4.71875
y: -0.59765625
z: -0.53125
range: 5.09850549698
velocity: 0.0
doppler_bin: 8
bearing: -7.21839857101
intensity: 33.0102996826
---
header: 
  seq: 306081
  stamp: 
