header: 
  seq: 290523
  stamp: 
    secs: 1561681744
    nsecs: 374600767
  frame_id: "ti_mmwave"
point_id: 0
x: 0.01171875
y: -0.0390625
z: -0.0078125
range: 0.0435769706964
velocity: 0.0
doppler_bin: 8
bearing: -73.3007583618
intensity: 30.7809410095
---
header: 
  seq: 290524
  stamp: 
    secs: 1561681744
    nsecs: 374670351
  frame_id: "ti_mmwave"
point_id: 1
x: 0.017578125
y: -0.080078125
z: -0.0078125
range: 0.0871539413929
velocity: 0.0
doppler_bin: 8
bearing: -77.6192398071
intensity: 32.0030326843
---
header: 
  seq: 290525
  stamp: 
    secs: 1561681744
    nsecs: 374684038
  frame_id: "ti_mmwave"
point_id: 2
x: 0.041015625
y: -0.115234375
z: -0.0078125
range: 0.130730912089
velocity: 0.0
doppler_bin: 8
bearing: -70.4077224731
intensity: 30.2734966278
---
header: 
  seq: 290526
  stamp: 
    secs: 1561681744
    nsecs: 374693170
  frame_id: "ti_mmwave"
point_id: 3
x: 0.056640625
y: -0.154296875
z: 0.005859375
range: 0.174307882786
velocity: 0.0
doppler_bin: 8
bearing: -69.8423843384
intensity: 25.5388298035
---
header: 
  seq: 290527
  stamp: 
    secs: 1561681744
    nsecs: 374701608
  frame_id: "ti_mmwave"
point_id: 4
x: 0.294921875
y: -0.080078125
z: -1.23046875
range: 1.35088610649
velocity: 0.0
doppler_bin: 8
bearing: -15.1908855438
intensity: 21.875207901
---
header: 
  seq: 290528
  stamp: 
    secs: 1561681744
    nsecs: 374711273
  frame_id: "ti_mmwave"
point_id: 5
x: 0.34765625
y: -0.041015625
z: 1.26171875
range: 1.39446306229
velocity: 0.0
doppler_bin: 8
bearing: -6.7285118103
intensity: 23.2633590698
---
header: 
  seq: 290529
  stamp: 
    secs: 1561681744
    nsecs: 374719855
  frame_id: "ti_mmwave"
point_id: 6
x: 0.453125
y: -0.0
z: 1.271484375
range: 1.43804001808
velocity: 0.0
doppler_bin: 8
bearing: -0.0
intensity: 21.9033164978
---
header: 
  seq: 290530
  stamp: 
    secs: 1561681744
    nsecs: 374728454
  frame_id: "ti_mmwave"
point_id: 7
x: 2.0703125
y: 0.26171875
z: 0.037109375
range: 2.22242546082
velocity: 0.0
doppler_bin: 8
bearing: 7.20483350754
intensity: 27.5358314514
---
header: 
  seq: 290531
  stamp: 
    secs: 1561681744
    nsecs: 374736888
  frame_id: "ti_mmwave"
point_id: 8
x: 2.541015625
y: -0.263671875
z: 1.197265625
range: 3.00681090355
velocity: 0.0
doppler_bin: 8
bearing: -5.92417097092
intensity: 29.5230808258
---
header: 
  seq: 290532
  stamp: 
    secs: 1561681744
    nsecs: 374745487
  frame_id: "ti_mmwave"
point_id: 9
x: 2.595703125
y: -0.267578125
z: 1.177734375
range: 3.05038785934
velocity: 0.0
doppler_bin: 8
bearing: -5.88554811478
intensity: 32.8148803711
---
header: 
  seq: 290533
  stamp: 
    secs: 1561681744
    nsecs: 374753981
  frame_id: "ti_mmwave"
point_id: 10
x: 2.6484375
y: -0.181640625
z: 1.177734375
range: 3.09396481514
velocity: 0.0
doppler_bin: 8
bearing: -3.92343401909
intensity: 32.0194320679
---
header: 
  seq: 290534
  stamp: 
    secs: 1561681744
    nsecs: 374763022
  frame_id: "ti_mmwave"
point_id: 11
x: 4.412109375
y: -0.287109375
z: 1.201171875
range: 4.88062095642
velocity: 0.0
doppler_bin: 8
bearing: -3.72316122055
intensity: 30.700378418
---
header: 
  seq: 290535
  stamp: 
    secs: 1561681744
    nsecs: 374772336
  frame_id: "ti_mmwave"
point_id: 12
x: 4.43359375
y: -0.43359375
z: 1.232421875
range: 4.9241976738
velocity: 0.0
doppler_bin: 8
bearing: -5.58561325073
intensity: 30.3702793121
---
header: 
  seq: 290536
  stamp: 
    secs: 1561681744
    nsecs: 374781942
  frame_id: "ti_mmwave"
point_id: 13
x: 4.734375
y: -0.44921875
z: -0.53125
range: 5.09850549698
velocity: 0.0
doppler_bin: 8
bearing: -5.42025327682
intensity: 33.1005592346
---
header: 
  seq: 290537
  stamp: 
    secs: 1561681744
    nsecs: 374791060
  frame_id: "ti_mmwave"
point_id: 14
x: 4.787109375
y: -0.453125
z: -0.43359375
range: 5.14208269119
velocity: 0.0
doppler_bin: 8
bearing: -5.40723514557
intensity: 33.7639427185
---
header: 
  seq: 290538
  stamp: 
    secs: 1561681744
    nsecs: 374800077
  frame_id: "ti_mmwave"
point_id: 15
x: 4.841796875
y: -0.45703125
z: -0.220703125
range: 5.18565940857
velocity: 0.0
doppler_bin: 8
bearing: -5.39233732224
intensity: 30.6069774628
---
header: 
  seq: 290539
  stamp: 
    secs: 1561681744
    nsecs: 374808465
  frame_id: "ti_mmwave"
point_id: 16
x: 4.84375
y: -0.46484375
z: 0.90234375
range: 5.27281332016
velocity: 0.0
doppler_bin: 8
bearing: -5.48175907135
intensity: 30.7481651306
---
header: 
  seq: 290540
  stamp: 
    secs: 1561681744
    nsecs: 374820304
  frame_id: "ti_mmwave"
point_id: 18
x: 0.041015625
y: -0.033203125
z: 0.0625
range: 0.0871539413929
velocity: 0.0
doppler_bin: 8
bearing: -38.9909973145
intensity: 30.1283721924
---
header: 
  seq: 290541
  stamp: 
    secs: 1561681744
    nsecs: 374842088
  frame_id: "ti_mmwave"
point_id: 19
x: 0.052734375
y: -0.04296875
z: 0.103515625
range: 0.130730912089
velocity: 0.0
doppler_bin: 8
bearing: -39.1736602783
intensity: 29.0091304779
---
header: 
  seq: 290542
  stamp: 
    secs: 1561681744
    nsecs: 374865148
  frame_id: "ti_mmwave"
point_id: 21
x: 1.12109375
y: -0.515625
z: 0.29296875
range: 1.35088610649
velocity: 0.0
doppler_bin: 8
bearing: -24.6991329193
intensity: 19.0308990479
---
header: 
  seq: 290543
  stamp: 
    secs: 1561681744
    nsecs: 375078268
  frame_id: "ti_mmwave"
point_id: 22
x: 2.744140625
y: -2.00390625
z: -3.072265625
range: 4.88062095642
velocity: 0.0
doppler_bin: 8
bearing: -36.1387519836
intensity: 27.9028511047
---
header: 
  seq: 290544
  stamp: 
    secs: 1561681744
    nsecs: 375099420
  frame_id: "ti_mmwave"
point_id: 23
x: 2.703125
y: -2.021484375
z: -3.158203125
range: 4.9241976738
velocity: 0.0
doppler_bin: 8
bearing: -36.7903289795
intensity: 27.6192779541
---
header: 
  seq: 290545
  stamp: 
    secs: 1561681744
    nsecs: 434599793
  frame_id: "ti_mmwave"
point_id: 0
x: 0.01171875
y: -0.0390625
z: -0.0078125
range: 0.0435769706964
velocity: 0.0
doppler_bin: 8
bearing: -73.3007583618
intensity: 30.7773113251
---
header: 
  seq: 290546
  stamp: 
    secs: 1561681744
    nsecs: 434674043
  frame_id: "ti_mmwave"
point_id: 1
x: 0.017578125
y: -0.080078125
z: -0.0078125
range: 0.0871539413929
velocity: 0.0
doppler_bin: 8
bearing: -77.6192398071
intensity: 32.0002937317
---
header: 
  seq: 290547
  stamp: 
    secs: 1561681744
    nsecs: 434685469
  frame_id: "ti_mmwave"
point_id: 2
x: 0.029296875
y: -0.119140625
z: -0.005859375
range: 0.130730912089
velocity: 0.0
doppler_bin: 8
bearing: -76.1849746704
intensity: 30.2775726318
---
header: 
  seq: 290548
  stamp: 
    secs: 1561681744
    nsecs: 434693518
  frame_id: "ti_mmwave"
point_id: 3
x: 0.056640625
y: -0.154296875
z: 0.005859375
range: 0.174307882786
velocity: 0.0
doppler_bin: 8
bearing: -69.8423843384
intensity: 25.5388298035
---
header: 
  seq: 290549
  stamp: 
    secs: 1561681744
    nsecs: 434701374
  frame_id: "ti_mmwave"
point_id: 4
x: 0.2890625
y: -0.080078125
z: -1.232421875
range: 1.35088610649
velocity: 0.0
doppler_bin: 8
bearing: -15.48416996
intensity: 21.875207901
---
header: 
  seq: 290550
  stamp: 
    secs: 1561681744
    nsecs: 434709168
  frame_id: "ti_mmwave"
point_id: 5
x: 0.3515625
y: -0.041015625
z: 1.259765625
range: 1.39446306229
velocity: 0.0
doppler_bin: 8
bearing: -6.6544251442
intensity: 23.2633590698
---
header: 
  seq: 290551
  stamp: 
    secs: 1561681744
    nsecs: 434717210
  frame_id: "ti_mmwave"
point_id: 6
x: 0.42578125
y: -0.0
z: 1.28125
range: 1.43804001808
velocity: 0.0
doppler_bin: 8
bearing: -0.0
intensity: 21.875207901
---
header: 
  seq: 290552
  stamp: 
    secs: 1561681744
    nsecs: 434726335
  frame_id: "ti_mmwave"
point_id: 7
x: 2.01953125
y: 0.3203125
z: 0.0390625
range: 2.17884850502
velocity: 0.0
doppler_bin: 8
bearing: 9.01245880127
intensity: 27.1180725098
---
header: 
  seq: 290553
  stamp: 
    secs: 1561681744
    nsecs: 434736686
  frame_id: "ti_mmwave"
point_id: 8
x: 2.05859375
y: 0.326171875
z: 0.07421875
range: 2.22242546082
velocity: 0.0
doppler_bin: 8
bearing: 9.00333023071
intensity: 28.7390155792
---
header: 
  seq: 290554
  stamp: 
    secs: 1561681744
    nsecs: 434745411
  frame_id: "ti_mmwave"
point_id: 9
x: 2.091796875
y: 0.33203125
z: 0.19921875
range: 2.26600241661
velocity: 0.0
doppler_bin: 8
bearing: 9.01932239532
intensity: 27.6641292572
---
header: 
  seq: 290555
  stamp: 
    secs: 1561681744
    nsecs: 434754778
  frame_id: "ti_mmwave"
point_id: 10
x: 2.552734375
y: -0.263671875
z: 1.173828125
range: 3.00681090355
velocity: 0.0
doppler_bin: 8
bearing: -5.89716720581
intensity: 29.4890174866
---
header: 
  seq: 290556
  stamp: 
    secs: 1561681744
    nsecs: 434764342
  frame_id: "ti_mmwave"
point_id: 11
x: 2.615234375
y: -0.267578125
z: 1.13671875
range: 3.05038785934
velocity: 0.0
doppler_bin: 8
bearing: -5.84189844131
intensity: 32.7737998962
---
header: 
  seq: 290557
  stamp: 
    secs: 1561681744
    nsecs: 434772721
  frame_id: "ti_mmwave"
point_id: 12
x: 2.671875
y: -0.181640625
z: 1.125
range: 3.09396481514
velocity: 0.0
doppler_bin: 8
bearing: -3.88912391663
intensity: 32.0030326843
---
header: 
  seq: 290558
  stamp: 
    secs: 1561681744
    nsecs: 434781423
  frame_id: "ti_mmwave"
point_id: 13
x: 4.4140625
y: -0.287109375
z: 1.1953125
range: 4.88062095642
velocity: 0.0
doppler_bin: 8
bearing: -3.72151875496
intensity: 30.7261753082
---
header: 
  seq: 290559
  stamp: 
    secs: 1561681744
    nsecs: 434790589
  frame_id: "ti_mmwave"
point_id: 14
x: 4.408203125
y: -0.43359375
z: 1.32421875
range: 4.9241976738
velocity: 0.0
doppler_bin: 8
bearing: -5.61758089066
intensity: 30.3901729584
---
header: 
  seq: 290560
  stamp: 
    secs: 1561681744
    nsecs: 434800823
  frame_id: "ti_mmwave"
point_id: 15
x: 4.708984375
y: -0.296875
z: -0.50390625
range: 5.0549287796
velocity: 0.0
doppler_bin: 8
bearing: -3.60740232468
intensity: 29.5230808258
---
header: 
  seq: 290561
  stamp: 
    secs: 1561681744
    nsecs: 434809347
  frame_id: "ti_mmwave"
point_id: 16
x: 4.736328125
y: -0.44921875
z: -0.515625
range: 5.09850549698
velocity: 0.0
doppler_bin: 8
bearing: -5.41803121567
intensity: 33.1743659973
---
header: 
  seq: 290562
  stamp: 
    secs: 1561681744
    nsecs: 434821649
  frame_id: "ti_mmwave"
point_id: 17
x: 4.78515625
y: -0.453125
z: -0.4375
range: 5.14208269119
velocity: 0.0
doppler_bin: 8
bearing: -5.40942907333
intensity: 33.8147621155
---
header: 
  seq: 290563
  stamp: 
    secs: 1561681744
    nsecs: 434984852
  frame_id: "ti_mmwave"
point_id: 18
x: 4.841796875
y: -0.45703125
z: -0.21484375
range: 5.18565940857
velocity: 0.0
doppler_bin: 8
bearing: -5.39233732224
intensity: 30.86003685
---
header: 
  seq: 290564
  stamp: 
    secs: 1561681744
    nsecs: 435007320
  frame_id: "ti_mmwave"
point_id: 19
x: 4.8359375
y: -0.4609375
z: 0.708984375
range: 5.22923660278
velocity: 0.0
doppler_bin: 8
bearing: -5.44470024109
intensity: 30.0173377991
---
header: 
  seq: 290565
  stamp: 
    secs: 1561681744
    nsecs: 435016236
  frame_id: "ti_mmwave"
point_id: 20
x: 4.849609375
y: -0.46484375
z: 0.873046875
range: 5.27281332016
velocity: 0.0
doppler_bin: 8
bearing: -5.47517633438
intensity: 30.8990516663
---
header: 
  seq: 290566
  stamp: 
    secs: 1561681744
    nsecs: 435028930
  frame_id: "ti_mmwave"
point_id: 22
x: 0.041015625
y: -0.033203125
z: 0.0625
range: 0.0871539413929
velocity: 0.0
doppler_bin: 8
bearing: -38.9909973145
intensity: 30.1241531372
---
header: 
  seq: 290567
  stamp: 
    secs: 1561681744
    nsecs: 435038102
  frame_id: "ti_mmwave"
point_id: 23
x: 0.052734375
y: -0.04296875
z: 0.103515625
range: 0.130730912089
velocity: 0.0
doppler_bin: 8
bearing: -39.1736602783
intensity: 29.0091304779
---
header: 
  seq: 290568
  stamp: 
    secs: 1561681744
    nsecs: 435048856
  frame_id: "ti_mmwave"
point_id: 25
x: 1.119140625
y: -0.515625
z: 0.30078125
range: 1.35088610649
velocity: 0.0
doppler_bin: 8
bearing: -24.7370834351
intensity: 19.0308990479
---
header: 
  seq: 290569
  stamp: 
    secs: 1561681744
    nsecs: 435057430
  frame_id: "ti_mmwave"
point_id: 26
x: 2.80078125
y: -2.00390625
z: -3.01953125
range: 4.88062095642
velocity: 0.0
doppler_bin: 8
bearing: -35.5830039978
intensity: 27.7378635406
---
header: 
  seq: 290570
  stamp: 
    secs: 1561681744
    nsecs: 436430573
  frame_id: "ti_mmwave"
point_id: 0
x: 0.01171875
y: -0.0390625
z: -0.0078125
range: 0.0435769706964
velocity: 0.0
doppler_bin: 8
bearing: -73.3007583618
intensity: 30.7809410095
---
header: 
  seq: 290571
  stamp: 
    secs: 1561681744
    nsecs: 436497056
  frame_id: "ti_mmwave"
point_id: 1
x: 0.017578125
y: -0.080078125
z: -0.0078125
range: 0.0871539413929
velocity: 0.0
doppler_bin: 8
bearing: -77.6192398071
intensity: 32.0002937317
---
header: 
  seq: 290572
  stamp: 
    secs: 1561681744
    nsecs: 436518370
  frame_id: "ti_mmwave"
point_id: 2
x: 0.041015625
y: -0.115234375
z: -0.0078125
range: 0.130730912089
velocity: 0.0
doppler_bin: 8
bearing: -70.4077224731
intensity: 30.2734966278
---
header: 
  seq: 290573
  stamp: 
    secs: 1561681744
    nsecs: 436539721
  frame_id: "ti_mmwave"
point_id: 3
x: 0.056640625
y: -0.154296875
z: 0.00390625
range: 0.174307882786
velocity: 0.0
doppler_bin: 8
bearing: -69.8423843384
intensity: 25.5266819
---
header: 
  seq: 290574
  stamp: 
    secs: 1561681744
    nsecs: 436598585
  frame_id: "ti_mmwave"
point_id: 4
x: 0.29296875
y: -0.080078125
z: -1.23046875
range: 1.35088610649
velocity: 0.0
doppler_bin: 8
bearing: -15.2874355316
intensity: 21.9033164978
---
header: 
  seq: 290575
  stamp: 
    secs: 1561681744
    nsecs: 436614232
  frame_id: "ti_mmwave"
point_id: 5
x: 0.376953125
y: -0.041015625
z: 1.25390625
range: 1.39446306229
velocity: 0.0
doppler_bin: 8
bearing: -6.20982599258
intensity: 23.3041381836
---
header: 
  seq: 290576
  stamp: 
    secs: 1561681744
    nsecs: 436628919
  frame_id: "ti_mmwave"
point_id: 6
x: 0.484375
y: -0.0
z: 1.259765625
range: 1.43804001808
velocity: 0.0
doppler_bin: 8
bearing: -0.0
intensity: 21.9865703583
---
header: 
  seq: 290577
  stamp: 
    secs: 1561681744
    nsecs: 436645977
  frame_id: "ti_mmwave"
point_id: 7
x: 2.017578125
y: 0.3203125
z: -0.09765625
range: 2.17884850502
velocity: 0.0
doppler_bin: 8
bearing: 9.02103996277
intensity: 30.0774784088
---
header: 
  seq: 290578
  stamp: 
    secs: 1561681744
    nsecs: 436662710
  frame_id: "ti_mmwave"
point_id: 8
x: 2.0703125
y: 0.26171875
z: -0.037109375
range: 2.22242546082
velocity: 0.0
doppler_bin: 8
bearing: 7.20483350754
intensity: 31.4457416534
---
header: 
  seq: 290579
  stamp: 
    secs: 1561681744
    nsecs: 436709269
  frame_id: "ti_mmwave"
point_id: 9
x: 2.107421875
y: 0.265625
z: 0.123046875
range: 2.26600241661
velocity: 0.0
doppler_bin: 8
bearing: 7.18382835388
intensity: 28.9707698822
---
header: 
  seq: 290580
  stamp: 
    secs: 1561681744
    nsecs: 436724436
  frame_id: "ti_mmwave"
point_id: 10
x: 2.55859375
y: -0.263671875
z: 1.162109375
range: 3.00681090355
velocity: 0.0
doppler_bin: 8
bearing: -5.88375711441
intensity: 29.4743366241
---
header: 
  seq: 290581
  stamp: 
    secs: 1561681744
    nsecs: 436736806
  frame_id: "ti_mmwave"
point_id: 11
x: 2.60546875
y: -0.267578125
z: 1.15625
range: 3.05038785934
velocity: 0.0
doppler_bin: 8
bearing: -5.86364221573
intensity: 32.8080596924
---
header: 
  seq: 290582
  stamp: 
    secs: 1561681744
    nsecs: 436751394
  frame_id: "ti_mmwave"
point_id: 12
x: 2.654296875
y: -0.181640625
z: 1.1640625
range: 3.09396481514
velocity: 0.0
doppler_bin: 8
bearing: -3.91479969025
intensity: 32.0167007446
---
header: 
  seq: 290583
  stamp: 
    secs: 1561681744
    nsecs: 436766244
  frame_id: "ti_mmwave"
point_id: 13
x: 4.404296875
y: -0.287109375
z: 1.23046875
range: 4.88062095642
velocity: 0.0
doppler_bin: 8
bearing: -3.72974681854
intensity: 30.7040729523
---
header: 
  seq: 290584
  stamp: 
    secs: 1561681744
    nsecs: 436781476
  frame_id: "ti_mmwave"
point_id: 14
x: 4.416015625
y: -0.43359375
z: 1.296875
range: 4.9241976738
velocity: 0.0
doppler_bin: 8
bearing: -5.60770559311
intensity: 30.4649524689
---
header: 
  seq: 290585
  stamp: 
    secs: 1561681744
    nsecs: 436806514
  frame_id: "ti_mmwave"
point_id: 15
x: 4.703125
y: -0.296875
z: -0.552734375
range: 5.0549287796
velocity: 0.0
doppler_bin: 8
bearing: -3.61188483238
intensity: 29.5856380463
---
header: 
  seq: 290586
  stamp: 
    secs: 1561681744
    nsecs: 436880752
  frame_id: "ti_mmwave"
point_id: 16
x: 4.736328125
y: -0.44921875
z: -0.525390625
range: 5.09850549698
velocity: 0.0
doppler_bin: 8
bearing: -5.41803121567
intensity: 33.1659927368
---
header: 
  seq: 290587
  stamp: 
    secs: 1561681744
    nsecs: 436897294
  frame_id: "ti_mmwave"
point_id: 17
x: 4.783203125
y: -0.453125
z: -0.45703125
range: 5.14208269119
velocity: 0.0
doppler_bin: 8
bearing: -5.41162490845
intensity: 33.8560638428
---
header: 
  seq: 290588
  stamp: 
    secs: 1561681744
    nsecs: 436912981
  frame_id: "ti_mmwave"
point_id: 18
x: 4.837890625
y: -0.45703125
z: -0.294921875
range: 5.18565940857
velocity: 0.0
doppler_bin: 8
bearing: -5.39666557312
intensity: 30.9482040405
---
header: 
  seq: 290589
  stamp: 
    secs: 1561681744
    nsecs: 436927085
  frame_id: "ti_mmwave"
point_id: 19
x: 4.83984375
y: -0.4609375
z: 0.681640625
range: 5.22923660278
velocity: 0.0
doppler_bin: 8
bearing: -5.44033241272
intensity: 29.7680835724
---
header: 
  seq: 290590
  stamp: 
    secs: 1561681744
    nsecs: 436939435
  frame_id: "ti_mmwave"
point_id: 20
x: 4.8515625
y: -0.46484375
z: 0.859375
range: 5.27281332016
velocity: 0.0
doppler_bin: 8
bearing: -5.47298574448
intensity: 30.7664051056
---
header: 
  seq: 290591
  stamp: 
    secs: 1561681744
    nsecs: 436971815
  frame_id: "ti_mmwave"
point_id: 22
x: 0.041015625
y: -0.033203125
z: 0.0625
range: 0.0871539413929
velocity: 0.0
doppler_bin: 8
bearing: -38.9909973145
intensity: 30.1283721924
---
header: 
  seq: 290592
  stamp: 
    secs: 1561681744
    nsecs: 437024024
  frame_id: "ti_mmwave"
point_id: 23
x: 0.052734375
y: -0.04296875
z: 0.103515625
range: 0.130730912089
velocity: 0.0
doppler_bin: 8
bearing: -39.1736602783
intensity: 29.0091304779
---
header: 
  seq: 290593
  stamp: 
    secs: 1561681744
    nsecs: 437044877
  frame_id: "ti_mmwave"
point_id: 25
x: 1.1171875
y: -0.515625
z: 0.3046875
range: 1.35088610649
velocity: 0.0
doppler_bin: 8
bearing: -24.7751407623
intensity: 18.9762706757
---
header: 
  seq: 290594
  stamp: 
    secs: 1561681744
    nsecs: 494744066
  frame_id: "ti_mmwave"
point_id: 0
x: 0.01171875
y: -0.0390625
z: -0.0078125
range: 0.0435769706964
velocity: 0.0
doppler_bin: 8
bearing: -73.3007583618
intensity: 30.7773113251
---
header: 
  seq: 290595
  stamp: 
    secs: 1561681744
    nsecs: 494819032
  frame_id: "ti_mmwave"
point_id: 1
x: 0.017578125
y: -0.080078125
z: -0.0078125
range: 0.0871539413929
velocity: 0.0
doppler_bin: 8
bearing: -77.6192398071
intensity: 32.0002937317
---
header: 
  seq: 290596
  stamp: 
    secs: 1561681744
    nsecs: 494829797
  frame_id: "ti_mmwave"
point_id: 2
x: 0.041015625
y: -0.115234375
z: -0.0078125
range: 0.130730912089
velocity: 0.0
doppler_bin: 8
bearing: -70.4077224731
intensity: 30.2734966278
---
header: 
  seq: 290597
  stamp: 
    secs: 1561681744
    nsecs: 494840287
  frame_id: "ti_mmwave"
point_id: 3
x: 0.056640625
y: -0.154296875
z: 0.005859375
range: 0.174307882786
velocity: 0.0
doppler_bin: 8
bearing: -69.8423843384
intensity: 25.5144996643
---
header: 
  seq: 290598
  stamp: 
    secs: 1561681744
    nsecs: 494848686
  frame_id: "ti_mmwave"
point_id: 4
x: 0.3046875
y: -0.080078125
z: -1.228515625
range: 1.35088610649
velocity: 0.0
doppler_bin: 8
bearing: -14.7254829407
intensity: 21.8469142914
---
header: 
  seq: 290599
  stamp: 
    secs: 1561681744
    nsecs: 494856841
  frame_id: "ti_mmwave"
point_id: 5
x: 0.34375
y: -0.041015625
z: 1.26171875
range: 1.39446306229
velocity: 0.0
doppler_bin: 8
bearing: -6.80425977707
intensity: 23.2221927643
---
header: 
  seq: 290600
  stamp: 
    secs: 1561681744
    nsecs: 494865554
  frame_id: "ti_mmwave"
point_id: 6
x: 0.42578125
y: -0.0
z: 1.28125
range: 1.43804001808
velocity: 0.0
doppler_bin: 8
bearing: -0.0
intensity: 21.875207901
---
header: 
  seq: 290601
  stamp: 
    secs: 1561681744
    nsecs: 494873633
  frame_id: "ti_mmwave"
point_id: 7
x: 2.017578125
y: 0.3203125
z: -0.1171875
range: 2.17884850502
velocity: 0.0
doppler_bin: 8
bearing: 9.02103996277
intensity: 28.9927310944
---
header: 
  seq: 290602
  stamp: 
    secs: 1561681744
    nsecs: 494881700
  frame_id: "ti_mmwave"
point_id: 8
x: 2.056640625
y: 0.326171875
z: -0.12109375
range: 2.22242546082
velocity: 0.0
doppler_bin: 8
bearing: 9.01173973083
intensity: 31.095785141
---
header: 
  seq: 290603
  stamp: 
    secs: 1561681744
    nsecs: 494890170
  frame_id: "ti_mmwave"
point_id: 9
x: 2.095703125
y: 0.33203125
z: -0.15625
range: 2.26600241661
velocity: 0.0
doppler_bin: 8
bearing: 9.00278663635
intensity: 30.0475120544
---
header: 
  seq: 290604
  stamp: 
    secs: 1561681744
    nsecs: 494900269
  frame_id: "ti_mmwave"
point_id: 10
x: 2.09765625
y: 0.474609375
z: -0.275390625
range: 2.30957937241
velocity: 0.0
doppler_bin: 8
bearing: 12.7489147186
intensity: 26.3346843719
---
header: 
  seq: 290605
  stamp: 
    secs: 1561681744
    nsecs: 494908749
  frame_id: "ti_mmwave"
point_id: 11
x: 2.5546875
y: -0.263671875
z: 1.171875
range: 3.00681090355
velocity: 0.0
doppler_bin: 8
bearing: -5.89269018173
intensity: 29.4349460602
---
header: 
  seq: 290606
  stamp: 
    secs: 1561681744
    nsecs: 494917455
  frame_id: "ti_mmwave"
point_id: 12
x: 2.609375
y: -0.267578125
z: 1.150390625
range: 3.05038785934
velocity: 0.0
doppler_bin: 8
bearing: -5.85492515564
intensity: 32.7623214722
---
header: 
  seq: 290607
  stamp: 
    secs: 1561681744
    nsecs: 494925310
  frame_id: "ti_mmwave"
point_id: 13
x: 2.662109375
y: -0.181640625
z: 1.1484375
range: 3.09396481514
velocity: 0.0
doppler_bin: 8
bearing: -3.90334677696
intensity: 32.0057678223
---
header: 
  seq: 290608
  stamp: 
    secs: 1561681744
    nsecs: 494934977
  frame_id: "ti_mmwave"
point_id: 14
x: 4.4140625
y: -0.287109375
z: 1.19140625
range: 4.88062095642
velocity: 0.0
doppler_bin: 8
bearing: -3.72151875496
intensity: 30.7151374817
---
header: 
  seq: 290609
  stamp: 
    secs: 1561681744
    nsecs: 494943242
  frame_id: "ti_mmwave"
point_id: 15
x: 4.462890625
y: -0.43359375
z: 1.119140625
range: 4.9241976738
velocity: 0.0
doppler_bin: 8
bearing: -5.54917621613
intensity: 30.5153846741
---
header: 
  seq: 290610
  stamp: 
    secs: 1561681744
    nsecs: 494951367
  frame_id: "ti_mmwave"
point_id: 16
x: 4.681640625
y: -0.4453125
z: -0.640625
range: 5.0549287796
velocity: 0.0
doppler_bin: 8
bearing: -5.43356370926
intensity: 29.4001808167
---
header: 
  seq: 290611
  stamp: 
    secs: 1561681744
    nsecs: 494960035
  frame_id: "ti_mmwave"
point_id: 17
x: 4.71875
y: -0.59765625
z: -0.537109375
range: 5.09850549698
velocity: 0.0
doppler_bin: 8
bearing: -7.21839857101
intensity: 33.0535125732
---
header: 
  seq: 290612
  stamp: 
    secs: 1561681744
    nsecs: 494980470
  frame_id: "ti_mmwave"
point_id: 18
x: 4.787109375
y: -0.453125
z: -0.427734375
range: 5.14208269119
velocity: 0.0
doppler_bin: 8
bearing: -5.40723514557
intensity: 33.651134491
---
header: 
  seq: 290613
  stamp: 
    secs: 1561681744
    nsecs: 494996721
  frame_id: "ti_mmwave"
point_id: 19
x: 4.84375
y: -0.45703125
z: -0.1875
range: 5.18565940857
velocity: 0.0
doppler_bin: 8
bearing: -5.3901758194
intensity: 30.4099769592
---
header: 
  seq: 290614
  stamp: 
    secs: 1561681744
    nsecs: 495007732
  frame_id: "ti_mmwave"
point_id: 20
x: 4.818359375
y: -0.4609375
z: 0.822265625
range: 5.22923660278
velocity: 0.0
doppler_bin: 8
bearing: -5.46444320679
intensity: 29.5424251556
---
header: 
  seq: 290615
  stamp: 
    secs: 1561681744
    nsecs: 495192120
  frame_id: "ti_mmwave"
point_id: 21
x: 4.857421875
y: -0.46484375
z: 0.826171875
range: 5.27281332016
velocity: 0.0
doppler_bin: 8
bearing: -5.46642303467
intensity: 30.7298469543
---
header: 
  seq: 290616
  stamp: 
    secs: 1561681744
    nsecs: 495218678
  frame_id: "ti_mmwave"
point_id: 23
x: 0.041015625
y: -0.033203125
z: 0.0625
range: 0.0871539413929
velocity: 0.0
doppler_bin: 8
bearing: -38.9909973145
intensity: 30.1283721924
---
header: 
  seq: 290617
  stamp: 
    secs: 1561681744
    nsecs: 495227655
  frame_id: "ti_mmwave"
point_id: 24
x: 0.052734375
y: -0.04296875
z: 0.103515625
range: 0.130730912089
velocity: 0.0
doppler_bin: 8
bearing: -39.1736602783
intensity: 29.0091304779
---
header: 
  seq: 290618
  stamp: 
    secs: 1561681744
    nsecs: 495238149
  frame_id: "ti_mmwave"
point_id: 26
x: 1.119140625
y: -0.515625
z: 0.296875
range: 1.35088610649
velocity: 0.0
doppler_bin: 8
bearing: -24.7370834351
intensity: 18.9209461212
---
header: 
  seq: 290619
  stamp: 
    secs: 1561681744
    nsecs: 495245841
  frame_id: "ti_mmwave"
point_id: 27
x: 2.7265625
y: -2.00390625
z: -3.08984375
range: 4.88062095642
velocity: 0.0
doppler_bin: 8
bearing: -36.314289093
intensity: 27.8247261047
---
header: 
  seq: 290620
  stamp: 
    secs: 1561681744
    nsecs: 495254015
  frame_id: "ti_mmwave"
point_id: 28
x: 2.6328125
y: -2.021484375
z: -3.216796875
range: 4.9241976738
velocity: 0.0
doppler_bin: 8
bearing: -37.5172042847
intensity: 27.5815467834
---
header: 
  seq: 290621
  stamp: 
    secs: 1561681744
    nsecs: 496531650
  frame_id: "ti_mmwave"
point_id: 0
x: 0.01171875
y: -0.0390625
z: -0.0078125
range: 0.0435769706964
velocity: 0.0
doppler_bin: 8
bearing: -73.3007583618
intensity: 30.7700424194
---
header: 
  seq: 290622
  stamp: 
    secs: 1561681744
    nsecs: 496590263
  frame_id: "ti_mmwave"
point_id: 1
x: 0.017578125
y: -0.080078125
z: -0.0078125
range: 0.0871539413929
velocity: 0.0
doppler_bin: 8
bearing: -77.6192398071
intensity: 31.9975509644
---
header: 
  seq: 290623
  stamp: 
    secs: 1561681744
    nsecs: 496602118
  frame_id: "ti_mmwave"
point_id: 2
x: 0.041015625
y: -0.115234375
z: -0.0078125
range: 0.130730912089
velocity: 0.0
doppler_bin: 8
bearing: -70.4077224731
intensity: 30.2734966278
---
header: 
  seq: 290624
  stamp: 
    secs: 1561681744
    nsecs: 496612045
  frame_id: "ti_mmwave"
point_id: 3
x: 0.056640625
y: -0.154296875
z: 0.005859375
range: 0.174307882786
velocity: 0.0
doppler_bin: 8
bearing: -69.8423843384
intensity: 25.5388298035
---
header: 
  seq: 290625
  stamp: 
    secs: 1561681744
    nsecs: 496620681
  frame_id: "ti_mmwave"
point_id: 4
x: 0.294921875
y: -0.080078125
z: -1.23046875
range: 1.35088610649
velocity: 0.0
doppler_bin: 8
bearing: -15.1908855438
intensity: 21.875207901
---
header: 
  seq: 290626
  stamp: 
    secs: 1561681744
    nsecs: 496629144
  frame_id: "ti_mmwave"
point_id: 5
x: 0.353515625
y: -0.041015625
z: 1.259765625
range: 1.39446306229
velocity: 0.0
doppler_bin: 8
bearing: -6.61798763275
intensity: 23.2633590698
---
header: 
  seq: 290627
  stamp: 
    secs: 1561681744
    nsecs: 496637633
  frame_id: "ti_mmwave"
point_id: 6
x: 0.470703125
y: -0.0
z: 1.265625
range: 1.43804001808
velocity: 0.0
doppler_bin: 8
bearing: -0.0
intensity: 21.9033164978
---
header: 
  seq: 290628
  stamp: 
    secs: 1561681744
    nsecs: 496645178
  frame_id: "ti_mmwave"
point_id: 7
x: 2.060546875
y: 0.326171875
z: -0.048828125
range: 2.22242546082
velocity: 0.0
doppler_bin: 8
bearing: 8.99493694305
intensity: 27.3559894562
---
header: 
  seq: 290629
  stamp: 
    secs: 1561681744
    nsecs: 496817758
  frame_id: "ti_mmwave"
point_id: 8
x: 2.09765625
y: 0.33203125
z: 0.10546875
range: 2.26600241661
velocity: 0.0
doppler_bin: 8
bearing: 8.99454116821
intensity: 27.6492290497
---
header: 
  seq: 290630
  stamp: 
    secs: 1561681744
    nsecs: 496841401
  frame_id: "ti_mmwave"
point_id: 9
x: 2.548828125
y: -0.263671875
z: 1.181640625
range: 3.00681090355
velocity: 0.0
doppler_bin: 8
bearing: -5.90614128113
intensity: 29.4299964905
---
header: 
  seq: 290631
  stamp: 
    secs: 1561681744
    nsecs: 496896204
  frame_id: "ti_mmwave"
point_id: 10
x: 2.607421875
y: -0.267578125
z: 1.154296875
range: 3.05038785934
velocity: 0.0
doppler_bin: 8
bearing: -5.85928010941
intensity: 32.7508087158
---
header: 
  seq: 290632
  stamp: 
    secs: 1561681744
    nsecs: 496915637
  frame_id: "ti_mmwave"
point_id: 11
x: 2.6640625
y: -0.181640625
z: 1.140625
range: 3.09396481514
velocity: 0.0
doppler_bin: 8
bearing: -3.90049386024
intensity: 31.9645252228
---
header: 
  seq: 290633
  stamp: 
    secs: 1561681744
    nsecs: 496928401
  frame_id: "ti_mmwave"
point_id: 12
x: 4.412109375
y: -0.287109375
z: 1.201171875
range: 4.88062095642
velocity: 0.0
doppler_bin: 8
bearing: -3.72316122055
intensity: 30.7188205719
---
header: 
  seq: 290634
  stamp: 
    secs: 1561681744
    nsecs: 496944949
  frame_id: "ti_mmwave"
point_id: 13
x: 4.45703125
y: -0.2890625
z: 1.193359375
range: 4.9241976738
velocity: 0.0
doppler_bin: 8
bearing: -3.71074318886
intensity: 30.4178733826
---
header: 
  seq: 290635
  stamp: 
    secs: 1561681744
    nsecs: 497008579
  frame_id: "ti_mmwave"
point_id: 14
x: 4.71875
y: -0.59765625
z: -0.533203125
range: 5.09850549698
velocity: 0.0
doppler_bin: 8
bearing: -7.21839857101
intensity: 33.0211448669
---
header: 
  seq: 290636
  stamp: 
    secs: 1561681744
    nsecs: 497026874
  frame_id: "ti_mmwave"
point_id: 15
x: 4.78515625
y: -0.453125
z: -0.435546875
range: 5.14208269119
velocity: 0.0
doppler_bin: 8
bearing: -5.40942907333
intensity: 33.6586227417
---
header: 
  seq: 290637
  stamp: 
    secs: 1561681744
    nsecs: 497058951
  frame_id: "ti_mmwave"
point_id: 16
x: 4.841796875
y: -0.45703125
z: -0.2109375
range: 5.18565940857
velocity: 0.0
doppler_bin: 8
bearing: -5.39233732224
intensity: 30.4766426086
---
header: 
  seq: 290638
  stamp: 
    secs: 1561681744
    nsecs: 497080810
  frame_id: "ti_mmwave"
point_id: 17
x: 4.80859375
y: -0.4609375
z: 0.87109375
range: 5.22923660278
velocity: 0.0
doppler_bin: 8
bearing: -5.47547340393
intensity: 29.5951843262
---
header: 
  seq: 290639
  stamp: 
    secs: 1561681744
    nsecs: 497097458
  frame_id: "ti_mmwave"
point_id: 18
x: 4.83984375
y: -0.46484375
z: 0.92578125
range: 5.27281332016
velocity: 0.0
doppler_bin: 8
bearing: -5.48615646362
intensity: 30.7954292297
---
header: 
  seq: 290640
  stamp: 
    secs: 1561681744
    nsecs: 497262459
  frame_id: "ti_mmwave"
point_id: 20
x: 0.041015625
y: -0.033203125
z: 0.0625
range: 0.0871539413929
velocity: 0.0
doppler_bin: 8
bearing: -38.9909973145
intensity: 30.1283721924
---
header: 
  seq: 290641
  stamp: 
    secs: 1561681744
    nsecs: 497286291
  frame_id: "ti_mmwave"
point_id: 21
x: 0.052734375
y: -0.04296875
z: 0.103515625
range: 0.130730912089
velocity: 0.0
doppler_bin: 8
bearing: -39.1736602783
intensity: 29.0091304779
---
header: 
  seq: 290642
  stamp: 
    secs: 1561681744
    nsecs: 497300383
  frame_id: "ti_mmwave"
point_id: 23
x: 1.1171875
y: -0.515625
z: 0.30859375
range: 1.35088610649
velocity: 0.0
doppler_bin: 8
bearing: -24.7751407623
intensity: 18.9762706757
---
header: 
  seq: 290643
  stamp: 
    secs: 1561681744
    nsecs: 497326954
  frame_id: "ti_mmwave"
point_id: 24
x: 2.77734375
y: -2.00390625
z: -3.04296875
range: 4.88062095642
velocity: 0.0
doppler_bin: 8
bearing: -35.811164856
intensity: 27.7670116425
---
header: 
  seq: 290644
  stamp: 
    secs: 1561681744
    nsecs: 497353049
  frame_id: "ti_mmwave"
point_id: 25
x: 2.783203125
y: -2.021484375
z: -3.0859375
range: 4.9241976738
velocity: 0.0
doppler_bin: 8
bearing: -35.9914970398
intensity: 27.4350967407
---
header: 
  seq: 290645
  stamp: 
    secs: 1561681744
    nsecs: 554897114
  frame_id: "ti_mmwave"
point_id: 0
x: 0.01171875
y: -0.0390625
z: -0.0078125
range: 0.0435769706964
velocity: 0.0
doppler_bin: 8
bearing: -73.3007583618
intensity: 30.7700424194
---
header: 
  seq: 290646
  stamp: 
    secs: 1561681744
    nsecs: 554970222
  frame_id: "ti_mmwave"
point_id: 1
x: 0.017578125
y: -0.080078125
z: -0.0078125
range: 0.0871539413929
velocity: 0.0
doppler_bin: 8
bearing: -77.6192398071
intensity: 31.994808197
---
header: 
  seq: 290647
  stamp: 
    secs: 1561681744
    nsecs: 554981119
  frame_id: "ti_mmwave"
point_id: 2
x: 0.041015625
y: -0.115234375
z: -0.0078125
range: 0.130730912089
velocity: 0.0
doppler_bin: 8
bearing: -70.4077224731
intensity: 30.2653331757
---
header: 
  seq: 290648
  stamp: 
    secs: 1561681744
    nsecs: 554991863
  frame_id: "ti_mmwave"
point_id: 3
x: 0.056640625
y: -0.154296875
z: 0.005859375
range: 0.174307882786
velocity: 0.0
doppler_bin: 8
bearing: -69.8423843384
intensity: 25.5144996643
---
header: 
  seq: 290649
  stamp: 
    secs: 1561681744
    nsecs: 555001964
  frame_id: "ti_mmwave"
point_id: 4
x: 0.294921875
y: -0.080078125
z: -1.23046875
range: 1.35088610649
velocity: 0.0
doppler_bin: 8
bearing: -15.1908855438
intensity: 21.8469142914
---
header: 
  seq: 290650
  stamp: 
    secs: 1561681744
    nsecs: 555010865
  frame_id: "ti_mmwave"
point_id: 5
x: 0.361328125
y: -0.041015625
z: 1.2578125
range: 1.39446306229
velocity: 0.0
doppler_bin: 8
bearing: -6.47612476349
intensity: 23.2221927643
---
header: 
  seq: 290651
  stamp: 
    secs: 1561681744
    nsecs: 555019018
  frame_id: "ti_mmwave"
point_id: 6
x: 0.46484375
y: -0.0
z: 1.267578125
range: 1.43804001808
velocity: 0.0
doppler_bin: 8
bearing: -0.0
intensity: 21.875207901
---
header: 
  seq: 290652
  stamp: 
    secs: 1561681744
    nsecs: 555026645
  frame_id: "ti_mmwave"
point_id: 7
x: 2.068359375
y: 0.26171875
z: -0.076171875
range: 2.22242546082
velocity: 0.0
doppler_bin: 8
bearing: 7.21156549454
intensity: 28.9209461212
---
header: 
  seq: 290653
  stamp: 
    secs: 1561681744
    nsecs: 555034101
  frame_id: "ti_mmwave"
point_id: 8
x: 2.107421875
y: 0.265625
z: -0.1171875
range: 2.26600241661
velocity: 0.0
doppler_bin: 8
bearing: 7.18382835388
intensity: 29.7220287323
---
header: 
  seq: 290654
  stamp: 
    secs: 1561681744
    nsecs: 555041976
  frame_id: "ti_mmwave"
point_id: 9
x: 2.1328125
y: 0.337890625
z: -0.19921875
range: 2.30957937241
velocity: 0.0
doppler_bin: 8
bearing: 9.00226211548
intensity: 28.4880466461
---
header: 
  seq: 290655
  stamp: 
    secs: 1561681744
    nsecs: 555050229
  frame_id: "ti_mmwave"
point_id: 10
x: 2.552734375
y: -0.263671875
z: 1.173828125
range: 3.00681090355
velocity: 0.0
doppler_bin: 8
bearing: -5.89716720581
intensity: 29.4596061707
---
header: 
  seq: 290656
  stamp: 
    secs: 1561681744
    nsecs: 555060748
  frame_id: "ti_mmwave"
point_id: 11
x: 2.607421875
y: -0.267578125
z: 1.15234375
range: 3.05038785934
velocity: 0.0
doppler_bin: 8
bearing: -5.85928010941
intensity: 32.7806739807
---
header: 
  seq: 290657
  stamp: 
    secs: 1561681744
    nsecs: 555069441
  frame_id: "ti_mmwave"
point_id: 12
x: 2.662109375
y: -0.181640625
z: 1.14453125
range: 3.09396481514
velocity: 0.0
doppler_bin: 8
bearing: -3.90334677696
intensity: 32.0139694214
---
header: 
  seq: 290658
  stamp: 
    secs: 1561681744
    nsecs: 555077613
  frame_id: "ti_mmwave"
point_id: 13
x: 4.416015625
y: -0.287109375
z: 1.1875
range: 4.88062095642
velocity: 0.0
doppler_bin: 8
bearing: -3.71987724304
intensity: 30.6855697632
---
header: 
  seq: 290659
  stamp: 
    secs: 1561681744
    nsecs: 555085405
  frame_id: "ti_mmwave"
point_id: 14
x: 4.4453125
y: -0.43359375
z: 1.1875
range: 4.9241976738
velocity: 0.0
doppler_bin: 8
bearing: -5.57098150253
intensity: 30.3941402435
---
header: 
  seq: 290660
  stamp: 
    secs: 1561681744
    nsecs: 555093279
  frame_id: "ti_mmwave"
point_id: 15
x: 4.705078125
y: -0.296875
z: -0.53515625
range: 5.0549287796
velocity: 0.0
doppler_bin: 8
bearing: -3.61038923264
intensity: 29.3951931
---
header: 
  seq: 290661
  stamp: 
    secs: 1561681744
    nsecs: 555255135
  frame_id: "ti_mmwave"
point_id: 16
x: 4.75
y: -0.298828125
z: -0.50390625
range: 5.09850549698
velocity: 0.0
doppler_bin: 8
bearing: -3.59980130196
intensity: 33.0813751221
---
header: 
  seq: 290662
  stamp: 
    secs: 1561681744
    nsecs: 555273680
  frame_id: "ti_mmwave"
point_id: 17
x: 4.78515625
y: -0.453125
z: -0.435546875
range: 5.14208269119
velocity: 0.0
doppler_bin: 8
bearing: -5.40942907333
intensity: 33.7602920532
---
header: 
  seq: 290663
  stamp: 
    secs: 1561681744
    nsecs: 555283388
  frame_id: "ti_mmwave"
point_id: 18
x: 4.83984375
y: -0.45703125
z: -0.248046875
range: 5.18565940857
velocity: 0.0
doppler_bin: 8
bearing: -5.39450025558
intensity: 30.6032009125
---
header: 
  seq: 290664
  stamp: 
    secs: 1561681744
    nsecs: 555292142
  frame_id: "ti_mmwave"
point_id: 19
x: 4.81640625
y: -0.4609375
z: 0.830078125
range: 5.22923660278
velocity: 0.0
doppler_bin: 8
bearing: -5.46664571762
intensity: 29.527923584
---
header: 
  seq: 290665
  stamp: 
    secs: 1561681744
    nsecs: 555300026
  frame_id: "ti_mmwave"
point_id: 20
x: 4.85546875
y: -0.46484375
z: 0.84765625
range: 5.27281332016
velocity: 0.0
doppler_bin: 8
bearing: -5.46860933304
intensity: 30.7077655792
---
header: 
  seq: 290666
  stamp: 
    secs: 1561681744
    nsecs: 555310184
  frame_id: "ti_mmwave"
point_id: 22
x: 0.041015625
y: -0.033203125
z: 0.0625
range: 0.0871539413929
velocity: 0.0
doppler_bin: 8
bearing: -38.9909973145
intensity: 30.1283721924
---
header: 
  seq: 290667
  stamp: 
    secs: 1561681744
    nsecs: 555319821
  frame_id: "ti_mmwave"
point_id: 23
x: 0.052734375
y: -0.04296875
z: 0.103515625
range: 0.130730912089
velocity: 0.0
doppler_bin: 8
bearing: -39.1736602783
intensity: 29.0091304779
---
header: 
  seq: 290668
  stamp: 
    secs: 1561681744
    nsecs: 555330072
  frame_id: "ti_mmwave"
point_id: 25
x: 1.119140625
y: -0.515625
z: 0.30078125
range: 1.35088610649
velocity: 0.0
doppler_bin: 8
bearing: -24.7370834351
intensity: 19.0308990479
---
header: 
  seq: 290669
  stamp: 
    secs: 1561681744
    nsecs: 555339555
  frame_id: "ti_mmwave"
point_id: 26
x: 2.716796875
y: -2.00390625
z: -3.09765625
range: 4.88062095642
velocity: 0.0
doppler_bin: 8
bearing: -36.4124412537
intensity: 27.9379043579
---
header: 
  seq: 290670
  stamp: 
    secs: 1561681744
    nsecs: 555347184
  frame_id: "ti_mmwave"
point_id: 27
x: 2.615234375
y: -2.021484375
z: -3.23046875
range: 4.9241976738
velocity: 0.0
doppler_bin: 8
bearing: -37.7027626038
intensity: 27.6566848755
---
header: 
  seq: 290671
  stamp: 
    secs: 1561681744
    nsecs: 555355104
  frame_id: "ti_mmwave"
point_id: 28
x: 4.71875
y: -0.59765625
z: -0.53125
range: 5.09850549698
velocity: 0.0
doppler_bin: 8
bearing: -7.21839857101
intensity: 33.0749588013
---
header: 
  seq: 290672
  stamp: 
    secs: 1561681744
    nsecs: 556505905
  frame_id: "ti_mmwave"
point_id: 0
x: 0.01171875
y: -0.0390625
z: -0.0078125
range: 0.0435769706964
velocity: 0.0
doppler_bin: 8
bearing: -73.3007583618
intensity: 30.7845687866
---
header: 
  seq: 290673
  stamp: 
    secs: 1561681744
    nsecs: 556552619
  frame_id: "ti_mmwave"
point_id: 1
x: 0.017578125
y: -0.080078125
z: -0.0078125
range: 0.0871539413929
velocity: 0.0
doppler_bin: 8
bearing: -77.6192398071
intensity: 32.0002937317
---
header: 
  seq: 290674
  stamp: 
    secs: 1561681744
    nsecs: 556563411
  frame_id: "ti_mmwave"
point_id: 2
x: 0.041015625
y: -0.115234375
z: -0.0078125
range: 0.130730912089
velocity: 0.0
doppler_bin: 8
bearing: -70.4077224731
intensity: 30.2734966278
---
header: 
  seq: 290675
  stamp: 
    secs: 1561681744
    nsecs: 556573447
  frame_id: "ti_mmwave"
point_id: 3
x: 0.056640625
y: -0.154296875
z: 0.005859375
range: 0.174307882786
velocity: 0.0
doppler_bin: 8
bearing: -69.8423843384
intensity: 25.5144996643
---
header: 
  seq: 290676
  stamp: 
    secs: 1561681744
    nsecs: 556582269
  frame_id: "ti_mmwave"
point_id: 4
x: 0.2890625
y: -0.080078125
z: -1.232421875
range: 1.35088610649
velocity: 0.0
doppler_bin: 8
bearing: -15.48416996
intensity: 21.875207901
---
header: 
  seq: 290677
  stamp: 
    secs: 1561681744
    nsecs: 556590713
  frame_id: "ti_mmwave"
point_id: 5
x: 0.36328125
y: -0.041015625
z: 1.2578125
range: 1.39446306229
velocity: 0.0
doppler_bin: 8
bearing: -6.44159984589
intensity: 23.2837963104
---
header: 
  seq: 290678
  stamp: 
    secs: 1561681744
    nsecs: 556598084
  frame_id: "ti_mmwave"
point_id: 6
x: 0.462890625
y: -0.0
z: 1.267578125
range: 1.43804001808
velocity: 0.0
doppler_bin: 8
bearing: -0.0
intensity: 21.9312458038
---
header: 
  seq: 290679
  stamp: 
    secs: 1561681744
    nsecs: 556605722
  frame_id: "ti_mmwave"
point_id: 7
x: 2.560546875
y: -0.263671875
z: 1.15625
range: 3.00681090355
velocity: 0.0
doppler_bin: 8
bearing: -5.87930107117
intensity: 29.4349460602
---
header: 
  seq: 290680
  stamp: 
    secs: 1561681744
    nsecs: 556614025
  frame_id: "ti_mmwave"
point_id: 8
x: 2.611328125
y: -0.267578125
z: 1.146484375
range: 3.05038785934
velocity: 0.0
doppler_bin: 8
bearing: -5.85057687759
intensity: 32.753112793
---
header: 
  seq: 290681
  stamp: 
    secs: 1561681744
    nsecs: 556621822
  frame_id: "ti_mmwave"
point_id: 9
x: 2.662109375
y: -0.181640625
z: 1.1484375
range: 3.09396481514
velocity: 0.0
doppler_bin: 8
bearing: -3.90334677696
intensity: 31.9645252228
---
header: 
  seq: 290682
  stamp: 
    secs: 1561681744
    nsecs: 556630407
  frame_id: "ti_mmwave"
point_id: 10
x: 4.412109375
y: -0.287109375
z: 1.203125
range: 4.88062095642
velocity: 0.0
doppler_bin: 8
bearing: -3.72316122055
intensity: 30.6595306396
---
header: 
  seq: 290683
  stamp: 
    secs: 1561681744
    nsecs: 556638389
  frame_id: "ti_mmwave"
point_id: 11
x: 4.4296875
y: -0.43359375
z: 1.25
range: 4.9241976738
velocity: 0.0
doppler_bin: 8
bearing: -5.59050750732
intensity: 30.1870040894
---
header: 
  seq: 290684
  stamp: 
    secs: 1561681744
    nsecs: 556647089
  frame_id: "ti_mmwave"
point_id: 12
x: 4.736328125
y: -0.44921875
z: -0.525390625
range: 5.09850549698
velocity: 0.0
doppler_bin: 8
bearing: -5.41803121567
intensity: 32.9885292053
---
header: 
  seq: 290685
  stamp: 
    secs: 1561681744
    nsecs: 556655389
  frame_id: "ti_mmwave"
point_id: 13
x: 4.78515625
y: -0.453125
z: -0.443359375
range: 5.14208269119
velocity: 0.0
doppler_bin: 8
bearing: -5.40942907333
intensity: 33.6436347961
---
header: 
  seq: 290686
  stamp: 
    secs: 1561681744
    nsecs: 556664639
  frame_id: "ti_mmwave"
point_id: 14
x: 4.83984375
y: -0.45703125
z: -0.236328125
range: 5.18565940857
velocity: 0.0
doppler_bin: 8
bearing: -5.39450025558
intensity: 30.678144455
---
header: 
  seq: 290687
  stamp: 
    secs: 1561681744
    nsecs: 556676803
  frame_id: "ti_mmwave"
point_id: 15
x: 4.849609375
y: -0.4609375
z: 0.59765625
range: 5.22923660278
velocity: 0.0
doppler_bin: 8
bearing: -5.42944192886
intensity: 30.1535968781
---
header: 
  seq: 290688
  stamp: 
    secs: 1561681744
    nsecs: 556688240
  frame_id: "ti_mmwave"
point_id: 16
x: 4.865234375
y: -0.46484375
z: 0.783203125
range: 5.27281332016
velocity: 0.0
doppler_bin: 8
bearing: -5.45769834518
intensity: 30.8062648773
---
header: 
  seq: 290689
  stamp: 
    secs: 1561681744
    nsecs: 556704335
  frame_id: "ti_mmwave"
point_id: 18
x: 0.041015625
y: -0.033203125
z: 0.0625
range: 0.0871539413929
velocity: 0.0
doppler_bin: 8
bearing: -38.9909973145
intensity: 30.1283721924
---
header: 
  seq: 290690
  stamp: 
    secs: 1561681744
    nsecs: 556821457
  frame_id: "ti_mmwave"
point_id: 19
x: 0.052734375
y: -0.04296875
z: 0.103515625
range: 0.130730912089
velocity: 0.0
doppler_bin: 8
bearing: -39.1736602783
intensity: 29.0036716461
---
header: 
  seq: 290691
  stamp: 
    secs: 1561681744
    nsecs: 556837900
  frame_id: "ti_mmwave"
point_id: 21
x: 2.7421875
y: -2.00390625
z: -3.076171875
range: 4.88062095642
velocity: 0.0
doppler_bin: 8
bearing: -36.1581840515
intensity: 27.774269104
---
header: 
  seq: 290692
  stamp: 
    secs: 1561681744
    nsecs: 556847264
  frame_id: "ti_mmwave"
point_id: 22
x: 2.697265625
y: -2.021484375
z: -3.1640625
range: 4.9241976738
velocity: 0.0
doppler_bin: 8
bearing: -36.8499755859
intensity: 27.3878059387
---
header: 
  seq: 290693
  stamp: 
    secs: 1561681744
    nsecs: 614647166
  frame_id: "ti_mmwave"
point_id: 0
x: 0.01171875
y: -0.0390625
z: -0.0078125
range: 0.0435769706964
velocity: 0.0
doppler_bin: 8
bearing: -73.3007583618
intensity: 30.7736797333
---
header: 
  seq: 290694
  stamp: 
    secs: 1561681744
    nsecs: 614720380
  frame_id: "ti_mmwave"
point_id: 1
x: 0.017578125
y: -0.080078125
z: -0.0078125
range: 0.0871539413929
velocity: 0.0
doppler_bin: 8
bearing: -77.6192398071
intensity: 31.9975509644
---
header: 
  seq: 290695
  stamp: 
    secs: 1561681744
    nsecs: 614733193
  frame_id: "ti_mmwave"
point_id: 2
x: 0.029296875
y: -0.119140625
z: -0.005859375
range: 0.130730912089
velocity: 0.0
doppler_bin: 8
bearing: -76.1849746704
intensity: 30.2694168091
---
header: 
  seq: 290696
  stamp: 
    secs: 1561681744
    nsecs: 614743394
  frame_id: "ti_mmwave"
point_id: 3
x: 0.056640625
y: -0.154296875
z: 0.00390625
range: 0.174307882786
velocity: 0.0
doppler_bin: 8
bearing: -69.8423843384
intensity: 25.5022830963
---
header: 
  seq: 290697
  stamp: 
    secs: 1561681744
    nsecs: 614751208
  frame_id: "ti_mmwave"
point_id: 4
x: 0.333984375
y: -0.080078125
z: -1.220703125
range: 1.35088610649
velocity: 0.0
doppler_bin: 8
bearing: -13.4830598831
intensity: 21.8469142914
---
header: 
  seq: 290698
  stamp: 
    secs: 1561681744
    nsecs: 614758875
  frame_id: "ti_mmwave"
point_id: 5
x: 0.310546875
y: -0.041015625
z: 1.271484375
range: 1.39446306229
velocity: 0.0
doppler_bin: 8
bearing: -7.52382040024
intensity: 23.2428245544
---
header: 
  seq: 290699
  stamp: 
    secs: 1561681744
    nsecs: 614766346
  frame_id: "ti_mmwave"
point_id: 6
x: 0.396484375
y: -0.0
z: 1.291015625
range: 1.43804001808
velocity: 0.0
doppler_bin: 8
bearing: -0.0
intensity: 21.9312458038
---
header: 
  seq: 290700
  stamp: 
    secs: 1561681744
    nsecs: 614774082
  frame_id: "ti_mmwave"
point_id: 7
x: 2.01953125
y: 0.3203125
z: -0.076171875
range: 2.17884850502
velocity: 0.0
doppler_bin: 8
bearing: 9.01245880127
intensity: 27.9098854065
---
header: 
  seq: 290701
  stamp: 
    secs: 1561681744
    nsecs: 614781673
  frame_id: "ti_mmwave"
point_id: 8
x: 2.05859375
y: 0.326171875
z: -0.087890625
range: 2.22242546082
velocity: 0.0
doppler_bin: 8
bearing: 9.00333023071
intensity: 28.2607479095
---
header: 
  seq: 290702
  stamp: 
    secs: 1561681744
    nsecs: 614790352
  frame_id: "ti_mmwave"
point_id: 9
x: 2.556640625
y: -0.263671875
z: 1.1640625
range: 3.00681090355
velocity: 0.0
doppler_bin: 8
bearing: -5.88822031021
intensity: 29.4694328308
---
header: 
  seq: 290703
  stamp: 
    secs: 1561681744
    nsecs: 614804136
  frame_id: "ti_mmwave"
point_id: 10
x: 2.61328125
y: -0.267578125
z: 1.138671875
range: 3.05038785934
velocity: 0.0
doppler_bin: 8
bearing: -5.84623432159
intensity: 32.8012275696
---
header: 
  seq: 290704
  stamp: 
    secs: 1561681744
    nsecs: 614815750
  frame_id: "ti_mmwave"
point_id: 11
x: 2.673828125
y: -0.181640625
z: 1.12109375
range: 3.09396481514
velocity: 0.0
doppler_bin: 8
bearing: -3.88629174232
intensity: 32.0736503601
---
header: 
  seq: 290705
  stamp: 
    secs: 1561681744
    nsecs: 614823852
  frame_id: "ti_mmwave"
point_id: 12
x: 4.404296875
y: -0.287109375
z: 1.2265625
range: 4.88062095642
velocity: 0.0
doppler_bin: 8
bearing: -3.72974681854
intensity: 30.696680069
---
header: 
  seq: 290706
  stamp: 
    secs: 1561681744
    nsecs: 614831806
  frame_id: "ti_mmwave"
point_id: 13
x: 4.41015625
y: -0.43359375
z: 1.3125
range: 4.9241976738
velocity: 0.0
doppler_bin: 8
bearing: -5.61510896683
intensity: 30.3742656708
---
header: 
  seq: 290707
  stamp: 
    secs: 1561681744
    nsecs: 614840428
  frame_id: "ti_mmwave"
point_id: 14
x: 4.703125
y: -0.296875
z: -0.548828125
range: 5.0549287796
velocity: 0.0
doppler_bin: 8
bearing: -3.61188483238
intensity: 29.380191803
---
header: 
  seq: 290708
  stamp: 
    secs: 1561681744
    nsecs: 614848661
  frame_id: "ti_mmwave"
point_id: 15
x: 4.736328125
y: -0.44921875
z: -0.521484375
range: 5.09850549698
velocity: 0.0
doppler_bin: 8
bearing: -5.41803121567
intensity: 33.1680870056
---
header: 
  seq: 290709
  stamp: 
    secs: 1561681744
    nsecs: 614856550
  frame_id: "ti_mmwave"
point_id: 16
x: 4.783203125
y: -0.453125
z: -0.466796875
range: 5.14208269119
velocity: 0.0
doppler_bin: 8
bearing: -5.41162490845
intensity: 33.8219718933
---
header: 
  seq: 290710
  stamp: 
    secs: 1561681744
    nsecs: 614865591
  frame_id: "ti_mmwave"
point_id: 17
x: 4.837890625
y: -0.45703125
z: -0.30078125
range: 5.18565940857
velocity: 0.0
doppler_bin: 8
bearing: -5.39666557312
intensity: 30.8026561737
---
header: 
  seq: 290711
  stamp: 
    secs: 1561681744
    nsecs: 614873936
  frame_id: "ti_mmwave"
point_id: 18
x: 4.841796875
y: -0.4609375
z: 0.6640625
range: 5.22923660278
velocity: 0.0
doppler_bin: 8
bearing: -5.43815040588
intensity: 29.9475688934
---
header: 
  seq: 290712
  stamp: 
    secs: 1561681744
    nsecs: 614881602
  frame_id: "ti_mmwave"
point_id: 19
x: 4.89453125
y: -0.30859375
z: 0.673828125
range: 5.27281332016
velocity: 0.0
doppler_bin: 8
bearing: -3.60764837265
intensity: 30.788192749
---
header: 
  seq: 290713
  stamp: 
    secs: 1561681744
    nsecs: 614893713
  frame_id: "ti_mmwave"
point_id: 21
x: 0.041015625
y: -0.033203125
z: 0.0625
range: 0.0871539413929
velocity: 0.0
doppler_bin: 8
bearing: -38.9909973145
intensity: 30.1199302673
---
header: 
  seq: 290714
  stamp: 
    secs: 1561681744
    nsecs: 614905203
  frame_id: "ti_mmwave"
point_id: 22
x: 0.052734375
y: -0.04296875
z: 0.103515625
range: 0.130730912089
velocity: 0.0
doppler_bin: 8
bearing: -39.1736602783
intensity: 28.9982051849
---
header: 
  seq: 290715
  stamp: 
    secs: 1561681744
    nsecs: 614928661
  frame_id: "ti_mmwave"
point_id: 24
x: 1.119140625
y: -0.515625
z: 0.302734375
range: 1.35088610649
velocity: 0.0
doppler_bin: 8
bearing: -24.7370834351
intensity: 19.0308990479
---
header: 
  seq: 290716
  stamp: 
    secs: 1561681744
    nsecs: 614942905
  frame_id: "ti_mmwave"
point_id: 25
x: 2.82421875
y: -2.00390625
z: -3.0
range: 4.88062095642
velocity: 0.0
doppler_bin: 8
bearing: -35.3573608398
intensity: 27.7597427368
---
header: 
  seq: 290717
  stamp: 
    secs: 1561681744
    nsecs: 615915970
  frame_id: "ti_mmwave"
point_id: 0
x: 0.01171875
y: -0.0390625
z: -0.0078125
range: 0.0435769706964
velocity: 0.0
doppler_bin: 8
bearing: -73.3007583618
intensity: 30.7700424194
---
header: 
  seq: 290718
  stamp: 
    secs: 1561681744
    nsecs: 615961151
  frame_id: "ti_mmwave"
point_id: 1
x: 0.017578125
y: -0.080078125
z: -0.0078125
range: 0.0871539413929
velocity: 0.0
doppler_bin: 8
bearing: -77.6192398071
intensity: 31.9975509644
---
header: 
  seq: 290719
  stamp: 
    secs: 1561681744
    nsecs: 615975420
  frame_id: "ti_mmwave"
point_id: 2
x: 0.041015625
y: -0.115234375
z: -0.0078125
range: 0.130730912089
velocity: 0.0
doppler_bin: 8
bearing: -70.4077224731
intensity: 30.2694168091
---
header: 
  seq: 290720
  stamp: 
    secs: 1561681744
    nsecs: 615990202
  frame_id: "ti_mmwave"
point_id: 3
x: 0.056640625
y: -0.154296875
z: 0.005859375
range: 0.174307882786
velocity: 0.0
doppler_bin: 8
bearing: -69.8423843384
intensity: 25.5266819
---
header: 
  seq: 290721
  stamp: 
    secs: 1561681744
    nsecs: 616001828
  frame_id: "ti_mmwave"
point_id: 4
x: 0.306640625
y: -0.080078125
z: -1.228515625
range: 1.35088610649
velocity: 0.0
doppler_bin: 8
bearing: -14.6357278824
intensity: 21.9033164978
---
header: 
  seq: 290722
  stamp: 
    secs: 1561681744
    nsecs: 616014296
  frame_id: "ti_mmwave"
point_id: 5
x: 0.33203125
y: -0.041015625
z: 1.265625
range: 1.39446306229
velocity: 0.0
doppler_bin: 8
bearing: -7.04203891754
intensity: 23.2633590698
---
header: 
  seq: 290723
  stamp: 
    secs: 1561681744
    nsecs: 616026820
  frame_id: "ti_mmwave"
point_id: 6
x: 0.4296875
y: -0.0
z: 1.279296875
range: 1.43804001808
velocity: 0.0
doppler_bin: 8
bearing: -0.0
intensity: 21.875207901
---
header: 
  seq: 290724
  stamp: 
    secs: 1561681744
    nsecs: 616152237
  frame_id: "ti_mmwave"
point_id: 7
x: 2.556640625
y: -0.263671875
z: 1.166015625
range: 3.00681090355
velocity: 0.0
doppler_bin: 8
bearing: -5.88822031021
intensity: 29.4299964905
---
header: 
  seq: 290725
  stamp: 
    secs: 1561681744
    nsecs: 616185948
  frame_id: "ti_mmwave"
point_id: 8
x: 2.607421875
y: -0.267578125
z: 1.15234375
range: 3.05038785934
velocity: 0.0
doppler_bin: 8
bearing: -5.85928010941
intensity: 32.7760925293
---
header: 
  seq: 290726
  stamp: 
    secs: 1561681744
    nsecs: 616202478
  frame_id: "ti_mmwave"
point_id: 9
x: 2.66015625
y: -0.181640625
z: 1.15234375
range: 3.09396481514
velocity: 0.0
doppler_bin: 8
bearing: -3.90620398521
intensity: 32.04662323
---
header: 
  seq: 290727
  stamp: 
    secs: 1561681744
    nsecs: 616216369
  frame_id: "ti_mmwave"
point_id: 10
x: 4.412109375
y: -0.287109375
z: 1.19921875
range: 4.88062095642
velocity: 0.0
doppler_bin: 8
bearing: -3.72316122055
intensity: 30.6855697632
---
header: 
  seq: 290728
  stamp: 
    secs: 1561681744
    nsecs: 616225750
  frame_id: "ti_mmwave"
point_id: 11
x: 4.44921875
y: -0.43359375
z: 1.1796875
range: 4.9241976738
velocity: 0.0
doppler_bin: 8
bearing: -5.56612110138
intensity: 30.3941402435
---
header: 
  seq: 290729
  stamp: 
    secs: 1561681744
    nsecs: 616253485
  frame_id: "ti_mmwave"
point_id: 12
x: 4.75
y: -0.298828125
z: -0.501953125
range: 5.09850549698
velocity: 0.0
doppler_bin: 8
bearing: -3.59980130196
intensity: 33.0877761841
---
header: 
  seq: 290730
  stamp: 
    secs: 1561681744
    nsecs: 616279304
  frame_id: "ti_mmwave"
point_id: 13
x: 4.78515625
y: -0.453125
z: -0.4375
range: 5.14208269119
velocity: 0.0
doppler_bin: 8
bearing: -5.40942907333
intensity: 33.7657699585
---
header: 
  seq: 290731
  stamp: 
    secs: 1561681744
    nsecs: 616292840
  frame_id: "ti_mmwave"
point_id: 14
x: 4.837890625
y: -0.45703125
z: -0.2734375
range: 5.18565940857
velocity: 0.0
doppler_bin: 8
bearing: -5.39666557312
intensity: 30.5537834167
---
header: 
  seq: 290732
  stamp: 
    secs: 1561681744
    nsecs: 616315082
  frame_id: "ti_mmwave"
point_id: 15
x: 4.869140625
y: -0.46484375
z: 0.759765625
range: 5.27281332016
velocity: 0.0
doppler_bin: 8
bearing: -5.45334625244
intensity: 30.6744289398
---
header: 
  seq: 290733
  stamp: 
    secs: 1561681744
    nsecs: 616338816
  frame_id: "ti_mmwave"
point_id: 17
x: 0.041015625
y: -0.033203125
z: 0.0625
range: 0.0871539413929
velocity: 0.0
doppler_bin: 8
bearing: -38.9909973145
intensity: 30.1241531372
---
header: 
  seq: 290734
  stamp: 
    secs: 1561681744
    nsecs: 616418616
  frame_id: "ti_mmwave"
point_id: 18
x: 0.052734375
y: -0.04296875
z: 0.103515625
range: 0.130730912089
velocity: 0.0
doppler_bin: 8
bearing: -39.1736602783
intensity: 29.0145835876
---
header: 
  seq: 290735
  stamp: 
    secs: 1561681744
    nsecs: 616441428
  frame_id: "ti_mmwave"
point_id: 20
x: 1.12109375
y: -0.515625
z: 0.29296875
range: 1.35088610649
velocity: 0.0
doppler_bin: 8
bearing: -24.6991329193
intensity: 19.0308990479
---
header: 
  seq: 290736
  stamp: 
    secs: 1561681744
    nsecs: 616455149
  frame_id: "ti_mmwave"
point_id: 21
x: 2.796875
y: -2.00390625
z: -3.025390625
range: 4.88062095642
velocity: 0.0
doppler_bin: 8
bearing: -35.6208572388
intensity: 27.7305469513
---
header: 
  seq: 290737
  stamp: 
    secs: 1561681744
    nsecs: 674714389
  frame_id: "ti_mmwave"
point_id: 0
x: 0.01171875
y: -0.0390625
z: -0.0078125
range: 0.0435769706964
velocity: 0.0
doppler_bin: 8
bearing: -73.3007583618
intensity: 30.7700424194
---
header: 
  seq: 290738
  stamp: 
    secs: 1561681744
    nsecs: 674785663
  frame_id: "ti_mmwave"
point_id: 1
x: 0.017578125
y: -0.080078125
z: -0.0078125
range: 0.0871539413929
velocity: 0.0
doppler_bin: 8
bearing: -77.6192398071
intensity: 31.9975509644
---
header: 
  seq: 290739
  stamp: 
    secs: 1561681744
    nsecs: 674797130
  frame_id: "ti_mmwave"
point_id: 2
x: 0.041015625
y: -0.115234375
z: -0.0078125
range: 0.130730912089
velocity: 0.0
doppler_bin: 8
bearing: -70.4077224731
intensity: 30.2694168091
---
header: 
  seq: 290740
  stamp: 
    secs: 1561681744
    nsecs: 674805146
  frame_id: "ti_mmwave"
point_id: 3
x: 0.056640625
y: -0.154296875
z: 0.005859375
range: 0.174307882786
velocity: 0.0
doppler_bin: 8
bearing: -69.8423843384
intensity: 25.5266819
---
header: 
  seq: 290741
  stamp: 
    secs: 1561681744
    nsecs: 674812916
  frame_id: "ti_mmwave"
point_id: 4
x: 0.34375
y: -0.080078125
z: -1.21875
range: 1.35088610649
velocity: 0.0
doppler_bin: 8
bearing: -13.1134386063
intensity: 21.875207901
---
header: 
  seq: 290742
  stamp: 
    secs: 1561681744
    nsecs: 674822059
  frame_id: "ti_mmwave"
point_id: 5
x: 0.326171875
y: -0.041015625
z: 1.267578125
range: 1.39446306229
velocity: 0.0
doppler_bin: 8
bearing: -7.16723871231
intensity: 23.2633590698
---
header: 
  seq: 290743
  stamp: 
    secs: 1561681744
    nsecs: 674830226
  frame_id: "ti_mmwave"
point_id: 6
x: 0.439453125
y: -0.0
z: 1.27734375
range: 1.43804001808
velocity: 0.0
doppler_bin: 8
bearing: -0.0
intensity: 21.9033164978
---
header: 
  seq: 290744
  stamp: 
    secs: 1561681744
    nsecs: 674838025
  frame_id: "ti_mmwave"
point_id: 7
x: 2.0390625
y: 0.390625
z: -0.2109375
range: 2.22242546082
velocity: 0.0
doppler_bin: 8
bearing: 10.8448104858
intensity: 26.6745300293
---
header: 
  seq: 290745
  stamp: 
    secs: 1561681744
    nsecs: 674847412
  frame_id: "ti_mmwave"
point_id: 8
x: 2.080078125
y: 0.3984375
z: -0.201171875
range: 2.26600241661
velocity: 0.0
doppler_bin: 8
bearing: 10.8436183929
intensity: 26.9460525513
---
header: 
  seq: 290746
  stamp: 
    secs: 1561681744
    nsecs: 674855679
  frame_id: "ti_mmwave"
point_id: 9
x: 2.546875
y: -0.263671875
z: 1.189453125
range: 3.00681090355
velocity: 0.0
doppler_bin: 8
bearing: -5.91063833237
intensity: 29.4596061707
---
header: 
  seq: 290747
  stamp: 
    secs: 1561681744
    nsecs: 674863054
  frame_id: "ti_mmwave"
point_id: 10
x: 2.603515625
y: -0.267578125
z: 1.162109375
range: 3.05038785934
velocity: 0.0
doppler_bin: 8
bearing: -5.8680100441
intensity: 32.7921066284
---
header: 
  seq: 290748
  stamp: 
    secs: 1561681744
    nsecs: 674870833
  frame_id: "ti_mmwave"
point_id: 11
x: 2.654296875
y: -0.181640625
z: 1.166015625
range: 3.09396481514
velocity: 0.0
doppler_bin: 8
bearing: -3.91479969025
intensity: 32.0112380981
---
header: 
  seq: 290749
  stamp: 
    secs: 1561681744
    nsecs: 674878780
  frame_id: "ti_mmwave"
point_id: 12
x: 4.4140625
y: -0.287109375
z: 1.19140625
range: 4.88062095642
velocity: 0.0
doppler_bin: 8
bearing: -3.72151875496
intensity: 30.6483230591
---
header: 
  seq: 290750
  stamp: 
    secs: 1561681744
    nsecs: 674888714
  frame_id: "ti_mmwave"
point_id: 13
x: 4.435546875
y: -0.43359375
z: 1.228515625
range: 4.9241976738
velocity: 0.0
doppler_bin: 8
bearing: -5.5831694603
intensity: 30.2366390228
---
header: 
  seq: 290751
  stamp: 
    secs: 1561681744
    nsecs: 674896578
  frame_id: "ti_mmwave"
point_id: 14
x: 4.703125
y: -0.296875
z: -0.564453125
range: 5.0549287796
velocity: 0.0
doppler_bin: 8
bearing: -3.61188483238
intensity: 29.4250411987
---
header: 
  seq: 290752
  stamp: 
    secs: 1561681744
    nsecs: 674905817
  frame_id: "ti_mmwave"
point_id: 15
x: 4.748046875
y: -0.298828125
z: -0.51953125
range: 5.09850549698
velocity: 0.0
doppler_bin: 8
bearing: -3.60127830505
intensity: 33.1659927368
---
header: 
  seq: 290753
  stamp: 
    secs: 1561681744
    nsecs: 674914130
  frame_id: "ti_mmwave"
point_id: 16
x: 4.783203125
y: -0.453125
z: -0.455078125
range: 5.14208269119
velocity: 0.0
doppler_bin: 8
bearing: -5.41162490845
intensity: 33.8309707642
---
header: 
  seq: 290754
  stamp: 
    secs: 1561681744
    nsecs: 674921969
  frame_id: "ti_mmwave"
point_id: 17
x: 4.83984375
y: -0.45703125
z: -0.26171875
range: 5.18565940857
velocity: 0.0
doppler_bin: 8
bearing: -5.39450025558
intensity: 30.8457622528
---
header: 
  seq: 290755
  stamp: 
    secs: 1561681744
    nsecs: 674931921
  frame_id: "ti_mmwave"
point_id: 18
x: 4.841796875
y: -0.4609375
z: 0.662109375
range: 5.22923660278
velocity: 0.0
doppler_bin: 8
bearing: -5.43815040588
intensity: 29.8944988251
---
header: 
  seq: 290756
  stamp: 
