header: 
  seq: 231773
  stamp: 
    secs: 1561681655
    nsecs: 754762268
  frame_id: "ti_mmwave"
point_id: 0
x: 0.01171875
y: -0.0390625
z: -0.0078125
range: 0.0435769706964
velocity: 0.0
doppler_bin: 8
bearing: -73.3007583618
intensity: 30.8206691742
---
header: 
  seq: 231774
  stamp: 
    secs: 1561681655
    nsecs: 754836032
  frame_id: "ti_mmwave"
point_id: 1
x: 0.017578125
y: -0.080078125
z: -0.0078125
range: 0.0871539413929
velocity: 0.0
doppler_bin: 8
bearing: -77.6192398071
intensity: 32.0411987305
---
header: 
  seq: 231775
  stamp: 
    secs: 1561681655
    nsecs: 754890310
  frame_id: "ti_mmwave"
point_id: 2
x: 0.041015625
y: -0.115234375
z: -0.0078125
range: 0.130730912089
velocity: 0.0
doppler_bin: 8
bearing: -70.4077224731
intensity: 30.3140850067
---
header: 
  seq: 231776
  stamp: 
    secs: 1561681655
    nsecs: 754910778
  frame_id: "ti_mmwave"
point_id: 3
x: 0.056640625
y: -0.154296875
z: 0.005859375
range: 0.174307882786
velocity: 0.0
doppler_bin: 8
bearing: -69.8423843384
intensity: 25.550945282
---
header: 
  seq: 231777
  stamp: 
    secs: 1561681655
    nsecs: 754938458
  frame_id: "ti_mmwave"
point_id: 4
x: 0.287109375
y: -0.080078125
z: -1.232421875
range: 1.35088610649
velocity: 0.0
doppler_bin: 8
bearing: -15.5844020844
intensity: 21.9865703583
---
header: 
  seq: 231778
  stamp: 
    secs: 1561681655
    nsecs: 754962726
  frame_id: "ti_mmwave"
point_id: 5
x: 0.357421875
y: -0.041015625
z: 1.259765625
range: 1.39446306229
velocity: 0.0
doppler_bin: 8
bearing: -6.54629087448
intensity: 23.3243846893
---
header: 
  seq: 231779
  stamp: 
    secs: 1561681655
    nsecs: 754977127
  frame_id: "ti_mmwave"
point_id: 6
x: 0.447265625
y: -0.0
z: 1.2734375
range: 1.43804001808
velocity: 0.0
doppler_bin: 8
bearing: -0.0
intensity: 21.9865703583
---
header: 
  seq: 231780
  stamp: 
    secs: 1561681655
    nsecs: 755070923
  frame_id: "ti_mmwave"
point_id: 7
x: 1.89453125
y: -0.1796875
z: -0.27734375
range: 2.04811763763
velocity: 0.0
doppler_bin: 8
bearing: -5.41803121567
intensity: 27.2672729492
---
header: 
  seq: 231781
  stamp: 
    secs: 1561681655
    nsecs: 755083377
  frame_id: "ti_mmwave"
point_id: 8
x: 1.9375
y: -0.18359375
z: -0.25390625
range: 2.09169459343
velocity: 0.0
doppler_bin: 8
bearing: -5.41307449341
intensity: 31.00715065
---
header: 
  seq: 231782
  stamp: 
    secs: 1561681655
    nsecs: 755092089
  frame_id: "ti_mmwave"
point_id: 9
x: 1.9765625
y: -0.1875
z: -0.26953125
range: 2.13527154922
velocity: 0.0
doppler_bin: 8
bearing: -5.41895675659
intensity: 31.5896530151
---
header: 
  seq: 231783
  stamp: 
    secs: 1561681655
    nsecs: 755101059
  frame_id: "ti_mmwave"
point_id: 10
x: 1.998046875
y: -0.19140625
z: -0.396484375
range: 2.17884850502
velocity: 0.0
doppler_bin: 8
bearing: -5.47204685211
intensity: 28.7506122589
---
header: 
  seq: 231784
  stamp: 
    secs: 1561681655
    nsecs: 755109618
  frame_id: "ti_mmwave"
point_id: 11
x: 2.5546875
y: -0.263671875
z: 1.16796875
range: 3.00681090355
velocity: 0.0
doppler_bin: 8
bearing: -5.89269018173
intensity: 29.5375976562
---
header: 
  seq: 231785
  stamp: 
    secs: 1561681655
    nsecs: 755118828
  frame_id: "ti_mmwave"
point_id: 12
x: 2.603515625
y: -0.267578125
z: 1.16015625
range: 3.05038785934
velocity: 0.0
doppler_bin: 8
bearing: -5.8680100441
intensity: 32.8012275696
---
header: 
  seq: 231786
  stamp: 
    secs: 1561681655
    nsecs: 755126660
  frame_id: "ti_mmwave"
point_id: 13
x: 2.66015625
y: -0.181640625
z: 1.150390625
range: 3.09396481514
velocity: 0.0
doppler_bin: 8
bearing: -3.90620398521
intensity: 31.9975509644
---
header: 
  seq: 231787
  stamp: 
    secs: 1561681655
    nsecs: 755135274
  frame_id: "ti_mmwave"
point_id: 14
x: 4.4140625
y: -0.287109375
z: 1.193359375
range: 4.88062095642
velocity: 0.0
doppler_bin: 8
bearing: -3.72151875496
intensity: 30.6669845581
---
header: 
  seq: 231788
  stamp: 
    secs: 1561681655
    nsecs: 755144006
  frame_id: "ti_mmwave"
point_id: 15
x: 4.455078125
y: -0.2890625
z: 1.197265625
range: 4.9241976738
velocity: 0.0
doppler_bin: 8
bearing: -3.71236538887
intensity: 29.8136558533
---
header: 
  seq: 231789
  stamp: 
    secs: 1561681655
    nsecs: 755153989
  frame_id: "ti_mmwave"
point_id: 17
x: 0.041015625
y: -0.033203125
z: 0.0625
range: 0.0871539413929
velocity: 0.0
doppler_bin: 8
bearing: -38.9909973145
intensity: 30.1535968781
---
header: 
  seq: 231790
  stamp: 
    secs: 1561681655
    nsecs: 755162356
  frame_id: "ti_mmwave"
point_id: 18
x: 0.052734375
y: -0.04296875
z: 0.103515625
range: 0.130730912089
velocity: 0.0
doppler_bin: 8
bearing: -39.1736602783
intensity: 29.0363254547
---
header: 
  seq: 231791
  stamp: 
    secs: 1561681655
    nsecs: 755172270
  frame_id: "ti_mmwave"
point_id: 20
x: 1.12109375
y: -0.515625
z: 0.294921875
range: 1.35088610649
velocity: 0.0
doppler_bin: 8
bearing: -24.6991329193
intensity: 19.0308990479
---
header: 
  seq: 231792
  stamp: 
    secs: 1561681655
    nsecs: 755181060
  frame_id: "ti_mmwave"
point_id: 21
x: 2.849609375
y: -2.00390625
z: -2.974609375
range: 4.88062095642
velocity: 0.0
doppler_bin: 8
bearing: -35.1157073975
intensity: 27.7451705933
---
header: 
  seq: 231793
  stamp: 
    secs: 1561681655
    nsecs: 755189318
  frame_id: "ti_mmwave"
point_id: 22
x: 2.93359375
y: -2.021484375
z: -2.943359375
range: 4.9241976738
velocity: 0.0
doppler_bin: 8
bearing: -34.5699996948
intensity: 27.0926990509
---
header: 
  seq: 231794
  stamp: 
    secs: 1561681655
    nsecs: 756378430
  frame_id: "ti_mmwave"
point_id: 0
x: 0.01171875
y: -0.0390625
z: -0.0078125
range: 0.0435769706964
velocity: 0.0
doppler_bin: 8
bearing: -73.3007583618
intensity: 30.8134727478
---
header: 
  seq: 231795
  stamp: 
    secs: 1561681655
    nsecs: 756440847
  frame_id: "ti_mmwave"
point_id: 1
x: 0.017578125
y: -0.080078125
z: -0.0078125
range: 0.0871539413929
velocity: 0.0
doppler_bin: 8
bearing: -77.6192398071
intensity: 32.0384864807
---
header: 
  seq: 231796
  stamp: 
    secs: 1561681655
    nsecs: 756452014
  frame_id: "ti_mmwave"
point_id: 2
x: 0.041015625
y: -0.115234375
z: -0.0078125
range: 0.130730912089
velocity: 0.0
doppler_bin: 8
bearing: -70.4077224731
intensity: 30.3140850067
---
header: 
  seq: 231797
  stamp: 
    secs: 1561681655
    nsecs: 756460305
  frame_id: "ti_mmwave"
point_id: 3
x: 0.056640625
y: -0.154296875
z: 0.00390625
range: 0.174307882786
velocity: 0.0
doppler_bin: 8
bearing: -69.8423843384
intensity: 25.5630245209
---
header: 
  seq: 231798
  stamp: 
    secs: 1561681655
    nsecs: 756468181
  frame_id: "ti_mmwave"
point_id: 4
x: 0.26953125
y: -0.080078125
z: -1.236328125
range: 1.35088610649
velocity: 0.0
doppler_bin: 8
bearing: -16.5467605591
intensity: 21.9312458038
---
header: 
  seq: 231799
  stamp: 
    secs: 1561681655
    nsecs: 756476094
  frame_id: "ti_mmwave"
point_id: 5
x: 0.361328125
y: -0.041015625
z: 1.2578125
range: 1.39446306229
velocity: 0.0
doppler_bin: 8
bearing: -6.47612476349
intensity: 23.3243846893
---
header: 
  seq: 231800
  stamp: 
    secs: 1561681655
    nsecs: 756484055
  frame_id: "ti_mmwave"
point_id: 6
x: 0.4296875
y: -0.0
z: 1.279296875
range: 1.43804001808
velocity: 0.0
doppler_bin: 8
bearing: -0.0
intensity: 21.9865703583
---
header: 
  seq: 231801
  stamp: 
    secs: 1561681655
    nsecs: 756491687
  frame_id: "ti_mmwave"
point_id: 7
x: 1.98828125
y: -0.1875
z: -0.177734375
range: 2.13527154922
velocity: 0.0
doppler_bin: 8
bearing: -5.38720655441
intensity: 27.9379043579
---
header: 
  seq: 231802
  stamp: 
    secs: 1561681655
    nsecs: 756500602
  frame_id: "ti_mmwave"
point_id: 8
x: 2.029296875
y: -0.19140625
z: -0.162109375
range: 2.17884850502
velocity: 0.0
doppler_bin: 8
bearing: -5.38828039169
intensity: 28.5612449646
---
header: 
  seq: 231803
  stamp: 
    secs: 1561681655
    nsecs: 756509590
  frame_id: "ti_mmwave"
point_id: 9
x: 2.529296875
y: -0.263671875
z: 1.22265625
range: 3.00681090355
velocity: 0.0
doppler_bin: 8
bearing: -5.95142221451
intensity: 29.4448261261
---
header: 
  seq: 231804
  stamp: 
    secs: 1561681655
    nsecs: 756517419
  frame_id: "ti_mmwave"
point_id: 10
x: 2.603515625
y: -0.267578125
z: 1.1640625
range: 3.05038785934
velocity: 0.0
doppler_bin: 8
bearing: -5.8680100441
intensity: 32.7715072632
---
header: 
  seq: 231805
  stamp: 
    secs: 1561681655
    nsecs: 756525248
  frame_id: "ti_mmwave"
point_id: 11
x: 2.666015625
y: -0.181640625
z: 1.13671875
range: 3.09396481514
velocity: 0.0
doppler_bin: 8
bearing: -3.89764523506
intensity: 32.0030326843
---
header: 
  seq: 231806
  stamp: 
    secs: 1561681655
    nsecs: 756534006
  frame_id: "ti_mmwave"
point_id: 12
x: 4.419921875
y: -0.287109375
z: 1.169921875
range: 4.88062095642
velocity: 0.0
doppler_bin: 8
bearing: -3.71659874916
intensity: 30.7408466339
---
header: 
  seq: 231807
  stamp: 
    secs: 1561681655
    nsecs: 756541945
  frame_id: "ti_mmwave"
point_id: 13
x: 4.48046875
y: -0.2890625
z: 1.095703125
range: 4.9241976738
velocity: 0.0
doppler_bin: 8
bearing: -3.69138598442
intensity: 29.986951828
---
header: 
  seq: 231808
  stamp: 
    secs: 1561681655
    nsecs: 756552227
  frame_id: "ti_mmwave"
point_id: 15
x: 0.041015625
y: -0.033203125
z: 0.0625
range: 0.0871539413929
velocity: 0.0
doppler_bin: 8
bearing: -38.9909973145
intensity: 30.157787323
---
header: 
  seq: 231809
  stamp: 
    secs: 1561681655
    nsecs: 756561193
  frame_id: "ti_mmwave"
point_id: 16
x: 0.052734375
y: -0.04296875
z: 0.103515625
range: 0.130730912089
velocity: 0.0
doppler_bin: 8
bearing: -39.1736602783
intensity: 29.0363254547
---
header: 
  seq: 231810
  stamp: 
    secs: 1561681655
    nsecs: 756571199
  frame_id: "ti_mmwave"
point_id: 18
x: 1.12109375
y: -0.515625
z: 0.294921875
range: 1.35088610649
velocity: 0.0
doppler_bin: 8
bearing: -24.6991329193
intensity: 19.0308990479
---
header: 
  seq: 231811
  stamp: 
    secs: 1561681655
    nsecs: 756644884
  frame_id: "ti_mmwave"
point_id: 19
x: 2.666015625
y: -2.00390625
z: -3.140625
range: 4.88062095642
velocity: 0.0
doppler_bin: 8
bearing: -36.9302940369
intensity: 27.8103694916
---
header: 
  seq: 231812
  stamp: 
    secs: 1561681655
    nsecs: 756654252
  frame_id: "ti_mmwave"
point_id: 20
x: 2.58203125
y: -2.021484375
z: -3.2578125
range: 4.9241976738
velocity: 0.0
doppler_bin: 8
bearing: -38.0575561523
intensity: 27.2916469574
---
header: 
  seq: 231813
  stamp: 
    secs: 1561681655
    nsecs: 814969145
  frame_id: "ti_mmwave"
point_id: 0
x: 0.01171875
y: -0.0390625
z: -0.0078125
range: 0.0435769706964
velocity: 0.0
doppler_bin: 8
bearing: -73.3007583618
intensity: 30.8206691742
---
header: 
  seq: 231814
  stamp: 
    secs: 1561681655
    nsecs: 815044937
  frame_id: "ti_mmwave"
point_id: 1
x: 0.017578125
y: -0.080078125
z: -0.0078125
range: 0.0871539413929
velocity: 0.0
doppler_bin: 8
bearing: -77.6192398071
intensity: 32.0384864807
---
header: 
  seq: 231815
  stamp: 
    secs: 1561681655
    nsecs: 815056144
  frame_id: "ti_mmwave"
point_id: 2
x: 0.041015625
y: -0.115234375
z: -0.0078125
range: 0.130730912089
velocity: 0.0
doppler_bin: 8
bearing: -70.4077224731
intensity: 30.310043335
---
header: 
  seq: 231816
  stamp: 
    secs: 1561681655
    nsecs: 815064473
  frame_id: "ti_mmwave"
point_id: 3
x: 0.056640625
y: -0.154296875
z: 0.00390625
range: 0.174307882786
velocity: 0.0
doppler_bin: 8
bearing: -69.8423843384
intensity: 25.550945282
---
header: 
  seq: 231817
  stamp: 
    secs: 1561681655
    nsecs: 815072560
  frame_id: "ti_mmwave"
point_id: 4
x: 0.279296875
y: -0.080078125
z: -1.234375
range: 1.35088610649
velocity: 0.0
doppler_bin: 8
bearing: -15.9982995987
intensity: 21.9865703583
---
header: 
  seq: 231818
  stamp: 
    secs: 1561681655
    nsecs: 815080243
  frame_id: "ti_mmwave"
point_id: 5
x: 0.359375
y: -0.041015625
z: 1.2578125
range: 1.39446306229
velocity: 0.0
doppler_bin: 8
bearing: -6.51101970673
intensity: 23.3645973206
---
header: 
  seq: 231819
  stamp: 
    secs: 1561681655
    nsecs: 815087921
  frame_id: "ti_mmwave"
point_id: 6
x: 0.443359375
y: -0.0
z: 1.275390625
range: 1.43804001808
velocity: 0.0
doppler_bin: 8
bearing: -0.0
intensity: 21.9865703583
---
header: 
  seq: 231820
  stamp: 
    secs: 1561681655
    nsecs: 815095812
  frame_id: "ti_mmwave"
point_id: 7
x: 1.9453125
y: -0.24609375
z: -0.12109375
range: 2.09169459343
velocity: 0.0
doppler_bin: 8
bearing: -7.20996236801
intensity: 28.1157493591
---
header: 
  seq: 231821
  stamp: 
    secs: 1561681655
    nsecs: 815104892
  frame_id: "ti_mmwave"
point_id: 8
x: 1.9921875
y: -0.1875
z: -0.119140625
range: 2.13527154922
velocity: 0.0
doppler_bin: 8
bearing: -5.37670564651
intensity: 29.380191803
---
header: 
  seq: 231822
  stamp: 
    secs: 1561681655
    nsecs: 815114727
  frame_id: "ti_mmwave"
point_id: 9
x: 2.03515625
y: -0.19140625
z: -0.0859375
range: 2.17884850502
velocity: 0.0
doppler_bin: 8
bearing: -5.37285757065
intensity: 28.5064620972
---
header: 
  seq: 231823
  stamp: 
    secs: 1561681655
    nsecs: 815122920
  frame_id: "ti_mmwave"
point_id: 10
x: 2.076171875
y: -0.1953125
z: -0.0859375
range: 2.22242546082
velocity: 0.0
doppler_bin: 8
bearing: -5.37419128418
intensity: 26.394865036
---
header: 
  seq: 231824
  stamp: 
    secs: 1561681655
    nsecs: 815130900
  frame_id: "ti_mmwave"
point_id: 11
x: 2.54296875
y: -0.263671875
z: 1.197265625
range: 3.00681090355
velocity: 0.0
doppler_bin: 8
bearing: -5.91965341568
intensity: 29.4939002991
---
header: 
  seq: 231825
  stamp: 
    secs: 1561681655
    nsecs: 815140083
  frame_id: "ti_mmwave"
point_id: 12
x: 2.59765625
y: -0.267578125
z: 1.171875
range: 3.05038785934
velocity: 0.0
doppler_bin: 8
bearing: -5.88115358353
intensity: 32.7989501953
---
header: 
  seq: 231826
  stamp: 
    secs: 1561681655
    nsecs: 815148183
  frame_id: "ti_mmwave"
point_id: 13
x: 2.650390625
y: -0.181640625
z: 1.17578125
range: 3.09396481514
velocity: 0.0
doppler_bin: 8
bearing: -3.92055153847
intensity: 31.9783172607
---
header: 
  seq: 231827
  stamp: 
    secs: 1561681655
    nsecs: 815156462
  frame_id: "ti_mmwave"
point_id: 14
x: 4.423828125
y: -0.287109375
z: 1.15625
range: 4.88062095642
velocity: 0.0
doppler_bin: 8
bearing: -3.71332621574
intensity: 30.7736797333
---
header: 
  seq: 231828
  stamp: 
    secs: 1561681655
    nsecs: 815165850
  frame_id: "ti_mmwave"
point_id: 15
x: 4.490234375
y: -0.2890625
z: 1.05859375
range: 4.9241976738
velocity: 0.0
doppler_bin: 8
bearing: -3.68338012695
intensity: 30.0860023499
---
header: 
  seq: 231829
  stamp: 
    secs: 1561681655
    nsecs: 815176655
  frame_id: "ti_mmwave"
point_id: 17
x: 0.041015625
y: -0.033203125
z: 0.0625
range: 0.0871539413929
velocity: 0.0
doppler_bin: 8
bearing: -38.9909973145
intensity: 30.1535968781
---
header: 
  seq: 231830
  stamp: 
    secs: 1561681655
    nsecs: 815185346
  frame_id: "ti_mmwave"
point_id: 18
x: 0.05078125
y: -0.04296875
z: 0.103515625
range: 0.130730912089
velocity: 0.0
doppler_bin: 8
bearing: -40.2363586426
intensity: 29.0417442322
---
header: 
  seq: 231831
  stamp: 
    secs: 1561681655
    nsecs: 815267841
  frame_id: "ti_mmwave"
point_id: 20
x: 2.67578125
y: -2.00390625
z: -3.1328125
range: 4.88062095642
velocity: 0.0
doppler_bin: 8
bearing: -36.8297271729
intensity: 27.8031730652
---
header: 
  seq: 231832
  stamp: 
    secs: 1561681655
    nsecs: 815277560
  frame_id: "ti_mmwave"
point_id: 21
x: 2.5390625
y: -2.021484375
z: -3.291015625
range: 4.9241976738
velocity: 0.0
doppler_bin: 8
bearing: -38.5251846313
intensity: 27.3479976654
---
header: 
  seq: 231833
  stamp: 
    secs: 1561681655
    nsecs: 816286346
  frame_id: "ti_mmwave"
point_id: 0
x: 0.01171875
y: -0.0390625
z: -0.0078125
range: 0.0435769706964
velocity: 0.0
doppler_bin: 8
bearing: -73.3007583618
intensity: 30.8170719147
---
header: 
  seq: 231834
  stamp: 
    secs: 1561681655
    nsecs: 816349240
  frame_id: "ti_mmwave"
point_id: 1
x: 0.017578125
y: -0.080078125
z: -0.0078125
range: 0.0871539413929
velocity: 0.0
doppler_bin: 8
bearing: -77.6192398071
intensity: 32.0384864807
---
header: 
  seq: 231835
  stamp: 
    secs: 1561681655
    nsecs: 816364728
  frame_id: "ti_mmwave"
point_id: 2
x: 0.041015625
y: -0.115234375
z: -0.0078125
range: 0.130730912089
velocity: 0.0
doppler_bin: 8
bearing: -70.4077224731
intensity: 30.310043335
---
header: 
  seq: 231836
  stamp: 
    secs: 1561681655
    nsecs: 816374144
  frame_id: "ti_mmwave"
point_id: 3
x: 0.056640625
y: -0.154296875
z: 0.005859375
range: 0.174307882786
velocity: 0.0
doppler_bin: 8
bearing: -69.8423843384
intensity: 25.550945282
---
header: 
  seq: 231837
  stamp: 
    secs: 1561681655
    nsecs: 816383083
  frame_id: "ti_mmwave"
point_id: 4
x: 0.25
y: -0.080078125
z: -1.240234375
range: 1.35088610649
velocity: 0.0
doppler_bin: 8
bearing: -17.7609119415
intensity: 21.9312458038
---
header: 
  seq: 231838
  stamp: 
    secs: 1561681655
    nsecs: 816391626
  frame_id: "ti_mmwave"
point_id: 5
x: 0.36328125
y: -0.041015625
z: 1.2578125
range: 1.39446306229
velocity: 0.0
doppler_bin: 8
bearing: -6.44159984589
intensity: 23.3041381836
---
header: 
  seq: 231839
  stamp: 
    secs: 1561681655
    nsecs: 816401983
  frame_id: "ti_mmwave"
point_id: 6
x: 0.435546875
y: -0.0
z: 1.27734375
range: 1.43804001808
velocity: 0.0
doppler_bin: 8
bearing: -0.0
intensity: 21.9865703583
---
header: 
  seq: 231840
  stamp: 
    secs: 1561681655
    nsecs: 816483359
  frame_id: "ti_mmwave"
point_id: 7
x: 1.9453125
y: -0.18359375
z: -0.193359375
range: 2.09169459343
velocity: 0.0
doppler_bin: 8
bearing: -5.39146375656
intensity: 29.5133743286
---
header: 
  seq: 231841
  stamp: 
    secs: 1561681655
    nsecs: 816496124
  frame_id: "ti_mmwave"
point_id: 8
x: 1.978515625
y: -0.25
z: -0.19921875
range: 2.13527154922
velocity: 0.0
doppler_bin: 8
bearing: -7.20157814026
intensity: 30.4257545471
---
header: 
  seq: 231842
  stamp: 
    secs: 1561681655
    nsecs: 816504894
  frame_id: "ti_mmwave"
point_id: 9
x: 2.017578125
y: -0.255859375
z: -0.220703125
range: 2.17884850502
velocity: 0.0
doppler_bin: 8
bearing: -7.22739124298
intensity: 28.2736930847
---
header: 
  seq: 231843
  stamp: 
    secs: 1561681655
    nsecs: 816512746
  frame_id: "ti_mmwave"
point_id: 10
x: 2.546875
y: -0.263671875
z: 1.1875
range: 3.00681090355
velocity: 0.0
doppler_bin: 8
bearing: -5.91063833237
intensity: 29.609462738
---
header: 
  seq: 231844
  stamp: 
    secs: 1561681655
    nsecs: 816520242
  frame_id: "ti_mmwave"
point_id: 11
x: 2.607421875
y: -0.267578125
z: 1.154296875
range: 3.05038785934
velocity: 0.0
doppler_bin: 8
bearing: -5.85928010941
intensity: 32.8465614319
---
header: 
  seq: 231845
  stamp: 
    secs: 1561681655
    nsecs: 816527582
  frame_id: "ti_mmwave"
point_id: 12
x: 2.666015625
y: -0.181640625
z: 1.138671875
range: 3.09396481514
velocity: 0.0
doppler_bin: 8
bearing: -3.89764523506
intensity: 32.0628585815
---
header: 
  seq: 231846
  stamp: 
    secs: 1561681655
    nsecs: 816534973
  frame_id: "ti_mmwave"
point_id: 13
x: 4.412109375
y: -0.287109375
z: 1.19921875
range: 4.88062095642
velocity: 0.0
doppler_bin: 8
bearing: -3.72316122055
intensity: 30.6557979584
---
header: 
  seq: 231847
  stamp: 
    secs: 1561681655
    nsecs: 816542265
  frame_id: "ti_mmwave"
point_id: 14
x: 4.474609375
y: -0.2890625
z: 1.123046875
range: 4.9241976738
velocity: 0.0
doppler_bin: 8
bearing: -3.69620633125
intensity: 29.8944988251
---
header: 
  seq: 231848
  stamp: 
    secs: 1561681655
    nsecs: 816553353
  frame_id: "ti_mmwave"
point_id: 16
x: 0.041015625
y: -0.033203125
z: 0.0625
range: 0.0871539413929
velocity: 0.0
doppler_bin: 8
bearing: -38.9909973145
intensity: 30.1535968781
---
header: 
  seq: 231849
  stamp: 
    secs: 1561681655
    nsecs: 816561216
  frame_id: "ti_mmwave"
point_id: 17
x: 0.052734375
y: -0.04296875
z: 0.103515625
range: 0.130730912089
velocity: 0.0
doppler_bin: 8
bearing: -39.1736602783
intensity: 29.0417442322
---
header: 
  seq: 231850
  stamp: 
    secs: 1561681655
    nsecs: 816572763
  frame_id: "ti_mmwave"
point_id: 19
x: 1.119140625
y: -0.515625
z: 0.30078125
range: 1.35088610649
velocity: 0.0
doppler_bin: 8
bearing: -24.7370834351
intensity: 19.0308990479
---
header: 
  seq: 231851
  stamp: 
    secs: 1561681655
    nsecs: 816580441
  frame_id: "ti_mmwave"
point_id: 20
x: 2.796875
y: -2.00390625
z: -3.025390625
range: 4.88062095642
velocity: 0.0
doppler_bin: 8
bearing: -35.6208572388
intensity: 27.7085208893
---
header: 
  seq: 231852
  stamp: 
    secs: 1561681655
    nsecs: 816588164
  frame_id: "ti_mmwave"
point_id: 21
x: 2.73046875
y: -2.021484375
z: -3.1328125
range: 4.9241976738
velocity: 0.0
doppler_bin: 8
bearing: -36.5141487122
intensity: 27.1516742706
---
header: 
  seq: 231853
  stamp: 
    secs: 1561681655
    nsecs: 874739374
  frame_id: "ti_mmwave"
point_id: 0
x: 0.01171875
y: -0.0390625
z: -0.0078125
range: 0.0435769706964
velocity: 0.0
doppler_bin: 8
bearing: -73.3007583618
intensity: 30.8206691742
---
header: 
  seq: 231854
  stamp: 
    secs: 1561681655
    nsecs: 874812787
  frame_id: "ti_mmwave"
point_id: 1
x: 0.017578125
y: -0.080078125
z: -0.0078125
range: 0.0871539413929
velocity: 0.0
doppler_bin: 8
bearing: -77.6192398071
intensity: 32.0384864807
---
header: 
  seq: 231855
  stamp: 
    secs: 1561681655
    nsecs: 874823809
  frame_id: "ti_mmwave"
point_id: 2
x: 0.041015625
y: -0.115234375
z: -0.0078125
range: 0.130730912089
velocity: 0.0
doppler_bin: 8
bearing: -70.4077224731
intensity: 30.310043335
---
header: 
  seq: 231856
  stamp: 
    secs: 1561681655
    nsecs: 874832081
  frame_id: "ti_mmwave"
point_id: 3
x: 0.056640625
y: -0.154296875
z: 0.005859375
range: 0.174307882786
velocity: 0.0
doppler_bin: 8
bearing: -69.8423843384
intensity: 25.5630245209
---
header: 
  seq: 231857
  stamp: 
    secs: 1561681655
    nsecs: 874840312
  frame_id: "ti_mmwave"
point_id: 4
x: 0.3046875
y: -0.080078125
z: -1.228515625
range: 1.35088610649
velocity: 0.0
doppler_bin: 8
bearing: -14.7254829407
intensity: 21.9865703583
---
header: 
  seq: 231858
  stamp: 
    secs: 1561681655
    nsecs: 874849709
  frame_id: "ti_mmwave"
point_id: 5
x: 0.357421875
y: -0.041015625
z: 1.259765625
range: 1.39446306229
velocity: 0.0
doppler_bin: 8
bearing: -6.54629087448
intensity: 23.344537735
---
header: 
  seq: 231859
  stamp: 
    secs: 1561681655
    nsecs: 874857585
  frame_id: "ti_mmwave"
point_id: 6
x: 0.462890625
y: -0.0
z: 1.267578125
range: 1.43804001808
velocity: 0.0
doppler_bin: 8
bearing: -0.0
intensity: 22.0139713287
---
header: 
  seq: 231860
  stamp: 
    secs: 1561681655
    nsecs: 874865409
  frame_id: "ti_mmwave"
point_id: 7
x: 1.943359375
y: -0.24609375
z: -0.123046875
range: 2.09169459343
velocity: 0.0
doppler_bin: 8
bearing: -7.21713113785
intensity: 27.2672729492
---
header: 
  seq: 231861
  stamp: 
    secs: 1561681655
    nsecs: 874873904
  frame_id: "ti_mmwave"
point_id: 8
x: 1.984375
y: -0.25
z: -0.119140625
range: 2.13527154922
velocity: 0.0
doppler_bin: 8
bearing: -7.18053531647
intensity: 30.4610481262
---
header: 
  seq: 231862
  stamp: 
    secs: 1561681655
    nsecs: 874882164
  frame_id: "ti_mmwave"
point_id: 9
x: 2.03515625
y: -0.19140625
z: -0.048828125
range: 2.17884850502
velocity: 0.0
doppler_bin: 8
bearing: -5.37285757065
intensity: 30.1703338623
---
header: 
  seq: 231863
  stamp: 
    secs: 1561681655
    nsecs: 874890197
  frame_id: "ti_mmwave"
point_id: 10
x: 2.078125
y: -0.130859375
z: 0.119140625
range: 2.22242546082
velocity: 0.0
doppler_bin: 8
bearing: -3.6031537056
intensity: 26.7942790985
---
header: 
  seq: 231864
  stamp: 
    secs: 1561681655
    nsecs: 874897960
  frame_id: "ti_mmwave"
point_id: 11
x: 2.572265625
y: -0.263671875
z: 1.1328125
range: 3.00681090355
velocity: 0.0
doppler_bin: 8
bearing: -5.85270166397
intensity: 29.4743366241
---
header: 
  seq: 231865
  stamp: 
    secs: 1561681655
    nsecs: 874905918
  frame_id: "ti_mmwave"
point_id: 12
x: 2.609375
y: -0.267578125
z: 1.146484375
range: 3.05038785934
velocity: 0.0
doppler_bin: 8
bearing: -5.85492515564
intensity: 32.7715072632
---
header: 
  seq: 231866
  stamp: 
    secs: 1561681655
    nsecs: 874914993
  frame_id: "ti_mmwave"
point_id: 13
x: 2.66796875
y: -0.181640625
z: 1.134765625
range: 3.09396481514
velocity: 0.0
doppler_bin: 8
bearing: -3.89480042458
intensity: 31.9810695648
---
header: 
  seq: 231867
  stamp: 
    secs: 1561681655
    nsecs: 874922860
  frame_id: "ti_mmwave"
point_id: 14
x: 4.41796875
y: -0.287109375
z: 1.177734375
range: 4.88062095642
velocity: 0.0
doppler_bin: 8
bearing: -3.71823716164
intensity: 31.00715065
---
header: 
  seq: 231868
  stamp: 
    secs: 1561681655
    nsecs: 874932631
  frame_id: "ti_mmwave"
point_id: 15
x: 4.478515625
y: -0.2890625
z: 1.109375
range: 4.9241976738
velocity: 0.0
doppler_bin: 8
bearing: -3.69299149513
intensity: 30.4453983307
---
header: 
  seq: 231869
  stamp: 
    secs: 1561681655
    nsecs: 874943113
  frame_id: "ti_mmwave"
point_id: 17
x: 0.041015625
y: -0.033203125
z: 0.0625
range: 0.0871539413929
velocity: 0.0
doppler_bin: 8
bearing: -38.9909973145
intensity: 30.1535968781
---
header: 
  seq: 231870
  stamp: 
    secs: 1561681655
    nsecs: 874951180
  frame_id: "ti_mmwave"
point_id: 18
x: 0.05078125
y: -0.04296875
z: 0.103515625
range: 0.130730912089
velocity: 0.0
doppler_bin: 8
bearing: -40.2363586426
intensity: 29.0417442322
---
header: 
  seq: 231871
  stamp: 
    secs: 1561681655
    nsecs: 874961660
  frame_id: "ti_mmwave"
point_id: 20
x: 1.119140625
y: -0.515625
z: 0.298828125
range: 1.35088610649
velocity: 0.0
doppler_bin: 8
bearing: -24.7370834351
intensity: 19.0308990479
---
header: 
  seq: 231872
  stamp: 
    secs: 1561681655
    nsecs: 934733668
  frame_id: "ti_mmwave"
point_id: 0
x: 0.01171875
y: -0.0390625
z: -0.0078125
range: 0.0435769706964
velocity: 0.0
doppler_bin: 8
bearing: -73.3007583618
intensity: 30.8134727478
---
header: 
  seq: 231873
  stamp: 
    secs: 1561681655
    nsecs: 934804675
  frame_id: "ti_mmwave"
point_id: 1
x: 0.017578125
y: -0.080078125
z: -0.0078125
range: 0.0871539413929
velocity: 0.0
doppler_bin: 8
bearing: -77.6192398071
intensity: 32.0357666016
---
header: 
  seq: 231874
  stamp: 
    secs: 1561681655
    nsecs: 934819061
  frame_id: "ti_mmwave"
point_id: 2
x: 0.041015625
y: -0.115234375
z: -0.0078125
range: 0.130730912089
velocity: 0.0
doppler_bin: 8
bearing: -70.4077224731
intensity: 30.3059978485
---
header: 
  seq: 231875
  stamp: 
    secs: 1561681655
    nsecs: 934827795
  frame_id: "ti_mmwave"
point_id: 3
x: 0.056640625
y: -0.154296875
z: 0.005859375
range: 0.174307882786
velocity: 0.0
doppler_bin: 8
bearing: -69.8423843384
intensity: 25.5388298035
---
header: 
  seq: 231876
  stamp: 
    secs: 1561681655
    nsecs: 934835541
  frame_id: "ti_mmwave"
point_id: 4
x: 0.3203125
y: -0.080078125
z: -1.224609375
range: 1.35088610649
velocity: 0.0
doppler_bin: 8
bearing: -14.0362434387
intensity: 21.9312458038
---
header: 
  seq: 231877
  stamp: 
    secs: 1561681655
    nsecs: 934844824
  frame_id: "ti_mmwave"
point_id: 5
x: 0.349609375
y: -0.041015625
z: 1.26171875
range: 1.39446306229
velocity: 0.0
doppler_bin: 8
bearing: -6.69126462936
intensity: 23.344537735
---
header: 
  seq: 231878
  stamp: 
    secs: 1561681655
    nsecs: 934853238
  frame_id: "ti_mmwave"
point_id: 6
x: 0.45703125
y: -0.0
z: 1.26953125
range: 1.43804001808
velocity: 0.0
doppler_bin: 8
bearing: -0.0
intensity: 22.0412006378
---
header: 
  seq: 231879
  stamp: 
    secs: 1561681655
    nsecs: 934861304
  frame_id: "ti_mmwave"
point_id: 7
x: 1.93359375
y: -0.24609375
z: -0.244140625
range: 2.09169459343
velocity: 0.0
doppler_bin: 8
bearing: -7.25319480896
intensity: 29.3550720215
---
header: 
  seq: 231880
  stamp: 
    secs: 1561681655
    nsecs: 934869322
  frame_id: "ti_mmwave"
point_id: 8
x: 1.98046875
y: -0.1875
z: -0.251953125
range: 2.13527154922
velocity: 0.0
doppler_bin: 8
bearing: -5.40833187103
intensity: 32.2115325928
---
header: 
  seq: 231881
  stamp: 
    secs: 1561681655
    nsecs: 934879050
  frame_id: "ti_mmwave"
point_id: 9
x: 2.0234375
y: -0.19140625
z: -0.2265625
range: 2.17884850502
velocity: 0.0
doppler_bin: 8
bearing: -5.40379190445
intensity: 31.8269996643
---
header: 
  seq: 231882
  stamp: 
    secs: 1561681655
    nsecs: 934890852
  frame_id: "ti_mmwave"
point_id: 10
x: 2.068359375
y: -0.1953125
z: -0.189453125
range: 2.22242546082
velocity: 0.0
doppler_bin: 8
bearing: -5.39437055588
intensity: 28.5973854065
---
header: 
  seq: 231883
  stamp: 
    secs: 1561681655
    nsecs: 935069912
  frame_id: "ti_mmwave"
point_id: 11
x: 2.544921875
y: -0.263671875
z: 1.189453125
range: 3.00681090355
velocity: 0.0
doppler_bin: 8
bearing: -5.91514253616
intensity: 29.5133743286
---
header: 
  seq: 231884
  stamp: 
    secs: 1561681655
    nsecs: 935091636
  frame_id: "ti_mmwave"
point_id: 12
x: 2.6015625
y: -0.267578125
z: 1.166015625
range: 3.05038785934
velocity: 0.0
doppler_bin: 8
bearing: -5.87238502502
intensity: 32.7829627991
---
header: 
  seq: 231885
  stamp: 
    secs: 1561681655
    nsecs: 935142262
  frame_id: "ti_mmwave"
point_id: 13
x: 2.658203125
y: -0.181640625
z: 1.154296875
range: 3.09396481514
velocity: 0.0
doppler_bin: 8
bearing: -3.90906453133
intensity: 31.9865703583
---
header: 
  seq: 231886
  stamp: 
    secs: 1561681655
    nsecs: 935173954
  frame_id: "ti_mmwave"
point_id: 14
x: 4.4140625
y: -0.287109375
z: 1.193359375
range: 4.88062095642
velocity: 0.0
doppler_bin: 8
bearing: -3.72151875496
intensity: 30.5994186401
---
header: 
  seq: 231887
  stamp: 
    secs: 1561681655
    nsecs: 935196166
  frame_id: "ti_mmwave"
point_id: 15
x: 4.46875
y: -0.2890625
z: 1.150390625
range: 4.9241976738
velocity: 0.0
doppler_bin: 8
bearing: -3.70103907585
intensity: 30.0860023499
---
header: 
  seq: 231888
  stamp: 
    secs: 1561681655
    nsecs: 935248666
  frame_id: "ti_mmwave"
point_id: 17
x: 0.041015625
y: -0.033203125
z: 0.0625
range: 0.0871539413929
velocity: 0.0
doppler_bin: 8
bearing: -38.9909973145
intensity: 30.1535968781
---
header: 
  seq: 231889
  stamp: 
    secs: 1561681655
    nsecs: 935265677
  frame_id: "ti_mmwave"
point_id: 18
x: 0.052734375
y: -0.04296875
z: 0.103515625
range: 0.130730912089
velocity: 0.0
doppler_bin: 8
bearing: -39.1736602783
intensity: 29.0417442322
---
header: 
  seq: 231890
  stamp: 
    secs: 1561681655
    nsecs: 935314640
  frame_id: "ti_mmwave"
point_id: 20
x: 1.1171875
y: -0.474609375
z: 0.36328125
range: 1.35088610649
velocity: 0.0
doppler_bin: 8
bearing: -23.0170059204
intensity: 19.0848503113
---
header: 
  seq: 231891
  stamp: 
    secs: 1561681655
    nsecs: 935323399
  frame_id: "ti_mmwave"
point_id: 21
x: 2.8125
y: -2.00390625
z: -3.009765625
range: 4.88062095642
velocity: 0.0
doppler_bin: 8
bearing: -35.4698677063
intensity: 27.7158756256
---
header: 
  seq: 231892
  stamp: 
    secs: 1561681655
    nsecs: 935416335
  frame_id: "ti_mmwave"
point_id: 22
x: 2.841796875
y: -2.021484375
z: -3.03515625
range: 4.9241976738
velocity: 0.0
doppler_bin: 8
bearing: -35.4257736206
intensity: 27.2916469574
---
header: 
  seq: 231893
  stamp: 
    secs: 1561681655
    nsecs: 936119254
  frame_id: "ti_mmwave"
point_id: 0
x: 0.01171875
y: -0.0390625
z: -0.0078125
range: 0.0435769706964
velocity: 0.0
doppler_bin: 8
bearing: -73.3007583618
intensity: 30.8206691742
---
header: 
  seq: 231894
  stamp: 
    secs: 1561681655
    nsecs: 936179978
  frame_id: "ti_mmwave"
point_id: 1
x: 0.017578125
y: -0.080078125
z: -0.0078125
range: 0.0871539413929
velocity: 0.0
doppler_bin: 8
bearing: -77.6192398071
intensity: 32.0384864807
---
header: 
  seq: 231895
  stamp: 
    secs: 1561681655
    nsecs: 936196276
  frame_id: "ti_mmwave"
point_id: 2
x: 0.041015625
y: -0.115234375
z: -0.0078125
range: 0.130730912089
velocity: 0.0
doppler_bin: 8
bearing: -70.4077224731
intensity: 30.3140850067
---
header: 
  seq: 231896
  stamp: 
    secs: 1561681655
    nsecs: 936210162
  frame_id: "ti_mmwave"
point_id: 3
x: 0.056640625
y: -0.154296875
z: 0.00390625
range: 0.174307882786
velocity: 0.0
doppler_bin: 8
bearing: -69.8423843384
intensity: 25.5630245209
---
header: 
  seq: 231897
  stamp: 
    secs: 1561681655
    nsecs: 936221892
  frame_id: "ti_mmwave"
point_id: 4
x: 0.291015625
y: -0.080078125
z: -1.232421875
range: 1.35088610649
velocity: 0.0
doppler_bin: 8
bearing: -15.3851890564
intensity: 21.9589958191
---
header: 
  seq: 231898
  stamp: 
    secs: 1561681655
    nsecs: 936281990
  frame_id: "ti_mmwave"
point_id: 5
x: 0.361328125
y: -0.041015625
z: 1.2578125
range: 1.39446306229
velocity: 0.0
doppler_bin: 8
bearing: -6.47612476349
intensity: 23.3041381836
---
header: 
  seq: 231899
  stamp: 
    secs: 1561681655
    nsecs: 936295536
  frame_id: "ti_mmwave"
point_id: 6
x: 0.447265625
y: -0.0
z: 1.2734375
range: 1.43804001808
velocity: 0.0
doppler_bin: 8
bearing: -0.0
intensity: 21.9865703583
---
header: 
  seq: 231900
  stamp: 
    secs: 1561681655
    nsecs: 936307186
  frame_id: "ti_mmwave"
point_id: 7
x: 1.94140625
y: -0.18359375
z: -0.224609375
range: 2.09169459343
velocity: 0.0
doppler_bin: 8
bearing: -5.40224742889
intensity: 29.5856380463
---
header: 
  seq: 231901
  stamp: 
    secs: 1561681655
    nsecs: 936322603
  frame_id: "ti_mmwave"
point_id: 8
x: 1.982421875
y: -0.1875
z: -0.232421875
range: 2.13527154922
velocity: 0.0
doppler_bin: 8
bearing: -5.40303564072
intensity: 31.7580165863
---
header: 
  seq: 231902
  stamp: 
    secs: 1561681655
    nsecs: 936335960
  frame_id: "ti_mmwave"
point_id: 9
x: 2.025390625
y: -0.19140625
z: -0.208984375
range: 2.17884850502
velocity: 0.0
doppler_bin: 8
bearing: -5.39861106873
intensity: 30.4020671844
---
header: 
  seq: 231903
  stamp: 
    secs: 1561681655
    nsecs: 936344978
  frame_id: "ti_mmwave"
point_id: 10
x: 2.556640625
y: -0.263671875
z: 1.166015625
range: 3.00681090355
velocity: 0.0
doppler_bin: 8
bearing: -5.88822031021
intensity: 29.4645233154
---
header: 
  seq: 231904
  stamp: 
    secs: 1561681655
    nsecs: 936399877
  frame_id: "ti_mmwave"
point_id: 11
x: 2.6015625
y: -0.267578125
z: 1.1640625
range: 3.05038785934
velocity: 0.0
doppler_bin: 8
bearing: -5.87238502502
intensity: 32.7692108154
---
header: 
  seq: 231905
  stamp: 
    secs: 1561681655
    nsecs: 936414928
  frame_id: "ti_mmwave"
point_id: 12
x: 2.65625
y: -0.181640625
z: 1.158203125
range: 3.09396481514
velocity: 0.0
doppler_bin: 8
bearing: -3.91193032265
intensity: 31.9534606934
---
header: 
  seq: 231906
  stamp: 
    secs: 1561681655
    nsecs: 936429088
  frame_id: "ti_mmwave"
point_id: 13
x: 4.41796875
y: -0.287109375
z: 1.177734375
range: 4.88062095642
velocity: 0.0
doppler_bin: 8
bearing: -3.71823716164
intensity: 30.8386077881
---
header: 
  seq: 231907
  stamp: 
    secs: 1561681655
    nsecs: 936442875
  frame_id: "ti_mmwave"
point_id: 14
x: 4.470703125
y: -0.2890625
z: 1.140625
range: 4.9241976738
velocity: 0.0
doppler_bin: 8
bearing: -3.69942688942
intensity: 30.2325248718
---
header: 
  seq: 231908
  stamp: 
    secs: 1561681655
    nsecs: 936452458
  frame_id: "ti_mmwave"
point_id: 15
x: 4.8515625
y: -0.30859375
z: 0.92578125
range: 5.27281332016
velocity: 0.0
doppler_bin: 8
bearing: -3.63951420784
intensity: 30.3302135468
---
header: 
  seq: 231909
  stamp: 
    secs: 1561681655
    nsecs: 936505390
  frame_id: "ti_mmwave"
point_id: 17
x: 0.041015625
y: -0.033203125
z: 0.0625
range: 0.0871539413929
velocity: 0.0
doppler_bin: 8
bearing: -38.9909973145
intensity: 30.1494026184
---
header: 
  seq: 231910
  stamp: 
    secs: 1561681655
    nsecs: 936520070
  frame_id: "ti_mmwave"
point_id: 18
x: 0.05078125
y: -0.04296875
z: 0.103515625
range: 0.130730912089
velocity: 0.0
doppler_bin: 8
bearing: -40.2363586426
intensity: 29.0363254547
---
header: 
  seq: 231911
  stamp: 
    secs: 1561681655
    nsecs: 936536246
  frame_id: "ti_mmwave"
point_id: 20
x: 2.69921875
y: -2.00390625
z: -3.11328125
range: 4.88062095642
velocity: 0.0
doppler_bin: 8
bearing: -36.5902786255
intensity: 27.8390350342
---
header: 
  seq: 231912
  stamp: 
    secs: 1561681655
    nsecs: 936565879
  frame_id: "ti_mmwave"
point_id: 21
x: 2.716796875
y: -2.021484375
z: -3.146484375
range: 4.9241976738
velocity: 0.0
doppler_bin: 8
bearing: -36.6517906189
intensity: 27.3719272614
---
header: 
  seq: 231913
  stamp: 
    secs: 1561681655
    nsecs: 994776339
  frame_id: "ti_mmwave"
point_id: 0
x: 0.01171875
y: -0.0390625
z: -0.0078125
range: 0.0435769706964
velocity: 0.0
doppler_bin: 8
bearing: -73.3007583618
intensity: 30.824262619
---
header: 
  seq: 231914
  stamp: 
    secs: 1561681655
    nsecs: 994885536
  frame_id: "ti_mmwave"
point_id: 1
x: 0.017578125
y: -0.080078125
z: -0.0078125
range: 0.0871539413929
velocity: 0.0
doppler_bin: 8
bearing: -77.6192398071
intensity: 32.0384864807
---
header: 
  seq: 231915
  stamp: 
    secs: 1561681655
    nsecs: 994899574
  frame_id: "ti_mmwave"
point_id: 2
x: 0.041015625
y: -0.115234375
z: -0.0078125
range: 0.130730912089
velocity: 0.0
doppler_bin: 8
bearing: -70.4077224731
intensity: 30.3140850067
---
header: 
  seq: 231916
  stamp: 
    secs: 1561681655
    nsecs: 994908591
  frame_id: "ti_mmwave"
point_id: 3
x: 0.056640625
y: -0.154296875
z: 0.005859375
range: 0.174307882786
velocity: 0.0
doppler_bin: 8
bearing: -69.8423843384
intensity: 25.5630245209
---
header: 
  seq: 231917
  stamp: 
    secs: 1561681655
    nsecs: 994916501
  frame_id: "ti_mmwave"
point_id: 4
x: 0.2890625
y: -0.080078125
z: -1.232421875
range: 1.35088610649
velocity: 0.0
doppler_bin: 8
bearing: -15.48416996
intensity: 21.9033164978
---
header: 
  seq: 231918
  stamp: 
    secs: 1561681655
    nsecs: 994925066
  frame_id: "ti_mmwave"
point_id: 5
x: 0.361328125
y: -0.041015625
z: 1.2578125
range: 1.39446306229
velocity: 0.0
doppler_bin: 8
bearing: -6.47612476349
intensity: 23.2837963104
---
header: 
  seq: 231919
  stamp: 
    secs: 1561681655
    nsecs: 994933054
  frame_id: "ti_mmwave"
point_id: 6
x: 0.43359375
y: -0.0
z: 1.27734375
range: 1.43804001808
velocity: 0.0
doppler_bin: 8
bearing: -0.0
intensity: 21.9589958191
---
header: 
  seq: 231920
  stamp: 
    secs: 1561681655
    nsecs: 994941645
  frame_id: "ti_mmwave"
point_id: 7
x: 2.548828125
y: -0.263671875
z: 1.181640625
range: 3.00681090355
velocity: 0.0
doppler_bin: 8
bearing: -5.90614128113
intensity: 29.5375976562
---
header: 
  seq: 231921
  stamp: 
    secs: 1561681655
    nsecs: 994951499
  frame_id: "ti_mmwave"
point_id: 8
x: 2.609375
y: -0.267578125
z: 1.150390625
range: 3.05038785934
velocity: 0.0
doppler_bin: 8
bearing: -5.85492515564
intensity: 32.8352737427
---
header: 
  seq: 231922
  stamp: 
    secs: 1561681655
    nsecs: 994965264
  frame_id: "ti_mmwave"
point_id: 9
x: 2.6640625
y: -0.181640625
z: 1.140625
range: 3.09396481514
velocity: 0.0
doppler_bin: 8
bearing: -3.90049386024
intensity: 32.0682601929
---
header: 
  seq: 231923
  stamp: 
    secs: 1561681655
    nsecs: 995143059
  frame_id: "ti_mmwave"
point_id: 10
x: 4.41796875
y: -0.287109375
z: 1.17578125
range: 4.88062095642
velocity: 0.0
doppler_bin: 8
bearing: -3.71823716164
intensity: 30.7591171265
---
header: 
  seq: 231924
  stamp: 
    secs: 1561681655
    nsecs: 995162209
  frame_id: "ti_mmwave"
point_id: 11
x: 4.474609375
y: -0.2890625
z: 1.123046875
range: 4.9241976738
velocity: 0.0
doppler_bin: 8
bearing: -3.69620633125
intensity: 30.2530593872
---
header: 
  seq: 231925
  stamp: 
    secs: 1561681655
    nsecs: 995171192
  frame_id: "ti_mmwave"
point_id: 12
x: 4.8671875
y: -0.30859375
z: 0.84375
range: 5.27281332016
velocity: 0.0
doppler_bin: 8
bearing: -3.62786221504
intensity: 29.9431724548
---
header: 
  seq: 231926
  stamp: 
    secs: 1561681655
    nsecs: 995182102
  frame_id: "ti_mmwave"
point_id: 14
x: 0.041015625
y: -0.033203125
z: 0.0625
range: 0.0871539413929
velocity: 0.0
doppler_bin: 8
bearing: -38.9909973145
intensity: 30.1535968781
---
header: 
  seq: 231927
  stamp: 
    secs: 1561681655
    nsecs: 995190271
  frame_id: "ti_mmwave"
point_id: 15
x: 0.052734375
y: -0.04296875
z: 0.103515625
range: 0.130730912089
velocity: 0.0
doppler_bin: 8
bearing: -39.1736602783
intensity: 29.0363254547
---
header: 
  seq: 231928
  stamp: 
    secs: 1561681655
    nsecs: 995199487
  frame_id: "ti_mmwave"
point_id: 17
x: 2.76171875
y: -2.00390625
z: -3.056640625
range: 4.88062095642
velocity: 0.0
doppler_bin: 8
bearing: -35.9646835327
intensity: 27.8746051788
---
header: 
  seq: 231929
  stamp: 
    secs: 1561681655
    nsecs: 995229025
  frame_id: "ti_mmwave"
point_id: 18
x: 2.81640625
y: -2.021484375
z: -3.056640625
range: 4.9241976738
velocity: 0.0
doppler_bin: 8
bearing: -35.6690139771
intensity: 27.3878059387
---
header: 
  seq: 231930
  stamp: 
    secs: 1561681655
    nsecs: 995959505
  frame_id: "ti_mmwave"
point_id: 0
x: 0.01171875
y: -0.0390625
z: -0.0078125
range: 0.0435769706964
velocity: 0.0
doppler_bin: 8
bearing: -73.3007583618
intensity: 30.8206691742
---
header: 
  seq: 231931
  stamp: 
    secs: 1561681655
    nsecs: 996022917
  frame_id: "ti_mmwave"
point_id: 1
x: 0.017578125
y: -0.080078125
z: -0.0078125
range: 0.0871539413929
velocity: 0.0
doppler_bin: 8
bearing: -77.6192398071
intensity: 32.0357666016
---
header: 
  seq: 231932
  stamp: 
    secs: 1561681655
    nsecs: 996042468
  frame_id: "ti_mmwave"
point_id: 2
x: 0.041015625
y: -0.115234375
z: -0.0078125
range: 0.130730912089
velocity: 0.0
doppler_bin: 8
bearing: -70.4077224731
intensity: 30.3059978485
---
header: 
  seq: 231933
  stamp: 
    secs: 1561681655
    nsecs: 996054362
  frame_id: "ti_mmwave"
point_id: 3
x: 0.056640625
y: -0.154296875
z: 0.00390625
range: 0.174307882786
velocity: 0.0
doppler_bin: 8
bearing: -69.8423843384
intensity: 25.5388298035
---
header: 
  seq: 231934
  stamp: 
    secs: 1561681655
    nsecs: 996067828
  frame_id: "ti_mmwave"
point_id: 4
x: 0.30078125
y: -0.080078125
z: -1.228515625
range: 1.35088610649
velocity: 0.0
doppler_bin: 8
bearing: -14.9082593918
intensity: 21.9312458038
---
header: 
  seq: 231935
  stamp: 
    secs: 1561681655
    nsecs: 996079442
  frame_id: "ti_mmwave"
point_id: 5
x: 0.3515625
y: -0.041015625
z: 1.259765625
range: 1.39446306229
velocity: 0.0
doppler_bin: 8
bearing: -6.6544251442
intensity: 23.3041381836
---
header: 
  seq: 231936
  stamp: 
    secs: 1561681655
    nsecs: 996090796
  frame_id: "ti_mmwave"
point_id: 6
x: 0.447265625
y: -0.0
z: 1.2734375
range: 1.43804001808
velocity: 0.0
doppler_bin: 8
bearing: -0.0
intensity: 21.9865703583
---
header: 
  seq: 231937
  stamp: 
    secs: 1561681655
    nsecs: 996101912
  frame_id: "ti_mmwave"
point_id: 7
x: 2.5546875
y: -0.263671875
z: 1.169921875
range: 3.00681090355
velocity: 0.0
doppler_bin: 8
bearing: -5.89269018173
intensity: 29.5085144043
---
header: 
  seq: 231938
  stamp: 
    secs: 1561681655
    nsecs: 996113858
  frame_id: "ti_mmwave"
point_id: 8
x: 2.599609375
y: -0.267578125
z: 1.16796875
range: 3.05038785934
velocity: 0.0
doppler_bin: 8
bearing: -5.87676620483
intensity: 32.8012275696
---
header: 
  seq: 231939
  stamp: 
    secs: 1561681655
    nsecs: 996125507
  frame_id: "ti_mmwave"
point_id: 9
x: 2.654296875
y: -0.181640625
z: 1.166015625
range: 3.09396481514
velocity: 0.0
doppler_bin: 8
bearing: -3.91479969025
intensity: 31.9562301636
---
header: 
  seq: 231940
  stamp: 
    secs: 1561681655
    nsecs: 996137010
  frame_id: "ti_mmwave"
point_id: 10
x: 4.41796875
y: -0.287109375
z: 1.1796875
range: 4.88062095642
velocity: 0.0
doppler_bin: 8
bearing: -3.71823716164
intensity: 30.7736797333
---
header: 
  seq: 231941
  stamp: 
    secs: 1561681655
    nsecs: 996150029
  frame_id: "ti_mmwave"
point_id: 11
x: 4.470703125
y: -0.2890625
z: 1.140625
range: 4.9241976738
velocity: 0.0
doppler_bin: 8
bearing: -3.69942688942
intensity: 30.2325248718
---
header: 
  seq: 231942
  stamp: 
    secs: 1561681655
    nsecs: 996161655
  frame_id: "ti_mmwave"
point_id: 12
x: 4.828125
y: -0.46484375
z: 0.990234375
range: 5.27281332016
velocity: 0.0
doppler_bin: 8
bearing: -5.49939107895
intensity: 30.8314418793
---
header: 
  seq: 231943
  stamp: 
    secs: 1561681655
    nsecs: 996176530
  frame_id: "ti_mmwave"
point_id: 14
x: 0.041015625
y: -0.033203125
z: 0.0625
range: 0.0871539413929
velocity: 0.0
doppler_bin: 8
bearing: -38.9909973145
intensity: 30.1535968781
---
header: 
  seq: 231944
  stamp: 
    secs: 1561681655
    nsecs: 996188875
  frame_id: "ti_mmwave"
point_id: 15
x: 0.05078125
y: -0.04296875
z: 0.103515625
range: 0.130730912089
velocity: 0.0
doppler_bin: 8
bearing: -40.2363586426
intensity: 29.0363254547
---
header: 
  seq: 231945
  stamp: 
    secs: 1561681655
    nsecs: 996204939
  frame_id: "ti_mmwave"
point_id: 17
x: 1.12109375
y: -0.515625
z: 0.29296875
range: 1.35088610649
velocity: 0.0
doppler_bin: 8
bearing: -24.6991329193
intensity: 19.0308990479
---
header: 
  seq: 231946
  stamp: 
    secs: 1561681655
    nsecs: 996218260
  frame_id: "ti_mmwave"
point_id: 18
x: 2.779296875
y: -2.00390625
z: -3.041015625
range: 4.88062095642
velocity: 0.0
doppler_bin: 8
bearing: -35.7920532227
intensity: 27.8103694916
---
header: 
  seq: 231947
  stamp: 
    secs: 1561681655
    nsecs: 996326757
  frame_id: "ti_mmwave"
point_id: 19
x: 2.86328125
y: -2.021484375
z: -3.013671875
range: 4.9241976738
velocity: 0.0
doppler_bin: 8
bearing: -35.2221946716
intensity: 27.3479976654
---
header: 
  seq: 231948
  stamp: 
    secs: 1561681656
    nsecs:  54685989
  frame_id: "ti_mmwave"
point_id: 0
x: 0.01171875
y: -0.0390625
z: -0.0078125
range: 0.0435769706964
velocity: 0.0
doppler_bin: 8
bearing: -73.3007583618
intensity: 30.8170719147
---
header: 
  seq: 231949
  stamp: 
    secs: 1561681656
    nsecs:  54779576
  frame_id: "ti_mmwave"
point_id: 1
x: 0.017578125
y: -0.080078125
z: -0.0078125
range: 0.0871539413929
velocity: 0.0
doppler_bin: 8
bearing: -77.6192398071
intensity: 32.0357666016
---
header: 
  seq: 231950
  stamp: 
    secs: 1561681656
    nsecs:  54794105
  frame_id: "ti_mmwave"
point_id: 2
x: 0.041015625
y: -0.115234375
z: -0.0078125
range: 0.130730912089
velocity: 0.0
doppler_bin: 8
bearing: -70.4077224731
intensity: 30.310043335
---
header: 
  seq: 231951
  stamp: 
    secs: 1561681656
    nsecs:  54808057
  frame_id: "ti_mmwave"
point_id: 3
x: 0.056640625
y: -0.154296875
z: 0.005859375
range: 0.174307882786
velocity: 0.0
doppler_bin: 8
bearing: -69.8423843384
intensity: 25.5630245209
---
header: 
  seq: 231952
  stamp: 
    secs: 1561681656
    nsecs:  54816693
  frame_id: "ti_mmwave"
point_id: 4
x: 0.26953125
y: -0.080078125
z: -1.236328125
range: 1.35088610649
velocity: 0.0
doppler_bin: 8
bearing: -16.5467605591
intensity: 21.9312458038
---
header: 
  seq: 231953
  stamp: 
    secs: 1561681656
    nsecs:  54825174
  frame_id: "ti_mmwave"
point_id: 5
x: 0.365234375
y: -0.041015625
z: 1.255859375
range: 1.39446306229
velocity: 0.0
doppler_bin: 8
bearing: -6.40744018555
intensity: 23.3041381836
---
header: 
  seq: 231954
  stamp: 
    secs: 1561681656
    nsecs:  54832939
  frame_id: "ti_mmwave"
point_id: 6
x: 0.451171875
y: -0.0
z: 1.271484375
range: 1.43804001808
velocity: 0.0
doppler_bin: 8
bearing: -0.0
intensity: 21.9589958191
---
header: 
  seq: 231955
  stamp: 
    secs: 1561681656
    nsecs:  54840636
  frame_id: "ti_mmwave"
point_id: 7
x: 2.533203125
y: -0.263671875
z: 1.21484375
range: 3.00681090355
velocity: 0.0
doppler_bin: 8
bearing: -5.94231081009
intensity: 29.5327625275
---
header: 
  seq: 231956
  stamp: 
    secs: 1561681656
    nsecs:  54848481
  frame_id: "ti_mmwave"
point_id: 8
x: 2.603515625
y: -0.267578125
z: 1.162109375
range: 3.05038785934
velocity: 0.0
doppler_bin: 8
bearing: -5.8680100441
intensity: 32.7715072632
---
header: 
  seq: 231957
  stamp: 
    secs: 1561681656
    nsecs:  54856839
  frame_id: "ti_mmwave"
point_id: 9
x: 2.6640625
y: -0.181640625
z: 1.14453125
range: 3.09396481514
velocity: 0.0
doppler_bin: 8
bearing: -3.90049386024
intensity: 31.9479179382
---
header: 
  seq: 231958
  stamp: 
    secs: 1561681656
    nsecs:  54866814
  frame_id: "ti_mmwave"
point_id: 10
x: 4.4140625
y: -0.287109375
z: 1.1953125
range: 4.88062095642
velocity: 0.0
doppler_bin: 8
bearing: -3.72151875496
intensity: 30.7481651306
---
header: 
  seq: 231959
  stamp: 
    secs: 1561681656
    nsecs:  54875474
  frame_id: "ti_mmwave"
point_id: 11
x: 4.47265625
y: -0.2890625
z: 1.12890625
range: 4.9241976738
velocity: 0.0
doppler_bin: 8
bearing: -3.6978161335
intensity: 30.2284069061
---
header: 
  seq: 231960
  stamp: 
    secs: 1561681656
    nsecs:  54884161
  frame_id: "ti_mmwave"
point_id: 12
x: 4.837890625
y: -0.46484375
z: 0.94140625
range: 5.27281332016
velocity: 0.0
doppler_bin: 8
bearing: -5.48835754395
intensity: 30.8350257874
---
header: 
  seq: 231961
  stamp: 
    secs: 1561681656
    nsecs:  54894709
  frame_id: "ti_mmwave"
point_id: 14
x: 0.041015625
y: -0.033203125
z: 0.0625
range: 0.0871539413929
velocity: 0.0
doppler_bin: 8
bearing: -38.9909973145
intensity: 30.1535968781
---
header: 
  seq: 231962
  stamp: 
    secs: 1561681656
    nsecs:  54902902
  frame_id: "ti_mmwave"
point_id: 15
x: 0.052734375
y: -0.04296875
z: 0.103515625
range: 0.130730912089
velocity: 0.0
doppler_bin: 8
bearing: -39.1736602783
intensity: 29.0363254547
---
header: 
  seq: 231963
  stamp: 
    secs: 1561681656
    nsecs:  54915673
  frame_id: "ti_mmwave"
point_id: 17
x: 1.123046875
y: -0.515625
z: 0.28515625
range: 1.35088610649
velocity: 0.0
doppler_bin: 8
bearing: -24.6612968445
intensity: 18.9762706757
---
header: 
  seq: 231964
  stamp: 
    secs: 1561681656
    nsecs:  55127673
  frame_id: "ti_mmwave"
point_id: 18
x: 2.787109375
y: -2.00390625
z: -3.033203125
range: 4.88062095642
velocity: 0.0
doppler_bin: 8
bearing: -35.7157897949
intensity: 27.7815132141
---
header: 
  seq: 231965
  stamp: 
    secs: 1561681656
    nsecs:  55157515
  frame_id: "ti_mmwave"
point_id: 19
x: 2.77734375
y: -2.021484375
z: -3.09375
range: 4.9241976738
velocity: 0.0
doppler_bin: 8
bearing: -36.0489273071
intensity: 27.3239383698
---
header: 
  seq: 231966
  stamp: 
    secs: 1561681656
    nsecs:  56091250
  frame_id: "ti_mmwave"
point_id: 0
x: 0.01171875
y: -0.0390625
z: -0.0078125
range: 0.0435769706964
velocity: 0.0
doppler_bin: 8
bearing: -73.3007583618
intensity: 30.8206691742
---
header: 
  seq: 231967
  stamp: 
    secs: 1561681656
    nsecs:  56151600
  frame_id: "ti_mmwave"
point_id: 1
x: 0.017578125
y: -0.080078125
z: -0.0078125
range: 0.0871539413929
velocity: 0.0
doppler_bin: 8
bearing: -77.6192398071
intensity: 32.0411987305
---
header: 
  seq: 231968
  stamp: 
    secs: 1561681656
    nsecs:  56162964
  frame_id: "ti_mmwave"
point_id: 2
x: 0.041015625
y: -0.115234375
z: -0.0078125
range: 0.130730912089
velocity: 0.0
doppler_bin: 8
bearing: -70.4077224731
intensity: 30.3140850067
---
header: 
  seq: 231969
  stamp: 
    secs: 1561681656
    nsecs:  56171339
  frame_id: "ti_mmwave"
point_id: 3
x: 0.056640625
y: -0.154296875
z: 0.005859375
range: 0.174307882786
velocity: 0.0
doppler_bin: 8
bearing: -69.8423843384
intensity: 25.5630245209
---
header: 
  seq: 231970
  stamp: 
    secs: 1561681656
    nsecs:  56182406
  frame_id: "ti_mmwave"
point_id: 4
x: 0.244140625
y: -0.080078125
z: -1.2421875
range: 1.35088610649
velocity: 0.0
doppler_bin: 8
bearing: -18.1594905853
intensity: 21.9033164978
---
header: 
  seq: 231971
  stamp: 
    secs: 1561681656
    nsecs:  56191094
  frame_id: "ti_mmwave"
point_id: 5
x: 0.38671875
y: -0.041015625
z: 1.25
range: 1.39446306229
velocity: 0.0
doppler_bin: 8
bearing: -6.05419206619
intensity: 23.3041381836
---
header: 
  seq: 231972
  stamp: 
    secs: 1561681656
    nsecs:  56199584
  frame_id: "ti_mmwave"
point_id: 6
x: 0.4765625
y: -0.0
z: 1.263671875
range: 1.43804001808
velocity: 0.0
doppler_bin: 8
bearing: -0.0
intensity: 21.9865703583
---
header: 
  seq: 231973
  stamp: 
    secs: 1561681656
    nsecs:  56207690
  frame_id: "ti_mmwave"
point_id: 7
x: 2.55859375
y: -0.263671875
z: 1.162109375
range: 3.00681090355
velocity: 0.0
doppler_bin: 8
bearing: -5.88375711441
intensity: 29.4645233154
---
header: 
  seq: 231974
  stamp: 
    secs: 1561681656
    nsecs:  56216303
  frame_id: "ti_mmwave"
point_id: 8
x: 2.60546875
y: -0.267578125
z: 1.158203125
range: 3.05038785934
velocity: 0.0
doppler_bin: 8
bearing: -5.86364221573
intensity: 32.7737998962
---
header: 
  seq: 231975
  stamp: 
    secs: 1561681656
    nsecs:  56351483
  frame_id: "ti_mmwave"
point_id: 9
x: 2.666015625
y: -0.181640625
z: 1.140625
range: 3.09396481514
velocity: 0.0
doppler_bin: 8
bearing: -3.89764523506
intensity: 31.9700469971
---
header: 
  seq: 231976
  stamp: 
    secs: 1561681656
    nsecs:  56371214
  frame_id: "ti_mmwave"
point_id: 10
x: 4.423828125
y: -0.287109375
z: 1.15625
range: 4.88062095642
velocity: 0.0
doppler_bin: 8
bearing: -3.71332621574
intensity: 30.788192749
---
header: 
  seq: 231977
  stamp: 
    secs: 1561681656
    nsecs:  56386862
  frame_id: "ti_mmwave"
point_id: 11
x: 4.478515625
y: -0.2890625
z: 1.109375
range: 4.9241976738
velocity: 0.0
doppler_bin: 8
bearing: -3.69299149513
intensity: 30.2734966278
---
header: 
  seq: 231978
  stamp: 
    secs: 1561681656
    nsecs:  56398402
  frame_id: "ti_mmwave"
point_id: 12
x: 4.87109375
y: -0.30859375
z: 0.826171875
range: 5.27281332016
velocity: 0.0
doppler_bin: 8
bearing: -3.62496066093
intensity: 30.9447116852
---
header: 
  seq: 231979
  stamp: 
    secs: 1561681656
    nsecs:  56413583
  frame_id: "ti_mmwave"
point_id: 14
x: 0.041015625
y: -0.033203125
z: 0.0625
range: 0.0871539413929
velocity: 0.0
doppler_bin: 8
bearing: -38.9909973145
intensity: 30.157787323
---
header: 
  seq: 231980
  stamp: 
    secs: 1561681656
    nsecs:  56421849
  frame_id: "ti_mmwave"
point_id: 15
x: 0.05078125
y: -0.04296875
z: 0.103515625
range: 0.130730912089
velocity: 0.0
doppler_bin: 8
bearing: -40.2363586426
intensity: 29.0471553802
---
header: 
  seq: 231981
  stamp: 
    secs: 1561681656
    nsecs:  56446214
  frame_id: "ti_mmwave"
point_id: 17
x: 1.12109375
y: -0.515625
z: 0.294921875
range: 1.35088610649
velocity: 0.0
doppler_bin: 8
bearing: -24.6991329193
intensity: 18.9762706757
---
header: 
  seq: 231982
  stamp: 
    secs: 1561681656
    nsecs:  56468822
  frame_id: "ti_mmwave"
point_id: 18
x: 2.720703125
y: -2.00390625
z: -3.09375
range: 4.88062095642
velocity: 0.0
doppler_bin: 8
bearing: -36.3731269836
intensity: 27.8247261047
---
header: 
  seq: 231983
  stamp: 
    secs: 1561681656
    nsecs:  56485213
  frame_id: "ti_mmwave"
point_id: 19
x: 2.783203125
y: -2.021484375
z: -3.087890625
range: 4.9241976738
velocity: 0.0
doppler_bin: 8
bearing: -35.9914970398
intensity: 27.3639640808
---
header: 
  seq: 231984
  stamp: 
    secs: 1561681656
    nsecs: 114894355
  frame_id: "ti_mmwave"
point_id: 0
x: 0.01171875
y: -0.0390625
z: -0.0078125
range: 0.0435769706964
velocity: 0.0
doppler_bin: 8
bearing: -73.3007583618
intensity: 30.8206691742
---
header: 
  seq: 231985
  stamp: 
    secs: 1561681656
    nsecs: 115005377
  frame_id: "ti_mmwave"
point_id: 1
x: 0.017578125
y: -0.080078125
z: -0.0078125
range: 0.0871539413929
velocity: 0.0
doppler_bin: 8
bearing: -77.6192398071
intensity: 32.0411987305
---
header: 
  seq: 231986
  stamp: 
    secs: 1561681656
    nsecs: 115023938
  frame_id: "ti_mmwave"
point_id: 2
x: 0.041015625
y: -0.115234375
z: -0.0078125
range: 0.130730912089
velocity: 0.0
doppler_bin: 8
bearing: -70.4077224731
intensity: 30.310043335
---
header: 
  seq: 231987
  stamp: 
    secs: 1561681656
    nsecs: 115038965
  frame_id: "ti_mmwave"
point_id: 3
x: 0.056640625
y: -0.154296875
z: 0.005859375
range: 0.174307882786
velocity: 0.0
doppler_bin: 8
bearing: -69.8423843384
intensity: 25.550945282
---
header: 
  seq: 231988
  stamp: 
    secs: 1561681656
    nsecs: 115054161
  frame_id: "ti_mmwave"
point_id: 4
x: 0.30078125
y: -0.080078125
z: -1.228515625
range: 1.35088610649
velocity: 0.0
doppler_bin: 8
bearing: -14.9082593918
intensity: 21.9033164978
---
header: 
  seq: 231989
  stamp: 
    secs: 1561681656
    nsecs: 115069182
  frame_id: "ti_mmwave"
point_id: 5
x: 0.3359375
y: -0.041015625
z: 1.263671875
range: 1.39446306229
velocity: 0.0
doppler_bin: 8
bearing: -6.96096277237
intensity: 23.2837963104
---
header: 
  seq: 231990
  stamp: 
    secs: 1561681656
    nsecs: 115089578
  frame_id: "ti_mmwave"
point_id: 6
x: 0.423828125
y: -0.0
z: 1.28125
range: 1.43804001808
velocity: 0.0
doppler_bin: 8
bearing: -0.0
intensity: 21.9312458038
---
header: 
  seq: 231991
  stamp: 
    secs: 1561681656
    nsecs: 115107607
  frame_id: "ti_mmwave"
point_id: 7
x: 1.9921875
y: -0.125
z: -0.173828125
range: 2.13527154922
velocity: 0.0
doppler_bin: 8
bearing: -3.59032273293
intensity: 28.034570694
---
header: 
  seq: 231992
  stamp: 
    secs: 1561681656
    nsecs: 115170695
  frame_id: "ti_mmwave"
point_id: 8
x: 2.548828125
y: -0.263671875
z: 1.18359375
range: 3.00681090355
velocity: 0.0
doppler_bin: 8
bearing: -5.90614128113
intensity: 29.4792366028
---
header: 
  seq: 231993
  stamp: 
    secs: 1561681656
    nsecs: 115277975
  frame_id: "ti_mmwave"
point_id: 9
x: 2.609375
y: -0.267578125
z: 1.150390625
range: 3.05038785934
velocity: 0.0
doppler_bin: 8
bearing: -5.85492515564
intensity: 32.8057823181
---
header: 
  seq: 231994
  stamp: 
    secs: 1561681656
    nsecs: 115301095
  frame_id: "ti_mmwave"
point_id: 10
x: 2.669921875
y: -0.181640625
z: 1.126953125
range: 3.09396481514
velocity: 0.0
doppler_bin: 8
bearing: -3.89196038246
intensity: 32.0194320679
---
header: 
  seq: 231995
  stamp: 
    secs: 1561681656
    nsecs: 115318525
  frame_id: "ti_mmwave"
point_id: 11
x: 4.41796875
y: -0.287109375
z: 1.17578125
range: 4.88062095642
velocity: 0.0
doppler_bin: 8
bearing: -3.71823716164
intensity: 30.7481651306
---
header: 
  seq: 231996
  stamp: 
    secs: 1561681656
    nsecs: 115334672
  frame_id: "ti_mmwave"
point_id: 12
x: 4.46484375
y: -0.2890625
z: 1.16015625
range: 4.9241976738
velocity: 0.0
doppler_bin: 8
bearing: -3.70426845551
intensity: 30.1029987335
---
header: 
  seq: 231997
  stamp: 
    secs: 1561681656
    nsecs: 115389262
  frame_id: "ti_mmwave"
point_id: 14
x: 0.041015625
y: -0.033203125
z: 0.0625
range: 0.0871539413929
velocity: 0.0
doppler_bin: 8
bearing: -38.9909973145
intensity: 30.1535968781
---
header: 
  seq: 231998
  stamp: 
    secs: 1561681656
    nsecs: 115414142
  frame_id: "ti_mmwave"
point_id: 15
x: 0.05078125
y: -0.04296875
z: 0.103515625
range: 0.130730912089
velocity: 0.0
doppler_bin: 8
bearing: -40.2363586426
intensity: 29.0417442322
---
header: 
  seq: 231999
  stamp: 
    secs: 1561681656
    nsecs: 115441532
  frame_id: "ti_mmwave"
point_id: 17
x: 1.119140625
y: -0.515625
z: 0.302734375
range: 1.35088610649
velocity: 0.0
doppler_bin: 8
bearing: -24.7370834351
intensity: 18.9762706757
---
header: 
  seq: 232000
  stamp: 
    secs: 1561681656
    nsecs: 115478298
  frame_id: "ti_mmwave"
point_id: 18
x: 2.75390625
y: -2.00390625
z: -3.064453125
range: 4.88062095642
velocity: 0.0
doppler_bin: 8
bearing: -36.0418663025
intensity: 27.8247261047
---
header: 
  seq: 232001
  stamp: 
    secs: 1561681656
    nsecs: 115559897
  frame_id: "ti_mmwave"
point_id: 19
x: 2.841796875
y: -2.021484375
z: -3.033203125
range: 4.9241976738
velocity: 0.0
doppler_bin: 8
bearing: -35.4257736206
intensity: 27.283536911
---
header: 
  seq: 232002
  stamp: 
    secs: 1561681656
    nsecs: 116419530
  frame_id: "ti_mmwave"
point_id: 0
x: 0.01171875
y: -0.0390625
z: -0.0078125
range: 0.0435769706964
velocity: 0.0
doppler_bin: 8
bearing: -73.3007583618
intensity: 30.8278541565
---
header: 
  seq: 232003
  stamp: 
    secs: 1561681656
    nsecs: 116467695
  frame_id: "ti_mmwave"
point_id: 1
x: 0.017578125
y: -0.080078125
z: -0.0078125
range: 0.0871539413929
velocity: 0.0
doppler_bin: 8
bearing: -77.6192398071
intensity: 32.0384864807
---
header: 
  seq: 232004
  stamp: 
    secs: 1561681656
    nsecs: 116483710
  frame_id: "ti_mmwave"
point_id: 2
x: 0.041015625
y: -0.115234375
z: -0.0078125
range: 0.130730912089
velocity: 0.0
doppler_bin: 8
bearing: -70.4077224731
intensity: 30.310043335
---
header: 
  seq: 232005
  stamp: 
    secs: 1561681656
    nsecs: 116497794
  frame_id: "ti_mmwave"
point_id: 3
x: 0.056640625
y: -0.154296875
z: 0.005859375
range: 0.174307882786
velocity: 0.0
doppler_bin: 8
bearing: -69.8423843384
