header: 
  seq: 246357
  stamp: 
    secs: 1561681678
    nsecs: 554824915
  frame_id: "ti_mmwave"
point_id: 0
x: 0.01171875
y: -0.0390625
z: -0.0078125
range: 0.0435769706964
velocity: 0.0
doppler_bin: 8
bearing: -73.3007583618
intensity: 30.8062648773
---
header: 
  seq: 246358
  stamp: 
    secs: 1561681678
    nsecs: 554920561
  frame_id: "ti_mmwave"
point_id: 1
x: 0.017578125
y: -0.080078125
z: -0.0078125
range: 0.0871539413929
velocity: 0.0
doppler_bin: 8
bearing: -77.6192398071
intensity: 32.0276069641
---
header: 
  seq: 246359
  stamp: 
    secs: 1561681678
    nsecs: 554938369
  frame_id: "ti_mmwave"
point_id: 2
x: 0.041015625
y: -0.115234375
z: -0.0078125
range: 0.130730912089
velocity: 0.0
doppler_bin: 8
bearing: -70.4077224731
intensity: 30.2978954315
---
header: 
  seq: 246360
  stamp: 
    secs: 1561681678
    nsecs: 554951928
  frame_id: "ti_mmwave"
point_id: 3
x: 0.056640625
y: -0.154296875
z: 0.005859375
range: 0.174307882786
velocity: 0.0
doppler_bin: 8
bearing: -69.8423843384
intensity: 25.5388298035
---
header: 
  seq: 246361
  stamp: 
    secs: 1561681678
    nsecs: 554966068
  frame_id: "ti_mmwave"
point_id: 4
x: 0.33203125
y: -0.080078125
z: -1.220703125
range: 1.35088610649
velocity: 0.0
doppler_bin: 8
bearing: -13.5594520569
intensity: 21.9312458038
---
header: 
  seq: 246362
  stamp: 
    secs: 1561681678
    nsecs: 554979560
  frame_id: "ti_mmwave"
point_id: 5
x: 0.337890625
y: -0.041015625
z: 1.263671875
range: 1.39446306229
velocity: 0.0
doppler_bin: 8
bearing: -6.92111730576
intensity: 23.3243846893
---
header: 
  seq: 246363
  stamp: 
    secs: 1561681678
    nsecs: 555068012
  frame_id: "ti_mmwave"
point_id: 6
x: 0.416015625
y: -0.0
z: 1.28515625
range: 1.43804001808
velocity: 0.0
doppler_bin: 8
bearing: -0.0
intensity: 21.9865703583
---
header: 
  seq: 246364
  stamp: 
    secs: 1561681678
    nsecs: 555086132
  frame_id: "ti_mmwave"
point_id: 7
x: 2.24609375
y: 0.287109375
z: -0.34375
range: 2.44031047821
velocity: 0.0
doppler_bin: 8
bearing: 7.2843914032
intensity: 26.4345264435
---
header: 
  seq: 246365
  stamp: 
    secs: 1561681678
    nsecs: 555099606
  frame_id: "ti_mmwave"
point_id: 8
x: 2.298828125
y: 0.291015625
z: -0.263671875
range: 2.48388743401
velocity: 0.0
doppler_bin: 8
bearing: 7.21486902237
intensity: 26.3648796082
---
header: 
  seq: 246366
  stamp: 
    secs: 1561681678
    nsecs: 555114911
  frame_id: "ti_mmwave"
point_id: 9
x: 2.552734375
y: -0.263671875
z: 1.173828125
range: 3.00681090355
velocity: 0.0
doppler_bin: 8
bearing: -5.89716720581
intensity: 29.4250411987
---
header: 
  seq: 246367
  stamp: 
    secs: 1561681678
    nsecs: 555127978
  frame_id: "ti_mmwave"
point_id: 10
x: 2.603515625
y: -0.267578125
z: 1.16015625
range: 3.05038785934
velocity: 0.0
doppler_bin: 8
bearing: -5.8680100441
intensity: 32.7852478027
---
header: 
  seq: 246368
  stamp: 
    secs: 1561681678
    nsecs: 555140964
  frame_id: "ti_mmwave"
point_id: 11
x: 2.65625
y: -0.181640625
z: 1.158203125
range: 3.09396481514
velocity: 0.0
doppler_bin: 8
bearing: -3.91193032265
intensity: 32.0112380981
---
header: 
  seq: 246369
  stamp: 
    secs: 1561681678
    nsecs: 555154120
  frame_id: "ti_mmwave"
point_id: 12
x: 4.412109375
y: -0.287109375
z: 1.19921875
range: 4.88062095642
velocity: 0.0
doppler_bin: 8
bearing: -3.72316122055
intensity: 30.7591171265
---
header: 
  seq: 246370
  stamp: 
    secs: 1561681678
    nsecs: 555167565
  frame_id: "ti_mmwave"
point_id: 13
x: 4.42578125
y: -0.43359375
z: 1.2578125
range: 4.9241976738
velocity: 0.0
doppler_bin: 8
bearing: -5.59541082382
intensity: 30.3462848663
---
header: 
  seq: 246371
  stamp: 
    secs: 1561681678
    nsecs: 555182328
  frame_id: "ti_mmwave"
point_id: 14
x: 4.736328125
y: -0.44921875
z: -0.513671875
range: 5.09850549698
velocity: 0.0
doppler_bin: 8
bearing: -5.41803121567
intensity: 33.0059547424
---
header: 
  seq: 246372
  stamp: 
    secs: 1561681678
    nsecs: 555195569
  frame_id: "ti_mmwave"
point_id: 15
x: 4.787109375
y: -0.453125
z: -0.431640625
range: 5.14208269119
velocity: 0.0
doppler_bin: 8
bearing: -5.40723514557
intensity: 33.6548805237
---
header: 
  seq: 246373
  stamp: 
    secs: 1561681678
    nsecs: 555208945
  frame_id: "ti_mmwave"
point_id: 16
x: 4.841796875
y: -0.45703125
z: -0.224609375
range: 5.18565940857
velocity: 0.0
doppler_bin: 8
bearing: -5.39233732224
intensity: 30.6669845581
---
header: 
  seq: 246374
  stamp: 
    secs: 1561681678
    nsecs: 555223573
  frame_id: "ti_mmwave"
point_id: 17
x: 4.84765625
y: -0.4609375
z: 0.626953125
range: 5.22923660278
velocity: 0.0
doppler_bin: 8
bearing: -5.43161678314
intensity: 29.9825935364
---
header: 
  seq: 246375
  stamp: 
    secs: 1561681678
    nsecs: 555236724
  frame_id: "ti_mmwave"
point_id: 18
x: 4.890625
y: -0.30859375
z: 0.693359375
range: 5.27281332016
velocity: 0.0
doppler_bin: 8
bearing: -3.61052203178
intensity: 30.8314418793
---
header: 
  seq: 246376
  stamp: 
    secs: 1561681678
    nsecs: 555252452
  frame_id: "ti_mmwave"
point_id: 20
x: 0.041015625
y: -0.033203125
z: 0.0625
range: 0.0871539413929
velocity: 0.0
doppler_bin: 8
bearing: -38.9909973145
intensity: 30.1494026184
---
header: 
  seq: 246377
  stamp: 
    secs: 1561681678
    nsecs: 555265887
  frame_id: "ti_mmwave"
point_id: 21
x: 0.052734375
y: -0.04296875
z: 0.103515625
range: 0.130730912089
velocity: 0.0
doppler_bin: 8
bearing: -39.1736602783
intensity: 29.0308990479
---
header: 
  seq: 246378
  stamp: 
    secs: 1561681678
    nsecs: 555284435
  frame_id: "ti_mmwave"
point_id: 23
x: 1.119140625
y: -0.515625
z: 0.302734375
range: 1.35088610649
velocity: 0.0
doppler_bin: 8
bearing: -24.7370834351
intensity: 18.9762706757
---
header: 
  seq: 246379
  stamp: 
    secs: 1561681678
    nsecs: 555349077
  frame_id: "ti_mmwave"
point_id: 24
x: 2.775390625
y: -2.00390625
z: -3.044921875
range: 4.88062095642
velocity: 0.0
doppler_bin: 8
bearing: -35.830291748
intensity: 27.8175544739
---
header: 
  seq: 246380
  stamp: 
    secs: 1561681678
    nsecs: 555403126
  frame_id: "ti_mmwave"
point_id: 25
x: 2.775390625
y: -2.021484375
z: -3.095703125
range: 4.9241976738
velocity: 0.0
doppler_bin: 8
bearing: -36.068107605
intensity: 27.4272518158
---
header: 
  seq: 246381
  stamp: 
    secs: 1561681678
    nsecs: 556425316
  frame_id: "ti_mmwave"
point_id: 0
x: 0.01171875
y: -0.0390625
z: -0.0078125
range: 0.0435769706964
velocity: 0.0
doppler_bin: 8
bearing: -73.3007583618
intensity: 30.8026561737
---
header: 
  seq: 246382
  stamp: 
    secs: 1561681678
    nsecs: 556492340
  frame_id: "ti_mmwave"
point_id: 1
x: 0.017578125
y: -0.080078125
z: -0.0078125
range: 0.0871539413929
velocity: 0.0
doppler_bin: 8
bearing: -77.6192398071
intensity: 32.0276069641
---
header: 
  seq: 246383
  stamp: 
    secs: 1561681678
    nsecs: 556514566
  frame_id: "ti_mmwave"
point_id: 2
x: 0.041015625
y: -0.115234375
z: -0.0078125
range: 0.130730912089
velocity: 0.0
doppler_bin: 8
bearing: -70.4077224731
intensity: 30.3019485474
---
header: 
  seq: 246384
  stamp: 
    secs: 1561681678
    nsecs: 556539298
  frame_id: "ti_mmwave"
point_id: 3
x: 0.056640625
y: -0.154296875
z: 0.00390625
range: 0.174307882786
velocity: 0.0
doppler_bin: 8
bearing: -69.8423843384
intensity: 25.5630245209
---
header: 
  seq: 246385
  stamp: 
    secs: 1561681678
    nsecs: 556558536
  frame_id: "ti_mmwave"
point_id: 4
x: 0.298828125
y: -0.080078125
z: -1.23046875
range: 1.35088610649
velocity: 0.0
doppler_bin: 8
bearing: -15.0013189316
intensity: 21.9589958191
---
header: 
  seq: 246386
  stamp: 
    secs: 1561681678
    nsecs: 556574978
  frame_id: "ti_mmwave"
point_id: 5
x: 0.36328125
y: -0.041015625
z: 1.2578125
range: 1.39446306229
velocity: 0.0
doppler_bin: 8
bearing: -6.44159984589
intensity: 23.3243846893
---
header: 
  seq: 246387
  stamp: 
    secs: 1561681678
    nsecs: 556660870
  frame_id: "ti_mmwave"
point_id: 6
x: 0.46875
y: -0.0
z: 1.265625
range: 1.43804001808
velocity: 0.0
doppler_bin: 8
bearing: -0.0
intensity: 21.9589958191
---
header: 
  seq: 246388
  stamp: 
    secs: 1561681678
    nsecs: 556679428
  frame_id: "ti_mmwave"
point_id: 7
x: 2.5390625
y: -0.263671875
z: 1.201171875
range: 3.00681090355
velocity: 0.0
doppler_bin: 8
bearing: -5.92869567871
intensity: 29.4051647186
---
header: 
  seq: 246389
  stamp: 
    secs: 1561681678
    nsecs: 556691814
  frame_id: "ti_mmwave"
point_id: 8
x: 2.6015625
y: -0.267578125
z: 1.166015625
range: 3.05038785934
velocity: 0.0
doppler_bin: 8
bearing: -5.87238502502
intensity: 32.7692108154
---
header: 
  seq: 246390
  stamp: 
    secs: 1561681678
    nsecs: 556705080
  frame_id: "ti_mmwave"
point_id: 9
x: 2.65625
y: -0.181640625
z: 1.16015625
range: 3.09396481514
velocity: 0.0
doppler_bin: 8
bearing: -3.91193032265
intensity: 31.9865703583
---
header: 
  seq: 246391
  stamp: 
    secs: 1561681678
    nsecs: 556719266
  frame_id: "ti_mmwave"
point_id: 10
x: 4.416015625
y: -0.287109375
z: 1.18359375
range: 4.88062095642
velocity: 0.0
doppler_bin: 8
bearing: -3.71987724304
intensity: 30.7954292297
---
header: 
  seq: 246392
  stamp: 
    secs: 1561681678
    nsecs: 556731131
  frame_id: "ti_mmwave"
point_id: 11
x: 4.44921875
y: -0.43359375
z: 1.173828125
range: 4.9241976738
velocity: 0.0
doppler_bin: 8
bearing: -5.56612110138
intensity: 30.4532299042
---
header: 
  seq: 246393
  stamp: 
    secs: 1561681678
    nsecs: 556743131
  frame_id: "ti_mmwave"
point_id: 12
x: 4.740234375
y: -0.44921875
z: -0.494140625
range: 5.09850549698
velocity: 0.0
doppler_bin: 8
bearing: -5.41359329224
intensity: 33.0920410156
---
header: 
  seq: 246394
  stamp: 
    secs: 1561681678
    nsecs: 556751049
  frame_id: "ti_mmwave"
point_id: 13
x: 4.787109375
y: -0.453125
z: -0.419921875
range: 5.14208269119
velocity: 0.0
doppler_bin: 8
bearing: -5.40723514557
intensity: 33.7529792786
---
header: 
  seq: 246395
  stamp: 
    secs: 1561681678
    nsecs: 556773245
  frame_id: "ti_mmwave"
point_id: 14
x: 4.841796875
y: -0.45703125
z: -0.21484375
range: 5.18565940857
velocity: 0.0
doppler_bin: 8
bearing: -5.39233732224
intensity: 30.7114524841
---
header: 
  seq: 246396
  stamp: 
    secs: 1561681678
    nsecs: 556793474
  frame_id: "ti_mmwave"
point_id: 15
x: 4.8828125
y: -0.30859375
z: 0.751953125
range: 5.27281332016
velocity: 0.0
doppler_bin: 8
bearing: -3.61628341675
intensity: 30.7845687866
---
header: 
  seq: 246397
  stamp: 
    secs: 1561681678
    nsecs: 556816965
  frame_id: "ti_mmwave"
point_id: 17
x: 0.041015625
y: -0.033203125
z: 0.0625
range: 0.0871539413929
velocity: 0.0
doppler_bin: 8
bearing: -38.9909973145
intensity: 30.1494026184
---
header: 
  seq: 246398
  stamp: 
    secs: 1561681678
    nsecs: 556988564
  frame_id: "ti_mmwave"
point_id: 18
x: 0.052734375
y: -0.04296875
z: 0.103515625
range: 0.130730912089
velocity: 0.0
doppler_bin: 8
bearing: -39.1736602783
intensity: 29.0363254547
---
header: 
  seq: 246399
  stamp: 
    secs: 1561681678
    nsecs: 557013771
  frame_id: "ti_mmwave"
point_id: 20
x: 1.12109375
y: -0.515625
z: 0.291015625
range: 1.35088610649
velocity: 0.0
doppler_bin: 8
bearing: -24.6991329193
intensity: 19.0308990479
---
header: 
  seq: 246400
  stamp: 
    secs: 1561681678
    nsecs: 557026856
  frame_id: "ti_mmwave"
point_id: 21
x: 2.732421875
y: -2.00390625
z: -3.083984375
range: 4.88062095642
velocity: 0.0
doppler_bin: 8
bearing: -36.2556152344
intensity: 27.8604125977
---
header: 
  seq: 246401
  stamp: 
    secs: 1561681678
    nsecs: 557038711
  frame_id: "ti_mmwave"
point_id: 22
x: 2.63671875
y: -2.021484375
z: -3.212890625
range: 4.9241976738
velocity: 0.0
doppler_bin: 8
bearing: -37.4761772156
intensity: 27.5587482452
---
header: 
  seq: 246402
  stamp: 
    secs: 1561681678
    nsecs: 614878351
  frame_id: "ti_mmwave"
point_id: 0
x: 0.01171875
y: -0.0390625
z: -0.0078125
range: 0.0435769706964
velocity: 0.0
doppler_bin: 8
bearing: -73.3007583618
intensity: 30.7990455627
---
header: 
  seq: 246403
  stamp: 
    secs: 1561681678
    nsecs: 614946147
  frame_id: "ti_mmwave"
point_id: 1
x: 0.017578125
y: -0.080078125
z: -0.0078125
range: 0.0871539413929
velocity: 0.0
doppler_bin: 8
bearing: -77.6192398071
intensity: 32.0276069641
---
header: 
  seq: 246404
  stamp: 
    secs: 1561681678
    nsecs: 614959691
  frame_id: "ti_mmwave"
point_id: 2
x: 0.041015625
y: -0.115234375
z: -0.0078125
range: 0.130730912089
velocity: 0.0
doppler_bin: 8
bearing: -70.4077224731
intensity: 30.3019485474
---
header: 
  seq: 246405
  stamp: 
    secs: 1561681678
    nsecs: 614968642
  frame_id: "ti_mmwave"
point_id: 3
x: 0.056640625
y: -0.154296875
z: 0.005859375
range: 0.174307882786
velocity: 0.0
doppler_bin: 8
bearing: -69.8423843384
intensity: 25.5630245209
---
header: 
  seq: 246406
  stamp: 
    secs: 1561681678
    nsecs: 614998011
  frame_id: "ti_mmwave"
point_id: 4
x: 0.26953125
y: -0.080078125
z: -1.236328125
range: 1.35088610649
velocity: 0.0
doppler_bin: 8
bearing: -16.5467605591
intensity: 21.9312458038
---
header: 
  seq: 246407
  stamp: 
    secs: 1561681678
    nsecs: 615011846
  frame_id: "ti_mmwave"
point_id: 5
x: 0.37109375
y: -0.041015625
z: 1.25390625
range: 1.39446306229
velocity: 0.0
doppler_bin: 8
bearing: -6.30709171295
intensity: 23.3243846893
---
header: 
  seq: 246408
  stamp: 
    secs: 1561681678
    nsecs: 615228180
  frame_id: "ti_mmwave"
point_id: 6
x: 0.443359375
y: -0.0
z: 1.275390625
range: 1.43804001808
velocity: 0.0
doppler_bin: 8
bearing: -0.0
intensity: 22.0139713287
---
header: 
  seq: 246409
  stamp: 
    secs: 1561681678
    nsecs: 615498017
  frame_id: "ti_mmwave"
point_id: 7
x: 2.27734375
y: 0.142578125
z: -0.19921875
range: 2.44031047821
velocity: 0.0
doppler_bin: 8
bearing: 3.58245301247
intensity: 26.7302093506
---
header: 
  seq: 246410
  stamp: 
    secs: 1561681678
    nsecs: 615518173
  frame_id: "ti_mmwave"
point_id: 8
x: 2.322265625
y: 0.146484375
z: -0.162109375
range: 2.48388743401
velocity: 0.0
doppler_bin: 8
bearing: 3.60933375359
intensity: 28.0888595581
---
header: 
  seq: 246411
  stamp: 
    secs: 1561681678
    nsecs: 615531821
  frame_id: "ti_mmwave"
point_id: 9
x: 2.353515625
y: 0.1484375
z: -0.259765625
range: 2.5274643898
velocity: 0.0
doppler_bin: 8
bearing: 3.60889554024
intensity: 27.0671787262
---
header: 
  seq: 246412
  stamp: 
    secs: 1561681678
    nsecs: 615623095
  frame_id: "ti_mmwave"
point_id: 10
x: 2.556640625
y: -0.263671875
z: 1.166015625
range: 3.00681090355
velocity: 0.0
doppler_bin: 8
bearing: -5.88822031021
intensity: 29.4694328308
---
header: 
  seq: 246413
  stamp: 
    secs: 1561681678
    nsecs: 615641601
  frame_id: "ti_mmwave"
point_id: 11
x: 2.609375
y: -0.267578125
z: 1.150390625
range: 3.05038785934
velocity: 0.0
doppler_bin: 8
bearing: -5.85492515564
intensity: 32.810333252
---
header: 
  seq: 246414
  stamp: 
    secs: 1561681678
    nsecs: 615654618
  frame_id: "ti_mmwave"
point_id: 12
x: 2.666015625
y: -0.181640625
z: 1.138671875
range: 3.09396481514
velocity: 0.0
doppler_bin: 8
bearing: -3.89764523506
intensity: 32.0439147949
---
header: 
  seq: 246415
  stamp: 
    secs: 1561681678
    nsecs: 615666966
  frame_id: "ti_mmwave"
point_id: 13
x: 4.412109375
y: -0.287109375
z: 1.197265625
range: 4.88062095642
velocity: 0.0
doppler_bin: 8
bearing: -3.72316122055
intensity: 30.7773113251
---
header: 
  seq: 246416
  stamp: 
    secs: 1561681678
    nsecs: 615678967
  frame_id: "ti_mmwave"
point_id: 14
x: 4.435546875
y: -0.43359375
z: 1.224609375
range: 4.9241976738
velocity: 0.0
doppler_bin: 8
bearing: -5.5831694603
intensity: 30.4414768219
---
header: 
  seq: 246417
  stamp: 
    secs: 1561681678
    nsecs: 615687334
  frame_id: "ti_mmwave"
point_id: 15
x: 4.73828125
y: -0.44921875
z: -0.5078125
range: 5.09850549698
velocity: 0.0
doppler_bin: 8
bearing: -5.4158115387
intensity: 33.0792388916
---
header: 
  seq: 246418
  stamp: 
    secs: 1561681678
    nsecs: 615753767
  frame_id: "ti_mmwave"
point_id: 16
x: 4.78515625
y: -0.453125
z: -0.4375
range: 5.14208269119
velocity: 0.0
doppler_bin: 8
bearing: -5.40942907333
intensity: 33.7474822998
---
header: 
  seq: 246419
  stamp: 
    secs: 1561681678
    nsecs: 615772766
  frame_id: "ti_mmwave"
point_id: 17
x: 4.83984375
y: -0.45703125
z: -0.26953125
range: 5.18565940857
velocity: 0.0
doppler_bin: 8
bearing: -5.39450025558
intensity: 30.6069774628
---
header: 
  seq: 246420
  stamp: 
    secs: 1561681678
    nsecs: 615786787
  frame_id: "ti_mmwave"
point_id: 18
x: 4.884765625
y: -0.30859375
z: 0.736328125
range: 5.27281332016
velocity: 0.0
doppler_bin: 8
bearing: -3.6148416996
intensity: 30.7261753082
---
header: 
  seq: 246421
  stamp: 
    secs: 1561681678
    nsecs: 615802683
  frame_id: "ti_mmwave"
point_id: 20
x: 0.041015625
y: -0.033203125
z: 0.0625
range: 0.0871539413929
velocity: 0.0
doppler_bin: 8
bearing: -38.9909973145
intensity: 30.1494026184
---
header: 
  seq: 246422
  stamp: 
    secs: 1561681678
    nsecs: 615821287
  frame_id: "ti_mmwave"
point_id: 21
x: 0.052734375
y: -0.04296875
z: 0.103515625
range: 0.130730912089
velocity: 0.0
doppler_bin: 8
bearing: -39.1736602783
intensity: 29.0308990479
---
header: 
  seq: 246423
  stamp: 
    secs: 1561681678
    nsecs: 615890105
  frame_id: "ti_mmwave"
point_id: 23
x: 1.115234375
y: -0.515625
z: 0.310546875
range: 1.35088610649
velocity: 0.0
doppler_bin: 8
bearing: -24.8133087158
intensity: 19.0308990479
---
header: 
  seq: 246424
  stamp: 
    secs: 1561681678
    nsecs: 615907959
  frame_id: "ti_mmwave"
point_id: 24
x: 2.775390625
y: -2.00390625
z: -3.044921875
range: 4.88062095642
velocity: 0.0
doppler_bin: 8
bearing: -35.830291748
intensity: 27.7959651947
---
header: 
  seq: 246425
  stamp: 
    secs: 1561681678
    nsecs: 615921970
  frame_id: "ti_mmwave"
point_id: 25
x: 2.767578125
y: -2.021484375
z: -3.099609375
range: 4.9241976738
velocity: 0.0
doppler_bin: 8
bearing: -36.1450042725
intensity: 27.466342926
---
header: 
  seq: 246426
  stamp: 
    secs: 1561681678
    nsecs: 616348791
  frame_id: "ti_mmwave"
point_id: 0
x: 0.01171875
y: -0.0390625
z: -0.0078125
range: 0.0435769706964
velocity: 0.0
doppler_bin: 8
bearing: -73.3007583618
intensity: 30.8062648773
---
header: 
  seq: 246427
  stamp: 
    secs: 1561681678
    nsecs: 616417985
  frame_id: "ti_mmwave"
point_id: 1
x: 0.017578125
y: -0.080078125
z: -0.0078125
range: 0.0871539413929
velocity: 0.0
doppler_bin: 8
bearing: -77.6192398071
intensity: 32.0276069641
---
header: 
  seq: 246428
  stamp: 
    secs: 1561681678
    nsecs: 616434784
  frame_id: "ti_mmwave"
point_id: 2
x: 0.041015625
y: -0.115234375
z: -0.0078125
range: 0.130730912089
velocity: 0.0
doppler_bin: 8
bearing: -70.4077224731
intensity: 30.3019485474
---
header: 
  seq: 246429
  stamp: 
    secs: 1561681678
    nsecs: 616448375
  frame_id: "ti_mmwave"
point_id: 3
x: 0.056640625
y: -0.154296875
z: 0.00390625
range: 0.174307882786
velocity: 0.0
doppler_bin: 8
bearing: -69.8423843384
intensity: 25.550945282
---
header: 
  seq: 246430
  stamp: 
    secs: 1561681678
    nsecs: 616464870
  frame_id: "ti_mmwave"
point_id: 4
x: 0.298828125
y: -0.080078125
z: -1.23046875
range: 1.35088610649
velocity: 0.0
doppler_bin: 8
bearing: -15.0013189316
intensity: 21.9033164978
---
header: 
  seq: 246431
  stamp: 
    secs: 1561681678
    nsecs: 616480688
  frame_id: "ti_mmwave"
point_id: 5
x: 0.34765625
y: -0.041015625
z: 1.26171875
range: 1.39446306229
velocity: 0.0
doppler_bin: 8
bearing: -6.7285118103
intensity: 23.2837963104
---
header: 
  seq: 246432
  stamp: 
    secs: 1561681678
    nsecs: 616494217
  frame_id: "ti_mmwave"
point_id: 6
x: 0.44140625
y: -0.0
z: 1.275390625
range: 1.43804001808
velocity: 0.0
doppler_bin: 8
bearing: -0.0
intensity: 21.9033164978
---
header: 
  seq: 246433
  stamp: 
    secs: 1561681678
    nsecs: 616508738
  frame_id: "ti_mmwave"
point_id: 7
x: 2.552734375
y: -0.263671875
z: 1.17578125
range: 3.00681090355
velocity: 0.0
doppler_bin: 8
bearing: -5.89716720581
intensity: 29.4743366241
---
header: 
  seq: 246434
  stamp: 
    secs: 1561681678
    nsecs: 616523442
  frame_id: "ti_mmwave"
point_id: 8
x: 2.60546875
y: -0.267578125
z: 1.16015625
range: 3.05038785934
velocity: 0.0
doppler_bin: 8
bearing: -5.86364221573
intensity: 32.7921066284
---
header: 
  seq: 246435
  stamp: 
    secs: 1561681678
    nsecs: 616537083
  frame_id: "ti_mmwave"
point_id: 9
x: 2.658203125
y: -0.181640625
z: 1.154296875
range: 3.09396481514
velocity: 0.0
doppler_bin: 8
bearing: -3.90906453133
intensity: 31.9865703583
---
header: 
  seq: 246436
  stamp: 
    secs: 1561681678
    nsecs: 616551742
  frame_id: "ti_mmwave"
point_id: 10
x: 4.4140625
y: -0.287109375
z: 1.19140625
range: 4.88062095642
velocity: 0.0
doppler_bin: 8
bearing: -3.72151875496
intensity: 30.7664051056
---
header: 
  seq: 246437
  stamp: 
    secs: 1561681678
    nsecs: 616564942
  frame_id: "ti_mmwave"
point_id: 11
x: 4.4375
y: -0.43359375
z: 1.22265625
range: 4.9241976738
velocity: 0.0
doppler_bin: 8
bearing: -5.58072710037
intensity: 30.4099769592
---
header: 
  seq: 246438
  stamp: 
    secs: 1561681678
    nsecs: 616581971
  frame_id: "ti_mmwave"
point_id: 12
x: 4.73828125
y: -0.44921875
z: -0.501953125
range: 5.09850549698
velocity: 0.0
doppler_bin: 8
bearing: -5.4158115387
intensity: 33.0835113525
---
header: 
  seq: 246439
  stamp: 
    secs: 1561681678
    nsecs: 616610191
  frame_id: "ti_mmwave"
point_id: 13
x: 4.787109375
y: -0.453125
z: -0.427734375
range: 5.14208269119
velocity: 0.0
doppler_bin: 8
bearing: -5.40723514557
intensity: 33.7857971191
---
header: 
  seq: 246440
  stamp: 
    secs: 1561681678
    nsecs: 616688620
  frame_id: "ti_mmwave"
point_id: 14
x: 4.83984375
y: -0.45703125
z: -0.236328125
range: 5.18565940857
velocity: 0.0
doppler_bin: 8
bearing: -5.39450025558
intensity: 30.86003685
---
header: 
  seq: 246441
  stamp: 
    secs: 1561681678
    nsecs: 616704006
  frame_id: "ti_mmwave"
point_id: 15
x: 4.837890625
y: -0.4609375
z: 0.69140625
range: 5.22923660278
velocity: 0.0
doppler_bin: 8
bearing: -5.44251489639
intensity: 29.8000335693
---
header: 
  seq: 246442
  stamp: 
    secs: 1561681678
    nsecs: 616718204
  frame_id: "ti_mmwave"
point_id: 16
x: 4.888671875
y: -0.30859375
z: 0.70703125
range: 5.27281332016
velocity: 0.0
doppler_bin: 8
bearing: -3.61196112633
intensity: 30.8098697662
---
header: 
  seq: 246443
  stamp: 
    secs: 1561681678
    nsecs: 616735433
  frame_id: "ti_mmwave"
point_id: 18
x: 0.041015625
y: -0.033203125
z: 0.0625
range: 0.0871539413929
velocity: 0.0
doppler_bin: 8
bearing: -38.9909973145
intensity: 30.1452045441
---
header: 
  seq: 246444
  stamp: 
    secs: 1561681678
    nsecs: 616750166
  frame_id: "ti_mmwave"
point_id: 19
x: 0.05078125
y: -0.04296875
z: 0.103515625
range: 0.130730912089
velocity: 0.0
doppler_bin: 8
bearing: -40.2363586426
intensity: 29.0363254547
---
header: 
  seq: 246445
  stamp: 
    secs: 1561681678
    nsecs: 616773173
  frame_id: "ti_mmwave"
point_id: 21
x: 1.12109375
y: -0.515625
z: 0.291015625
range: 1.35088610649
velocity: 0.0
doppler_bin: 8
bearing: -24.6991329193
intensity: 19.0308990479
---
header: 
  seq: 246446
  stamp: 
    secs: 1561681678
    nsecs: 616789417
  frame_id: "ti_mmwave"
point_id: 22
x: 2.7578125
y: -2.00390625
z: -3.060546875
range: 4.88062095642
velocity: 0.0
doppler_bin: 8
bearing: -36.003238678
intensity: 27.7959651947
---
header: 
  seq: 246447
  stamp: 
    secs: 1561681678
    nsecs: 616803105
  frame_id: "ti_mmwave"
point_id: 23
x: 2.720703125
y: -2.021484375
z: -3.142578125
range: 4.9241976738
velocity: 0.0
doppler_bin: 8
bearing: -36.6123771667
intensity: 27.481880188
---
header: 
  seq: 246448
  stamp: 
    secs: 1561681678
    nsecs: 674796100
  frame_id: "ti_mmwave"
point_id: 0
x: 0.01171875
y: -0.0390625
z: -0.0078125
range: 0.0435769706964
velocity: 0.0
doppler_bin: 8
bearing: -73.3007583618
intensity: 30.7954292297
---
header: 
  seq: 246449
  stamp: 
    secs: 1561681678
    nsecs: 674899345
  frame_id: "ti_mmwave"
point_id: 1
x: 0.017578125
y: -0.080078125
z: -0.0078125
range: 0.0871539413929
velocity: 0.0
doppler_bin: 8
bearing: -77.6192398071
intensity: 32.0248832703
---
header: 
  seq: 246450
  stamp: 
    secs: 1561681678
    nsecs: 674917995
  frame_id: "ti_mmwave"
point_id: 2
x: 0.041015625
y: -0.115234375
z: -0.0078125
range: 0.130730912089
velocity: 0.0
doppler_bin: 8
bearing: -70.4077224731
intensity: 30.2978954315
---
header: 
  seq: 246451
  stamp: 
    secs: 1561681678
    nsecs: 674934948
  frame_id: "ti_mmwave"
point_id: 3
x: 0.056640625
y: -0.154296875
z: 0.00390625
range: 0.174307882786
velocity: 0.0
doppler_bin: 8
bearing: -69.8423843384
intensity: 25.550945282
---
header: 
  seq: 246452
  stamp: 
    secs: 1561681678
    nsecs: 674948466
  frame_id: "ti_mmwave"
point_id: 4
x: 0.291015625
y: -0.080078125
z: -1.232421875
range: 1.35088610649
velocity: 0.0
doppler_bin: 8
bearing: -15.3851890564
intensity: 21.9589958191
---
header: 
  seq: 246453
  stamp: 
    secs: 1561681678
    nsecs: 674963517
  frame_id: "ti_mmwave"
point_id: 5
x: 0.359375
y: -0.041015625
z: 1.2578125
range: 1.39446306229
velocity: 0.0
doppler_bin: 8
bearing: -6.51101970673
intensity: 23.3243846893
---
header: 
  seq: 246454
  stamp: 
    secs: 1561681678
    nsecs: 674981150
  frame_id: "ti_mmwave"
point_id: 6
x: 0.4453125
y: -0.0
z: 1.275390625
range: 1.43804001808
velocity: 0.0
doppler_bin: 8
bearing: -0.0
intensity: 21.9589958191
---
header: 
  seq: 246455
  stamp: 
    secs: 1561681678
    nsecs: 674997194
  frame_id: "ti_mmwave"
point_id: 7
x: 2.232421875
y: 0.140625
z: -0.248046875
range: 2.396733284
velocity: 0.0
doppler_bin: 8
bearing: 3.60442066193
intensity: 26.8663635254
---
header: 
  seq: 246456
  stamp: 
    secs: 1561681678
    nsecs: 675016762
  frame_id: "ti_mmwave"
point_id: 8
x: 2.27734375
y: 0.142578125
z: -0.197265625
range: 2.44031047821
velocity: 0.0
doppler_bin: 8
bearing: 3.58245301247
intensity: 28.4880466461
---
header: 
  seq: 246457
  stamp: 
    secs: 1561681678
    nsecs: 675146709
  frame_id: "ti_mmwave"
point_id: 9
x: 2.546875
y: -0.263671875
z: 1.1875
range: 3.00681090355
velocity: 0.0
doppler_bin: 8
bearing: -5.91063833237
intensity: 29.4497585297
---
header: 
  seq: 246458
  stamp: 
    secs: 1561681678
    nsecs: 675180898
  frame_id: "ti_mmwave"
point_id: 10
x: 2.60546875
y: -0.267578125
z: 1.16015625
range: 3.05038785934
velocity: 0.0
doppler_bin: 8
bearing: -5.86364221573
intensity: 32.7783851624
---
header: 
  seq: 246459
  stamp: 
    secs: 1561681678
    nsecs: 675196001
  frame_id: "ti_mmwave"
point_id: 11
x: 2.662109375
y: -0.181640625
z: 1.146484375
range: 3.09396481514
velocity: 0.0
doppler_bin: 8
bearing: -3.90334677696
intensity: 32.0030326843
---
header: 
  seq: 246460
  stamp: 
    secs: 1561681678
    nsecs: 675209251
  frame_id: "ti_mmwave"
point_id: 12
x: 4.412109375
y: -0.287109375
z: 1.201171875
range: 4.88062095642
velocity: 0.0
doppler_bin: 8
bearing: -3.72316122055
intensity: 30.7918128967
---
header: 
  seq: 246461
  stamp: 
    secs: 1561681678
    nsecs: 675222168
  frame_id: "ti_mmwave"
point_id: 13
x: 4.419921875
y: -0.43359375
z: 1.283203125
range: 4.9241976738
velocity: 0.0
doppler_bin: 8
bearing: -5.60278129578
intensity: 30.3941402435
---
header: 
  seq: 246462
  stamp: 
    secs: 1561681678
    nsecs: 675236043
  frame_id: "ti_mmwave"
point_id: 14
x: 4.736328125
y: -0.44921875
z: -0.521484375
range: 5.09850549698
velocity: 0.0
doppler_bin: 8
bearing: -5.41803121567
intensity: 33.2283935547
---
header: 
  seq: 246463
  stamp: 
    secs: 1561681678
    nsecs: 675263631
  frame_id: "ti_mmwave"
point_id: 15
x: 4.78515625
y: -0.453125
z: -0.44921875
range: 5.14208269119
velocity: 0.0
doppler_bin: 8
bearing: -5.40942907333
intensity: 33.9794006348
---
header: 
  seq: 246464
  stamp: 
    secs: 1561681678
    nsecs: 675283326
  frame_id: "ti_mmwave"
point_id: 16
x: 4.837890625
y: -0.45703125
z: -0.296875
range: 5.18565940857
velocity: 0.0
doppler_bin: 8
bearing: -5.39666557312
intensity: 31.1693973541
---
header: 
  seq: 246465
  stamp: 
    secs: 1561681678
    nsecs: 675334820
  frame_id: "ti_mmwave"
point_id: 17
x: 4.88671875
y: -0.30859375
z: 0.720703125
range: 5.27281332016
velocity: 0.0
doppler_bin: 8
bearing: -3.61340069771
intensity: 30.7114524841
---
header: 
  seq: 246466
  stamp: 
    secs: 1561681678
    nsecs: 675354966
  frame_id: "ti_mmwave"
point_id: 19
x: 0.041015625
y: -0.033203125
z: 0.0625
range: 0.0871539413929
velocity: 0.0
doppler_bin: 8
bearing: -38.9909973145
intensity: 30.1452045441
---
header: 
  seq: 246467
  stamp: 
    secs: 1561681678
    nsecs: 675404297
  frame_id: "ti_mmwave"
point_id: 20
x: 0.052734375
y: -0.04296875
z: 0.103515625
range: 0.130730912089
velocity: 0.0
doppler_bin: 8
bearing: -39.1736602783
intensity: 29.0363254547
---
header: 
  seq: 246468
  stamp: 
    secs: 1561681678
    nsecs: 675419179
  frame_id: "ti_mmwave"
point_id: 22
x: 1.123046875
y: -0.515625
z: 0.28515625
range: 1.35088610649
velocity: 0.0
doppler_bin: 8
bearing: -24.6612968445
intensity: 19.0308990479
---
header: 
  seq: 246469
  stamp: 
    secs: 1561681678
    nsecs: 675431762
  frame_id: "ti_mmwave"
point_id: 23
x: 2.76171875
y: -2.00390625
z: -3.05859375
range: 4.88062095642
velocity: 0.0
doppler_bin: 8
bearing: -35.9646835327
intensity: 27.8247261047
---
header: 
  seq: 246470
  stamp: 
    secs: 1561681678
    nsecs: 675445102
  frame_id: "ti_mmwave"
point_id: 24
x: 2.796875
y: -2.021484375
z: -3.07421875
range: 4.9241976738
velocity: 0.0
doppler_bin: 8
bearing: -35.8581008911
intensity: 27.4585514069
---
header: 
  seq: 246471
  stamp: 
    secs: 1561681678
    nsecs: 734989424
  frame_id: "ti_mmwave"
point_id: 0
x: 0.01171875
y: -0.0390625
z: -0.0078125
range: 0.0435769706964
velocity: 0.0
doppler_bin: 8
bearing: -73.3007583618
intensity: 30.8026561737
---
header: 
  seq: 246472
  stamp: 
    secs: 1561681678
    nsecs: 735065924
  frame_id: "ti_mmwave"
point_id: 1
x: 0.017578125
y: -0.080078125
z: -0.0078125
range: 0.0871539413929
velocity: 0.0
doppler_bin: 8
bearing: -77.6192398071
intensity: 32.0276069641
---
header: 
  seq: 246473
  stamp: 
    secs: 1561681678
    nsecs: 735077470
  frame_id: "ti_mmwave"
point_id: 2
x: 0.041015625
y: -0.115234375
z: -0.0078125
range: 0.130730912089
velocity: 0.0
doppler_bin: 8
bearing: -70.4077224731
intensity: 30.3019485474
---
header: 
  seq: 246474
  stamp: 
    secs: 1561681678
    nsecs: 735086049
  frame_id: "ti_mmwave"
point_id: 3
x: 0.056640625
y: -0.154296875
z: 0.005859375
range: 0.174307882786
velocity: 0.0
doppler_bin: 8
bearing: -69.8423843384
intensity: 25.5388298035
---
header: 
  seq: 246475
  stamp: 
    secs: 1561681678
    nsecs: 735094132
  frame_id: "ti_mmwave"
point_id: 4
x: 0.296875
y: -0.080078125
z: -1.23046875
range: 1.35088610649
velocity: 0.0
doppler_bin: 8
bearing: -15.0955219269
intensity: 21.9865703583
---
header: 
  seq: 246476
  stamp: 
    secs: 1561681678
    nsecs: 735102448
  frame_id: "ti_mmwave"
point_id: 5
x: 0.349609375
y: -0.041015625
z: 1.26171875
range: 1.39446306229
velocity: 0.0
doppler_bin: 8
bearing: -6.69126462936
intensity: 23.344537735
---
header: 
  seq: 246477
  stamp: 
    secs: 1561681678
    nsecs: 735110757
  frame_id: "ti_mmwave"
point_id: 6
x: 0.443359375
y: -0.0
z: 1.275390625
range: 1.43804001808
velocity: 0.0
doppler_bin: 8
bearing: -0.0
intensity: 21.9865703583
---
header: 
  seq: 246478
  stamp: 
    secs: 1561681678
    nsecs: 735121674
  frame_id: "ti_mmwave"
point_id: 7
x: 2.30078125
y: 0.291015625
z: -0.2421875
range: 2.48388743401
velocity: 0.0
doppler_bin: 8
bearing: 7.20880889893
intensity: 27.201593399
---
header: 
  seq: 246479
  stamp: 
    secs: 1561681678
    nsecs: 735130498
  frame_id: "ti_mmwave"
point_id: 8
x: 2.55078125
y: -0.263671875
z: 1.177734375
range: 3.00681090355
velocity: 0.0
doppler_bin: 8
bearing: -5.90165042877
intensity: 29.4546852112
---
header: 
  seq: 246480
  stamp: 
    secs: 1561681678
    nsecs: 735139079
  frame_id: "ti_mmwave"
point_id: 9
x: 2.60546875
y: -0.267578125
z: 1.15625
range: 3.05038785934
velocity: 0.0
doppler_bin: 8
bearing: -5.86364221573
intensity: 32.7966690063
---
header: 
  seq: 246481
  stamp: 
    secs: 1561681678
    nsecs: 735146908
  frame_id: "ti_mmwave"
point_id: 10
x: 2.662109375
y: -0.181640625
z: 1.1484375
range: 3.09396481514
velocity: 0.0
doppler_bin: 8
bearing: -3.90334677696
intensity: 32.0139694214
---
header: 
  seq: 246482
  stamp: 
    secs: 1561681678
    nsecs: 735155553
  frame_id: "ti_mmwave"
point_id: 11
x: 4.412109375
y: -0.287109375
z: 1.19921875
range: 4.88062095642
velocity: 0.0
doppler_bin: 8
bearing: -3.72316122055
intensity: 30.7445068359
---
header: 
  seq: 246483
  stamp: 
    secs: 1561681678
    nsecs: 735163601
  frame_id: "ti_mmwave"
point_id: 12
x: 4.40234375
y: -0.43359375
z: 1.33984375
range: 4.9241976738
velocity: 0.0
doppler_bin: 8
bearing: -5.62500953674
intensity: 30.2366390228
---
header: 
  seq: 246484
  stamp: 
    secs: 1561681678
    nsecs: 735171095
  frame_id: "ti_mmwave"
point_id: 13
x: 4.734375
y: -0.44921875
z: -0.537109375
range: 5.09850549698
velocity: 0.0
doppler_bin: 8
bearing: -5.42025327682
intensity: 33.1889762878
---
header: 
  seq: 246485
  stamp: 
    secs: 1561681678
    nsecs: 735248340
  frame_id: "ti_mmwave"
point_id: 14
x: 4.783203125
y: -0.453125
z: -0.46875
range: 5.14208269119
velocity: 0.0
doppler_bin: 8
bearing: -5.41162490845
intensity: 33.7621192932
---
header: 
  seq: 246486
  stamp: 
    secs: 1561681678
    nsecs: 735259913
  frame_id: "ti_mmwave"
point_id: 15
x: 4.837890625
y: -0.45703125
z: -0.302734375
range: 5.18565940857
velocity: 0.0
doppler_bin: 8
bearing: -5.39666557312
intensity: 30.4178733826
---
header: 
  seq: 246487
  stamp: 
    secs: 1561681678
    nsecs: 735268196
  frame_id: "ti_mmwave"
point_id: 16
x: 4.892578125
y: -0.30859375
z: 0.689453125
range: 5.27281332016
velocity: 0.0
doppler_bin: 8
bearing: -3.60908436775
intensity: 30.8062648773
---
header: 
  seq: 246488
  stamp: 
    secs: 1561681678
    nsecs: 735278090
  frame_id: "ti_mmwave"
point_id: 18
x: 0.041015625
y: -0.033203125
z: 0.0625
range: 0.0871539413929
velocity: 0.0
doppler_bin: 8
bearing: -38.9909973145
intensity: 30.1452045441
---
header: 
  seq: 246489
  stamp: 
    secs: 1561681678
    nsecs: 735286215
  frame_id: "ti_mmwave"
point_id: 19
x: 0.052734375
y: -0.04296875
z: 0.103515625
range: 0.130730912089
velocity: 0.0
doppler_bin: 8
bearing: -39.1736602783
intensity: 29.0308990479
---
header: 
  seq: 246490
  stamp: 
    secs: 1561681678
    nsecs: 735295627
  frame_id: "ti_mmwave"
point_id: 21
x: 2.8515625
y: -2.021484375
z: -3.0234375
range: 4.9241976738
velocity: 0.0
doppler_bin: 8
bearing: -35.3329849243
intensity: 27.283536911
---
header: 
  seq: 246491
  stamp: 
    secs: 1561681678
    nsecs: 736525185
  frame_id: "ti_mmwave"
point_id: 0
x: 0.01171875
y: -0.0390625
z: -0.0078125
range: 0.0435769706964
velocity: 0.0
doppler_bin: 8
bearing: -73.3007583618
intensity: 30.8026561737
---
header: 
  seq: 246492
  stamp: 
    secs: 1561681678
    nsecs: 736588153
  frame_id: "ti_mmwave"
point_id: 1
x: 0.017578125
y: -0.080078125
z: -0.0078125
range: 0.0871539413929
velocity: 0.0
doppler_bin: 8
bearing: -77.6192398071
intensity: 32.0276069641
---
header: 
  seq: 246493
  stamp: 
    secs: 1561681678
    nsecs: 736607450
  frame_id: "ti_mmwave"
point_id: 2
x: 0.041015625
y: -0.115234375
z: -0.0078125
range: 0.130730912089
velocity: 0.0
doppler_bin: 8
bearing: -70.4077224731
intensity: 30.2978954315
---
header: 
  seq: 246494
  stamp: 
    secs: 1561681678
    nsecs: 736670834
  frame_id: "ti_mmwave"
point_id: 3
x: 0.056640625
y: -0.154296875
z: 0.005859375
range: 0.174307882786
velocity: 0.0
doppler_bin: 8
bearing: -69.8423843384
intensity: 25.550945282
---
header: 
  seq: 246495
  stamp: 
    secs: 1561681678
    nsecs: 736690011
  frame_id: "ti_mmwave"
point_id: 4
x: 0.302734375
y: -0.080078125
z: -1.228515625
range: 1.35088610649
velocity: 0.0
doppler_bin: 8
bearing: -14.8163175583
intensity: 21.9589958191
---
header: 
  seq: 246496
  stamp: 
    secs: 1561681678
    nsecs: 736703482
  frame_id: "ti_mmwave"
point_id: 5
x: 0.341796875
y: -0.041015625
z: 1.263671875
range: 1.39446306229
velocity: 0.0
doppler_bin: 8
bearing: -6.8427734375
intensity: 23.3243846893
---
header: 
  seq: 246497
  stamp: 
    secs: 1561681678
    nsecs: 736717862
  frame_id: "ti_mmwave"
point_id: 6
x: 0.4375
y: -0.0
z: 1.27734375
range: 1.43804001808
velocity: 0.0
doppler_bin: 8
bearing: -0.0
intensity: 21.9865703583
---
header: 
  seq: 246498
  stamp: 
    secs: 1561681678
    nsecs: 736768611
  frame_id: "ti_mmwave"
point_id: 7
x: 2.23828125
y: 0.140625
z: -0.181640625
range: 2.396733284
velocity: 0.0
doppler_bin: 8
bearing: 3.59500956535
intensity: 28.7506122589
---
header: 
  seq: 246499
  stamp: 
    secs: 1561681678
    nsecs: 736782394
  frame_id: "ti_mmwave"
point_id: 8
x: 2.275390625
y: 0.21484375
z: -0.1640625
range: 2.44031047821
velocity: 0.0
doppler_bin: 8
bearing: 5.39391040802
intensity: 30.0774784088
---
header: 
  seq: 246500
  stamp: 
    secs: 1561681678
    nsecs: 736798462
  frame_id: "ti_mmwave"
point_id: 9
x: 2.318359375
y: 0.21875
z: -0.10546875
range: 2.48388743401
velocity: 0.0
doppler_bin: 8
bearing: 5.39021444321
intensity: 28.3442077637
---
header: 
  seq: 246501
  stamp: 
    secs: 1561681678
    nsecs: 736807534
  frame_id: "ti_mmwave"
point_id: 10
x: 2.5390625
y: -0.263671875
z: 1.203125
range: 3.00681090355
velocity: 0.0
doppler_bin: 8
bearing: -5.92869567871
intensity: 29.4349460602
---
header: 
  seq: 246502
  stamp: 
    secs: 1561681678
    nsecs: 736819374
  frame_id: "ti_mmwave"
point_id: 11
x: 2.6015625
y: -0.267578125
z: 1.16796875
range: 3.05038785934
velocity: 0.0
doppler_bin: 8
bearing: -5.87238502502
intensity: 32.8035087585
---
header: 
  seq: 246503
  stamp: 
    secs: 1561681678
    nsecs: 736837060
  frame_id: "ti_mmwave"
point_id: 12
x: 2.66015625
y: -0.181640625
z: 1.150390625
range: 3.09396481514
velocity: 0.0
doppler_bin: 8
bearing: -3.90620398521
intensity: 32.0411987305
---
header: 
  seq: 246504
  stamp: 
    secs: 1561681678
    nsecs: 736929649
  frame_id: "ti_mmwave"
point_id: 13
x: 4.419921875
y: -0.287109375
z: 1.173828125
range: 4.88062095642
velocity: 0.0
doppler_bin: 8
bearing: -3.71659874916
intensity: 30.7700424194
---
header: 
  seq: 246505
  stamp: 
    secs: 1561681678
    nsecs: 736946440
  frame_id: "ti_mmwave"
point_id: 14
x: 4.46875
y: -0.43359375
z: 1.1015625
range: 4.9241976738
velocity: 0.0
doppler_bin: 8
bearing: -5.54194545746
intensity: 30.5956344604
---
header: 
  seq: 246506
  stamp: 
    secs: 1561681678
    nsecs: 736959810
  frame_id: "ti_mmwave"
point_id: 15
x: 4.677734375
y: -0.4453125
z: -0.658203125
range: 5.0549287796
velocity: 0.0
doppler_bin: 8
bearing: -5.43807411194
intensity: 29.3851966858
---
header: 
  seq: 246507
  stamp: 
    secs: 1561681678
    nsecs: 737045709
  frame_id: "ti_mmwave"
point_id: 16
x: 4.732421875
y: -0.44921875
z: -0.548828125
range: 5.09850549698
velocity: 0.0
doppler_bin: 8
bearing: -5.42247676849
intensity: 33.0856437683
---
header: 
  seq: 246508
  stamp: 
    secs: 1561681678
    nsecs: 737060991
  frame_id: "ti_mmwave"
point_id: 17
x: 4.783203125
y: -0.453125
z: -0.462890625
range: 5.14208269119
velocity: 0.0
doppler_bin: 8
bearing: -5.41162490845
intensity: 33.6921577454
---
header: 
  seq: 246509
  stamp: 
    secs: 1561681678
    nsecs: 737094674
  frame_id: "ti_mmwave"
point_id: 18
x: 4.83984375
y: -0.45703125
z: -0.25
range: 5.18565940857
velocity: 0.0
doppler_bin: 8
bearing: -5.39450025558
intensity: 30.6669845581
---
header: 
  seq: 246510
  stamp: 
    secs: 1561681678
    nsecs: 737112908
  frame_id: "ti_mmwave"
point_id: 19
x: 4.869140625
y: -0.306640625
z: 0.541015625
range: 5.22923660278
velocity: 0.0
doppler_bin: 8
bearing: -3.60351896286
intensity: 30.1199302673
---
header: 
  seq: 246511
  stamp: 
    secs: 1561681678
    nsecs: 737126933
  frame_id: "ti_mmwave"
point_id: 20
x: 4.890625
y: -0.30859375
z: 0.697265625
range: 5.27281332016
velocity: 0.0
doppler_bin: 8
bearing: -3.61052203178
intensity: 30.8206691742
---
header: 
  seq: 246512
  stamp: 
    secs: 1561681678
    nsecs: 737141757
  frame_id: "ti_mmwave"
point_id: 22
x: 0.041015625
y: -0.033203125
z: 0.0625
range: 0.0871539413929
velocity: 0.0
doppler_bin: 8
bearing: -38.9909973145
intensity: 30.1494026184
---
header: 
  seq: 246513
  stamp: 
    secs: 1561681678
    nsecs: 737153731
  frame_id: "ti_mmwave"
point_id: 23
x: 0.052734375
y: -0.04296875
z: 0.103515625
range: 0.130730912089
velocity: 0.0
doppler_bin: 8
bearing: -39.1736602783
intensity: 29.0308990479
---
header: 
  seq: 246514
  stamp: 
    secs: 1561681678
    nsecs: 737164332
  frame_id: "ti_mmwave"
point_id: 25
x: 2.787109375
y: -2.00390625
z: -3.033203125
range: 4.88062095642
velocity: 0.0
doppler_bin: 8
bearing: -35.7157897949
intensity: 27.7959651947
---
header: 
  seq: 246515
  stamp: 
    secs: 1561681678
    nsecs: 794734524
  frame_id: "ti_mmwave"
point_id: 0
x: 0.01171875
y: -0.0390625
z: -0.0078125
range: 0.0435769706964
velocity: 0.0
doppler_bin: 8
bearing: -73.3007583618
intensity: 30.8026561737
---
header: 
  seq: 246516
  stamp: 
    secs: 1561681678
    nsecs: 794808399
  frame_id: "ti_mmwave"
point_id: 1
x: 0.017578125
y: -0.080078125
z: -0.0078125
range: 0.0871539413929
velocity: 0.0
doppler_bin: 8
bearing: -77.6192398071
intensity: 32.030330658
---
header: 
  seq: 246517
  stamp: 
    secs: 1561681678
    nsecs: 794822285
  frame_id: "ti_mmwave"
point_id: 2
x: 0.041015625
y: -0.115234375
z: -0.0078125
range: 0.130730912089
velocity: 0.0
doppler_bin: 8
bearing: -70.4077224731
intensity: 30.3059978485
---
header: 
  seq: 246518
  stamp: 
    secs: 1561681678
    nsecs: 794831926
  frame_id: "ti_mmwave"
point_id: 3
x: 0.056640625
y: -0.154296875
z: 0.005859375
range: 0.174307882786
velocity: 0.0
doppler_bin: 8
bearing: -69.8423843384
intensity: 25.5630245209
---
header: 
  seq: 246519
  stamp: 
    secs: 1561681678
    nsecs: 794840130
  frame_id: "ti_mmwave"
point_id: 4
x: 0.26171875
y: -0.080078125
z: -1.23828125
range: 1.35088610649
velocity: 0.0
doppler_bin: 8
bearing: -17.0125484467
intensity: 21.9312458038
---
header: 
  seq: 246520
  stamp: 
    secs: 1561681678
    nsecs: 794848066
  frame_id: "ti_mmwave"
point_id: 5
x: 0.369140625
y: -0.041015625
z: 1.255859375
range: 1.39446306229
velocity: 0.0
doppler_bin: 8
bearing: -6.34019184113
intensity: 23.344537735
---
header: 
  seq: 246521
  stamp: 
    secs: 1561681678
    nsecs: 794855873
  frame_id: "ti_mmwave"
point_id: 6
x: 0.447265625
y: -0.0
z: 1.2734375
range: 1.43804001808
velocity: 0.0
doppler_bin: 8
bearing: -0.0
intensity: 21.9865703583
---
header: 
  seq: 246522
  stamp: 
    secs: 1561681678
    nsecs: 794863630
  frame_id: "ti_mmwave"
point_id: 7
x: 2.28125
y: 0.21484375
z: 0.01953125
range: 2.44031047821
velocity: 0.0
doppler_bin: 8
bearing: 5.38013744354
intensity: 26.7209777832
---
header: 
  seq: 246523
  stamp: 
    secs: 1561681678
    nsecs: 794873642
  frame_id: "ti_mmwave"
point_id: 8
x: 2.55078125
y: -0.263671875
z: 1.177734375
range: 3.00681090355
velocity: 0.0
doppler_bin: 8
bearing: -5.90165042877
intensity: 29.4939002991
---
header: 
  seq: 246524
  stamp: 
    secs: 1561681678
    nsecs: 794883857
  frame_id: "ti_mmwave"
point_id: 9
x: 2.60546875
y: -0.267578125
z: 1.15625
range: 3.05038785934
velocity: 0.0
doppler_bin: 8
bearing: -5.86364221573
intensity: 32.7943878174
---
header: 
  seq: 246525
  stamp: 
    secs: 1561681678
    nsecs: 794892024
  frame_id: "ti_mmwave"
point_id: 10
x: 2.66015625
y: -0.181640625
z: 1.150390625
range: 3.09396481514
velocity: 0.0
doppler_bin: 8
bearing: -3.90620398521
intensity: 32.0030326843
---
header: 
  seq: 246526
  stamp: 
    secs: 1561681678
    nsecs: 794902346
  frame_id: "ti_mmwave"
point_id: 11
x: 4.416015625
y: -0.287109375
z: 1.189453125
range: 4.88062095642
velocity: 0.0
doppler_bin: 8
bearing: -3.71987724304
intensity: 30.7736797333
---
header: 
  seq: 246527
  stamp: 
    secs: 1561681678
    nsecs: 794911022
  frame_id: "ti_mmwave"
point_id: 12
x: 4.46484375
y: -0.43359375
z: 1.115234375
range: 4.9241976738
velocity: 0.0
doppler_bin: 8
bearing: -5.54676389694
intensity: 30.5307846069
---
header: 
  seq: 246528
  stamp: 
    secs: 1561681678
    nsecs: 794921530
  frame_id: "ti_mmwave"
point_id: 13
x: 4.736328125
y: -0.44921875
z: -0.5234375
range: 5.09850549698
velocity: 0.0
doppler_bin: 8
bearing: -5.41803121567
intensity: 33.2858352661
---
header: 
  seq: 246529
  stamp: 
    secs: 1561681678
    nsecs: 795062083
  frame_id: "ti_mmwave"
point_id: 14
x: 4.783203125
y: -0.453125
z: -0.458984375
range: 5.14208269119
velocity: 0.0
doppler_bin: 8
bearing: -5.41162490845
intensity: 33.9410133362
---
header: 
  seq: 246530
  stamp: 
    secs: 1561681678
    nsecs: 795080851
  frame_id: "ti_mmwave"
point_id: 15
x: 4.8359375
y: -0.45703125
z: -0.310546875
range: 5.18565940857
velocity: 0.0
doppler_bin: 8
bearing: -5.39883232117
intensity: 30.8849048615
---
header: 
  seq: 246531
  stamp: 
    secs: 1561681678
    nsecs: 795091686
  frame_id: "ti_mmwave"
point_id: 16
x: 4.89453125
y: -0.30859375
z: 0.67578125
range: 5.27281332016
velocity: 0.0
doppler_bin: 8
bearing: -3.60764837265
intensity: 30.6520614624
---
header: 
  seq: 246532
  stamp: 
    secs: 1561681678
    nsecs: 795102359
  frame_id: "ti_mmwave"
point_id: 18
x: 0.041015625
y: -0.033203125
z: 0.0625
range: 0.0871539413929
velocity: 0.0
doppler_bin: 8
bearing: -38.9909973145
intensity: 30.1452045441
---
header: 
  seq: 246533
  stamp: 
    secs: 1561681678
    nsecs: 795110381
  frame_id: "ti_mmwave"
point_id: 19
x: 0.052734375
y: -0.04296875
z: 0.103515625
range: 0.130730912089
velocity: 0.0
doppler_bin: 8
bearing: -39.1736602783
intensity: 29.0308990479
---
header: 
  seq: 246534
  stamp: 
    secs: 1561681678
    nsecs: 796231629
  frame_id: "ti_mmwave"
point_id: 0
x: 0.01171875
y: -0.0390625
z: -0.0078125
range: 0.0435769706964
velocity: 0.0
doppler_bin: 8
bearing: -73.3007583618
intensity: 30.8026561737
---
header: 
  seq: 246535
  stamp: 
    secs: 1561681678
    nsecs: 796288936
  frame_id: "ti_mmwave"
point_id: 1
x: 0.017578125
y: -0.080078125
z: -0.0078125
range: 0.0871539413929
velocity: 0.0
doppler_bin: 8
bearing: -77.6192398071
intensity: 32.030330658
---
header: 
  seq: 246536
  stamp: 
    secs: 1561681678
    nsecs: 796305629
  frame_id: "ti_mmwave"
point_id: 2
x: 0.041015625
y: -0.115234375
z: -0.0078125
range: 0.130730912089
velocity: 0.0
doppler_bin: 8
bearing: -70.4077224731
intensity: 30.3019485474
---
header: 
  seq: 246537
  stamp: 
    secs: 1561681678
    nsecs: 796323392
  frame_id: "ti_mmwave"
point_id: 3
x: 0.056640625
y: -0.154296875
z: 0.00390625
range: 0.174307882786
velocity: 0.0
doppler_bin: 8
bearing: -69.8423843384
intensity: 25.550945282
---
header: 
  seq: 246538
  stamp: 
    secs: 1561681678
    nsecs: 796387868
  frame_id: "ti_mmwave"
point_id: 4
x: 0.3046875
y: -0.080078125
z: -1.228515625
range: 1.35088610649
velocity: 0.0
doppler_bin: 8
bearing: -14.7254829407
intensity: 21.9865703583
---
header: 
  seq: 246539
  stamp: 
    secs: 1561681678
    nsecs: 796402534
  frame_id: "ti_mmwave"
point_id: 5
x: 0.357421875
y: -0.041015625
z: 1.2578125
range: 1.39446306229
velocity: 0.0
doppler_bin: 8
bearing: -6.54629087448
intensity: 23.3243846893
---
header: 
  seq: 246540
  stamp: 
    secs: 1561681678
    nsecs: 796414280
  frame_id: "ti_mmwave"
point_id: 6
x: 0.451171875
y: -0.0
z: 1.271484375
range: 1.43804001808
velocity: 0.0
doppler_bin: 8
bearing: -0.0
intensity: 21.9865703583
---
header: 
  seq: 246541
  stamp: 
    secs: 1561681678
    nsecs: 796425664
  frame_id: "ti_mmwave"
point_id: 7
x: 2.564453125
y: -0.263671875
z: 1.1484375
range: 3.00681090355
velocity: 0.0
doppler_bin: 8
bearing: -5.87040758133
intensity: 29.5230808258
---
header: 
  seq: 246542
  stamp: 
    secs: 1561681678
    nsecs: 796438618
  frame_id: "ti_mmwave"
point_id: 8
x: 2.607421875
y: -0.267578125
z: 1.150390625
range: 3.05038785934
velocity: 0.0
doppler_bin: 8
bearing: -5.85928010941
intensity: 32.8080596924
---
header: 
  seq: 246543
  stamp: 
    secs: 1561681678
    nsecs: 796452059
  frame_id: "ti_mmwave"
point_id: 9
x: 2.6640625
y: -0.181640625
z: 1.142578125
range: 3.09396481514
velocity: 0.0
doppler_bin: 8
bearing: -3.90049386024
intensity: 32.0411987305
---
header: 
  seq: 246544
  stamp: 
    secs: 1561681678
    nsecs: 796461929
  frame_id: "ti_mmwave"
point_id: 10
x: 4.419921875
y: -0.287109375
z: 1.16796875
range: 4.88062095642
velocity: 0.0
doppler_bin: 8
bearing: -3.71659874916
intensity: 30.7845687866
---
header: 
  seq: 246545
  stamp: 
    secs: 1561681678
    nsecs: 796483323
  frame_id: "ti_mmwave"
point_id: 11
x: 4.48828125
y: -0.43359375
z: 1.013671875
range: 4.9241976738
velocity: 0.0
doppler_bin: 8
bearing: -5.51797771454
intensity: 30.6855697632
---
header: 
  seq: 246546
  stamp: 
    secs: 1561681678
    nsecs: 796500933
  frame_id: "ti_mmwave"
point_id: 12
x: 4.677734375
y: -0.4453125
z: -0.658203125
range: 5.0549287796
velocity: 0.0
doppler_bin: 8
bearing: -5.43807411194
intensity: 29.5520648956
---
header: 
  seq: 246547
  stamp: 
    secs: 1561681678
    nsecs: 796565917
  frame_id: "ti_mmwave"
point_id: 13
x: 4.74609375
y: -0.298828125
z: -0.533203125
range: 5.09850549698
velocity: 0.0
doppler_bin: 8
bearing: -3.60275626183
intensity: 33.3284225464
---
header: 
  seq: 246548
  stamp: 
    secs: 1561681678
    nsecs: 796579925
  frame_id: "ti_mmwave"
point_id: 14
x: 4.78125
y: -0.453125
z: -0.4921875
range: 5.14208269119
velocity: 0.0
doppler_bin: 8
bearing: -5.41382265091
intensity: 34.0568771362
---
header: 
  seq: 246549
  stamp: 
    secs: 1561681678
    nsecs: 796592463
  frame_id: "ti_mmwave"
point_id: 15
x: 4.830078125
y: -0.45703125
z: -0.392578125
range: 5.18565940857
velocity: 0.0
doppler_bin: 8
bearing: -5.40534305573
intensity: 31.1859531403
---
header: 
  seq: 246550
  stamp: 
    secs: 1561681678
    nsecs: 796606393
  frame_id: "ti_mmwave"
point_id: 16
x: 4.853515625
y: -0.4609375
z: 0.5703125
range: 5.22923660278
velocity: 0.0
doppler_bin: 8
bearing: -5.42509841919
intensity: 29.7818050385
---
header: 
  seq: 246551
  stamp: 
    secs: 1561681678
    nsecs: 796621198
  frame_id: "ti_mmwave"
point_id: 17
x: 4.869140625
y: -0.46484375
z: 0.751953125
range: 5.27281332016
velocity: 0.0
doppler_bin: 8
bearing: -5.45334625244
intensity: 30.6258201599
---
header: 
  seq: 246552
  stamp: 
    secs: 1561681678
    nsecs: 796637274
  frame_id: "ti_mmwave"
point_id: 19
x: 0.041015625
y: -0.033203125
z: 0.0625
range: 0.0871539413929
velocity: 0.0
doppler_bin: 8
bearing: -38.9909973145
intensity: 30.1494026184
---
header: 
  seq: 246553
  stamp: 
    secs: 1561681678
    nsecs: 796649268
  frame_id: "ti_mmwave"
point_id: 20
x: 0.052734375
y: -0.04296875
z: 0.103515625
range: 0.130730912089
velocity: 0.0
doppler_bin: 8
bearing: -39.1736602783
intensity: 29.0308990479
---
header: 
  seq: 246554
  stamp: 
    secs: 1561681678
    nsecs: 796665895
  frame_id: "ti_mmwave"
point_id: 22
x: 1.123046875
y: -0.515625
z: 0.283203125
range: 1.35088610649
velocity: 0.0
doppler_bin: 8
bearing: -24.6612968445
intensity: 19.0848503113
---
header: 
  seq: 246555
  stamp: 
    secs: 1561681678
    nsecs: 796729608
  frame_id: "ti_mmwave"
point_id: 23
x: 2.728515625
y: -2.00390625
z: -3.087890625
range: 4.88062095642
velocity: 0.0
doppler_bin: 8
bearing: -36.294708252
intensity: 27.8247261047
---
header: 
  seq: 246556
  stamp: 
    secs: 1561681678
    nsecs: 855018781
  frame_id: "ti_mmwave"
point_id: 0
x: 0.01171875
y: -0.0390625
z: -0.0078125
range: 0.0435769706964
velocity: 0.0
doppler_bin: 8
bearing: -73.3007583618
intensity: 30.8170719147
---
header: 
  seq: 246557
  stamp: 
    secs: 1561681678
    nsecs: 855098425
  frame_id: "ti_mmwave"
point_id: 1
x: 0.017578125
y: -0.080078125
z: -0.0078125
range: 0.0871539413929
velocity: 0.0
doppler_bin: 8
bearing: -77.6192398071
intensity: 32.0330505371
---
header: 
  seq: 246558
  stamp: 
    secs: 1561681678
    nsecs: 855115939
  frame_id: "ti_mmwave"
point_id: 2
x: 0.041015625
y: -0.115234375
z: -0.0078125
range: 0.130730912089
velocity: 0.0
doppler_bin: 8
bearing: -70.4077224731
intensity: 30.3059978485
---
header: 
  seq: 246559
  stamp: 
    secs: 1561681678
    nsecs: 855129494
  frame_id: "ti_mmwave"
point_id: 3
x: 0.056640625
y: -0.154296875
z: 0.005859375
range: 0.174307882786
velocity: 0.0
doppler_bin: 8
bearing: -69.8423843384
intensity: 25.5630245209
---
header: 
  seq: 246560
  stamp: 
    secs: 1561681678
    nsecs: 855140685
  frame_id: "ti_mmwave"
point_id: 4
x: 0.30078125
y: -0.080078125
z: -1.228515625
range: 1.35088610649
velocity: 0.0
doppler_bin: 8
bearing: -14.9082593918
intensity: 21.9589958191
---
header: 
  seq: 246561
  stamp: 
    secs: 1561681678
    nsecs: 855219929
  frame_id: "ti_mmwave"
point_id: 5
x: 0.345703125
y: -0.041015625
z: 1.26171875
range: 1.39446306229
velocity: 0.0
doppler_bin: 8
bearing: -6.76617479324
intensity: 23.2837963104
---
header: 
  seq: 246562
  stamp: 
    secs: 1561681678
    nsecs: 855233636
  frame_id: "ti_mmwave"
point_id: 6
x: 0.435546875
y: -0.0
z: 1.27734375
range: 1.43804001808
velocity: 0.0
doppler_bin: 8
bearing: -0.0
intensity: 21.9033164978
---
header: 
  seq: 246563
  stamp: 
    secs: 1561681678
    nsecs: 855245404
  frame_id: "ti_mmwave"
point_id: 7
x: 2.2734375
y: 0.287109375
z: 0.01953125
range: 2.44031047821
velocity: 0.0
doppler_bin: 8
bearing: 7.19770288467
intensity: 27.466342926
---
header: 
  seq: 246564
  stamp: 
    secs: 1561681678
    nsecs: 855258206
  frame_id: "ti_mmwave"
point_id: 8
x: 2.3125
y: 0.291015625
z: -0.078125
range: 2.48388743401
velocity: 0.0
doppler_bin: 8
bearing: 7.17265892029
intensity: 27.1180725098
---
header: 
  seq: 246565
  stamp: 
    secs: 1561681678
    nsecs: 855269136
  frame_id: "ti_mmwave"
point_id: 9
x: 2.548828125
y: -0.263671875
z: 1.181640625
range: 3.00681090355
velocity: 0.0
doppler_bin: 8
bearing: -5.90614128113
intensity: 29.5036487579
---
header: 
  seq: 246566
  stamp: 
    secs: 1561681678
    nsecs: 855282084
  frame_id: "ti_mmwave"
point_id: 10
x: 2.6015625
y: -0.267578125
z: 1.1640625
range: 3.05038785934
velocity: 0.0
doppler_bin: 8
bearing: -5.87238502502
intensity: 32.8126068115
---
header: 
  seq: 246567
  stamp: 
    secs: 1561681678
    nsecs: 855293940
  frame_id: "ti_mmwave"
point_id: 11
x: 2.658203125
y: -0.181640625
z: 1.154296875
range: 3.09396481514
velocity: 0.0
doppler_bin: 8
bearing: -3.90906453133
intensity: 32.0736503601
---
header: 
  seq: 246568
  stamp: 
    secs: 1561681678
    nsecs: 855305541
  frame_id: "ti_mmwave"
point_id: 12
x: 4.42578125
y: -0.287109375
z: 1.1484375
range: 4.88062095642
velocity: 0.0
doppler_bin: 8
bearing: -3.7116920948
intensity: 30.8134727478
---
header: 
  seq: 246569
  stamp: 
    secs: 1561681678
    nsecs: 855318577
  frame_id: "ti_mmwave"
point_id: 13
x: 4.5078125
y: -0.43359375
z: 0.927734375
range: 4.9241976738
velocity: 0.0
doppler_bin: 8
bearing: -5.49421644211
intensity: 30.8386077881
---
header: 
  seq: 246570
  stamp: 
    secs: 1561681678
    nsecs: 855330518
  frame_id: "ti_mmwave"
point_id: 14
x: 4.67578125
y: -0.4453125
z: -0.681640625
range: 5.0549287796
velocity: 0.0
doppler_bin: 8
bearing: -5.44033241272
intensity: 29.5520648956
---
header: 
  seq: 246571
  stamp: 
    secs: 1561681678
    nsecs: 855349435
  frame_id: "ti_mmwave"
point_id: 15
x: 4.748046875
y: -0.298828125
z: -0.529296875
range: 5.09850549698
velocity: 0.0
doppler_bin: 8
bearing: -3.60127830505
intensity: 33.2139129639
---
header: 
  seq: 246572
  stamp: 
    secs: 1561681678
    nsecs: 855454738
  frame_id: "ti_mmwave"
point_id: 16
x: 4.78515625
y: -0.453125
z: -0.453125
range: 5.14208269119
velocity: 0.0
doppler_bin: 8
bearing: -5.40942907333
intensity: 33.8632049561
---
header: 
  seq: 246573
  stamp: 
    secs: 1561681678
    nsecs: 855472768
  frame_id: "ti_mmwave"
point_id: 17
x: 4.83984375
y: -0.45703125
z: -0.2578125
range: 5.18565940857
velocity: 0.0
doppler_bin: 8
bearing: -5.39450025558
intensity: 30.788192749
---
header: 
  seq: 246574
  stamp: 
    secs: 1561681678
    nsecs: 855486157
  frame_id: "ti_mmwave"
point_id: 18
x: 4.849609375
y: -0.46484375
z: 0.873046875
range: 5.27281332016
velocity: 0.0
doppler_bin: 8
bearing: -5.47517633438
intensity: 30.6707077026
---
header: 
  seq: 246575
  stamp: 
    secs: 1561681678
    nsecs: 855502628
  frame_id: "ti_mmwave"
point_id: 20
x: 0.041015625
y: -0.033203125
z: 0.0625
range: 0.0871539413929
velocity: 0.0
doppler_bin: 8
bearing: -38.9909973145
intensity: 30.1452045441
---
header: 
  seq: 246576
  stamp: 
    secs: 1561681678
    nsecs: 855516532
  frame_id: "ti_mmwave"
point_id: 21
x: 0.052734375
y: -0.04296875
z: 0.103515625
range: 0.130730912089
velocity: 0.0
doppler_bin: 8
bearing: -39.1736602783
intensity: 29.0363254547
---
header: 
  seq: 246577
  stamp: 
    secs: 1561681678
    nsecs: 855533504
  frame_id: "ti_mmwave"
point_id: 23
x: 1.119140625
y: -0.515625
z: 0.302734375
range: 1.35088610649
velocity: 0.0
doppler_bin: 8
bearing: -24.7370834351
intensity: 19.0308990479
---
header: 
  seq: 246578
  stamp: 
    secs: 1561681678
    nsecs: 855548310
  frame_id: "ti_mmwave"
point_id: 24
x: 2.7265625
y: -2.00390625
z: -3.087890625
range: 4.88062095642
velocity: 0.0
doppler_bin: 8
bearing: -36.314289093
intensity: 27.9028511047
---
header: 
  seq: 246579
  stamp: 
    secs: 1561681678
    nsecs: 855560893
  frame_id: "ti_mmwave"
point_id: 25
x: 4.71875
y: -0.59765625
z: -0.533203125
range: 5.09850549698
velocity: 0.0
doppler_bin: 8
bearing: -7.21839857101
intensity: 33.1827201843
---
header: 
  seq: 246580
  stamp: 
    secs: 1561681678
    nsecs: 856565249
  frame_id: "ti_mmwave"
point_id: 0
x: 0.01171875
y: -0.0390625
z: -0.0078125
range: 0.0435769706964
velocity: 0.0
doppler_bin: 8
bearing: -73.3007583618
intensity: 30.8026561737
---
header: 
  seq: 246581
  stamp: 
    secs: 1561681678
    nsecs: 856605947
  frame_id: "ti_mmwave"
point_id: 1
x: 0.017578125
y: -0.080078125
z: -0.0078125
range: 0.0871539413929
velocity: 0.0
doppler_bin: 8
bearing: -77.6192398071
intensity: 32.030330658
---
header: 
  seq: 246582
  stamp: 
    secs: 1561681678
    nsecs: 856621161
  frame_id: "ti_mmwave"
point_id: 2
x: 0.041015625
y: -0.115234375
z: -0.0078125
range: 0.130730912089
velocity: 0.0
doppler_bin: 8
bearing: -70.4077224731
intensity: 30.3059978485
---
header: 
  seq: 246583
  stamp: 
    secs: 1561681678
    nsecs: 856633602
  frame_id: "ti_mmwave"
point_id: 3
x: 0.056640625
y: -0.154296875
z: 0.00390625
range: 0.174307882786
velocity: 0.0
doppler_bin: 8
bearing: -69.8423843384
intensity: 25.550945282
---
header: 
  seq: 246584
  stamp: 
    secs: 1561681678
    nsecs: 856649891
  frame_id: "ti_mmwave"
point_id: 4
x: 0.306640625
y: -0.080078125
z: -1.228515625
range: 1.35088610649
velocity: 0.0
doppler_bin: 8
bearing: -14.6357278824
intensity: 21.9033164978
---
header: 
  seq: 246585
  stamp: 
    secs: 1561681678
    nsecs: 856663428
  frame_id: "ti_mmwave"
point_id: 5
x: 0.35546875
y: -0.041015625
z: 1.259765625
range: 1.39446306229
velocity: 0.0
doppler_bin: 8
bearing: -6.58194446564
intensity: 23.3041381836
---
header: 
  seq: 246586
  stamp: 
    secs: 1561681678
    nsecs: 856714882
  frame_id: "ti_mmwave"
point_id: 6
x: 0.43359375
y: -0.0
z: 1.27734375
range: 1.43804001808
velocity: 0.0
doppler_bin: 8
bearing: -0.0
intensity: 21.9589958191
---
header: 
  seq: 246587
  stamp: 
    secs: 1561681678
    nsecs: 856727473
  frame_id: "ti_mmwave"
point_id: 7
x: 2.275390625
y: 0.21484375
z: -0.140625
range: 2.44031047821
velocity: 0.0
doppler_bin: 8
bearing: 5.39391040802
intensity: 26.875289917
---
header: 
  seq: 246588
  stamp: 
    secs: 1561681678
    nsecs: 856738549
  frame_id: "ti_mmwave"
point_id: 8
x: 2.3203125
y: 0.21875
z: 0.091796875
range: 2.48388743401
velocity: 0.0
doppler_bin: 8
bearing: 5.38570404053
intensity: 26.7302093506
---
header: 
  seq: 246589
  stamp: 
    secs: 1561681678
    nsecs: 856749640
  frame_id: "ti_mmwave"
point_id: 9
x: 2.5390625
y: -0.263671875
z: 1.203125
range: 3.00681090355
velocity: 0.0
doppler_bin: 8
