header: 
  seq: 126930
  stamp: 
    secs: 1561863736
    nsecs: 978558978
  frame_id: "ti_mmwave"
point_id: 0
x: 0.01171875
y: -0.0390625
z: -0.0078125
range: 0.0435769706964
velocity: 0.0
doppler_bin: 8
bearing: -73.3007583618
intensity: 30.8742637634
---
header: 
  seq: 126931
  stamp: 
    secs: 1561863736
    nsecs: 978624198
  frame_id: "ti_mmwave"
point_id: 1
x: 0.017578125
y: -0.080078125
z: -0.009765625
range: 0.0871539413929
velocity: 0.0
doppler_bin: 8
bearing: -77.6192398071
intensity: 32.0817260742
---
header: 
  seq: 126932
  stamp: 
    secs: 1561863736
    nsecs: 978634679
  frame_id: "ti_mmwave"
point_id: 2
x: 0.041015625
y: -0.115234375
z: -0.009765625
range: 0.130730912089
velocity: 0.0
doppler_bin: 8
bearing: -70.4077224731
intensity: 30.3502922058
---
header: 
  seq: 126933
  stamp: 
    secs: 1561863736
    nsecs: 978643128
  frame_id: "ti_mmwave"
point_id: 3
x: 0.056640625
y: -0.154296875
z: 0.005859375
range: 0.174307882786
velocity: 0.0
doppler_bin: 8
bearing: -69.8423843384
intensity: 25.5750713348
---
header: 
  seq: 126934
  stamp: 
    secs: 1561863736
    nsecs: 978651224
  frame_id: "ti_mmwave"
point_id: 4
x: 0.19140625
y: -0.080078125
z: 1.251953125
range: 1.35088610649
velocity: 0.0
doppler_bin: 8
bearing: -22.7028427124
intensity: 23.2221927643
---
header: 
  seq: 126935
  stamp: 
    secs: 1561863736
    nsecs: 978661012
  frame_id: "ti_mmwave"
point_id: 5
x: 0.220703125
y: -0.041015625
z: -1.2890625
range: 1.39446306229
velocity: 0.0
doppler_bin: 8
bearing: -10.5277862549
intensity: 24.6982192993
---
header: 
  seq: 126936
  stamp: 
    secs: 1561863736
    nsecs: 978670402
  frame_id: "ti_mmwave"
point_id: 6
x: 0.486328125
y: -0.04296875
z: -1.2578125
range: 1.43804001808
velocity: 0.0
doppler_bin: 8
bearing: -5.04916620255
intensity: 23.0963020325
---
header: 
  seq: 126937
  stamp: 
    secs: 1561863736
    nsecs: 978678277
  frame_id: "ti_mmwave"
point_id: 7
x: 0.556640625
y: -0.04296875
z: -1.2734375
range: 1.48161697388
velocity: 0.0
doppler_bin: 8
bearing: -4.41407871246
intensity: 21.7897701263
---
header: 
  seq: 126938
  stamp: 
    secs: 1561863736
    nsecs: 978688261
  frame_id: "ti_mmwave"
point_id: 8
x: 1.75390625
y: -0.0546875
z: -0.126953125
range: 1.87380969524
velocity: 0.0
doppler_bin: 8
bearing: -1.78592669964
intensity: 29.0363254547
---
header: 
  seq: 126939
  stamp: 
    secs: 1561863736
    nsecs: 978699861
  frame_id: "ti_mmwave"
point_id: 9
x: 1.791015625
y: -0.056640625
z: -0.171875
range: 1.91738677025
velocity: 0.0
doppler_bin: 8
bearing: -1.81136763096
intensity: 29.2324409485
---
header: 
  seq: 126940
  stamp: 
    secs: 1561863736
    nsecs: 978711568
  frame_id: "ti_mmwave"
point_id: 10
x: 2.6171875
y: -0.17578125
z: 1.041015625
range: 3.00681090355
velocity: 0.0
doppler_bin: 8
bearing: -3.84245300293
intensity: 29.1592712402
---
header: 
  seq: 126941
  stamp: 
    secs: 1561863736
    nsecs: 978730659
  frame_id: "ti_mmwave"
point_id: 11
x: 2.693359375
y: -0.08984375
z: 0.970703125
range: 3.05038785934
velocity: 0.0
doppler_bin: 8
bearing: -1.91053581238
intensity: 32.3350372314
---
header: 
  seq: 126942
  stamp: 
    secs: 1561863736
    nsecs: 978746091
  frame_id: "ti_mmwave"
point_id: 12
x: 2.7578125
y: -0.08984375
z: 0.904296875
range: 3.09396481514
velocity: 0.0
doppler_bin: 8
bearing: -1.86591637135
intensity: 31.3672065735
---
header: 
  seq: 126943
  stamp: 
    secs: 1561863736
    nsecs: 978754003
  frame_id: "ti_mmwave"
point_id: 13
x: 4.41015625
y: -0.142578125
z: 1.234375
range: 4.88062095642
velocity: 0.0
doppler_bin: 8
bearing: -1.85169863701
intensity: 28.8138465881
---
header: 
  seq: 126944
  stamp: 
    secs: 1561863736
    nsecs: 978897174
  frame_id: "ti_mmwave"
point_id: 14
x: 4.443359375
y: -0.14453125
z: 1.265625
range: 4.9241976738
velocity: 0.0
doppler_bin: 8
bearing: -1.86303019524
intensity: 28.8479537964
---
header: 
  seq: 126945
  stamp: 
    secs: 1561863736
    nsecs: 978916244
  frame_id: "ti_mmwave"
point_id: 15
x: 0.01171875
y: 0.03125
z: 0.0234375
range: 0.0435769706964
velocity: 0.0
doppler_bin: 8
bearing: 69.4439544678
intensity: 29.484128952
---
header: 
  seq: 126946
  stamp: 
    secs: 1561863736
    nsecs: 978925336
  frame_id: "ti_mmwave"
point_id: 16
x: 0.041015625
y: -0.033203125
z: 0.0625
range: 0.0871539413929
velocity: 0.0
doppler_bin: 8
bearing: -38.9909973145
intensity: 30.2118930817
---
header: 
  seq: 126947
  stamp: 
    secs: 1561863736
    nsecs: 978933527
  frame_id: "ti_mmwave"
point_id: 17
x: 0.05078125
y: -0.04296875
z: 0.103515625
range: 0.130730912089
velocity: 0.0
doppler_bin: 8
bearing: -40.2363586426
intensity: 29.0848503113
---
header: 
  seq: 126948
  stamp: 
    secs: 1561863736
    nsecs: 979768028
  frame_id: "ti_mmwave"
point_id: 0
x: 0.01171875
y: -0.0390625
z: -0.0078125
range: 0.0435769706964
velocity: 0.0
doppler_bin: 8
bearing: -73.3007583618
intensity: 30.8813610077
---
header: 
  seq: 126949
  stamp: 
    secs: 1561863736
    nsecs: 979815611
  frame_id: "ti_mmwave"
point_id: 1
x: 0.017578125
y: -0.080078125
z: -0.009765625
range: 0.0871539413929
velocity: 0.0
doppler_bin: 8
bearing: -77.6192398071
intensity: 32.0790367126
---
header: 
  seq: 126950
  stamp: 
    secs: 1561863736
    nsecs: 979825889
  frame_id: "ti_mmwave"
point_id: 2
x: 0.041015625
y: -0.115234375
z: -0.009765625
range: 0.130730912089
velocity: 0.0
doppler_bin: 8
bearing: -70.4077224731
intensity: 30.3502922058
---
header: 
  seq: 126951
  stamp: 
    secs: 1561863736
    nsecs: 979834295
  frame_id: "ti_mmwave"
point_id: 3
x: 0.056640625
y: -0.154296875
z: 0.005859375
range: 0.174307882786
velocity: 0.0
doppler_bin: 8
bearing: -69.8423843384
intensity: 25.5870857239
---
header: 
  seq: 126952
  stamp: 
    secs: 1561863736
    nsecs: 979847132
  frame_id: "ti_mmwave"
point_id: 4
x: 0.16015625
y: -0.080078125
z: 1.255859375
range: 1.35088610649
velocity: 0.0
doppler_bin: 8
bearing: -26.5650501251
intensity: 23.2428245544
---
header: 
  seq: 126953
  stamp: 
    secs: 1561863736
    nsecs: 979992523
  frame_id: "ti_mmwave"
point_id: 5
x: 0.25390625
y: -0.041015625
z: -1.283203125
range: 1.39446306229
velocity: 0.0
doppler_bin: 8
bearing: -9.17620372772
intensity: 24.7129173279
---
header: 
  seq: 126954
  stamp: 
    secs: 1561863736
    nsecs: 980039007
  frame_id: "ti_mmwave"
point_id: 6
x: 0.48828125
y: -0.04296875
z: -1.2578125
range: 1.43804001808
velocity: 0.0
doppler_bin: 8
bearing: -5.02907323837
intensity: 23.0749607086
---
header: 
  seq: 126955
  stamp: 
    secs: 1561863736
    nsecs: 980111837
  frame_id: "ti_mmwave"
point_id: 7
x: 0.53125
y: -0.04296875
z: -1.28515625
range: 1.48161697388
velocity: 0.0
doppler_bin: 8
bearing: -4.6241517067
intensity: 21.7609119415
---
header: 
  seq: 126956
  stamp: 
    secs: 1561863736
    nsecs: 980138842
  frame_id: "ti_mmwave"
point_id: 8
x: 1.755859375
y: -0.109375
z: 0.00390625
range: 1.87380969524
velocity: 0.0
doppler_bin: 8
bearing: -3.56443095207
intensity: 29.4743366241
---
header: 
  seq: 126957
  stamp: 
    secs: 1561863736
    nsecs: 980192723
  frame_id: "ti_mmwave"
point_id: 9
x: 1.798828125
y: -0.056640625
z: 0.005859375
range: 1.91738677025
velocity: 0.0
doppler_bin: 8
bearing: -1.8035056591
intensity: 30.3941402435
---
header: 
  seq: 126958
  stamp: 
    secs: 1561863736
    nsecs: 980208479
  frame_id: "ti_mmwave"
point_id: 10
x: 1.83984375
y: -0.056640625
z: 0.01953125
range: 1.96096372604
velocity: 0.0
doppler_bin: 8
bearing: -1.76332592964
intensity: 29.6661090851
---
header: 
  seq: 126959
  stamp: 
    secs: 1561863736
    nsecs: 980221528
  frame_id: "ti_mmwave"
point_id: 11
x: 1.880859375
y: -0.0
z: -0.029296875
range: 2.00454068184
velocity: 0.0
doppler_bin: 8
bearing: -0.0
intensity: 28.680562973
---
header: 
  seq: 126960
  stamp: 
    secs: 1561863736
    nsecs: 980237958
  frame_id: "ti_mmwave"
point_id: 12
x: 2.673828125
y: -0.08984375
z: 1.01953125
range: 3.05038785934
velocity: 0.0
doppler_bin: 8
bearing: -1.92448115349
intensity: 32.2115325928
---
header: 
  seq: 126961
  stamp: 
    secs: 1561863736
    nsecs: 980279278
  frame_id: "ti_mmwave"
point_id: 13
x: 2.740234375
y: -0.08984375
z: 0.95703125
range: 3.09396481514
velocity: 0.0
doppler_bin: 8
bearing: -1.87787723541
intensity: 31.2450428009
---
header: 
  seq: 126962
  stamp: 
    secs: 1561863736
    nsecs: 980290217
  frame_id: "ti_mmwave"
point_id: 14
x: 0.01171875
y: 0.03125
z: 0.0234375
range: 0.0435769706964
velocity: 0.0
doppler_bin: 8
bearing: 69.4439544678
intensity: 29.484128952
---
header: 
  seq: 126963
  stamp: 
    secs: 1561863736
    nsecs: 980298997
  frame_id: "ti_mmwave"
point_id: 15
x: 0.041015625
y: -0.033203125
z: 0.0625
range: 0.0871539413929
velocity: 0.0
doppler_bin: 8
bearing: -38.9909973145
intensity: 30.2077541351
---
header: 
  seq: 126964
  stamp: 
    secs: 1561863736
    nsecs: 980311520
  frame_id: "ti_mmwave"
point_id: 16
x: 0.05078125
y: -0.04296875
z: 0.103515625
range: 0.130730912089
velocity: 0.0
doppler_bin: 8
bearing: -40.2363586426
intensity: 29.0794849396
---
header: 
  seq: 126965
  stamp: 
    secs: 1561863737
    nsecs:  38650255
  frame_id: "ti_mmwave"
point_id: 0
x: 0.01171875
y: -0.0390625
z: -0.0078125
range: 0.0435769706964
velocity: 0.0
doppler_bin: 8
bearing: -73.3007583618
intensity: 30.8707122803
---
header: 
  seq: 126966
  stamp: 
    secs: 1561863737
    nsecs:  38717752
  frame_id: "ti_mmwave"
point_id: 1
x: 0.017578125
y: -0.080078125
z: -0.009765625
range: 0.0871539413929
velocity: 0.0
doppler_bin: 8
bearing: -77.6192398071
intensity: 32.0790367126
---
header: 
  seq: 126967
  stamp: 
    secs: 1561863737
    nsecs:  38728892
  frame_id: "ti_mmwave"
point_id: 2
x: 0.041015625
y: -0.115234375
z: -0.009765625
range: 0.130730912089
velocity: 0.0
doppler_bin: 8
bearing: -70.4077224731
intensity: 30.3502922058
---
header: 
  seq: 126968
  stamp: 
    secs: 1561863737
    nsecs:  38741431
  frame_id: "ti_mmwave"
point_id: 3
x: 0.056640625
y: -0.154296875
z: 0.00390625
range: 0.174307882786
velocity: 0.0
doppler_bin: 8
bearing: -69.8423843384
intensity: 25.5750713348
---
header: 
  seq: 126969
  stamp: 
    secs: 1561863737
    nsecs:  38750539
  frame_id: "ti_mmwave"
point_id: 4
x: 0.171875
y: -0.080078125
z: 1.25390625
range: 1.35088610649
velocity: 0.0
doppler_bin: 8
bearing: -24.9812393188
intensity: 23.2428245544
---
header: 
  seq: 126970
  stamp: 
    secs: 1561863737
    nsecs:  38760028
  frame_id: "ti_mmwave"
point_id: 5
x: 0.25390625
y: -0.041015625
z: -1.283203125
range: 1.39446306229
velocity: 0.0
doppler_bin: 8
bearing: -9.17620372772
intensity: 24.7129173279
---
header: 
  seq: 126971
  stamp: 
    secs: 1561863737
    nsecs:  38769491
  frame_id: "ti_mmwave"
point_id: 6
x: 0.5078125
y: -0.04296875
z: -1.25
range: 1.43804001808
velocity: 0.0
doppler_bin: 8
bearing: -4.83658361435
intensity: 23.1175384521
---
header: 
  seq: 126972
  stamp: 
    secs: 1561863737
    nsecs:  38778622
  frame_id: "ti_mmwave"
point_id: 7
x: 0.568359375
y: -0.04296875
z: -1.267578125
range: 1.48161697388
velocity: 0.0
doppler_bin: 8
bearing: -4.32341527939
intensity: 21.8184356689
---
header: 
  seq: 126973
  stamp: 
    secs: 1561863737
    nsecs:  38786880
  frame_id: "ti_mmwave"
point_id: 8
x: 1.712890625
y: -0.052734375
z: -0.130859375
range: 1.83023273945
velocity: 0.0
doppler_bin: 8
bearing: -1.76339519024
intensity: 27.8675136566
---
header: 
  seq: 126974
  stamp: 
    secs: 1561863737
    nsecs:  38796605
  frame_id: "ti_mmwave"
point_id: 9
x: 1.75
y: -0.0546875
z: -0.16796875
range: 1.87380969524
velocity: 0.0
doppler_bin: 8
bearing: -1.7899106741
intensity: 32.6221351624
---
header: 
  seq: 126975
  stamp: 
    secs: 1561863737
    nsecs:  38807312
  frame_id: "ti_mmwave"
point_id: 10
x: 1.791015625
y: -0.056640625
z: -0.169921875
range: 1.91738677025
velocity: 0.0
doppler_bin: 8
bearing: -1.81136763096
intensity: 33.4791526794
---
header: 
  seq: 126976
  stamp: 
    secs: 1561863737
    nsecs:  38817189
  frame_id: "ti_mmwave"
point_id: 11
x: 1.833984375
y: -0.056640625
z: -0.138671875
range: 1.96096372604
velocity: 0.0
doppler_bin: 8
bearing: -1.76895594597
intensity: 30.8062648773
---
header: 
  seq: 126977
  stamp: 
    secs: 1561863737
    nsecs:  38872144
  frame_id: "ti_mmwave"
point_id: 12
x: 2.607421875
y: -0.17578125
z: 1.064453125
range: 3.00681090355
velocity: 0.0
doppler_bin: 8
bearing: -3.8568007946
intensity: 29.0794849396
---
header: 
  seq: 126978
  stamp: 
    secs: 1561863737
    nsecs:  38882892
  frame_id: "ti_mmwave"
point_id: 13
x: 2.693359375
y: -0.08984375
z: 0.96875
range: 3.05038785934
velocity: 0.0
doppler_bin: 8
bearing: -1.91053581238
intensity: 32.3146972656
---
header: 
  seq: 126979
  stamp: 
    secs: 1561863737
    nsecs:  38891640
  frame_id: "ti_mmwave"
point_id: 14
x: 2.76171875
y: -0.08984375
z: 0.892578125
range: 3.09396481514
velocity: 0.0
doppler_bin: 8
bearing: -1.86327898502
intensity: 31.3672065735
---
header: 
  seq: 126980
  stamp: 
    secs: 1561863737
    nsecs:  38899192
  frame_id: "ti_mmwave"
point_id: 15
x: 0.01171875
y: 0.03125
z: 0.0234375
range: 0.0435769706964
velocity: 0.0
doppler_bin: 8
bearing: 69.4439544678
intensity: 29.4792366028
---
header: 
  seq: 126981
  stamp: 
    secs: 1561863737
    nsecs:  38906895
  frame_id: "ti_mmwave"
point_id: 16
x: 0.041015625
y: -0.033203125
z: 0.0625
range: 0.0871539413929
velocity: 0.0
doppler_bin: 8
bearing: -38.9909973145
intensity: 30.2077541351
---
header: 
  seq: 126982
  stamp: 
    secs: 1561863737
    nsecs:  38916889
  frame_id: "ti_mmwave"
point_id: 17
x: 0.05078125
y: -0.04296875
z: 0.103515625
range: 0.130730912089
velocity: 0.0
doppler_bin: 8
bearing: -40.2363586426
intensity: 29.0794849396
---
header: 
  seq: 126983
  stamp: 
    secs: 1561863737
    nsecs:  39352858
  frame_id: "ti_mmwave"
point_id: 0
x: 0.01171875
y: -0.0390625
z: -0.0078125
range: 0.0435769706964
velocity: 0.0
doppler_bin: 8
bearing: -73.3007583618
intensity: 30.8813610077
---
header: 
  seq: 126984
  stamp: 
    secs: 1561863737
    nsecs:  39389350
  frame_id: "ti_mmwave"
point_id: 1
x: 0.017578125
y: -0.080078125
z: -0.009765625
range: 0.0871539413929
velocity: 0.0
doppler_bin: 8
bearing: -77.6192398071
intensity: 32.0817260742
---
header: 
  seq: 126985
  stamp: 
    secs: 1561863737
    nsecs:  39400064
  frame_id: "ti_mmwave"
point_id: 2
x: 0.041015625
y: -0.115234375
z: -0.009765625
range: 0.130730912089
velocity: 0.0
doppler_bin: 8
bearing: -70.4077224731
intensity: 30.3502922058
---
header: 
  seq: 126986
  stamp: 
    secs: 1561863737
    nsecs:  39407769
  frame_id: "ti_mmwave"
point_id: 3
x: 0.056640625
y: -0.154296875
z: 0.005859375
range: 0.174307882786
velocity: 0.0
doppler_bin: 8
bearing: -69.8423843384
intensity: 25.5750713348
---
header: 
  seq: 126987
  stamp: 
    secs: 1561863737
    nsecs:  39416217
  frame_id: "ti_mmwave"
point_id: 4
x: 0.130859375
y: -0.080078125
z: 1.2578125
range: 1.35088610649
velocity: 0.0
doppler_bin: 8
bearing: -31.4641437531
intensity: 23.1597042084
---
header: 
  seq: 126988
  stamp: 
    secs: 1561863737
    nsecs:  39426284
  frame_id: "ti_mmwave"
point_id: 5
x: 0.251953125
y: -0.041015625
z: -1.283203125
range: 1.39446306229
velocity: 0.0
doppler_bin: 8
bearing: -9.24611377716
intensity: 24.6538276672
---
header: 
  seq: 126989
  stamp: 
    secs: 1561863737
    nsecs:  39435333
  frame_id: "ti_mmwave"
point_id: 6
x: 0.50390625
y: -0.04296875
z: -1.251953125
range: 1.43804001808
velocity: 0.0
doppler_bin: 8
bearing: -4.87389659882
intensity: 23.031961441
---
header: 
  seq: 126990
  stamp: 
    secs: 1561863737
    nsecs:  39444227
  frame_id: "ti_mmwave"
point_id: 7
x: 0.548828125
y: -0.04296875
z: -1.27734375
range: 1.48161697388
velocity: 0.0
doppler_bin: 8
bearing: -4.47665882111
intensity: 21.7318630219
---
header: 
  seq: 126991
  stamp: 
    secs: 1561863737
    nsecs:  39452491
  frame_id: "ti_mmwave"
point_id: 8
x: 1.794921875
y: 0.11328125
z: -0.076171875
range: 1.91738677025
velocity: 0.0
doppler_bin: 8
bearing: 3.61126613617
intensity: 28.767950058
---
header: 
  seq: 126992
  stamp: 
    secs: 1561863737
    nsecs:  39461351
  frame_id: "ti_mmwave"
point_id: 9
x: 1.837890625
y: 0.056640625
z: -0.095703125
range: 1.96096372604
velocity: 0.0
doppler_bin: 8
bearing: 1.76519858837
intensity: 28.4198474884
---
header: 
  seq: 126993
  stamp: 
    secs: 1561863737
    nsecs:  39470062
  frame_id: "ti_mmwave"
point_id: 10
x: 2.615234375
y: -0.17578125
z: 1.046875
range: 3.00681090355
velocity: 0.0
doppler_bin: 8
bearing: -3.84531402588
intensity: 29.2427921295
---
header: 
  seq: 126994
  stamp: 
    secs: 1561863737
    nsecs:  39479996
  frame_id: "ti_mmwave"
point_id: 11
x: 2.6875
y: -0.08984375
z: 0.982421875
range: 3.05038785934
velocity: 0.0
doppler_bin: 8
bearing: -1.91469812393
intensity: 32.3121452332
---
header: 
  seq: 126995
  stamp: 
    secs: 1561863737
    nsecs:  39549525
  frame_id: "ti_mmwave"
point_id: 12
x: 2.755859375
y: -0.08984375
z: 0.912109375
range: 3.09396481514
velocity: 0.0
doppler_bin: 8
bearing: -1.86723792553
intensity: 31.306552887
---
header: 
  seq: 126996
  stamp: 
    secs: 1561863737
    nsecs:  39567320
  frame_id: "ti_mmwave"
point_id: 13
x: 0.01171875
y: 0.03125
z: 0.0234375
range: 0.0435769706964
velocity: 0.0
doppler_bin: 8
bearing: 69.4439544678
intensity: 29.4792366028
---
header: 
  seq: 126997
  stamp: 
    secs: 1561863737
    nsecs:  39576475
  frame_id: "ti_mmwave"
point_id: 14
x: 0.041015625
y: -0.033203125
z: 0.0625
range: 0.0871539413929
velocity: 0.0
doppler_bin: 8
bearing: -38.9909973145
intensity: 30.2077541351
---
header: 
  seq: 126998
  stamp: 
    secs: 1561863737
    nsecs:  39585147
  frame_id: "ti_mmwave"
point_id: 15
x: 0.05078125
y: -0.04296875
z: 0.103515625
range: 0.130730912089
velocity: 0.0
doppler_bin: 8
bearing: -40.2363586426
intensity: 29.0848503113
---
header: 
  seq: 126999
  stamp: 
    secs: 1561863737
    nsecs:  98828523
  frame_id: "ti_mmwave"
point_id: 0
x: 0.01171875
y: -0.0390625
z: -0.0078125
range: 0.0435769706964
velocity: 0.0
doppler_bin: 8
bearing: -73.3007583618
intensity: 30.8813610077
---
header: 
  seq: 127000
  stamp: 
    secs: 1561863737
    nsecs:  98912276
  frame_id: "ti_mmwave"
point_id: 1
x: 0.017578125
y: -0.080078125
z: -0.009765625
range: 0.0871539413929
velocity: 0.0
doppler_bin: 8
bearing: -77.6192398071
intensity: 32.0817260742
---
header: 
  seq: 127001
  stamp: 
    secs: 1561863737
    nsecs:  98931347
  frame_id: "ti_mmwave"
point_id: 2
x: 0.041015625
y: -0.115234375
z: -0.009765625
range: 0.130730912089
velocity: 0.0
doppler_bin: 8
bearing: -70.4077224731
intensity: 30.3502922058
---
header: 
  seq: 127002
  stamp: 
    secs: 1561863737
    nsecs:  98944833
  frame_id: "ti_mmwave"
point_id: 3
x: 0.056640625
y: -0.154296875
z: 0.005859375
range: 0.174307882786
velocity: 0.0
doppler_bin: 8
bearing: -69.8423843384
intensity: 25.5750713348
---
header: 
  seq: 127003
  stamp: 
    secs: 1561863737
    nsecs:  98959743
  frame_id: "ti_mmwave"
point_id: 4
x: 0.107421875
y: -0.080078125
z: 1.26171875
range: 1.35088610649
velocity: 0.0
doppler_bin: 8
bearing: -36.7028541565
intensity: 23.2221927643
---
header: 
  seq: 127004
  stamp: 
    secs: 1561863737
    nsecs:  99037442
  frame_id: "ti_mmwave"
point_id: 5
x: 0.267578125
y: -0.041015625
z: -1.28125
range: 1.39446306229
velocity: 0.0
doppler_bin: 8
bearing: -8.71473312378
intensity: 24.683473587
---
header: 
  seq: 127005
  stamp: 
    secs: 1561863737
    nsecs:  99052567
  frame_id: "ti_mmwave"
point_id: 6
x: 0.513671875
y: -0.04296875
z: -1.248046875
range: 1.43804001808
velocity: 0.0
doppler_bin: 8
bearing: -4.78167009354
intensity: 23.0749607086
---
header: 
  seq: 127006
  stamp: 
    secs: 1561863737
    nsecs:  99063311
  frame_id: "ti_mmwave"
point_id: 7
x: 0.556640625
y: -0.04296875
z: -1.2734375
range: 1.48161697388
velocity: 0.0
doppler_bin: 8
bearing: -4.41407871246
intensity: 21.7609119415
---
header: 
  seq: 127007
  stamp: 
    secs: 1561863737
    nsecs:  99075164
  frame_id: "ti_mmwave"
point_id: 8
x: 1.7421875
y: -0.0
z: -0.24609375
range: 1.87380969524
velocity: 0.0
doppler_bin: 8
bearing: -0.0
intensity: 27.6863803864
---
header: 
  seq: 127008
  stamp: 
    secs: 1561863737
    nsecs:  99089885
  frame_id: "ti_mmwave"
point_id: 9
x: 1.787109375
y: 0.056640625
z: -0.203125
range: 1.91738677025
velocity: 0.0
doppler_bin: 8
bearing: 1.81532406807
intensity: 28.2477645874
---
header: 
  seq: 127009
  stamp: 
    secs: 1561863737
    nsecs:  99101631
  frame_id: "ti_mmwave"
point_id: 10
x: 1.837890625
y: 0.056640625
z: -0.09375
range: 1.96096372604
velocity: 0.0
doppler_bin: 8
bearing: 1.76519858837
intensity: 27.7524623871
---
header: 
  seq: 127010
  stamp: 
    secs: 1561863737
    nsecs:  99113189
  frame_id: "ti_mmwave"
point_id: 11
x: 2.595703125
y: -0.17578125
z: 1.095703125
range: 3.00681090355
velocity: 0.0
doppler_bin: 8
bearing: -3.87416052818
intensity: 28.9707698822
---
header: 
  seq: 127011
  stamp: 
    secs: 1561863737
    nsecs:  99124550
  frame_id: "ti_mmwave"
point_id: 12
x: 2.677734375
y: -0.08984375
z: 1.0078125
range: 3.05038785934
velocity: 0.0
doppler_bin: 8
bearing: -1.92167580128
intensity: 32.2453308105
---
header: 
  seq: 127012
  stamp: 
    secs: 1561863737
    nsecs:  99137168
  frame_id: "ti_mmwave"
point_id: 13
x: 2.7421875
y: -0.08984375
z: 0.953125
range: 3.09396481514
velocity: 0.0
doppler_bin: 8
bearing: -1.87654089928
intensity: 31.3257980347
---
header: 
  seq: 127013
  stamp: 
    secs: 1561863737
    nsecs:  99149609
  frame_id: "ti_mmwave"
point_id: 14
x: 4.408203125
y: -0.142578125
z: 1.23828125
range: 4.88062095642
velocity: 0.0
doppler_bin: 8
bearing: -1.85251843929
intensity: 30.7554702759
---
header: 
  seq: 127014
  stamp: 
    secs: 1561863737
    nsecs:  99162355
  frame_id: "ti_mmwave"
point_id: 15
x: 4.447265625
y: -0.14453125
z: 1.25390625
range: 4.9241976738
velocity: 0.0
doppler_bin: 8
bearing: -1.86139500141
intensity: 30.6370849609
---
header: 
  seq: 127015
  stamp: 
    secs: 1561863737
    nsecs:  99231618
  frame_id: "ti_mmwave"
point_id: 16
x: 0.01171875
y: 0.03125
z: 0.0234375
range: 0.0435769706964
velocity: 0.0
doppler_bin: 8
bearing: 69.4439544678
intensity: 29.4792366028
---
header: 
  seq: 127016
  stamp: 
    secs: 1561863737
    nsecs:  99251564
  frame_id: "ti_mmwave"
point_id: 17
x: 0.041015625
y: -0.033203125
z: 0.0625
range: 0.0871539413929
velocity: 0.0
doppler_bin: 8
bearing: -38.9909973145
intensity: 30.2077541351
---
header: 
  seq: 127017
  stamp: 
    secs: 1561863737
    nsecs:  99263769
  frame_id: "ti_mmwave"
point_id: 18
x: 0.05078125
y: -0.04296875
z: 0.103515625
range: 0.130730912089
velocity: 0.0
doppler_bin: 8
bearing: -40.2363586426
intensity: 29.0794849396
---
header: 
  seq: 127018
  stamp: 
    secs: 1561863737
    nsecs: 100019671
  frame_id: "ti_mmwave"
point_id: 0
x: 0.01171875
y: -0.0390625
z: -0.0078125
range: 0.0435769706964
velocity: 0.0
doppler_bin: 8
bearing: -73.3007583618
intensity: 30.8778133392
---
header: 
  seq: 127019
  stamp: 
    secs: 1561863737
    nsecs: 100077473
  frame_id: "ti_mmwave"
point_id: 1
x: 0.017578125
y: -0.080078125
z: -0.009765625
range: 0.0871539413929
velocity: 0.0
doppler_bin: 8
bearing: -77.6192398071
intensity: 32.0790367126
---
header: 
  seq: 127020
  stamp: 
    secs: 1561863737
    nsecs: 100089092
  frame_id: "ti_mmwave"
point_id: 2
x: 0.041015625
y: -0.115234375
z: -0.009765625
range: 0.130730912089
velocity: 0.0
doppler_bin: 8
bearing: -70.4077224731
intensity: 30.3462848663
---
header: 
  seq: 127021
  stamp: 
    secs: 1561863737
    nsecs: 100099177
  frame_id: "ti_mmwave"
point_id: 3
x: 0.056640625
y: -0.154296875
z: 0.00390625
range: 0.174307882786
velocity: 0.0
doppler_bin: 8
bearing: -69.8423843384
intensity: 25.5750713348
---
header: 
  seq: 127022
  stamp: 
    secs: 1561863737
    nsecs: 100108639
  frame_id: "ti_mmwave"
point_id: 4
x: 0.16796875
y: -0.080078125
z: 1.25390625
range: 1.35088610649
velocity: 0.0
doppler_bin: 8
bearing: -25.489200592
intensity: 23.2221927643
---
header: 
  seq: 127023
  stamp: 
    secs: 1561863737
    nsecs: 100118180
  frame_id: "ti_mmwave"
point_id: 5
x: 0.251953125
y: -0.041015625
z: -1.283203125
range: 1.39446306229
velocity: 0.0
doppler_bin: 8
bearing: -9.24611377716
intensity: 24.7129173279
---
header: 
  seq: 127024
  stamp: 
    secs: 1561863737
    nsecs: 100127510
  frame_id: "ti_mmwave"
point_id: 6
x: 0.494140625
y: -0.04296875
z: -1.255859375
range: 1.43804001808
velocity: 0.0
doppler_bin: 8
bearing: -4.96974086761
intensity: 23.0749607086
---
header: 
  seq: 127025
  stamp: 
    secs: 1561863737
    nsecs: 100135484
  frame_id: "ti_mmwave"
point_id: 7
x: 0.55078125
y: -0.04296875
z: -1.275390625
range: 1.48161697388
velocity: 0.0
doppler_bin: 8
bearing: -4.46084880829
intensity: 21.7609119415
---
header: 
  seq: 127026
  stamp: 
    secs: 1561863737
    nsecs: 100208989
  frame_id: "ti_mmwave"
point_id: 8
x: 1.73828125
y: -0.0546875
z: -0.265625
range: 1.87380969524
velocity: 0.0
doppler_bin: 8
bearing: -1.80196928978
intensity: 28.0618000031
---
header: 
  seq: 127027
  stamp: 
    secs: 1561863737
    nsecs: 100218353
  frame_id: "ti_mmwave"
point_id: 9
x: 1.779296875
y: -0.11328125
z: -0.24609375
range: 1.91738677025
velocity: 0.0
doppler_bin: 8
bearing: -3.64289331436
intensity: 28.5125827789
---
header: 
  seq: 127028
  stamp: 
    secs: 1561863737
    nsecs: 100228426
  frame_id: "ti_mmwave"
point_id: 10
x: 2.609375
y: -0.17578125
z: 1.060546875
range: 3.00681090355
velocity: 0.0
doppler_bin: 8
bearing: -3.85392260551
intensity: 29.122220993
---
header: 
  seq: 127029
  stamp: 
    secs: 1561863737
    nsecs: 100236005
  frame_id: "ti_mmwave"
point_id: 11
x: 2.685546875
y: -0.08984375
z: 0.98828125
range: 3.05038785934
velocity: 0.0
doppler_bin: 8
bearing: -1.91608965397
intensity: 32.3146972656
---
header: 
  seq: 127030
  stamp: 
    secs: 1561863737
    nsecs: 100243710
  frame_id: "ti_mmwave"
point_id: 12
x: 2.75
y: -0.08984375
z: 0.927734375
range: 3.09396481514
velocity: 0.0
doppler_bin: 8
bearing: -1.87121355534
intensity: 31.3353881836
---
header: 
  seq: 127031
  stamp: 
    secs: 1561863737
    nsecs: 100251148
  frame_id: "ti_mmwave"
point_id: 13
x: 4.4140625
y: -0.142578125
z: 1.220703125
range: 4.88062095642
velocity: 0.0
doppler_bin: 8
bearing: -1.850061059
intensity: 31.2385158539
---
header: 
  seq: 127032
  stamp: 
    secs: 1561863737
    nsecs: 100259384
  frame_id: "ti_mmwave"
point_id: 14
x: 4.439453125
y: -0.14453125
z: 1.283203125
range: 4.9241976738
velocity: 0.0
doppler_bin: 8
bearing: -1.86466813087
intensity: 30.8778133392
---
header: 
  seq: 127033
  stamp: 
    secs: 1561863737
    nsecs: 100266968
  frame_id: "ti_mmwave"
point_id: 15
x: 0.01171875
y: 0.03125
z: 0.025390625
range: 0.0435769706964
velocity: 0.0
doppler_bin: 8
bearing: 69.4439544678
intensity: 29.4792366028
---
header: 
  seq: 127034
  stamp: 
    secs: 1561863737
    nsecs: 100275052
  frame_id: "ti_mmwave"
point_id: 16
x: 0.041015625
y: -0.033203125
z: 0.0625
range: 0.0871539413929
velocity: 0.0
doppler_bin: 8
bearing: -38.9909973145
intensity: 30.2118930817
---
header: 
  seq: 127035
  stamp: 
    secs: 1561863737
    nsecs: 100283956
  frame_id: "ti_mmwave"
point_id: 17
x: 0.05078125
y: -0.04296875
z: 0.103515625
range: 0.130730912089
velocity: 0.0
doppler_bin: 8
bearing: -40.2363586426
intensity: 29.0794849396
---
header: 
  seq: 127036
  stamp: 
    secs: 1561863737
    nsecs: 158526579
  frame_id: "ti_mmwave"
point_id: 0
x: 0.01171875
y: -0.0390625
z: -0.0078125
range: 0.0435769706964
velocity: 0.0
doppler_bin: 8
bearing: -73.3007583618
intensity: 30.8742637634
---
header: 
  seq: 127037
  stamp: 
    secs: 1561863737
    nsecs: 158601220
  frame_id: "ti_mmwave"
point_id: 1
x: 0.017578125
y: -0.080078125
z: -0.009765625
range: 0.0871539413929
velocity: 0.0
doppler_bin: 8
bearing: -77.6192398071
intensity: 32.0817260742
---
header: 
  seq: 127038
  stamp: 
    secs: 1561863737
    nsecs: 158612003
  frame_id: "ti_mmwave"
point_id: 2
x: 0.041015625
y: -0.115234375
z: -0.009765625
range: 0.130730912089
velocity: 0.0
doppler_bin: 8
bearing: -70.4077224731
intensity: 30.3502922058
---
header: 
  seq: 127039
  stamp: 
    secs: 1561863737
    nsecs: 158620904
  frame_id: "ti_mmwave"
point_id: 3
x: 0.056640625
y: -0.154296875
z: 0.005859375
range: 0.174307882786
velocity: 0.0
doppler_bin: 8
bearing: -69.8423843384
intensity: 25.5750713348
---
header: 
  seq: 127040
  stamp: 
    secs: 1561863737
    nsecs: 158631095
  frame_id: "ti_mmwave"
point_id: 4
x: 0.16796875
y: -0.080078125
z: 1.25390625
range: 1.35088610649
velocity: 0.0
doppler_bin: 8
bearing: -25.489200592
intensity: 23.2633590698
---
header: 
  seq: 127041
  stamp: 
    secs: 1561863737
    nsecs: 158641032
  frame_id: "ti_mmwave"
point_id: 5
x: 0.236328125
y: -0.041015625
z: -1.287109375
range: 1.39446306229
velocity: 0.0
doppler_bin: 8
bearing: -9.84582233429
intensity: 24.7129173279
---
header: 
  seq: 127042
  stamp: 
    secs: 1561863737
    nsecs: 158649400
  frame_id: "ti_mmwave"
point_id: 6
x: 0.482421875
y: -0.04296875
z: -1.259765625
range: 1.43804001808
velocity: 0.0
doppler_bin: 8
bearing: -5.08983659744
intensity: 23.0535144806
---
header: 
  seq: 127043
  stamp: 
    secs: 1561863737
    nsecs: 158657218
  frame_id: "ti_mmwave"
point_id: 7
x: 0.525390625
y: -0.04296875
z: -1.287109375
range: 1.48161697388
velocity: 0.0
doppler_bin: 8
bearing: -4.67549467087
intensity: 21.6731739044
---
header: 
  seq: 127044
  stamp: 
    secs: 1561863737
    nsecs: 158664802
  frame_id: "ti_mmwave"
point_id: 8
x: 2.615234375
y: -0.17578125
z: 1.044921875
range: 3.00681090355
velocity: 0.0
doppler_bin: 8
bearing: -3.84531402588
intensity: 29.2272548676
---
header: 
  seq: 127045
  stamp: 
    secs: 1561863737
    nsecs: 158672944
  frame_id: "ti_mmwave"
point_id: 9
x: 2.689453125
y: -0.08984375
z: 0.978515625
range: 3.05038785934
velocity: 0.0
doppler_bin: 8
bearing: -1.91330885887
intensity: 32.3829689026
---
header: 
  seq: 127046
  stamp: 
    secs: 1561863737
    nsecs: 158681082
  frame_id: "ti_mmwave"
point_id: 10
x: 2.751953125
y: -0.08984375
z: 0.921875
range: 3.09396481514
velocity: 0.0
doppler_bin: 8
bearing: -1.86988639832
intensity: 31.4113616943
---
header: 
  seq: 127047
  stamp: 
    secs: 1561863737
    nsecs: 158689009
  frame_id: "ti_mmwave"
point_id: 11
x: 4.40625
y: -0.142578125
z: 1.08984375
range: 4.83704376221
velocity: 0.0
doppler_bin: 8
bearing: -1.85333895683
intensity: 28.2865982056
---
header: 
  seq: 127048
  stamp: 
    secs: 1561863737
    nsecs: 158699728
  frame_id: "ti_mmwave"
point_id: 12
x: 4.4140625
y: -0.142578125
z: 1.220703125
range: 4.88062095642
velocity: 0.0
doppler_bin: 8
bearing: -1.850061059
intensity: 31.5896530151
---
header: 
  seq: 127049
  stamp: 
    secs: 1561863737
    nsecs: 158708034
  frame_id: "ti_mmwave"
point_id: 13
x: 4.4453125
y: -0.14453125
z: 1.259765625
range: 4.9241976738
velocity: 0.0
doppler_bin: 8
bearing: -1.86221218109
intensity: 31.1427726746
---
header: 
  seq: 127050
  stamp: 
    secs: 1561863737
    nsecs: 158719170
  frame_id: "ti_mmwave"
point_id: 14
x: 1.77734375
y: -0.056640625
z: -0.283203125
range: 1.91738677025
velocity: 0.614668667316
doppler_bin: 9
bearing: -1.82529187202
intensity: 26.4836006165
---
header: 
  seq: 127051
  stamp: 
    secs: 1561863737
    nsecs: 158875599
  frame_id: "ti_mmwave"
point_id: 15
x: 1.8125
y: -0.056640625
z: -0.31640625
range: 1.96096372604
velocity: 0.614668667316
doppler_bin: 9
bearing: -1.7899106741
intensity: 26.6464195251
---
header: 
  seq: 127052
  stamp: 
    secs: 1561863737
    nsecs: 158902586
  frame_id: "ti_mmwave"
point_id: 16
x: 0.01171875
y: 0.03125
z: 0.025390625
range: 0.0435769706964
velocity: 0.0
doppler_bin: 8
bearing: 69.4439544678
intensity: 29.4743366241
---
header: 
  seq: 127053
  stamp: 
    secs: 1561863737
    nsecs: 158916261
  frame_id: "ti_mmwave"
point_id: 17
x: 0.041015625
y: -0.033203125
z: 0.0625
range: 0.0871539413929
velocity: 0.0
doppler_bin: 8
bearing: -38.9909973145
intensity: 30.2118930817
---
header: 
  seq: 127054
  stamp: 
    secs: 1561863737
    nsecs: 158924519
  frame_id: "ti_mmwave"
point_id: 18
x: 0.05078125
y: -0.04296875
z: 0.103515625
range: 0.130730912089
velocity: 0.0
doppler_bin: 8
bearing: -40.2363586426
intensity: 29.0848503113
---
header: 
  seq: 127055
  stamp: 
    secs: 1561863737
    nsecs: 218627011
  frame_id: "ti_mmwave"
point_id: 0
x: 0.01171875
y: -0.0390625
z: -0.0078125
range: 0.0435769706964
velocity: 0.0
doppler_bin: 8
bearing: -73.3007583618
intensity: 30.8707122803
---
header: 
  seq: 127056
  stamp: 
    secs: 1561863737
    nsecs: 218716895
  frame_id: "ti_mmwave"
point_id: 1
x: 0.017578125
y: -0.080078125
z: -0.009765625
range: 0.0871539413929
velocity: 0.0
doppler_bin: 8
bearing: -77.6192398071
intensity: 32.0763435364
---
header: 
  seq: 127057
  stamp: 
    secs: 1561863737
    nsecs: 218729195
  frame_id: "ti_mmwave"
point_id: 2
x: 0.041015625
y: -0.115234375
z: -0.009765625
range: 0.130730912089
velocity: 0.0
doppler_bin: 8
bearing: -70.4077224731
intensity: 30.3462848663
---
header: 
  seq: 127058
  stamp: 
    secs: 1561863737
    nsecs: 218737633
  frame_id: "ti_mmwave"
point_id: 3
x: 0.056640625
y: -0.154296875
z: 0.00390625
range: 0.174307882786
velocity: 0.0
doppler_bin: 8
bearing: -69.8423843384
intensity: 25.5870857239
---
header: 
  seq: 127059
  stamp: 
    secs: 1561863737
    nsecs: 218745926
  frame_id: "ti_mmwave"
point_id: 4
x: 0.1328125
y: -0.080078125
z: 1.2578125
range: 1.35088610649
velocity: 0.0
doppler_bin: 8
bearing: -31.0875034332
intensity: 23.1806335449
---
header: 
  seq: 127060
  stamp: 
    secs: 1561863737
    nsecs: 218754134
  frame_id: "ti_mmwave"
point_id: 5
x: 0.287109375
y: -0.041015625
z: -1.275390625
range: 1.39446306229
velocity: 0.0
doppler_bin: 8
bearing: -8.13010311127
intensity: 24.6686763763
---
header: 
  seq: 127061
  stamp: 
    secs: 1561863737
    nsecs: 218763480
  frame_id: "ti_mmwave"
point_id: 6
x: 0.53515625
y: -0.04296875
z: -1.23828125
range: 1.43804001808
velocity: 0.0
doppler_bin: 8
bearing: -4.59054327011
intensity: 23.0535144806
---
header: 
  seq: 127062
  stamp: 
    secs: 1561863737
    nsecs: 218771409
  frame_id: "ti_mmwave"
point_id: 7
x: 0.583984375
y: -0.04296875
z: -1.26171875
range: 1.48161697388
velocity: 0.0
doppler_bin: 8
bearing: -4.20815992355
intensity: 21.7318630219
---
header: 
  seq: 127063
  stamp: 
    secs: 1561863737
    nsecs: 218779342
  frame_id: "ti_mmwave"
point_id: 8
x: 2.62890625
y: -0.17578125
z: 1.013671875
range: 3.00681090355
velocity: 0.0
doppler_bin: 8
bearing: -3.82537555695
intensity: 29.0902080536
---
header: 
  seq: 127064
  stamp: 
    secs: 1561863737
    nsecs: 218788455
  frame_id: "ti_mmwave"
point_id: 9
x: 2.693359375
y: -0.08984375
z: 0.96875
range: 3.05038785934
velocity: 0.0
doppler_bin: 8
bearing: -1.91053581238
intensity: 32.2685775757
---
header: 
  seq: 127065
  stamp: 
    secs: 1561863737
    nsecs: 218796658
  frame_id: "ti_mmwave"
point_id: 10
x: 2.75
y: -0.08984375
z: 0.931640625
range: 3.09396481514
velocity: 0.0
doppler_bin: 8
bearing: -1.87121355534
intensity: 31.2872219086
---
header: 
  seq: 127066
  stamp: 
    secs: 1561863737
    nsecs: 218804476
  frame_id: "ti_mmwave"
point_id: 11
x: 4.396484375
y: -0.142578125
z: 1.123046875
range: 4.83704376221
velocity: 0.0
doppler_bin: 8
bearing: -1.85745286942
intensity: 27.9726753235
---
header: 
  seq: 127067
  stamp: 
    secs: 1561863737
    nsecs: 218812386
  frame_id: "ti_mmwave"
point_id: 12
x: 4.408203125
y: -0.142578125
z: 1.240234375
range: 4.88062095642
velocity: 0.0
doppler_bin: 8
bearing: -1.85251843929
intensity: 31.3417701721
---
header: 
  seq: 127068
  stamp: 
    secs: 1561863737
    nsecs: 218823987
  frame_id: "ti_mmwave"
point_id: 13
x: 4.443359375
y: -0.14453125
z: 1.267578125
range: 4.9241976738
velocity: 0.0
doppler_bin: 8
bearing: -1.86303019524
intensity: 30.9166698456
---
header: 
  seq: 127069
  stamp: 
    secs: 1561863737
    nsecs: 218923807
  frame_id: "ti_mmwave"
point_id: 14
x: 4.89453125
y: -0.30859375
z: 0.6640625
range: 5.27281332016
velocity: 0.0
doppler_bin: 8
bearing: -3.60764837265
intensity: 30.5842609406
---
header: 
  seq: 127070
  stamp: 
    secs: 1561863737
    nsecs: 218936067
  frame_id: "ti_mmwave"
point_id: 15
x: 4.951171875
y: -0.623046875
z: 0.029296875
range: 5.31639051437
velocity: 0.0
doppler_bin: 8
bearing: -7.17230129242
intensity: 29.7451171875
---
header: 
  seq: 127071
  stamp: 
    secs: 1561863737
    nsecs: 218944588
  frame_id: "ti_mmwave"
point_id: 16
x: 0.01171875
y: 0.03125
z: 0.0234375
range: 0.0435769706964
velocity: 0.0
doppler_bin: 8
bearing: 69.4439544678
intensity: 29.4792366028
---
header: 
  seq: 127072
  stamp: 
    secs: 1561863737
    nsecs: 218954146
  frame_id: "ti_mmwave"
point_id: 17
x: 0.041015625
y: -0.033203125
z: 0.0625
range: 0.0871539413929
velocity: 0.0
doppler_bin: 8
bearing: -38.9909973145
intensity: 30.2077541351
---
header: 
  seq: 127073
  stamp: 
    secs: 1561863737
    nsecs: 218962655
  frame_id: "ti_mmwave"
point_id: 18
x: 0.05078125
y: -0.04296875
z: 0.103515625
range: 0.130730912089
velocity: 0.0
doppler_bin: 8
bearing: -40.2363586426
intensity: 29.0741138458
---
header: 
  seq: 127074
  stamp: 
    secs: 1561863737
    nsecs: 219994968
  frame_id: "ti_mmwave"
point_id: 0
x: 0.01171875
y: -0.0390625
z: -0.0078125
range: 0.0435769706964
velocity: 0.0
doppler_bin: 8
bearing: -73.3007583618
intensity: 30.8707122803
---
header: 
  seq: 127075
  stamp: 
    secs: 1561863737
    nsecs: 220067192
  frame_id: "ti_mmwave"
point_id: 1
x: 0.017578125
y: -0.080078125
z: -0.009765625
range: 0.0871539413929
velocity: 0.0
doppler_bin: 8
bearing: -77.6192398071
intensity: 32.0763435364
---
header: 
  seq: 127076
  stamp: 
    secs: 1561863737
    nsecs: 220084390
  frame_id: "ti_mmwave"
point_id: 2
x: 0.041015625
y: -0.115234375
z: -0.009765625
range: 0.130730912089
velocity: 0.0
doppler_bin: 8
bearing: -70.4077224731
intensity: 30.3502922058
---
header: 
  seq: 127077
  stamp: 
    secs: 1561863737
    nsecs: 220098150
  frame_id: "ti_mmwave"
point_id: 3
x: 0.056640625
y: -0.154296875
z: 0.00390625
range: 0.174307882786
velocity: 0.0
doppler_bin: 8
bearing: -69.8423843384
intensity: 25.5870857239
---
header: 
  seq: 127078
  stamp: 
    secs: 1561863737
    nsecs: 220112687
  frame_id: "ti_mmwave"
point_id: 4
x: 0.1796875
y: -0.080078125
z: 1.251953125
range: 1.35088610649
velocity: 0.0
doppler_bin: 8
bearing: -24.0202465057
intensity: 23.138671875
---
header: 
  seq: 127079
  stamp: 
    secs: 1561863737
    nsecs: 220127051
  frame_id: "ti_mmwave"
point_id: 5
x: 0.234375
y: -0.041015625
z: -1.287109375
range: 1.39446306229
velocity: 0.0
doppler_bin: 8
bearing: -9.92624568939
intensity: 24.6389293671
---
header: 
  seq: 127080
  stamp: 
    secs: 1561863737
    nsecs: 220142080
  frame_id: "ti_mmwave"
point_id: 6
x: 0.4921875
y: -0.04296875
z: -1.255859375
range: 1.43804001808
velocity: 0.0
doppler_bin: 8
bearing: -4.98936271667
intensity: 23.0535144806
---
header: 
  seq: 127081
  stamp: 
    secs: 1561863737
    nsecs: 220229921
  frame_id: "ti_mmwave"
point_id: 7
x: 0.548828125
y: -0.04296875
z: -1.27734375
range: 1.48161697388
velocity: 0.0
doppler_bin: 8
bearing: -4.47665882111
intensity: 21.7897701263
---
header: 
  seq: 127082
  stamp: 
    secs: 1561863737
    nsecs: 220245717
  frame_id: "ti_mmwave"
point_id: 8
x: 1.837890625
y: -0.115234375
z: 0.02734375
range: 1.96096372604
velocity: 0.0
doppler_bin: 8
bearing: -3.58770632744
intensity: 26.1172332764
---
header: 
  seq: 127083
  stamp: 
    secs: 1561863737
    nsecs: 220258746
  frame_id: "ti_mmwave"
point_id: 9
x: 2.60546875
y: -0.17578125
z: 1.072265625
range: 3.00681090355
velocity: 0.0
doppler_bin: 8
bearing: -3.85968351364
intensity: 29.0579586029
---
header: 
  seq: 127084
  stamp: 
    secs: 1561863737
    nsecs: 220271849
  frame_id: "ti_mmwave"
point_id: 10
x: 2.689453125
y: -0.08984375
z: 0.98046875
range: 3.05038785934
velocity: 0.0
doppler_bin: 8
bearing: -1.91330885887
intensity: 32.2010803223
---
header: 
  seq: 127085
  stamp: 
    secs: 1561863737
    nsecs: 220285026
  frame_id: "ti_mmwave"
point_id: 11
x: 2.75
y: -0.08984375
z: 0.927734375
range: 3.09396481514
velocity: 0.0
doppler_bin: 8
bearing: -1.87121355534
intensity: 31.1594314575
---
header: 
  seq: 127086
  stamp: 
    secs: 1561863737
    nsecs: 220298535
  frame_id: "ti_mmwave"
point_id: 12
x: 4.396484375
y: -0.142578125
z: 1.126953125
range: 4.83704376221
velocity: 0.0
doppler_bin: 8
bearing: -1.85745286942
intensity: 28.1023254395
---
header: 
  seq: 127087
  stamp: 
    secs: 1561863737
    nsecs: 220326270
  frame_id: "ti_mmwave"
point_id: 13
x: 4.408203125
y: -0.142578125
z: 1.23828125
range: 4.88062095642
velocity: 0.0
doppler_bin: 8
bearing: -1.85251843929
intensity: 31.4829406738
---
header: 
  seq: 127088
  stamp: 
    secs: 1561863737
    nsecs: 220395301
  frame_id: "ti_mmwave"
point_id: 14
x: 4.44140625
y: -0.14453125
z: 1.271484375
range: 4.9241976738
velocity: 0.0
doppler_bin: 8
bearing: -1.86384868622
intensity: 31.05169487
---
header: 
  seq: 127089
  stamp: 
    secs: 1561863737
    nsecs: 220409533
  frame_id: "ti_mmwave"
point_id: 15
x: 4.884765625
y: -0.46484375
z: 0.64453125
range: 5.27281332016
velocity: 0.0
doppler_bin: 8
bearing: -5.43600749969
intensity: 30.9447116852
---
header: 
  seq: 127090
  stamp: 
    secs: 1561863737
    nsecs: 220422485
  frame_id: "ti_mmwave"
point_id: 16
x: 4.951171875
y: -0.623046875
z: 0.091796875
range: 5.31639051437
velocity: 0.0
doppler_bin: 8
bearing: -7.17230129242
intensity: 29.6047077179
---
header: 
  seq: 127091
  stamp: 
    secs: 1561863737
    nsecs: 220435208
  frame_id: "ti_mmwave"
point_id: 17
x: 0.01171875
y: 0.03125
z: 0.025390625
range: 0.0435769706964
velocity: 0.0
doppler_bin: 8
bearing: 69.4439544678
intensity: 29.484128952
---
header: 
  seq: 127092
  stamp: 
    secs: 1561863737
    nsecs: 220448392
  frame_id: "ti_mmwave"
point_id: 18
x: 0.041015625
y: -0.033203125
z: 0.0625
range: 0.0871539413929
velocity: 0.0
doppler_bin: 8
bearing: -38.9909973145
intensity: 30.2077541351
---
header: 
  seq: 127093
  stamp: 
    secs: 1561863737
    nsecs: 220457272
  frame_id: "ti_mmwave"
point_id: 19
x: 0.05078125
y: -0.04296875
z: 0.103515625
range: 0.130730912089
velocity: 0.0
doppler_bin: 8
bearing: -40.2363586426
intensity: 29.0794849396
---
header: 
  seq: 127094
  stamp: 
    secs: 1561863737
    nsecs: 220494365
  frame_id: "ti_mmwave"
point_id: 21
x: 4.890625
y: -0.154296875
z: 0.75
range: 5.27281332016
velocity: 0.0
doppler_bin: 8
bearing: -1.80705499649
intensity: 30.9412155151
---
header: 
  seq: 127095
  stamp: 
    secs: 1561863737
    nsecs: 278608839
  frame_id: "ti_mmwave"
point_id: 0
x: 0.01171875
y: -0.0390625
z: -0.0078125
range: 0.0435769706964
velocity: 0.0
doppler_bin: 8
bearing: -73.3007583618
intensity: 30.8707122803
---
header: 
  seq: 127096
  stamp: 
    secs: 1561863737
    nsecs: 278701646
  frame_id: "ti_mmwave"
point_id: 1
x: 0.017578125
y: -0.080078125
z: -0.009765625
range: 0.0871539413929
velocity: 0.0
doppler_bin: 8
bearing: -77.6192398071
intensity: 32.0790367126
---
header: 
  seq: 127097
  stamp: 
    secs: 1561863737
    nsecs: 278718953
  frame_id: "ti_mmwave"
point_id: 2
x: 0.041015625
y: -0.115234375
z: -0.009765625
range: 0.130730912089
velocity: 0.0
doppler_bin: 8
bearing: -70.4077224731
intensity: 30.3502922058
---
header: 
  seq: 127098
  stamp: 
    secs: 1561863737
    nsecs: 278733265
  frame_id: "ti_mmwave"
point_id: 3
x: 0.056640625
y: -0.154296875
z: 0.005859375
range: 0.174307882786
velocity: 0.0
doppler_bin: 8
bearing: -69.8423843384
intensity: 25.5750713348
---
header: 
  seq: 127099
  stamp: 
    secs: 1561863737
    nsecs: 278747962
  frame_id: "ti_mmwave"
point_id: 4
x: 0.115234375
y: -0.080078125
z: 1.259765625
range: 1.35088610649
velocity: 0.0
doppler_bin: 8
bearing: -34.7960281372
intensity: 23.2428245544
---
header: 
  seq: 127100
  stamp: 
    secs: 1561863737
    nsecs: 278833419
  frame_id: "ti_mmwave"
point_id: 5
x: 0.265625
y: -0.041015625
z: -1.28125
range: 1.39446306229
velocity: 0.0
doppler_bin: 8
bearing: -8.77781772614
intensity: 24.727563858
---
header: 
  seq: 127101
  stamp: 
    secs: 1561863737
    nsecs: 278850826
  frame_id: "ti_mmwave"
point_id: 6
x: 0.513671875
y: -0.04296875
z: -1.248046875
range: 1.43804001808
velocity: 0.0
doppler_bin: 8
bearing: -4.78167009354
intensity: 23.0963020325
---
header: 
  seq: 127102
  stamp: 
    secs: 1561863737
    nsecs: 278863968
  frame_id: "ti_mmwave"
point_id: 7
x: 0.5390625
y: -0.04296875
z: -1.28125
range: 1.48161697388
velocity: 0.0
doppler_bin: 8
bearing: -4.55741930008
intensity: 21.7897701263
---
header: 
  seq: 127103
  stamp: 
    secs: 1561863737
    nsecs: 278876829
  frame_id: "ti_mmwave"
point_id: 8
x: 1.744140625
y: -0.0546875
z: -0.21484375
range: 1.87380969524
velocity: 0.0
doppler_bin: 8
bearing: -1.79591965675
intensity: 27.283536911
---
header: 
  seq: 127104
  stamp: 
    secs: 1561863737
    nsecs: 278891718
  frame_id: "ti_mmwave"
point_id: 9
x: 1.783203125
y: -0.056640625
z: -0.236328125
range: 1.91738677025
velocity: 0.0
doppler_bin: 8
bearing: -1.81929790974
intensity: 29.2788333893
---
header: 
  seq: 127105
  stamp: 
    secs: 1561863737
    nsecs: 278903968
  frame_id: "ti_mmwave"
point_id: 10
x: 1.818359375
y: -0.0
z: -0.291015625
range: 1.96096372604
velocity: 0.0
doppler_bin: 8
bearing: -0.0
intensity: 26.8304710388
---
header: 
  seq: 127106
  stamp: 
    secs: 1561863737
    nsecs: 278916751
  frame_id: "ti_mmwave"
point_id: 11
x: 2.615234375
y: -0.17578125
z: 1.048828125
range: 3.00681090355
velocity: 0.0
doppler_bin: 8
bearing: -3.84531402588
intensity: 29.1803035736
---
header: 
  seq: 127107
  stamp: 
    secs: 1561863737
    nsecs: 278929489
  frame_id: "ti_mmwave"
point_id: 12
x: 2.69140625
y: -0.08984375
z: 0.97265625
range: 3.05038785934
velocity: 0.0
doppler_bin: 8
bearing: -1.91192126274
intensity: 32.3804626465
---
header: 
  seq: 127108
  stamp: 
    secs: 1561863737
    nsecs: 278945335
  frame_id: "ti_mmwave"
point_id: 13
x: 2.7578125
y: -0.08984375
z: 0.908203125
range: 3.09396481514
velocity: 0.0
doppler_bin: 8
bearing: -1.86591637135
intensity: 31.4488544464
---
header: 
  seq: 127109
  stamp: 
    secs: 1561863737
    nsecs: 278954579
  frame_id: "ti_mmwave"
point_id: 14
x: 4.412109375
y: -0.142578125
z: 1.228515625
range: 4.88062095642
velocity: 0.0
doppler_bin: 8
bearing: -1.85087943077
intensity: 31.2839927673
---
header: 
  seq: 127110
  stamp: 
    secs: 1561863737
    nsecs: 278982964
  frame_id: "ti_mmwave"
point_id: 15
x: 4.4453125
y: -0.14453125
z: 1.2578125
range: 4.9241976738
velocity: 0.0
doppler_bin: 8
bearing: -1.86221218109
intensity: 30.8813610077
---
header: 
  seq: 127111
  stamp: 
    secs: 1561863737
    nsecs: 279003593
  frame_id: "ti_mmwave"
point_id: 16
x: 4.90234375
y: -0.30859375
z: 0.603515625
range: 5.27281332016
velocity: 0.0
doppler_bin: 8
bearing: -3.60191392899
intensity: 30.4766426086
---
header: 
  seq: 127112
  stamp: 
    secs: 1561863737
    nsecs: 279028564
  frame_id: "ti_mmwave"
point_id: 17
x: 4.951171875
y: -0.623046875
z: -0.095703125
range: 5.31639051437
velocity: 0.0
doppler_bin: 8
bearing: -7.17230129242
intensity: 29.4001808167
---
header: 
  seq: 127113
  stamp: 
    secs: 1561863737
    nsecs: 279049755
  frame_id: "ti_mmwave"
point_id: 18
x: 0.01171875
y: 0.03125
z: 0.0234375
range: 0.0435769706964
velocity: 0.0
doppler_bin: 8
bearing: 69.4439544678
intensity: 29.4792366028
---
header: 
  seq: 127114
  stamp: 
    secs: 1561863737
    nsecs: 279079882
  frame_id: "ti_mmwave"
point_id: 19
x: 0.041015625
y: -0.033203125
z: 0.0625
range: 0.0871539413929
velocity: 0.0
doppler_bin: 8
bearing: -38.9909973145
intensity: 30.2118930817
---
header: 
  seq: 127115
  stamp: 
    secs: 1561863737
    nsecs: 279116385
  frame_id: "ti_mmwave"
point_id: 20
x: 0.05078125
y: -0.04296875
z: 0.103515625
range: 0.130730912089
velocity: 0.0
doppler_bin: 8
bearing: -40.2363586426
intensity: 29.0794849396
---
header: 
  seq: 127116
  stamp: 
    secs: 1561863737
    nsecs: 279868063
  frame_id: "ti_mmwave"
point_id: 0
x: 0.01171875
y: -0.0390625
z: -0.0078125
range: 0.0435769706964
velocity: 0.0
doppler_bin: 8
bearing: -73.3007583618
intensity: 30.8778133392
---
header: 
  seq: 127117
  stamp: 
    secs: 1561863737
    nsecs: 279916966
  frame_id: "ti_mmwave"
point_id: 1
x: 0.017578125
y: -0.080078125
z: -0.009765625
range: 0.0871539413929
velocity: 0.0
doppler_bin: 8
bearing: -77.6192398071
intensity: 32.0817260742
---
header: 
  seq: 127118
  stamp: 
    secs: 1561863737
    nsecs: 279935389
  frame_id: "ti_mmwave"
point_id: 2
x: 0.041015625
y: -0.115234375
z: -0.009765625
range: 0.130730912089
velocity: 0.0
doppler_bin: 8
bearing: -70.4077224731
intensity: 30.3542976379
---
header: 
  seq: 127119
  stamp: 
    secs: 1561863737
    nsecs: 279975477
  frame_id: "ti_mmwave"
point_id: 3
x: 0.056640625
y: -0.154296875
z: 0.005859375
range: 0.174307882786
velocity: 0.0
doppler_bin: 8
bearing: -69.8423843384
intensity: 25.5870857239
---
header: 
  seq: 127120
  stamp: 
    secs: 1561863737
    nsecs: 279991712
  frame_id: "ti_mmwave"
point_id: 4
x: 0.15625
y: -0.080078125
z: 1.255859375
range: 1.35088610649
velocity: 0.0
doppler_bin: 8
bearing: -27.1351394653
intensity: 23.2221927643
---
header: 
  seq: 127121
  stamp: 
    secs: 1561863737
    nsecs: 280005956
  frame_id: "ti_mmwave"
point_id: 5
x: 0.259765625
y: -0.041015625
z: -1.283203125
range: 1.39446306229
velocity: 0.0
doppler_bin: 8
bearing: -8.9726266861
intensity: 24.683473587
---
header: 
  seq: 127122
  stamp: 
    secs: 1561863737
    nsecs: 280019260
  frame_id: "ti_mmwave"
point_id: 6
x: 0.494140625
y: -0.04296875
z: -1.255859375
range: 1.43804001808
velocity: 0.0
doppler_bin: 8
bearing: -4.96974086761
intensity: 23.0535144806
---
header: 
  seq: 127123
  stamp: 
    secs: 1561863737
    nsecs: 280030897
  frame_id: "ti_mmwave"
point_id: 7
x: 0.544921875
y: -0.04296875
z: -1.279296875
range: 1.48161697388
velocity: 0.0
doppler_bin: 8
bearing: -4.50861787796
intensity: 21.7026176453
---
header: 
  seq: 127124
  stamp: 
    secs: 1561863737
    nsecs: 280043239
  frame_id: "ti_mmwave"
point_id: 8
x: 1.7578125
y: -0.056640625
z: -0.3828125
range: 1.91738677025
velocity: 0.0
doppler_bin: 8
bearing: -1.84555876255
intensity: 27.2345561981
---
header: 
  seq: 127125
  stamp: 
    secs: 1561863737
    nsecs: 280055398
  frame_id: "ti_mmwave"
point_id: 9
x: 1.822265625
y: -0.0
z: -0.267578125
range: 1.96096372604
velocity: 0.0
doppler_bin: 8
bearing: -0.0
intensity: 27.3158874512
---
header: 
  seq: 127126
  stamp: 
    secs: 1561863737
    nsecs: 280067855
  frame_id: "ti_mmwave"
point_id: 10
x: 2.619140625
y: -0.17578125
z: 1.037109375
range: 3.00681090355
velocity: 0.0
doppler_bin: 8
bearing: -3.83959650993
intensity: 29.2116603851
---
header: 
  seq: 127127
  stamp: 
    secs: 1561863737
    nsecs: 280150104
  frame_id: "ti_mmwave"
point_id: 11
x: 2.69140625
y: -0.08984375
z: 0.974609375
range: 3.05038785934
velocity: 0.0
doppler_bin: 8
bearing: -1.91192126274
intensity: 32.3552856445
---
header: 
  seq: 127128
  stamp: 
    secs: 1561863737
    nsecs: 280165199
  frame_id: "ti_mmwave"
point_id: 12
x: 2.755859375
y: -0.08984375
z: 0.91015625
range: 3.09396481514
velocity: 0.0
doppler_bin: 8
bearing: -1.86723792553
intensity: 31.4050807953
---
header: 
  seq: 127129
  stamp: 
    secs: 1561863737
    nsecs: 280173365
  frame_id: "ti_mmwave"
point_id: 13
x: 4.41015625
y: -0.142578125
z: 1.068359375
range: 4.83704376221
velocity: 0.0
doppler_bin: 8
bearing: -1.85169863701
intensity: 28.3947811127
---
header: 
  seq: 127130
  stamp: 
    secs: 1561863737
    nsecs: 280181412
  frame_id: "ti_mmwave"
point_id: 14
x: 4.41796875
y: -0.142578125
z: 1.20703125
range: 4.88062095642
velocity: 0.0
doppler_bin: 8
bearing: -1.84842634201
intensity: 31.6996822357
---
header: 
  seq: 127131
  stamp: 
    secs: 1561863737
    nsecs: 280211593
  frame_id: "ti_mmwave"
point_id: 15
x: 4.44921875
y: -0.14453125
z: 1.244140625
range: 4.9241976738
velocity: 0.0
doppler_bin: 8
bearing: -1.86057829857
intensity: 31.225435257
---
header: 
  seq: 127132
  stamp: 
    secs: 1561863737
    nsecs: 280227828
  frame_id: "ti_mmwave"
point_id: 16
x: 1.748046875
y: -0.0
z: -0.427734375
range: 1.91738677025
velocity: -0.614668667316
doppler_bin: 7
bearing: -0.0
intensity: 27.0070381165
---
header: 
  seq: 127133
  stamp: 
    secs: 1561863737
    nsecs: 280591181
  frame_id: "ti_mmwave"
point_id: 17
x: 1.787109375
y: -0.0
z: -0.439453125
range: 1.96096372604
velocity: -0.614668667316
doppler_bin: 7
bearing: -0.0
intensity: 26.7486114502
---
header: 
  seq: 127134
  stamp: 
    secs: 1561863737
    nsecs: 280611091
  frame_id: "ti_mmwave"
point_id: 18
x: 0.01171875
y: 0.03125
z: 0.0234375
range: 0.0435769706964
velocity: 0.0
doppler_bin: 8
bearing: 69.4439544678
intensity: 29.484128952
---
header: 
  seq: 127135
  stamp: 
    secs: 1561863737
    nsecs: 280664086
  frame_id: "ti_mmwave"
point_id: 19
x: 0.041015625
y: -0.033203125
z: 0.0625
range: 0.0871539413929
velocity: 0.0
doppler_bin: 8
bearing: -38.9909973145
intensity: 30.2077541351
---
header: 
  seq: 127136
  stamp: 
    secs: 1561863737
    nsecs: 280678424
  frame_id: "ti_mmwave"
point_id: 20
x: 0.05078125
y: -0.04296875
z: 0.103515625
range: 0.130730912089
velocity: 0.0
doppler_bin: 8
bearing: -40.2363586426
intensity: 29.0794849396
---
header: 
  seq: 127137
  stamp: 
    secs: 1561863737
    nsecs: 338598972
  frame_id: "ti_mmwave"
point_id: 0
x: 0.01171875
y: -0.0390625
z: -0.0078125
range: 0.0435769706964
velocity: 0.0
doppler_bin: 8
bearing: -73.3007583618
intensity: 30.8778133392
---
header: 
  seq: 127138
  stamp: 
    secs: 1561863737
    nsecs: 338679005
  frame_id: "ti_mmwave"
point_id: 1
x: 0.017578125
y: -0.080078125
z: -0.009765625
range: 0.0871539413929
velocity: 0.0
doppler_bin: 8
bearing: -77.6192398071
intensity: 32.0790367126
---
header: 
  seq: 127139
  stamp: 
    secs: 1561863737
    nsecs: 338695152
  frame_id: "ti_mmwave"
point_id: 2
x: 0.041015625
y: -0.115234375
z: -0.009765625
range: 0.130730912089
velocity: 0.0
doppler_bin: 8
bearing: -70.4077224731
intensity: 30.3462848663
---
header: 
  seq: 127140
  stamp: 
    secs: 1561863737
    nsecs: 338707698
  frame_id: "ti_mmwave"
point_id: 3
x: 0.056640625
y: -0.154296875
z: 0.00390625
range: 0.174307882786
velocity: 0.0
doppler_bin: 8
bearing: -69.8423843384
intensity: 25.5750713348
---
header: 
  seq: 127141
  stamp: 
    secs: 1561863737
    nsecs: 338748632
  frame_id: "ti_mmwave"
point_id: 4
x: 0.107421875
y: -0.080078125
z: 1.26171875
range: 1.35088610649
velocity: 0.0
doppler_bin: 8
bearing: -36.7028541565
intensity: 23.2221927643
---
header: 
  seq: 127142
  stamp: 
    secs: 1561863737
    nsecs: 338827311
  frame_id: "ti_mmwave"
point_id: 5
x: 0.271484375
y: -0.041015625
z: -1.279296875
range: 1.39446306229
velocity: 0.0
doppler_bin: 8
bearing: -8.59122562408
intensity: 24.683473587
---
header: 
  seq: 127143
  stamp: 
    secs: 1561863737
    nsecs: 338841636
  frame_id: "ti_mmwave"
point_id: 6
x: 0.498046875
y: -0.04296875
z: -1.25390625
range: 1.43804001808
velocity: 0.0
doppler_bin: 8
bearing: -4.93095541
intensity: 23.0963020325
---
header: 
  seq: 127144
  stamp: 
    secs: 1561863737
    nsecs: 338855902
  frame_id: "ti_mmwave"
point_id: 7
x: 0.5625
y: -0.04296875
z: -1.271484375
range: 1.48161697388
velocity: 0.0
doppler_bin: 8
bearing: -4.36827754974
intensity: 21.7609119415
---
header: 
  seq: 127145
  stamp: 
    secs: 1561863737
    nsecs: 338867417
  frame_id: "ti_mmwave"
point_id: 8
x: 1.734375
y: -0.109375
z: -0.267578125
range: 1.87380969524
velocity: 0.0
doppler_bin: 8
bearing: -3.60846877098
intensity: 29.1434307098
---
header: 
  seq: 127146
  stamp: 
    secs: 1561863737
    nsecs: 338878198
  frame_id: "ti_mmwave"
point_id: 9
x: 1.78125
y: -0.056640625
z: -0.255859375
range: 1.91738677025
velocity: 0.0
doppler_bin: 8
bearing: -1.8212916851
intensity: 30.0086765289
---
header: 
  seq: 127147
  stamp: 
    secs: 1561863737
    nsecs: 338888338
  frame_id: "ti_mmwave"
point_id: 10
x: 1.826171875
y: -0.0
z: -0.23046875
range: 1.96096372604
velocity: 0.0
doppler_bin: 8
bearing: -0.0
intensity: 27.8247261047
---
header: 
  seq: 127148
  stamp: 
    secs: 1561863737
    nsecs: 338900460
  frame_id: "ti_mmwave"
point_id: 11
x: 1.87890625
y: -0.05859375
z: -0.064453125
range: 2.00454068184
velocity: 0.0
doppler_bin: 8
bearing: -1.7861918211
intensity: 26.3748970032
---
header: 
  seq: 127149
  stamp: 
    secs: 1561863737
    nsecs: 338912328
  frame_id: "ti_mmwave"
point_id: 12
x: 2.626953125
y: -0.17578125
z: 1.015625
range: 3.00681090355
velocity: 0.0
doppler_bin: 8
bearing: -3.82821130753
intensity: 29.1960105896
---
header: 
  seq: 127150
  stamp: 
    secs: 1561863737
    nsecs: 338924913
  frame_id: "ti_mmwave"
point_id: 13
x: 2.697265625
y: -0.08984375
z: 0.95703125
range: 3.05038785934
velocity: 0.0
doppler_bin: 8
bearing: -1.90777087212
intensity: 32.3552856445
---
header: 
  seq: 127151
  stamp: 
    secs: 1561863737
    nsecs: 338937750
  frame_id: "ti_mmwave"
point_id: 14
x: 2.759765625
y: -0.08984375
z: 0.8984375
range: 3.09396481514
velocity: 0.0
doppler_bin: 8
bearing: -1.86459684372
intensity: 31.383026123
---
header: 
  seq: 127152
  stamp: 
    secs: 1561863737
    nsecs: 338947331
  frame_id: "ti_mmwave"
point_id: 15
x: 4.412109375
y: -0.142578125
z: 1.2265625
range: 4.88062095642
velocity: 0.0
doppler_bin: 8
bearing: -1.85087943077
intensity: 31.3129787445
---
header: 
  seq: 127153
  stamp: 
    secs: 1561863737
    nsecs: 338967165
  frame_id: "ti_mmwave"
point_id: 16
x: 4.451171875
y: -0.14453125
z: 1.240234375
range: 4.9241976738
velocity: 0.0
doppler_bin: 8
bearing: -1.8597625494
intensity: 31.1360912323
---
header: 
  seq: 127154
  stamp: 
    secs: 1561863737
    nsecs: 338985834
  frame_id: "ti_mmwave"
point_id: 17
x: 0.01171875
y: 0.03125
z: 0.0234375
range: 0.0435769706964
velocity: 0.0
doppler_bin: 8
bearing: 69.4439544678
intensity: 29.4792366028
---
header: 
  seq: 127155
  stamp: 
    secs: 1561863737
    nsecs: 339092259
  frame_id: "ti_mmwave"
point_id: 18
x: 0.041015625
y: -0.033203125
z: 0.0625
range: 0.0871539413929
velocity: 0.0
doppler_bin: 8
bearing: -38.9909973145
intensity: 30.2118930817
---
header: 
  seq: 127156
  stamp: 
    secs: 1561863737
    nsecs: 339110349
  frame_id: "ti_mmwave"
point_id: 19
x: 0.05078125
y: -0.04296875
z: 0.103515625
range: 0.130730912089
velocity: 0.0
doppler_bin: 8
bearing: -40.2363586426
intensity: 29.0848503113
---
header: 
  seq: 127157
  stamp: 
    secs: 1561863737
    nsecs: 339832593
  frame_id: "ti_mmwave"
point_id: 0
x: 0.01171875
y: -0.0390625
z: -0.0078125
range: 0.0435769706964
velocity: 0.0
doppler_bin: 8
bearing: -73.3007583618
intensity: 30.8671569824
---
header: 
  seq: 127158
  stamp: 
    secs: 1561863737
    nsecs: 339877396
  frame_id: "ti_mmwave"
point_id: 1
x: 0.017578125
y: -0.080078125
z: -0.009765625
range: 0.0871539413929
velocity: 0.0
doppler_bin: 8
bearing: -77.6192398071
intensity: 32.0763435364
---
header: 
  seq: 127159
  stamp: 
    secs: 1561863737
    nsecs: 339891974
  frame_id: "ti_mmwave"
point_id: 2
x: 0.041015625
y: -0.115234375
z: -0.009765625
range: 0.130730912089
velocity: 0.0
doppler_bin: 8
bearing: -70.4077224731
intensity: 30.3502922058
---
header: 
  seq: 127160
  stamp: 
    secs: 1561863737
    nsecs: 339909126
  frame_id: "ti_mmwave"
point_id: 3
x: 0.056640625
y: -0.154296875
z: 0.005859375
range: 0.174307882786
velocity: 0.0
doppler_bin: 8
bearing: -69.8423843384
intensity: 25.5750713348
---
header: 
  seq: 127161
  stamp: 
    secs: 1561863737
    nsecs: 340030085
  frame_id: "ti_mmwave"
point_id: 4
x: 0.1484375
y: -0.080078125
z: 1.255859375
range: 1.35088610649
velocity: 0.0
doppler_bin: 8
bearing: -28.3456954956
intensity: 23.2221927643
---
header: 
  seq: 127162
  stamp: 
    secs: 1561863737
