header: 
  seq: 721681
  stamp: 
    secs: 1561864644
    nsecs: 987861570
  frame_id: "ti_mmwave"
point_id: 0
x: 0.01171875
y: -0.0390625
z: -0.0078125
range: 0.0435769706964
velocity: 0.0
doppler_bin: 8
bearing: -73.3007583618
intensity: 30.6929798126
---
header: 
  seq: 721682
  stamp: 
    secs: 1561864644
    nsecs: 987986959
  frame_id: "ti_mmwave"
point_id: 1
x: 0.017578125
y: -0.080078125
z: -0.0078125
range: 0.0871539413929
velocity: 0.0
doppler_bin: 8
bearing: -77.6192398071
intensity: 31.9256744385
---
header: 
  seq: 721683
  stamp: 
    secs: 1561864644
    nsecs: 988006422
  frame_id: "ti_mmwave"
point_id: 2
x: 0.029296875
y: -0.119140625
z: -0.005859375
range: 0.130730912089
velocity: 0.0
doppler_bin: 8
bearing: -76.1849746704
intensity: 30.1745071411
---
header: 
  seq: 721684
  stamp: 
    secs: 1561864644
    nsecs: 988016525
  frame_id: "ti_mmwave"
point_id: 3
x: 0.056640625
y: -0.154296875
z: 0.005859375
range: 0.174307882786
velocity: 0.0
doppler_bin: 8
bearing: -69.8423843384
intensity: 25.4530715942
---
header: 
  seq: 721685
  stamp: 
    secs: 1561864644
    nsecs: 988099072
  frame_id: "ti_mmwave"
point_id: 4
x: 0.083984375
y: -0.080078125
z: 1.263671875
range: 1.35088610649
velocity: 0.0
doppler_bin: 8
bearing: -43.6360702515
intensity: 23.1175384521
---
header: 
  seq: 721686
  stamp: 
    secs: 1561864644
    nsecs: 988111054
  frame_id: "ti_mmwave"
point_id: 5
x: 0.037109375
y: -0.08203125
z: -1.306640625
range: 1.39446306229
velocity: 0.0
doppler_bin: 8
bearing: -65.6589126587
intensity: 24.6239795685
---
header: 
  seq: 721687
  stamp: 
    secs: 1561864644
    nsecs: 988119286
  frame_id: "ti_mmwave"
point_id: 6
x: 0.431640625
y: -0.083984375
z: -1.275390625
range: 1.43804001808
velocity: 0.0
doppler_bin: 8
bearing: -11.0104799271
intensity: 23.0102996826
---
header: 
  seq: 721688
  stamp: 
    secs: 1561864644
    nsecs: 988129051
  frame_id: "ti_mmwave"
point_id: 7
x: 1.654296875
y: -0.052734375
z: -0.265625
range: 1.78665578365
velocity: 0.0
doppler_bin: 8
bearing: -1.82581138611
intensity: 28.680562973
---
header: 
  seq: 721689
  stamp: 
    secs: 1561864644
    nsecs: 988156427
  frame_id: "ti_mmwave"
point_id: 8
x: 1.67578125
y: -0.052734375
z: -0.373046875
range: 1.83023273945
velocity: 0.0
doppler_bin: 8
bearing: -1.80241930485
intensity: 31.2024478912
---
header: 
  seq: 721690
  stamp: 
    secs: 1561864644
    nsecs: 988166201
  frame_id: "ti_mmwave"
point_id: 9
x: 1.69921875
y: -0.0546875
z: -0.451171875
range: 1.87380969524
velocity: 0.0
doppler_bin: 8
bearing: -1.84336578846
intensity: 29.8362636566
---
header: 
  seq: 721691
  stamp: 
    secs: 1561864644
    nsecs: 988174879
  frame_id: "ti_mmwave"
point_id: 10
x: 2.630859375
y: -0.17578125
z: 1.0078125
range: 3.00681090355
velocity: 0.0
doppler_bin: 8
bearing: -3.82254433632
intensity: 29.2272548676
---
header: 
  seq: 721692
  stamp: 
    secs: 1561864644
    nsecs: 988183662
  frame_id: "ti_mmwave"
point_id: 11
x: 2.6953125
y: -0.08984375
z: 0.962890625
range: 3.05038785934
velocity: 0.0
doppler_bin: 8
bearing: -1.90915250778
intensity: 32.2608413696
---
header: 
  seq: 721693
  stamp: 
    secs: 1561864644
    nsecs: 988191437
  frame_id: "ti_mmwave"
point_id: 12
x: 2.759765625
y: -0.08984375
z: 0.90234375
range: 3.09396481514
velocity: 0.0
doppler_bin: 8
bearing: -1.86459684372
intensity: 31.2678050995
---
header: 
  seq: 721694
  stamp: 
    secs: 1561864644
    nsecs: 988199863
  frame_id: "ti_mmwave"
point_id: 13
x: 4.412109375
y: -0.142578125
z: 1.228515625
range: 4.88062095642
velocity: 0.0
doppler_bin: 8
bearing: -1.85087943077
intensity: 31.2483005524
---
header: 
  seq: 721695
  stamp: 
    secs: 1561864644
    nsecs: 988208862
  frame_id: "ti_mmwave"
point_id: 14
x: 4.447265625
y: -0.14453125
z: 1.25390625
range: 4.9241976738
velocity: 0.0
doppler_bin: 8
bearing: -1.86139500141
intensity: 30.7809410095
---
header: 
  seq: 721696
  stamp: 
    secs: 1561864644
    nsecs: 988218112
  frame_id: "ti_mmwave"
point_id: 15
x: 0.01171875
y: 0.03125
z: 0.025390625
range: 0.0435769706964
velocity: 0.0
doppler_bin: 8
bearing: 69.4439544678
intensity: 29.3348731995
---
header: 
  seq: 721697
  stamp: 
    secs: 1561864644
    nsecs: 988223953
  frame_id: "ti_mmwave"
point_id: 16
x: 0.041015625
y: -0.033203125
z: 0.0625
range: 0.0871539413929
velocity: 0.0
doppler_bin: 8
bearing: -38.9909973145
intensity: 30.1029987335
---
header: 
  seq: 721698
  stamp: 
    secs: 1561864644
    nsecs: 988236354
  frame_id: "ti_mmwave"
point_id: 17
x: 0.044921875
y: -0.046875
z: 0.103515625
range: 0.130730912089
velocity: 0.0
doppler_bin: 8
bearing: -46.218875885
intensity: 28.9817657471
---
header: 
  seq: 721699
  stamp: 
    secs: 1561864644
    nsecs: 989214192
  frame_id: "ti_mmwave"
point_id: 0
x: 0.01171875
y: -0.0390625
z: -0.0078125
range: 0.0435769706964
velocity: 0.0
doppler_bin: 8
bearing: -73.3007583618
intensity: 30.6892757416
---
header: 
  seq: 721700
  stamp: 
    secs: 1561864644
    nsecs: 989297472
  frame_id: "ti_mmwave"
point_id: 1
x: 0.017578125
y: -0.080078125
z: -0.0078125
range: 0.0871539413929
velocity: 0.0
doppler_bin: 8
bearing: -77.6192398071
intensity: 31.9256744385
---
header: 
  seq: 721701
  stamp: 
    secs: 1561864644
    nsecs: 989316979
  frame_id: "ti_mmwave"
point_id: 2
x: 0.029296875
y: -0.119140625
z: -0.005859375
range: 0.130730912089
velocity: 0.0
doppler_bin: 8
bearing: -76.1849746704
intensity: 30.1745071411
---
header: 
  seq: 721702
  stamp: 
    secs: 1561864644
    nsecs: 989330433
  frame_id: "ti_mmwave"
point_id: 3
x: 0.056640625
y: -0.154296875
z: 0.005859375
range: 0.174307882786
velocity: 0.0
doppler_bin: 8
bearing: -69.8423843384
intensity: 25.4406795502
---
header: 
  seq: 721703
  stamp: 
    secs: 1561864644
    nsecs: 989403321
  frame_id: "ti_mmwave"
point_id: 4
x: 0.138671875
y: -0.080078125
z: 1.2578125
range: 1.35088610649
velocity: 0.0
doppler_bin: 8
bearing: -30.0049190521
intensity: 23.0963020325
---
header: 
  seq: 721704
  stamp: 
    secs: 1561864644
    nsecs: 989420584
  frame_id: "ti_mmwave"
point_id: 6
x: 0.423828125
y: -0.083984375
z: -1.279296875
range: 1.43804001808
velocity: 0.0
doppler_bin: 8
bearing: -11.2083444595
intensity: 22.9885311127
---
header: 
  seq: 721705
  stamp: 
    secs: 1561864644
    nsecs: 989432476
  frame_id: "ti_mmwave"
point_id: 7
x: 0.537109375
y: -0.04296875
z: -1.28125
range: 1.48161697388
velocity: 0.0
doppler_bin: 8
bearing: -4.57392120361
intensity: 21.5533599854
---
header: 
  seq: 721706
  stamp: 
    secs: 1561864644
    nsecs: 989443189
  frame_id: "ti_mmwave"
point_id: 8
x: 2.599609375
y: -0.17578125
z: 1.0859375
range: 3.00681090355
velocity: 0.0
doppler_bin: 8
bearing: -3.86835670471
intensity: 28.9486961365
---
header: 
  seq: 721707
  stamp: 
    secs: 1561864644
    nsecs: 989457166
  frame_id: "ti_mmwave"
point_id: 9
x: 2.68359375
y: -0.08984375
z: 0.994140625
range: 3.05038785934
velocity: 0.0
doppler_bin: 8
bearing: -1.91748321056
intensity: 32.1958465576
---
header: 
  seq: 721708
  stamp: 
    secs: 1561864644
    nsecs: 989473584
  frame_id: "ti_mmwave"
point_id: 10
x: 2.75
y: -0.08984375
z: 0.9296875
range: 3.09396481514
velocity: 0.0
doppler_bin: 8
bearing: -1.87121355534
intensity: 31.2515583038
---
header: 
  seq: 721709
  stamp: 
    secs: 1561864644
    nsecs: 989572654
  frame_id: "ti_mmwave"
point_id: 11
x: 4.41015625
y: -0.142578125
z: 1.0703125
range: 4.83704376221
velocity: 0.0
doppler_bin: 8
bearing: -1.85169863701
intensity: 28.2085800171
---
header: 
  seq: 721710
  stamp: 
    secs: 1561864644
    nsecs: 989604042
  frame_id: "ti_mmwave"
point_id: 12
x: 4.421875
y: -0.142578125
z: 1.1875
range: 4.88062095642
velocity: 0.0
doppler_bin: 8
bearing: -1.84679484367
intensity: 31.6316146851
---
header: 
  seq: 721711
  stamp: 
    secs: 1561864644
    nsecs: 989617626
  frame_id: "ti_mmwave"
point_id: 13
x: 4.458984375
y: -0.14453125
z: 1.208984375
range: 4.9241976738
velocity: 0.0
doppler_bin: 8
bearing: -1.85650622845
intensity: 31.222158432
---
header: 
  seq: 721712
  stamp: 
    secs: 1561864644
    nsecs: 989631446
  frame_id: "ti_mmwave"
point_id: 14
x: 4.89453125
y: -0.935546875
z: -0.28515625
range: 5.31639051437
velocity: 0.0
doppler_bin: 8
bearing: -10.821064949
intensity: 29.0254669189
---
header: 
  seq: 721713
  stamp: 
    secs: 1561864644
    nsecs: 989670578
  frame_id: "ti_mmwave"
point_id: 15
x: 0.01171875
y: 0.03125
z: 0.025390625
range: 0.0435769706964
velocity: 0.0
doppler_bin: 8
bearing: 69.4439544678
intensity: 29.3348731995
---
header: 
  seq: 721714
  stamp: 
    secs: 1561864644
    nsecs: 989727608
  frame_id: "ti_mmwave"
point_id: 16
x: 0.041015625
y: -0.033203125
z: 0.0625
range: 0.0871539413929
velocity: 0.0
doppler_bin: 8
bearing: -38.9909973145
intensity: 30.1072387695
---
header: 
  seq: 721715
  stamp: 
    secs: 1561864644
    nsecs: 989742608
  frame_id: "ti_mmwave"
point_id: 17
x: 0.044921875
y: -0.046875
z: 0.103515625
range: 0.130730912089
velocity: 0.0
doppler_bin: 8
bearing: -46.218875885
intensity: 28.9817657471
---
header: 
  seq: 721716
  stamp: 
    secs: 1561864645
    nsecs:  47866540
  frame_id: "ti_mmwave"
point_id: 0
x: 0.01171875
y: -0.0390625
z: -0.0078125
range: 0.0435769706964
velocity: 0.0
doppler_bin: 8
bearing: -73.3007583618
intensity: 30.6818580627
---
header: 
  seq: 721717
  stamp: 
    secs: 1561864645
    nsecs:  47985718
  frame_id: "ti_mmwave"
point_id: 1
x: 0.017578125
y: -0.080078125
z: -0.0078125
range: 0.0871539413929
velocity: 0.0
doppler_bin: 8
bearing: -77.6192398071
intensity: 31.9256744385
---
header: 
  seq: 721718
  stamp: 
    secs: 1561864645
    nsecs:  48002333
  frame_id: "ti_mmwave"
point_id: 2
x: 0.029296875
y: -0.119140625
z: -0.005859375
range: 0.130730912089
velocity: 0.0
doppler_bin: 8
bearing: -76.1849746704
intensity: 30.1786766052
---
header: 
  seq: 721719
  stamp: 
    secs: 1561864645
    nsecs:  48024072
  frame_id: "ti_mmwave"
point_id: 3
x: 0.056640625
y: -0.154296875
z: 0.005859375
range: 0.174307882786
velocity: 0.0
doppler_bin: 8
bearing: -69.8423843384
intensity: 25.4777469635
---
header: 
  seq: 721720
  stamp: 
    secs: 1561864645
    nsecs:  48111444
  frame_id: "ti_mmwave"
point_id: 4
x: 0.13671875
y: -0.080078125
z: 1.2578125
range: 1.35088610649
velocity: 0.0
doppler_bin: 8
bearing: -30.3581142426
intensity: 23.0749607086
---
header: 
  seq: 721721
  stamp: 
    secs: 1561864645
    nsecs:  48124648
  frame_id: "ti_mmwave"
point_id: 6
x: 0.42578125
y: -0.083984375
z: -1.27734375
range: 1.43804001808
velocity: 0.0
doppler_bin: 8
bearing: -11.1582231522
intensity: 22.9666519165
---
header: 
  seq: 721722
  stamp: 
    secs: 1561864645
    nsecs:  48134130
  frame_id: "ti_mmwave"
point_id: 7
x: 1.66015625
y: -0.052734375
z: -0.23828125
range: 1.78665578365
velocity: 0.0
doppler_bin: 8
bearing: -1.8193718195
intensity: 28.8761730194
---
header: 
  seq: 721723
  stamp: 
    secs: 1561864645
    nsecs:  48142005
  frame_id: "ti_mmwave"
point_id: 8
x: 1.689453125
y: -0.052734375
z: -0.30859375
range: 1.83023273945
velocity: 0.0
doppler_bin: 8
bearing: -1.78784263134
intensity: 31.1925582886
---
header: 
  seq: 721724
  stamp: 
    secs: 1561864645
    nsecs:  48150028
  frame_id: "ti_mmwave"
point_id: 9
x: 1.7109375
y: -0.0546875
z: -0.40625
range: 1.87380969524
velocity: 0.0
doppler_bin: 8
bearing: -1.83074879646
intensity: 30.4060230255
---
header: 
  seq: 721725
  stamp: 
    secs: 1561864645
    nsecs:  48158077
  frame_id: "ti_mmwave"
point_id: 10
x: 2.615234375
y: -0.17578125
z: 1.046875
range: 3.00681090355
velocity: 0.0
doppler_bin: 8
bearing: -3.84531402588
intensity: 29.3348731995
---
header: 
  seq: 721726
  stamp: 
    secs: 1561864645
    nsecs:  48165489
  frame_id: "ti_mmwave"
point_id: 11
x: 2.689453125
y: -0.08984375
z: 0.9765625
range: 3.05038785934
velocity: 0.0
doppler_bin: 8
bearing: -1.91330885887
intensity: 32.2659988403
---
header: 
  seq: 721727
  stamp: 
    secs: 1561864645
    nsecs:  48174177
  frame_id: "ti_mmwave"
point_id: 12
x: 2.75
y: -0.08984375
z: 0.927734375
range: 3.09396481514
velocity: 0.0
doppler_bin: 8
bearing: -1.87121355534
intensity: 31.2450428009
---
header: 
  seq: 721728
  stamp: 
    secs: 1561864645
    nsecs:  48181893
  frame_id: "ti_mmwave"
point_id: 13
x: 4.40625
y: -0.142578125
z: 1.248046875
range: 4.88062095642
velocity: 0.0
doppler_bin: 8
bearing: -1.85333895683
intensity: 31.0414562225
---
header: 
  seq: 721729
  stamp: 
    secs: 1561864645
    nsecs:  48191349
  frame_id: "ti_mmwave"
point_id: 14
x: 4.431640625
y: -0.14453125
z: 1.306640625
range: 4.9241976738
velocity: 0.0
doppler_bin: 8
bearing: -1.86795306206
intensity: 30.5537834167
---
header: 
  seq: 721730
  stamp: 
    secs: 1561864645
    nsecs:  48203038
  frame_id: "ti_mmwave"
point_id: 15
x: 4.892578125
y: -0.154296875
z: 0.73046875
range: 5.27281332016
velocity: 0.0
doppler_bin: 8
bearing: -1.80633401871
intensity: 30.4139270782
---
header: 
  seq: 721731
  stamp: 
    secs: 1561864645
    nsecs:  48216076
  frame_id: "ti_mmwave"
point_id: 16
x: 0.01171875
y: 0.03125
z: 0.025390625
range: 0.0435769706964
velocity: 0.0
doppler_bin: 8
bearing: 69.4439544678
intensity: 29.3348731995
---
header: 
  seq: 721732
  stamp: 
    secs: 1561864645
    nsecs:  48288980
  frame_id: "ti_mmwave"
point_id: 17
x: 0.041015625
y: -0.033203125
z: 0.0625
range: 0.0871539413929
velocity: 0.0
doppler_bin: 8
bearing: -38.9909973145
intensity: 30.0987567902
---
header: 
  seq: 721733
  stamp: 
    secs: 1561864645
    nsecs:  48303701
  frame_id: "ti_mmwave"
point_id: 18
x: 0.044921875
y: -0.046875
z: 0.103515625
range: 0.130730912089
velocity: 0.0
doppler_bin: 8
bearing: -46.218875885
intensity: 28.9817657471
---
header: 
  seq: 721734
  stamp: 
    secs: 1561864645
    nsecs:  49192781
  frame_id: "ti_mmwave"
point_id: 0
x: 0.01171875
y: -0.0390625
z: -0.0078125
range: 0.0435769706964
velocity: 0.0
doppler_bin: 8
bearing: -73.3007583618
intensity: 30.6855697632
---
header: 
  seq: 721735
  stamp: 
    secs: 1561864645
    nsecs:  49233290
  frame_id: "ti_mmwave"
point_id: 1
x: 0.017578125
y: -0.080078125
z: -0.0078125
range: 0.0871539413929
velocity: 0.0
doppler_bin: 8
bearing: -77.6192398071
intensity: 31.9228858948
---
header: 
  seq: 721736
  stamp: 
    secs: 1561864645
    nsecs:  49243185
  frame_id: "ti_mmwave"
point_id: 2
x: 0.029296875
y: -0.119140625
z: -0.005859375
range: 0.130730912089
velocity: 0.0
doppler_bin: 8
bearing: -76.1849746704
intensity: 30.1703338623
---
header: 
  seq: 721737
  stamp: 
    secs: 1561864645
    nsecs:  49252451
  frame_id: "ti_mmwave"
point_id: 3
x: 0.056640625
y: -0.154296875
z: 0.005859375
range: 0.174307882786
velocity: 0.0
doppler_bin: 8
bearing: -69.8423843384
intensity: 25.4530715942
---
header: 
  seq: 721738
  stamp: 
    secs: 1561864645
    nsecs:  49264906
  frame_id: "ti_mmwave"
point_id: 4
x: 0.115234375
y: -0.080078125
z: 1.259765625
range: 1.35088610649
velocity: 0.0
doppler_bin: 8
bearing: -34.7960281372
intensity: 23.0963020325
---
header: 
  seq: 721739
  stamp: 
    secs: 1561864645
    nsecs:  49308750
  frame_id: "ti_mmwave"
point_id: 6
x: 0.419921875
y: -0.083984375
z: -1.279296875
range: 1.43804001808
velocity: 0.0
doppler_bin: 8
bearing: -11.3099327087
intensity: 22.9885311127
---
header: 
  seq: 721740
  stamp: 
    secs: 1561864645
    nsecs:  49317371
  frame_id: "ti_mmwave"
point_id: 7
x: 0.5546875
y: -0.04296875
z: -1.275390625
range: 1.48161697388
velocity: 0.0
doppler_bin: 8
bearing: -4.42955970764
intensity: 21.5533599854
---
header: 
  seq: 721741
  stamp: 
    secs: 1561864645
    nsecs:  49325318
  frame_id: "ti_mmwave"
point_id: 8
x: 1.650390625
y: -0.10546875
z: -0.27734375
range: 1.78665578365
velocity: 0.0
doppler_bin: 8
bearing: -3.65653324127
intensity: 27.4973640442
---
header: 
  seq: 721742
  stamp: 
    secs: 1561864645
    nsecs:  49334856
  frame_id: "ti_mmwave"
point_id: 9
x: 1.6953125
y: -0.107421875
z: -0.255859375
range: 1.83023273945
velocity: 0.0
doppler_bin: 8
bearing: -3.62564587593
intensity: 28.2151355743
---
header: 
  seq: 721743
  stamp: 
    secs: 1561864645
    nsecs:  49346933
  frame_id: "ti_mmwave"
point_id: 10
x: 1.7421875
y: -0.109375
z: -0.212890625
range: 1.87380969524
velocity: 0.0
doppler_bin: 8
bearing: -3.59232997894
intensity: 26.503074646
---
header: 
  seq: 721744
  stamp: 
    secs: 1561864645
    nsecs:  49359697
  frame_id: "ti_mmwave"
point_id: 11
x: 2.60546875
y: -0.17578125
z: 1.072265625
range: 3.00681090355
velocity: 0.0
doppler_bin: 8
bearing: -3.85968351364
intensity: 29.0848503113
---
header: 
  seq: 721745
  stamp: 
    secs: 1561864645
    nsecs:  49383691
  frame_id: "ti_mmwave"
point_id: 12
x: 2.689453125
y: -0.08984375
z: 0.98046875
range: 3.05038785934
velocity: 0.0
doppler_bin: 8
bearing: -1.91330885887
intensity: 32.1984634399
---
header: 
  seq: 721746
  stamp: 
    secs: 1561864645
    nsecs:  49433702
  frame_id: "ti_mmwave"
point_id: 13
x: 2.759765625
y: -0.08984375
z: 0.90234375
range: 3.09396481514
velocity: 0.0
doppler_bin: 8
bearing: -1.86459684372
intensity: 31.1958580017
---
header: 
  seq: 721747
  stamp: 
    secs: 1561864645
    nsecs:  49451373
  frame_id: "ti_mmwave"
point_id: 14
x: 4.412109375
y: -0.142578125
z: 1.228515625
range: 4.88062095642
velocity: 0.0
doppler_bin: 8
bearing: -1.85087943077
intensity: 31.3097667694
---
header: 
  seq: 721748
  stamp: 
    secs: 1561864645
    nsecs:  49464535
  frame_id: "ti_mmwave"
point_id: 15
x: 4.44140625
y: -0.14453125
z: 1.271484375
range: 4.9241976738
velocity: 0.0
doppler_bin: 8
bearing: -1.86384868622
intensity: 30.8707122803
---
header: 
  seq: 721749
  stamp: 
    secs: 1561864645
    nsecs:  49482697
  frame_id: "ti_mmwave"
point_id: 16
x: 4.8828125
y: -0.30859375
z: 0.75
range: 5.27281332016
velocity: 0.0
doppler_bin: 8
bearing: -3.61628341675
intensity: 30.7188205719
---
header: 
  seq: 721750
  stamp: 
    secs: 1561864645
    nsecs:  49503572
  frame_id: "ti_mmwave"
point_id: 17
x: 4.966796875
y: -0.46875
z: 0.166015625
range: 5.31639051437
velocity: 0.0
doppler_bin: 8
bearing: -5.39141845703
intensity: 29.0145835876
---
header: 
  seq: 721751
  stamp: 
    secs: 1561864645
    nsecs:  49551608
  frame_id: "ti_mmwave"
point_id: 18
x: 0.01171875
y: 0.03125
z: 0.025390625
range: 0.0435769706964
velocity: 0.0
doppler_bin: 8
bearing: 69.4439544678
intensity: 29.339931488
---
header: 
  seq: 721752
  stamp: 
    secs: 1561864645
    nsecs:  49567072
  frame_id: "ti_mmwave"
point_id: 19
x: 0.041015625
y: -0.033203125
z: 0.0625
range: 0.0871539413929
velocity: 0.0
doppler_bin: 8
bearing: -38.9909973145
intensity: 30.1072387695
---
header: 
  seq: 721753
  stamp: 
    secs: 1561864645
    nsecs:  49580135
  frame_id: "ti_mmwave"
point_id: 20
x: 0.044921875
y: -0.046875
z: 0.103515625
range: 0.130730912089
velocity: 0.0
doppler_bin: 8
bearing: -46.218875885
intensity: 28.9817657471
---
header: 
  seq: 721754
  stamp: 
    secs: 1561864645
    nsecs: 108196486
  frame_id: "ti_mmwave"
point_id: 0
x: 0.01171875
y: -0.0390625
z: -0.0078125
range: 0.0435769706964
velocity: 0.0
doppler_bin: 8
bearing: -73.3007583618
intensity: 30.6818580627
---
header: 
  seq: 721755
  stamp: 
    secs: 1561864645
    nsecs: 108281752
  frame_id: "ti_mmwave"
point_id: 1
x: 0.017578125
y: -0.080078125
z: -0.0078125
range: 0.0871539413929
velocity: 0.0
doppler_bin: 8
bearing: -77.6192398071
intensity: 31.9228858948
---
header: 
  seq: 721756
  stamp: 
    secs: 1561864645
    nsecs: 108300605
  frame_id: "ti_mmwave"
point_id: 2
x: 0.029296875
y: -0.119140625
z: -0.005859375
range: 0.130730912089
velocity: 0.0
doppler_bin: 8
bearing: -76.1849746704
intensity: 30.1745071411
---
header: 
  seq: 721757
  stamp: 
    secs: 1561864645
    nsecs: 108313286
  frame_id: "ti_mmwave"
point_id: 3
x: 0.056640625
y: -0.154296875
z: 0.005859375
range: 0.174307882786
velocity: 0.0
doppler_bin: 8
bearing: -69.8423843384
intensity: 25.4654273987
---
header: 
  seq: 721758
  stamp: 
    secs: 1561864645
    nsecs: 108336820
  frame_id: "ti_mmwave"
point_id: 4
x: 0.169921875
y: -0.080078125
z: 1.25390625
range: 1.35088610649
velocity: 0.0
doppler_bin: 8
bearing: -25.232831955
intensity: 23.1175384521
---
header: 
  seq: 721759
  stamp: 
    secs: 1561864645
    nsecs: 108360256
  frame_id: "ti_mmwave"
point_id: 6
x: 0.423828125
y: -0.083984375
z: -1.279296875
range: 1.43804001808
velocity: 0.0
doppler_bin: 8
bearing: -11.2083444595
intensity: 23.0102996826
---
header: 
  seq: 721760
  stamp: 
    secs: 1561864645
    nsecs: 108447480
  frame_id: "ti_mmwave"
point_id: 7
x: 0.546875
y: -0.04296875
z: -1.27734375
range: 1.48161697388
velocity: 0.0
doppler_bin: 8
bearing: -4.49258184433
intensity: 21.5533599854
---
header: 
  seq: 721761
  stamp: 
    secs: 1561864645
    nsecs: 108463578
  frame_id: "ti_mmwave"
point_id: 8
x: 1.619140625
y: -0.1015625
z: -0.21484375
range: 1.74307882786
velocity: 0.0
doppler_bin: 8
bearing: -3.58924269676
intensity: 26.0422611237
---
header: 
  seq: 721762
  stamp: 
    secs: 1561864645
    nsecs: 108479707
  frame_id: "ti_mmwave"
point_id: 9
x: 1.66015625
y: -0.10546875
z: -0.20703125
range: 1.78665578365
velocity: 0.0
doppler_bin: 8
bearing: -3.63508176804
intensity: 29.4546852112
---
header: 
  seq: 721763
  stamp: 
    secs: 1561864645
    nsecs: 108491517
  frame_id: "ti_mmwave"
point_id: 10
x: 1.701171875
y: -0.107421875
z: -0.20703125
range: 1.83023273945
velocity: 0.0
doppler_bin: 8
bearing: -3.61319088936
intensity: 30.3140850067
---
header: 
  seq: 721764
  stamp: 
    secs: 1561864645
    nsecs: 108503238
  frame_id: "ti_mmwave"
point_id: 11
x: 1.74609375
y: -0.109375
z: -0.177734375
range: 1.87380969524
velocity: 0.0
doppler_bin: 8
bearing: -3.58431434631
intensity: 29.1803035736
---
header: 
  seq: 721765
  stamp: 
    secs: 1561864645
    nsecs: 108514607
  frame_id: "ti_mmwave"
point_id: 12
x: 1.794921875
y: -0.11328125
z: -0.080078125
range: 1.91738677025
velocity: 0.0
doppler_bin: 8
bearing: -3.61126613617
intensity: 26.3245735168
---
header: 
  seq: 721766
  stamp: 
    secs: 1561864645
    nsecs: 108527599
  frame_id: "ti_mmwave"
point_id: 13
x: 2.626953125
y: -0.17578125
z: 1.015625
range: 3.00681090355
velocity: 0.0
doppler_bin: 8
bearing: -3.82821130753
intensity: 28.9597473145
---
header: 
  seq: 721767
  stamp: 
    secs: 1561864645
    nsecs: 108536693
  frame_id: "ti_mmwave"
point_id: 14
x: 2.693359375
y: -0.08984375
z: 0.966796875
range: 3.05038785934
velocity: 0.0
doppler_bin: 8
bearing: -1.91053581238
intensity: 32.2010803223
---
header: 
  seq: 721768
  stamp: 
    secs: 1561864645
    nsecs: 108562536
  frame_id: "ti_mmwave"
point_id: 15
x: 2.7578125
y: -0.08984375
z: 0.90625
range: 3.09396481514
velocity: 0.0
doppler_bin: 8
bearing: -1.86591637135
intensity: 31.1958580017
---
header: 
  seq: 721769
  stamp: 
    secs: 1561864645
    nsecs: 108628333
  frame_id: "ti_mmwave"
point_id: 16
x: 4.4140625
y: -0.142578125
z: 1.216796875
range: 4.88062095642
velocity: 0.0
doppler_bin: 8
bearing: -1.850061059
intensity: 31.0991592407
---
header: 
  seq: 721770
  stamp: 
    secs: 1561864645
    nsecs: 108643943
  frame_id: "ti_mmwave"
point_id: 17
x: 4.443359375
y: -0.14453125
z: 1.263671875
range: 4.9241976738
velocity: 0.0
doppler_bin: 8
bearing: -1.86303019524
intensity: 30.6333332062
---
header: 
  seq: 721771
  stamp: 
    secs: 1561864645
    nsecs: 108655519
  frame_id: "ti_mmwave"
point_id: 18
x: 4.89453125
y: -0.30859375
z: 0.673828125
range: 5.27281332016
velocity: 0.0
doppler_bin: 8
bearing: -3.60764837265
intensity: 30.3542976379
---
header: 
  seq: 721772
  stamp: 
    secs: 1561864645
    nsecs: 108670224
  frame_id: "ti_mmwave"
point_id: 19
x: 4.951171875
y: -0.623046875
z: 0.01953125
range: 5.31639051437
velocity: 0.0
doppler_bin: 8
bearing: -7.17230129242
intensity: 28.9817657471
---
header: 
  seq: 721773
  stamp: 
    secs: 1561864645
    nsecs: 108685637
  frame_id: "ti_mmwave"
point_id: 20
x: 0.01171875
y: 0.03125
z: 0.025390625
range: 0.0435769706964
velocity: 0.0
doppler_bin: 8
bearing: 69.4439544678
intensity: 29.3298072815
---
header: 
  seq: 721774
  stamp: 
    secs: 1561864645
    nsecs: 108711041
  frame_id: "ti_mmwave"
point_id: 21
x: 0.041015625
y: -0.033203125
z: 0.0625
range: 0.0871539413929
velocity: 0.0
doppler_bin: 8
bearing: -38.9909973145
intensity: 30.1072387695
---
header: 
  seq: 721775
  stamp: 
    secs: 1561864645
    nsecs: 108780636
  frame_id: "ti_mmwave"
point_id: 22
x: 0.044921875
y: -0.046875
z: 0.103515625
range: 0.130730912089
velocity: 0.0
doppler_bin: 8
bearing: -46.218875885
intensity: 28.9817657471
---
header: 
  seq: 721776
  stamp: 
    secs: 1561864645
    nsecs: 109482458
  frame_id: "ti_mmwave"
point_id: 0
x: 0.01171875
y: -0.0390625
z: -0.0078125
range: 0.0435769706964
velocity: 0.0
doppler_bin: 8
bearing: -73.3007583618
intensity: 30.678144455
---
header: 
  seq: 721777
  stamp: 
    secs: 1561864645
    nsecs: 109549839
  frame_id: "ti_mmwave"
point_id: 1
x: 0.017578125
y: -0.080078125
z: -0.0078125
range: 0.0871539413929
velocity: 0.0
doppler_bin: 8
bearing: -77.6192398071
intensity: 31.9228858948
---
header: 
  seq: 721778
  stamp: 
    secs: 1561864645
    nsecs: 109566951
  frame_id: "ti_mmwave"
point_id: 2
x: 0.029296875
y: -0.119140625
z: -0.005859375
range: 0.130730912089
velocity: 0.0
doppler_bin: 8
bearing: -76.1849746704
intensity: 30.1745071411
---
header: 
  seq: 721779
  stamp: 
    secs: 1561864645
    nsecs: 109585349
  frame_id: "ti_mmwave"
point_id: 3
x: 0.056640625
y: -0.154296875
z: 0.005859375
range: 0.174307882786
velocity: 0.0
doppler_bin: 8
bearing: -69.8423843384
intensity: 25.4654273987
---
header: 
  seq: 721780
  stamp: 
    secs: 1561864645
    nsecs: 109680006
  frame_id: "ti_mmwave"
point_id: 4
x: 0.16015625
y: -0.080078125
z: 1.255859375
range: 1.35088610649
velocity: 0.0
doppler_bin: 8
bearing: -26.5650501251
intensity: 23.0749607086
---
header: 
  seq: 721781
  stamp: 
    secs: 1561864645
    nsecs: 109711374
  frame_id: "ti_mmwave"
point_id: 6
x: 0.443359375
y: -0.083984375
z: -1.271484375
range: 1.43804001808
velocity: 0.0
doppler_bin: 8
bearing: -10.7262945175
intensity: 22.9885311127
---
header: 
  seq: 721782
  stamp: 
    secs: 1561864645
    nsecs: 109724475
  frame_id: "ti_mmwave"
point_id: 7
x: 0.55078125
y: -0.04296875
z: -1.275390625
range: 1.48161697388
velocity: 0.0
doppler_bin: 8
bearing: -4.46084880829
intensity: 21.5533599854
---
header: 
  seq: 721783
  stamp: 
    secs: 1561864645
    nsecs: 109893541
  frame_id: "ti_mmwave"
point_id: 8
x: 1.662109375
y: -0.052734375
z: -0.2109375
range: 1.78665578365
velocity: 0.0
doppler_bin: 8
bearing: -1.81723546982
intensity: 29.3043956757
---
header: 
  seq: 721784
  stamp: 
    secs: 1561864645
    nsecs: 109920951
  frame_id: "ti_mmwave"
point_id: 9
x: 1.705078125
y: -0.052734375
z: -0.19921875
range: 1.83023273945
velocity: 0.0
doppler_bin: 8
bearing: -1.77146971226
intensity: 31.25806427
---
header: 
  seq: 721785
  stamp: 
    secs: 1561864645
    nsecs: 109935352
  frame_id: "ti_mmwave"
point_id: 10
x: 1.744140625
y: -0.109375
z: -0.1953125
range: 1.87380969524
velocity: 0.0
doppler_bin: 8
bearing: -3.58831763268
intensity: 30.2530593872
---
header: 
  seq: 721786
  stamp: 
    secs: 1561864645
    nsecs: 109948041
  frame_id: "ti_mmwave"
point_id: 11
x: 1.79296875
y: -0.056640625
z: -0.146484375
range: 1.91738677025
velocity: 0.0
doppler_bin: 8
bearing: -1.80939567089
intensity: 26.4836006165
---
header: 
  seq: 721787
  stamp: 
    secs: 1561864645
    nsecs: 109961166
  frame_id: "ti_mmwave"
point_id: 12
x: 2.62890625
y: -0.17578125
z: 1.01171875
range: 3.00681090355
velocity: 0.0
doppler_bin: 8
bearing: -3.82537555695
intensity: 29.1487178802
---
header: 
  seq: 721788
  stamp: 
    secs: 1561864645
    nsecs: 109974725
  frame_id: "ti_mmwave"
point_id: 13
x: 2.693359375
y: -0.08984375
z: 0.96875
range: 3.05038785934
velocity: 0.0
doppler_bin: 8
bearing: -1.91053581238
intensity: 32.2115325928
---
header: 
  seq: 721789
  stamp: 
    secs: 1561864645
    nsecs: 109989366
  frame_id: "ti_mmwave"
point_id: 14
x: 2.755859375
y: -0.08984375
z: 0.91015625
range: 3.09396481514
velocity: 0.0
doppler_bin: 8
bearing: -1.86723792553
intensity: 31.2287101746
---
header: 
  seq: 721790
  stamp: 
    secs: 1561864645
    nsecs: 110002673
  frame_id: "ti_mmwave"
point_id: 15
x: 4.41796875
y: -0.142578125
z: 1.03515625
range: 4.83704376221
velocity: 0.0
doppler_bin: 8
bearing: -1.84842634201
intensity: 28.4260921478
---
header: 
  seq: 721791
  stamp: 
    secs: 1561864645
    nsecs: 110013590
  frame_id: "ti_mmwave"
point_id: 16
x: 4.43359375
y: -0.142578125
z: 1.146484375
range: 4.88062095642
velocity: 0.0
doppler_bin: 8
bearing: -1.84191679955
intensity: 31.7666988373
---
header: 
  seq: 721792
  stamp: 
    secs: 1561864645
    nsecs: 110024938
  frame_id: "ti_mmwave"
point_id: 17
x: 4.47265625
y: -0.14453125
z: 1.162109375
range: 4.9241976738
velocity: 0.0
doppler_bin: 8
bearing: -1.85083544254
intensity: 31.319393158
---
header: 
  seq: 721793
  stamp: 
    secs: 1561864645
    nsecs: 110036881
  frame_id: "ti_mmwave"
point_id: 18
x: 0.01171875
y: 0.03125
z: 0.025390625
range: 0.0435769706964
velocity: 0.0
doppler_bin: 8
bearing: 69.4439544678
intensity: 29.3298072815
---
header: 
  seq: 721794
  stamp: 
    secs: 1561864645
    nsecs: 110048636
  frame_id: "ti_mmwave"
point_id: 19
x: 0.041015625
y: -0.033203125
z: 0.0625
range: 0.0871539413929
velocity: 0.0
doppler_bin: 8
bearing: -38.9909973145
intensity: 30.1029987335
---
header: 
  seq: 721795
  stamp: 
    secs: 1561864645
    nsecs: 110059631
  frame_id: "ti_mmwave"
point_id: 20
x: 0.044921875
y: -0.046875
z: 0.103515625
range: 0.130730912089
velocity: 0.0
doppler_bin: 8
bearing: -46.218875885
intensity: 28.9817657471
---
header: 
  seq: 721796
  stamp: 
    secs: 1561864645
    nsecs: 168102527
  frame_id: "ti_mmwave"
point_id: 0
x: 0.01171875
y: -0.0390625
z: -0.0078125
range: 0.0435769706964
velocity: 0.0
doppler_bin: 8
bearing: -73.3007583618
intensity: 30.6744289398
---
header: 
  seq: 721797
  stamp: 
    secs: 1561864645
    nsecs: 168182433
  frame_id: "ti_mmwave"
point_id: 1
x: 0.017578125
y: -0.080078125
z: -0.0078125
range: 0.0871539413929
velocity: 0.0
doppler_bin: 8
bearing: -77.6192398071
intensity: 31.9228858948
---
header: 
  seq: 721798
  stamp: 
    secs: 1561864645
    nsecs: 168193938
  frame_id: "ti_mmwave"
point_id: 2
x: 0.029296875
y: -0.119140625
z: -0.005859375
range: 0.130730912089
velocity: 0.0
doppler_bin: 8
bearing: -76.1849746704
intensity: 30.1703338623
---
header: 
  seq: 721799
  stamp: 
    secs: 1561864645
    nsecs: 168201914
  frame_id: "ti_mmwave"
point_id: 3
x: 0.056640625
y: -0.154296875
z: 0.005859375
range: 0.174307882786
velocity: 0.0
doppler_bin: 8
bearing: -69.8423843384
intensity: 25.4530715942
---
header: 
  seq: 721800
  stamp: 
    secs: 1561864645
    nsecs: 168210100
  frame_id: "ti_mmwave"
point_id: 4
x: 0.09375
y: -0.080078125
z: 1.26171875
range: 1.35088610649
velocity: 0.0
doppler_bin: 8
bearing: -40.5028457642
intensity: 23.0963020325
---
header: 
  seq: 721801
  stamp: 
    secs: 1561864645
    nsecs: 168218525
  frame_id: "ti_mmwave"
point_id: 5
x: 0.052734375
y: -0.08203125
z: -1.3046875
range: 1.39446306229
velocity: 0.0
doppler_bin: 8
bearing: -57.2647743225
intensity: 24.5939254761
---
header: 
  seq: 721802
  stamp: 
    secs: 1561864645
    nsecs: 168226536
  frame_id: "ti_mmwave"
point_id: 6
x: 0.4375
y: -0.083984375
z: -1.2734375
range: 1.43804001808
velocity: 0.0
doppler_bin: 8
bearing: -10.8665513992
intensity: 22.9666519165
---
header: 
  seq: 721803
  stamp: 
    secs: 1561864645
    nsecs: 168234258
  frame_id: "ti_mmwave"
point_id: 7
x: 0.5546875
y: -0.04296875
z: -1.275390625
range: 1.48161697388
velocity: 0.0
doppler_bin: 8
bearing: -4.42955970764
intensity: 21.5533599854
---
header: 
  seq: 721804
  stamp: 
    secs: 1561864645
    nsecs: 168243756
  frame_id: "ti_mmwave"
point_id: 8
x: 2.615234375
y: -0.17578125
z: 1.044921875
range: 3.00681090355
velocity: 0.0
doppler_bin: 8
bearing: -3.84531402588
intensity: 29.0794849396
---
header: 
  seq: 721805
  stamp: 
    secs: 1561864645
    nsecs: 168253619
  frame_id: "ti_mmwave"
point_id: 9
x: 2.689453125
y: -0.08984375
z: 0.98046875
range: 3.05038785934
velocity: 0.0
doppler_bin: 8
bearing: -1.91330885887
intensity: 32.2323608398
---
header: 
  seq: 721806
  stamp: 
    secs: 1561864645
    nsecs: 168261834
  frame_id: "ti_mmwave"
point_id: 10
x: 2.7578125
y: -0.08984375
z: 0.904296875
range: 3.09396481514
velocity: 0.0
doppler_bin: 8
bearing: -1.86591637135
intensity: 31.2936763763
---
header: 
  seq: 721807
  stamp: 
    secs: 1561864645
    nsecs: 168269421
  frame_id: "ti_mmwave"
point_id: 11
x: 4.416015625
y: -0.142578125
z: 1.048828125
range: 4.83704376221
velocity: 0.0
doppler_bin: 8
bearing: -1.84924340248
intensity: 28.0550079346
---
header: 
  seq: 721808
  stamp: 
    secs: 1561864645
    nsecs: 168277630
  frame_id: "ti_mmwave"
point_id: 12
x: 4.421875
y: -0.142578125
z: 1.189453125
range: 4.88062095642
velocity: 0.0
doppler_bin: 8
bearing: -1.84679484367
intensity: 31.4921913147
---
header: 
  seq: 721809
  stamp: 
    secs: 1561864645
    nsecs: 168286392
  frame_id: "ti_mmwave"
point_id: 13
x: 4.45703125
y: -0.14453125
z: 1.212890625
range: 4.9241976738
velocity: 0.0
doppler_bin: 8
bearing: -1.8573192358
intensity: 31.1427726746
---
header: 
  seq: 721810
  stamp: 
    secs: 1561864645
    nsecs: 168294994
  frame_id: "ti_mmwave"
point_id: 14
x: 0.009765625
y: 0.03125
z: 0.025390625
range: 0.0435769706964
velocity: 0.0
doppler_bin: 8
bearing: 72.6459732056
intensity: 29.3348731995
---
header: 
  seq: 721811
  stamp: 
    secs: 1561864645
    nsecs: 168303926
  frame_id: "ti_mmwave"
point_id: 15
x: 0.041015625
y: -0.033203125
z: 0.0625
range: 0.0871539413929
velocity: 0.0
doppler_bin: 8
bearing: -38.9909973145
intensity: 30.1029987335
---
header: 
  seq: 721812
  stamp: 
    secs: 1561864645
    nsecs: 168313860
  frame_id: "ti_mmwave"
point_id: 16
x: 0.044921875
y: -0.046875
z: 0.103515625
range: 0.130730912089
velocity: 0.0
doppler_bin: 8
bearing: -46.218875885
intensity: 28.9817657471
---
header: 
  seq: 721813
  stamp: 
    secs: 1561864645
    nsecs: 169439492
  frame_id: "ti_mmwave"
point_id: 0
x: 0.01171875
y: -0.0390625
z: -0.0078125
range: 0.0435769706964
velocity: 0.0
doppler_bin: 8
bearing: -73.3007583618
intensity: 30.6818580627
---
header: 
  seq: 721814
  stamp: 
    secs: 1561864645
    nsecs: 169500494
  frame_id: "ti_mmwave"
point_id: 1
x: 0.017578125
y: -0.080078125
z: -0.0078125
range: 0.0871539413929
velocity: 0.0
doppler_bin: 8
bearing: -77.6192398071
intensity: 31.9200954437
---
header: 
  seq: 721815
  stamp: 
    secs: 1561864645
    nsecs: 169514193
  frame_id: "ti_mmwave"
point_id: 2
x: 0.029296875
y: -0.119140625
z: -0.005859375
range: 0.130730912089
velocity: 0.0
doppler_bin: 8
bearing: -76.1849746704
intensity: 30.1661548615
---
header: 
  seq: 721816
  stamp: 
    secs: 1561864645
    nsecs: 169522714
  frame_id: "ti_mmwave"
point_id: 3
x: 0.056640625
y: -0.154296875
z: 0.005859375
range: 0.174307882786
velocity: 0.0
doppler_bin: 8
bearing: -69.8423843384
intensity: 25.4406795502
---
header: 
  seq: 721817
  stamp: 
    secs: 1561864645
    nsecs: 169531076
  frame_id: "ti_mmwave"
point_id: 4
x: 0.02734375
y: -0.080078125
z: 1.265625
range: 1.35088610649
velocity: 0.0
doppler_bin: 8
bearing: -71.1468429565
intensity: 23.0963020325
---
header: 
  seq: 721818
  stamp: 
    secs: 1561864645
    nsecs: 169595727
  frame_id: "ti_mmwave"
point_id: 5
x: 0.080078125
y: -0.08203125
z: -1.3046875
range: 1.39446306229
velocity: 0.0
doppler_bin: 8
bearing: -45.6902770996
intensity: 24.6089782715
---
header: 
  seq: 721819
  stamp: 
    secs: 1561864645
    nsecs: 169605834
  frame_id: "ti_mmwave"
point_id: 6
x: 0.443359375
y: -0.083984375
z: -1.271484375
range: 1.43804001808
velocity: 0.0
doppler_bin: 8
bearing: -10.7262945175
intensity: 23.0102996826
---
header: 
  seq: 721820
  stamp: 
    secs: 1561864645
    nsecs: 169613709
  frame_id: "ti_mmwave"
point_id: 7
x: 0.5546875
y: -0.04296875
z: -1.275390625
range: 1.48161697388
velocity: 0.0
doppler_bin: 8
bearing: -4.42955970764
intensity: 21.5533599854
---
header: 
  seq: 721821
  stamp: 
    secs: 1561864645
    nsecs: 169622971
  frame_id: "ti_mmwave"
point_id: 8
x: 1.61328125
y: -0.1015625
z: -0.25390625
range: 1.74307882786
velocity: 0.0
doppler_bin: 8
bearing: -3.60224437714
intensity: 27.9448795319
---
header: 
  seq: 721822
  stamp: 
    secs: 1561864645
    nsecs: 169631814
  frame_id: "ti_mmwave"
point_id: 9
x: 1.662109375
y: -0.10546875
z: -0.19921875
range: 1.78665578365
velocity: 0.0
doppler_bin: 8
bearing: -3.6308221817
intensity: 31.5533599854
---
header: 
  seq: 721823
  stamp: 
    secs: 1561864645
    nsecs: 169639527
  frame_id: "ti_mmwave"
point_id: 10
x: 1.7109375
y: -0.052734375
z: -0.146484375
range: 1.83023273945
velocity: 0.0
doppler_bin: 8
bearing: -1.765406847
intensity: 32.229763031
---
header: 
  seq: 721824
  stamp: 
    secs: 1561864645
    nsecs: 169647243
  frame_id: "ti_mmwave"
point_id: 11
x: 1.75390625
y: -0.109375
z: -0.056640625
range: 1.87380969524
velocity: 0.0
doppler_bin: 8
bearing: -3.56838989258
intensity: 30.2448558807
---
header: 
  seq: 721825
  stamp: 
    secs: 1561864645
    nsecs: 169654948
  frame_id: "ti_mmwave"
point_id: 12
x: 1.794921875
y: -0.11328125
z: 0.0625
range: 1.91738677025
velocity: 0.0
doppler_bin: 8
bearing: -3.61126613617
intensity: 27.3798732758
---
header: 
  seq: 721826
  stamp: 
    secs: 1561864645
    nsecs: 169659863
  frame_id: "ti_mmwave"
point_id: 13
x: 2.6171875
y: -0.17578125
z: 1.04296875
range: 3.00681090355
velocity: 0.0
doppler_bin: 8
bearing: -3.84245300293
intensity: 29.0848503113
---
header: 
  seq: 721827
  stamp: 
    secs: 1561864645
    nsecs: 169677434
  frame_id: "ti_mmwave"
point_id: 14
x: 2.685546875
y: -0.08984375
z: 0.98828125
range: 3.05038785934
velocity: 0.0
doppler_bin: 8
bearing: -1.91608965397
intensity: 32.2193565369
---
header: 
  seq: 721828
  stamp: 
    secs: 1561864645
    nsecs: 169730421
  frame_id: "ti_mmwave"
point_id: 15
x: 2.748046875
y: -0.08984375
z: 0.93359375
range: 3.09396481514
velocity: 0.0
doppler_bin: 8
bearing: -1.8725425005
intensity: 31.2319812775
---
header: 
  seq: 721829
  stamp: 
    secs: 1561864645
    nsecs: 169745922
  frame_id: "ti_mmwave"
point_id: 16
x: 4.42578125
y: -0.142578125
z: 1.17578125
range: 4.88062095642
velocity: 0.0
doppler_bin: 8
bearing: -1.84516572952
intensity: 30.9725723267
---
header: 
  seq: 721830
  stamp: 
    secs: 1561864645
    nsecs: 169758834
  frame_id: "ti_mmwave"
point_id: 17
x: 4.462890625
y: -0.14453125
z: 1.197265625
range: 4.9241976738
velocity: 0.0
doppler_bin: 8
bearing: -1.85488259792
intensity: 30.8493366241
---
header: 
  seq: 721831
  stamp: 
    secs: 1561864645
    nsecs: 169770789
  frame_id: "ti_mmwave"
point_id: 18
x: 0.01171875
y: 0.03125
z: 0.025390625
range: 0.0435769706964
velocity: 0.0
doppler_bin: 8
bearing: 69.4439544678
intensity: 29.3298072815
---
header: 
  seq: 721832
  stamp: 
    secs: 1561864645
    nsecs: 169784809
  frame_id: "ti_mmwave"
point_id: 19
x: 0.041015625
y: -0.033203125
z: 0.0625
range: 0.0871539413929
velocity: 0.0
doppler_bin: 8
bearing: -38.9909973145
intensity: 30.0987567902
---
header: 
  seq: 721833
  stamp: 
    secs: 1561864645
    nsecs: 169796922
  frame_id: "ti_mmwave"
point_id: 20
x: 0.052734375
y: -0.04296875
z: 0.1015625
range: 0.130730912089
velocity: 0.0
doppler_bin: 8
bearing: -39.1736602783
intensity: 28.9762706757
---
header: 
  seq: 721834
  stamp: 
    secs: 1561864645
    nsecs: 227809345
  frame_id: "ti_mmwave"
point_id: 0
x: 0.01171875
y: -0.0390625
z: -0.0078125
range: 0.0435769706964
velocity: 0.0
doppler_bin: 8
bearing: -73.3007583618
intensity: 30.6855697632
---
header: 
  seq: 721835
  stamp: 
    secs: 1561864645
    nsecs: 227884886
  frame_id: "ti_mmwave"
point_id: 1
x: 0.017578125
y: -0.080078125
z: -0.0078125
range: 0.0871539413929
velocity: 0.0
doppler_bin: 8
bearing: -77.6192398071
intensity: 31.9284610748
---
header: 
  seq: 721836
  stamp: 
    secs: 1561864645
    nsecs: 227895822
  frame_id: "ti_mmwave"
point_id: 2
x: 0.029296875
y: -0.119140625
z: -0.005859375
range: 0.130730912089
velocity: 0.0
doppler_bin: 8
bearing: -76.1849746704
intensity: 30.1745071411
---
header: 
  seq: 721837
  stamp: 
    secs: 1561864645
    nsecs: 227904107
  frame_id: "ti_mmwave"
point_id: 3
x: 0.056640625
y: -0.154296875
z: 0.005859375
range: 0.174307882786
velocity: 0.0
doppler_bin: 8
bearing: -69.8423843384
intensity: 25.4654273987
---
header: 
  seq: 721838
  stamp: 
    secs: 1561864645
    nsecs: 227912648
  frame_id: "ti_mmwave"
point_id: 4
x: 0.134765625
y: -0.080078125
z: 1.2578125
range: 1.35088610649
velocity: 0.0
doppler_bin: 8
bearing: -30.7189025879
intensity: 23.1175384521
---
header: 
  seq: 721839
  stamp: 
    secs: 1561864645
    nsecs: 227922890
  frame_id: "ti_mmwave"
point_id: 6
x: 0.41796875
y: -0.083984375
z: -1.28125
range: 1.43804001808
velocity: 0.0
doppler_bin: 8
bearing: -11.3614110947
intensity: 22.9885311127
---
header: 
  seq: 721840
  stamp: 
    secs: 1561864645
    nsecs: 227930915
  frame_id: "ti_mmwave"
point_id: 7
x: 0.533203125
y: -0.04296875
z: -1.283203125
range: 1.48161697388
velocity: 0.0
doppler_bin: 8
bearing: -4.60728597641
intensity: 21.5228843689
---
header: 
  seq: 721841
  stamp: 
    secs: 1561864645
    nsecs: 227941178
  frame_id: "ti_mmwave"
point_id: 8
x: 1.658203125
y: -0.10546875
z: -0.236328125
range: 1.78665578365
velocity: 0.0
doppler_bin: 8
bearing: -3.63935232162
intensity: 30.9864368439
---
header: 
  seq: 721842
  stamp: 
    secs: 1561864645
    nsecs: 227982668
  frame_id: "ti_mmwave"
point_id: 9
x: 1.70703125
y: -0.052734375
z: -0.1875
range: 1.83023273945
velocity: 0.0
doppler_bin: 8
bearing: -1.76944422722
intensity: 32.0924682617
---
header: 
  seq: 721843
  stamp: 
    secs: 1561864645
    nsecs: 227998441
  frame_id: "ti_mmwave"
point_id: 10
x: 1.74609375
y: -0.0546875
z: -0.203125
range: 1.87380969524
velocity: 0.0
doppler_bin: 8
bearing: -1.79391229153
intensity: 30.3181228638
---
header: 
  seq: 721844
  stamp: 
    secs: 1561864645
    nsecs: 228007430
  frame_id: "ti_mmwave"
point_id: 11
x: 2.61328125
y: -0.17578125
z: 1.05078125
range: 3.00681090355
velocity: 0.0
doppler_bin: 8
bearing: -3.84817934036
intensity: 29.0741138458
---
header: 
  seq: 721845
  stamp: 
    secs: 1561864645
    nsecs: 228015668
  frame_id: "ti_mmwave"
point_id: 12
x: 2.689453125
y: -0.08984375
z: 0.978515625
range: 3.05038785934
velocity: 0.0
doppler_bin: 8
bearing: -1.91330885887
intensity: 32.1906051636
---
header: 
  seq: 721846
  stamp: 
    secs: 1561864645
    nsecs: 228024511
  frame_id: "ti_mmwave"
point_id: 13
x: 2.751953125
y: -0.08984375
z: 0.923828125
range: 3.09396481514
velocity: 0.0
doppler_bin: 8
bearing: -1.86988639832
intensity: 31.119342804
---
header: 
  seq: 721847
  stamp: 
    secs: 1561864645
    nsecs: 228045261
  frame_id: "ti_mmwave"
point_id: 14
x: 4.41015625
y: -0.142578125
z: 1.23046875
range: 4.88062095642
velocity: 0.0
doppler_bin: 8
bearing: -1.85169863701
intensity: 28.5853729248
---
header: 
  seq: 721848
  stamp: 
    secs: 1561864645
    nsecs: 228061805
  frame_id: "ti_mmwave"
point_id: 15
x: 4.7734375
y: -1.248046875
z: -0.751953125
range: 5.31639051437
velocity: 0.0
doppler_bin: 8
bearing: -14.6523628235
intensity: 28.8705444336
---
header: 
  seq: 721849
  stamp: 
    secs: 1561864645
    nsecs: 228075019
  frame_id: "ti_mmwave"
point_id: 16
x: 0.009765625
y: 0.03125
z: 0.025390625
range: 0.0435769706964
velocity: 0.0
doppler_bin: 8
bearing: 72.6459732056
intensity: 29.3348731995
---
header: 
  seq: 721850
  stamp: 
    secs: 1561864645
    nsecs: 228082856
  frame_id: "ti_mmwave"
point_id: 17
x: 0.041015625
y: -0.033203125
z: 0.0625
range: 0.0871539413929
velocity: 0.0
doppler_bin: 8
bearing: -38.9909973145
intensity: 30.1029987335
---
header: 
  seq: 721851
  stamp: 
    secs: 1561864645
    nsecs: 228246428
  frame_id: "ti_mmwave"
point_id: 18
x: 0.044921875
y: -0.046875
z: 0.103515625
range: 0.130730912089
velocity: 0.0
doppler_bin: 8
bearing: -46.218875885
intensity: 28.9817657471
---
header: 
  seq: 721852
  stamp: 
    secs: 1561864645
    nsecs: 287838135
  frame_id: "ti_mmwave"
point_id: 0
x: 0.01171875
y: -0.0390625
z: -0.0078125
range: 0.0435769706964
velocity: 0.0
doppler_bin: 8
bearing: -73.3007583618
intensity: 30.6855697632
---
header: 
  seq: 721853
  stamp: 
    secs: 1561864645
    nsecs: 287912289
  frame_id: "ti_mmwave"
point_id: 1
x: 0.017578125
y: -0.080078125
z: -0.0078125
range: 0.0871539413929
velocity: 0.0
doppler_bin: 8
bearing: -77.6192398071
intensity: 31.9228858948
---
header: 
  seq: 721854
  stamp: 
    secs: 1561864645
    nsecs: 287924016
  frame_id: "ti_mmwave"
point_id: 2
x: 0.029296875
y: -0.119140625
z: -0.005859375
range: 0.130730912089
velocity: 0.0
doppler_bin: 8
bearing: -76.1849746704
intensity: 30.1745071411
---
header: 
  seq: 721855
  stamp: 
    secs: 1561864645
    nsecs: 287933710
  frame_id: "ti_mmwave"
point_id: 3
x: 0.056640625
y: -0.154296875
z: 0.005859375
range: 0.174307882786
velocity: 0.0
doppler_bin: 8
bearing: -69.8423843384
intensity: 25.4406795502
---
header: 
  seq: 721856
  stamp: 
    secs: 1561864645
    nsecs: 287980554
  frame_id: "ti_mmwave"
point_id: 6
x: 0.439453125
y: -0.083984375
z: -1.2734375
range: 1.43804001808
velocity: 0.0
doppler_bin: 8
bearing: -10.81939888
intensity: 22.9885311127
---
header: 
  seq: 721857
  stamp: 
    secs: 1561864645
    nsecs: 287996666
  frame_id: "ti_mmwave"
point_id: 7
x: 1.615234375
y: -0.255859375
z: -0.037109375
range: 1.74307882786
velocity: 0.0
doppler_bin: 8
bearing: -9.00108623505
intensity: 27.6192779541
---
header: 
  seq: 721858
  stamp: 
    secs: 1561864645
    nsecs: 288010377
  frame_id: "ti_mmwave"
point_id: 8
x: 1.66015625
y: -0.158203125
z: -0.1796875
range: 1.78665578365
velocity: 0.0
doppler_bin: 8
bearing: -5.44351291656
intensity: 31.5014209747
---
header: 
  seq: 721859
  stamp: 
    secs: 1561864645
    nsecs: 288185129
  frame_id: "ti_mmwave"
point_id: 9
x: 1.708984375
y: -0.107421875
z: -0.12890625
range: 1.83023273945
velocity: 0.0
doppler_bin: 8
bearing: -3.5967168808
intensity: 32.7692108154
---
header: 
  seq: 721860
  stamp: 
    secs: 1561864645
    nsecs: 288201107
  frame_id: "ti_mmwave"
point_id: 10
x: 1.755859375
y: -0.109375
z: -0.005859375
range: 1.87380969524
velocity: 0.0
doppler_bin: 8
bearing: -3.56443095207
intensity: 31.7695903778
---
header: 
  seq: 721861
  stamp: 
    secs: 1561864645
    nsecs: 288233335
  frame_id: "ti_mmwave"
point_id: 11
x: 1.79296875
y: -0.056640625
z: 0.140625
range: 1.91738677025
velocity: 0.0
doppler_bin: 8
bearing: -1.80939567089
intensity: 28.7563991547
---
header: 
  seq: 721862
  stamp: 
    secs: 1561864645
    nsecs: 288247316
  frame_id: "ti_mmwave"
point_id: 12
x: 2.603515625
y: -0.17578125
z: 1.076171875
range: 3.00681090355
velocity: 0.0
doppler_bin: 8
bearing: -3.86257004738
intensity: 29.0417442322
---
header: 
  seq: 721863
  stamp: 
    secs: 1561864645
    nsecs: 288328618
  frame_id: "ti_mmwave"
point_id: 13
x: 2.689453125
y: -0.08984375
z: 0.9765625
range: 3.05038785934
velocity: 0.0
doppler_bin: 8
bearing: -1.91330885887
intensity: 32.2193565369
---
header: 
  seq: 721864
  stamp: 
    secs: 1561864645
    nsecs: 288346462
  frame_id: "ti_mmwave"
point_id: 14
x: 2.759765625
y: -0.08984375
z: 0.900390625
range: 3.09396481514
velocity: 0.0
doppler_bin: 8
bearing: -1.86459684372
intensity: 31.2450428009
---
header: 
  seq: 721865
  stamp: 
    secs: 1561864645
    nsecs: 288358731
  frame_id: "ti_mmwave"
point_id: 15
x: 0.01171875
y: 0.03125
z: 0.025390625
range: 0.0435769706964
velocity: 0.0
doppler_bin: 8
bearing: 69.4439544678
intensity: 29.3348731995
---
header: 
  seq: 721866
  stamp: 
    secs: 1561864645
    nsecs: 288372481
  frame_id: "ti_mmwave"
point_id: 16
x: 0.041015625
y: -0.033203125
z: 0.0625
range: 0.0871539413929
velocity: 0.0
doppler_bin: 8
bearing: -38.9909973145
intensity: 30.1072387695
---
header: 
  seq: 721867
  stamp: 
    secs: 1561864645
    nsecs: 288384191
  frame_id: "ti_mmwave"
point_id: 17
x: 0.044921875
y: -0.046875
z: 0.103515625
range: 0.130730912089
velocity: 0.0
doppler_bin: 8
bearing: -46.218875885
intensity: 28.9817657471
---
header: 
  seq: 721868
  stamp: 
    secs: 1561864645
    nsecs: 289548617
  frame_id: "ti_mmwave"
point_id: 0
x: 0.01171875
y: -0.0390625
z: -0.0078125
range: 0.0435769706964
velocity: 0.0
doppler_bin: 8
bearing: -73.3007583618
intensity: 30.6744289398
---
header: 
  seq: 721869
  stamp: 
    secs: 1561864645
    nsecs: 289610554
  frame_id: "ti_mmwave"
point_id: 1
x: 0.017578125
y: -0.080078125
z: -0.0078125
range: 0.0871539413929
velocity: 0.0
doppler_bin: 8
bearing: -77.6192398071
intensity: 31.9200954437
---
header: 
  seq: 721870
  stamp: 
    secs: 1561864645
    nsecs: 289626857
  frame_id: "ti_mmwave"
point_id: 2
x: 0.029296875
y: -0.119140625
z: -0.005859375
range: 0.130730912089
velocity: 0.0
doppler_bin: 8
bearing: -76.1849746704
intensity: 30.1703338623
---
header: 
  seq: 721871
  stamp: 
    secs: 1561864645
    nsecs: 289640201
  frame_id: "ti_mmwave"
point_id: 3
x: 0.056640625
y: -0.154296875
z: 0.005859375
range: 0.174307882786
velocity: 0.0
doppler_bin: 8
bearing: -69.8423843384
intensity: 25.4406795502
---
header: 
  seq: 721872
  stamp: 
    secs: 1561864645
    nsecs: 289657738
  frame_id: "ti_mmwave"
point_id: 4
x: 0.138671875
y: -0.080078125
z: 1.2578125
range: 1.35088610649
velocity: 0.0
doppler_bin: 8
bearing: -30.0049190521
intensity: 23.0963020325
---
header: 
  seq: 721873
  stamp: 
    secs: 1561864645
    nsecs: 289675462
  frame_id: "ti_mmwave"
point_id: 6
x: 0.435546875
y: -0.083984375
z: -1.275390625
range: 1.43804001808
velocity: 0.0
doppler_bin: 8
bearing: -10.9141130447
intensity: 22.9666519165
---
header: 
  seq: 721874
  stamp: 
    secs: 1561864645
    nsecs: 289688980
  frame_id: "ti_mmwave"
point_id: 7
x: 0.55859375
y: -0.04296875
z: -1.2734375
range: 1.48161697388
velocity: 0.0
doppler_bin: 8
bearing: -4.39870548248
intensity: 21.5228843689
---
header: 
  seq: 721875
  stamp: 
    secs: 1561864645
    nsecs: 289702830
  frame_id: "ti_mmwave"
point_id: 8
x: 1.716796875
y: -0.052734375
z: 0.05859375
range: 1.83023273945
velocity: 0.0
doppler_bin: 8
bearing: -1.75938534737
intensity: 26.5991611481
---
header: 
  seq: 721876
  stamp: 
    secs: 1561864645
    nsecs: 289731288
  frame_id: "ti_mmwave"
point_id: 9
x: 1.74609375
y: -0.109375
z: 0.18359375
range: 1.87380969524
velocity: 0.0
doppler_bin: 8
bearing: -3.58431434631
intensity: 28.2607479095
---
header: 
  seq: 721877
  stamp: 
    secs: 1561864645
    nsecs: 289753316
  frame_id: "ti_mmwave"
point_id: 10
x: 2.62890625
y: -0.17578125
z: 1.01171875
range: 3.00681090355
velocity: 0.0
doppler_bin: 8
bearing: -3.82537555695
intensity: 29.1009063721
---
header: 
  seq: 721878
  stamp: 
    secs: 1561864645
    nsecs: 289766976
  frame_id: "ti_mmwave"
point_id: 11
x: 2.69921875
y: -0.08984375
z: 0.951171875
range: 3.05038785934
velocity: 0.0
doppler_bin: 8
bearing: -1.90639162064
intensity: 32.1984634399
---
header: 
  seq: 721879
  stamp: 
    secs: 1561864645
    nsecs: 289851149
  frame_id: "ti_mmwave"
point_id: 12
x: 2.765625
y: -0.08984375
z: 0.884765625
range: 3.09396481514
velocity: 0.0
doppler_bin: 8
bearing: -1.8606492281
intensity: 31.1461105347
---
header: 
  seq: 721880
  stamp: 
    secs: 1561864645
    nsecs: 289868330
  frame_id: "ti_mmwave"
point_id: 13
x: 0.01171875
y: 0.03125
z: 0.025390625
range: 0.0435769706964
velocity: 0.0
doppler_bin: 8
bearing: 69.4439544678
intensity: 29.339931488
---
header: 
  seq: 721881
  stamp: 
    secs: 1561864645
    nsecs: 289882075
  frame_id: "ti_mmwave"
point_id: 14
x: 0.041015625
y: -0.033203125
z: 0.0625
range: 0.0871539413929
velocity: 0.0
doppler_bin: 8
bearing: -38.9909973145
intensity: 30.0987567902
---
header: 
  seq: 721882
  stamp: 
    secs: 1561864645
    nsecs: 289894941
  frame_id: "ti_mmwave"
point_id: 15
x: 0.052734375
y: -0.04296875
z: 0.1015625
range: 0.130730912089
velocity: 0.0
doppler_bin: 8
bearing: -39.1736602783
intensity: 28.9762706757
---
header: 
  seq: 721883
  stamp: 
    secs: 1561864645
    nsecs: 347858202
  frame_id: "ti_mmwave"
point_id: 0
x: 0.01171875
y: -0.0390625
z: -0.0078125
range: 0.0435769706964
velocity: 0.0
doppler_bin: 8
bearing: -73.3007583618
intensity: 30.6744289398
---
header: 
  seq: 721884
  stamp: 
    secs: 1561864645
    nsecs: 347976411
  frame_id: "ti_mmwave"
point_id: 1
x: 0.017578125
y: -0.080078125
z: -0.0078125
range: 0.0871539413929
velocity: 0.0
doppler_bin: 8
bearing: -77.6192398071
intensity: 31.9173030853
---
header: 
  seq: 721885
  stamp: 
    secs: 1561864645
    nsecs: 348000731
  frame_id: "ti_mmwave"
point_id: 2
x: 0.029296875
y: -0.119140625
z: -0.005859375
range: 0.130730912089
velocity: 0.0
doppler_bin: 8
bearing: -76.1849746704
intensity: 30.1703338623
---
header: 
  seq: 721886
  stamp: 
    secs: 1561864645
    nsecs: 348016553
  frame_id: "ti_mmwave"
point_id: 3
x: 0.056640625
y: -0.154296875
z: 0.005859375
range: 0.174307882786
velocity: 0.0
doppler_bin: 8
bearing: -69.8423843384
intensity: 25.4654273987
---
header: 
  seq: 721887
  stamp: 
    secs: 1561864645
    nsecs: 348031220
  frame_id: "ti_mmwave"
point_id: 4
x: 0.01171875
y: -0.080078125
z: 1.265625
range: 1.35088610649
velocity: 0.0
doppler_bin: 8
bearing: -81.6743469238
intensity: 23.0963020325
---
header: 
  seq: 721888
  stamp: 
    secs: 1561864645
    nsecs: 348045627
  frame_id: "ti_mmwave"
point_id: 5
x: 0.0546875
y: -0.08203125
z: -1.3046875
range: 1.39446306229
velocity: 0.0
doppler_bin: 8
bearing: -56.3099327087
intensity: 24.5939254761
---
header: 
  seq: 721889
  stamp: 
    secs: 1561864645
    nsecs: 348124518
  frame_id: "ti_mmwave"
point_id: 6
x: 0.42578125
y: -0.083984375
z: -1.27734375
range: 1.43804001808
velocity: 0.0
doppler_bin: 8
bearing: -11.1582231522
intensity: 22.9666519165
---
header: 
  seq: 721890
  stamp: 
    secs: 1561864645
    nsecs: 348140689
  frame_id: "ti_mmwave"
point_id: 7
x: 1.671875
y: -0.10546875
z: -0.0859375
range: 1.78665578365
velocity: 0.0
doppler_bin: 8
bearing: -3.60966992378
intensity: 27.9726753235
---
header: 
  seq: 721891
  stamp: 
    secs: 1561864645
    nsecs: 348154212
  frame_id: "ti_mmwave"
point_id: 8
x: 1.71484375
y: -0.107421875
z: 0.052734375
range: 1.83023273945
velocity: 0.0
doppler_bin: 8
bearing: -3.58445930481
intensity: 29.4939002991
---
header: 
  seq: 721892
  stamp: 
    secs: 1561864645
    nsecs: 348168768
  frame_id: "ti_mmwave"
point_id: 9
x: 1.751953125
y: -0.109375
z: 0.099609375
range: 1.87380969524
velocity: 0.0
doppler_bin: 8
bearing: -3.57235765457
intensity: 28.9209461212
---
header: 
  seq: 721893
  stamp: 
    secs: 1561864645
    nsecs: 348181885
  frame_id: "ti_mmwave"
point_id: 10
x: 2.619140625
y: -0.17578125
z: 1.03515625
range: 3.00681090355
velocity: 0.0
doppler_bin: 8
bearing: -3.83959650993
intensity: 29.1062431335
---
header: 
  seq: 721894
  stamp: 
    secs: 1561864645
    nsecs: 348197440
  frame_id: "ti_mmwave"
point_id: 11
x: 2.693359375
y: -0.08984375
z: 0.96875
range: 3.05038785934
velocity: 0.0
doppler_bin: 8
bearing: -1.91053581238
intensity: 32.2245635986
---
header: 
  seq: 721895
  stamp: 
    secs: 1561864645
    nsecs: 348211485
  frame_id: "ti_mmwave"
point_id: 12
x: 2.755859375
y: -0.08984375
z: 0.912109375
range: 3.09396481514
velocity: 0.0
doppler_bin: 8
bearing: -1.86723792553
intensity: 31.2417812347
---
header: 
  seq: 721896
  stamp: 
    secs: 1561864645
    nsecs: 348268023
  frame_id: "ti_mmwave"
point_id: 13
x: 0.009765625
y: 0.03125
z: 0.025390625
range: 0.0435769706964
velocity: 0.0
doppler_bin: 8
bearing: 72.6459732056
intensity: 29.3348731995
---
header: 
  seq: 721897
  stamp: 
    secs: 1561864645
    nsecs: 348283295
  frame_id: "ti_mmwave"
point_id: 14
x: 0.041015625
y: -0.033203125
z: 0.0625
range: 0.0871539413929
velocity: 0.0
doppler_bin: 8
bearing: -38.9909973145
intensity: 30.0987567902
---
header: 
  seq: 721898
  stamp: 
    secs: 1561864645
    nsecs: 348297827
  frame_id: "ti_mmwave"
point_id: 15
x: 0.052734375
y: -0.04296875
z: 0.1015625
range: 0.130730912089
velocity: 0.0
doppler_bin: 8
bearing: -39.1736602783
intensity: 28.9817657471
---
header: 
  seq: 721899
  stamp: 
    secs: 1561864645
    nsecs: 349074952
  frame_id: "ti_mmwave"
point_id: 0
x: 0.01171875
y: -0.0390625
z: -0.0078125
range: 0.0435769706964
velocity: 0.0
doppler_bin: 8
bearing: -73.3007583618
intensity: 30.6744289398
---
header: 
  seq: 721900
  stamp: 
    secs: 1561864645
    nsecs: 349118952
  frame_id: "ti_mmwave"
point_id: 1
x: 0.017578125
y: -0.080078125
z: -0.0078125
range: 0.0871539413929
velocity: 0.0
doppler_bin: 8
bearing: -77.6192398071
intensity: 31.9256744385
---
header: 
  seq: 721901
  stamp: 
    secs: 1561864645
    nsecs: 349134314
  frame_id: "ti_mmwave"
point_id: 2
x: 0.029296875
y: -0.119140625
z: -0.005859375
range: 0.130730912089
velocity: 0.0
doppler_bin: 8
bearing: -76.1849746704
intensity: 30.1786766052
---
header: 
  seq: 721902
  stamp: 
    secs: 1561864645
    nsecs: 349151042
  frame_id: "ti_mmwave"
point_id: 3
x: 0.056640625
y: -0.154296875
z: 0.005859375
range: 0.174307882786
velocity: 0.0
doppler_bin: 8
bearing: -69.8423843384
intensity: 25.4654273987
---
header: 
  seq: 721903
  stamp: 
    secs: 1561864645
    nsecs: 349169560
  frame_id: "ti_mmwave"
point_id: 4
x: 0.125
y: -0.080078125
z: 1.259765625
range: 1.35088610649
velocity: 0.0
doppler_bin: 8
bearing: -32.6446380615
intensity: 23.0963020325
---
header: 
  seq: 721904
  stamp: 
    secs: 1561864645
    nsecs: 349227148
  frame_id: "ti_mmwave"
point_id: 5
x: 0.0546875
y: -0.08203125
z: -1.3046875
range: 1.39446306229
velocity: 0.0
doppler_bin: 8
bearing: -56.3099327087
intensity: 24.6089782715
---
header: 
  seq: 721905
  stamp: 
    secs: 1561864645
    nsecs: 349243476
  frame_id: "ti_mmwave"
point_id: 6
x: 0.443359375
y: -0.083984375
z: -1.271484375
range: 1.43804001808
velocity: 0.0
doppler_bin: 8
bearing: -10.7262945175
intensity: 22.9666519165
---
header: 
  seq: 721906
  stamp: 
    secs: 1561864645
    nsecs: 349256280
  frame_id: "ti_mmwave"
point_id: 7
x: 1.625
y: -0.05078125
z: -0.189453125
range: 1.74307882786
velocity: 0.0
doppler_bin: 8
bearing: -1.7899106741
intensity: 26.5896492004
---
header: 
  seq: 721907
  stamp: 
    secs: 1561864645
    nsecs: 349269273
  frame_id: "ti_mmwave"
point_id: 8
x: 1.673828125
y: -0.052734375
z: -0.0859375
range: 1.78665578365
velocity: 0.0
doppler_bin: 8
bearing: -1.80452108383
intensity: 29.020029068
---
header: 
  seq: 721908
  stamp: 
    secs: 1561864645
    nsecs: 349282587
  frame_id: "ti_mmwave"
point_id: 9
x: 1.716796875
y: -0.052734375
z: 0.03125
range: 1.83023273945
velocity: 0.0
doppler_bin: 8
bearing: -1.75938534737
intensity: 29.9431724548
---
header: 
  seq: 721909
  stamp: 
    secs: 1561864645
    nsecs: 349295898
  frame_id: "ti_mmwave"
point_id: 10
x: 1.75390625
y: -0.0546875
z: 0.125
range: 1.87380969524
velocity: 0.0
doppler_bin: 8
bearing: -1.78592669964
intensity: 28.6746749878
---
header: 
  seq: 721910
  stamp: 
    secs: 1561864645
    nsecs: 349307442
  frame_id: "ti_mmwave"
point_id: 11
x: 2.609375
y: -0.17578125
z: 1.0625
range: 3.00681090355
velocity: 0.0
doppler_bin: 8
bearing: -3.85392260551
intensity: 29.0036716461
---
header: 
  seq: 721911
  stamp: 
    secs: 1561864645
    nsecs: 349337612
  frame_id: "ti_mmwave"
point_id: 12
x: 2.689453125
y: -0.08984375
z: 0.98046875
range: 3.05038785934
velocity: 0.0
doppler_bin: 8
bearing: -1.91330885887
intensity: 32.1984634399
---
header: 
  seq: 721912
  stamp: 
    secs: 1561864645
    nsecs: 349401105
  frame_id: "ti_mmwave"
point_id: 13
x: 2.75390625
y: -0.08984375
z: 0.91796875
range: 3.09396481514
velocity: 0.0
doppler_bin: 8
bearing: -1.86856126785
intensity: 31.1925582886
---
header: 
  seq: 721913
  stamp: 
