header: 
  seq: 778151
  stamp: 
    secs: 1561864741
    nsecs: 707802383
  frame_id: "ti_mmwave"
point_id: 0
x: 0.01171875
y: -0.0390625
z: -0.0078125
range: 0.0435769706964
velocity: 0.0
doppler_bin: 8
bearing: -73.3007583618
intensity: 30.6632595062
---
header: 
  seq: 778152
  stamp: 
    secs: 1561864741
    nsecs: 707865383
  frame_id: "ti_mmwave"
point_id: 1
x: 0.017578125
y: -0.080078125
z: -0.0078125
range: 0.0871539413929
velocity: 0.0
doppler_bin: 8
bearing: -77.6192398071
intensity: 31.9089164734
---
header: 
  seq: 778153
  stamp: 
    secs: 1561864741
    nsecs: 707876091
  frame_id: "ti_mmwave"
point_id: 2
x: 0.029296875
y: -0.119140625
z: -0.005859375
range: 0.130730912089
velocity: 0.0
doppler_bin: 8
bearing: -76.1849746704
intensity: 30.157787323
---
header: 
  seq: 778154
  stamp: 
    secs: 1561864741
    nsecs: 707886303
  frame_id: "ti_mmwave"
point_id: 3
x: 0.056640625
y: -0.154296875
z: 0.005859375
range: 0.174307882786
velocity: 0.0
doppler_bin: 8
bearing: -69.8423843384
intensity: 25.4406795502
---
header: 
  seq: 778155
  stamp: 
    secs: 1561864741
    nsecs: 707896628
  frame_id: "ti_mmwave"
point_id: 4
x: 0.146484375
y: -0.080078125
z: 1.2578125
range: 1.35088610649
velocity: 0.0
doppler_bin: 8
bearing: -28.6639575958
intensity: 23.0749607086
---
header: 
  seq: 778156
  stamp: 
    secs: 1561864741
    nsecs: 707905008
  frame_id: "ti_mmwave"
point_id: 5
x: 0.080078125
y: -0.08203125
z: 1.3046875
range: 1.39446306229
velocity: 0.0
doppler_bin: 8
bearing: -45.6902770996
intensity: 24.5331840515
---
header: 
  seq: 778157
  stamp: 
    secs: 1561864741
    nsecs: 707913583
  frame_id: "ti_mmwave"
point_id: 6
x: 0.306640625
y: -0.083984375
z: 1.3125
range: 1.43804001808
velocity: 0.0
doppler_bin: 8
bearing: -15.316860199
intensity: 22.5285301208
---
header: 
  seq: 778158
  stamp: 
    secs: 1561864741
    nsecs: 707921763
  frame_id: "ti_mmwave"
point_id: 7
x: 1.45703125
y: 0.18359375
z: -0.109375
range: 1.56877088547
velocity: 0.0
doppler_bin: 8
bearing: 7.18172597885
intensity: 25.550945282
---
header: 
  seq: 778159
  stamp: 
    secs: 1561864741
    nsecs: 707932035
  frame_id: "ti_mmwave"
point_id: 8
x: 1.505859375
y: 0.142578125
z: -0.060546875
range: 1.61234796047
velocity: 0.0
doppler_bin: 8
bearing: 5.4087677002
intensity: 28.5369815826
---
header: 
  seq: 778160
  stamp: 
    secs: 1561864741
    nsecs: 707941053
  frame_id: "ti_mmwave"
point_id: 9
x: 1.546875
y: 0.146484375
z: 0.015625
range: 1.65592491627
velocity: 0.0
doppler_bin: 8
bearing: 5.40960502625
intensity: 28.8024177551
---
header: 
  seq: 778161
  stamp: 
    secs: 1561864741
    nsecs: 707987767
  frame_id: "ti_mmwave"
point_id: 10
x: 1.580078125
y: 0.19921875
z: 0.078125
range: 1.69950187206
velocity: 0.0
doppler_bin: 8
bearing: 7.18602514267
intensity: 26.5896492004
---
header: 
  seq: 778162
  stamp: 
    secs: 1561864741
    nsecs: 708002181
  frame_id: "ti_mmwave"
point_id: 11
x: 2.61328125
y: -0.17578125
z: 1.0546875
range: 3.00681090355
velocity: 0.0
doppler_bin: 8
bearing: -3.84817934036
intensity: 29.0579586029
---
header: 
  seq: 778163
  stamp: 
    secs: 1561864741
    nsecs: 708152826
  frame_id: "ti_mmwave"
point_id: 12
x: 2.6875
y: -0.08984375
z: 0.984375
range: 3.05038785934
velocity: 0.0
doppler_bin: 8
bearing: -1.91469812393
intensity: 32.2036972046
---
header: 
  seq: 778164
  stamp: 
    secs: 1561864741
    nsecs: 708172109
  frame_id: "ti_mmwave"
point_id: 13
x: 2.75
y: -0.08984375
z: 0.9296875
range: 3.09396481514
velocity: 0.0
doppler_bin: 8
bearing: -1.87121355534
intensity: 31.2123146057
---
header: 
  seq: 778165
  stamp: 
    secs: 1561864741
    nsecs: 708181159
  frame_id: "ti_mmwave"
point_id: 14
x: 4.419921875
y: -0.142578125
z: 1.197265625
range: 4.88062095642
velocity: 0.0
doppler_bin: 8
bearing: -1.847610116
intensity: 31.1991539001
---
header: 
  seq: 778166
  stamp: 
    secs: 1561864741
    nsecs: 708189733
  frame_id: "ti_mmwave"
point_id: 15
x: 4.439453125
y: -0.14453125
z: 1.28125
range: 4.9241976738
velocity: 0.0
doppler_bin: 8
bearing: -1.86466813087
intensity: 30.5384635925
---
header: 
  seq: 778167
  stamp: 
    secs: 1561864741
    nsecs: 708197734
  frame_id: "ti_mmwave"
point_id: 16
x: 4.70703125
y: -0.296875
z: -0.517578125
range: 5.0549287796
velocity: 0.0
doppler_bin: 8
bearing: -3.60889554024
intensity: 29.4987773895
---
header: 
  seq: 778168
  stamp: 
    secs: 1561864741
    nsecs: 708206345
  frame_id: "ti_mmwave"
point_id: 17
x: 4.734375
y: -0.44921875
z: -0.54296875
range: 5.09850549698
velocity: 0.0
doppler_bin: 8
bearing: -5.42025327682
intensity: 33.9898109436
---
header: 
  seq: 778169
  stamp: 
    secs: 1561864741
    nsecs: 708216410
  frame_id: "ti_mmwave"
point_id: 18
x: 4.779296875
y: -0.30078125
z: -0.61328125
range: 5.14208269119
velocity: 0.0
doppler_bin: 8
bearing: -3.60111522675
intensity: 34.4731292725
---
header: 
  seq: 778170
  stamp: 
    secs: 1561864741
    nsecs: 708228578
  frame_id: "ti_mmwave"
point_id: 19
x: 4.771484375
y: -0.3046875
z: -0.916015625
range: 5.18565940857
velocity: 0.0
doppler_bin: 8
bearing: -3.65371370316
intensity: 30.696680069
---
header: 
  seq: 778171
  stamp: 
    secs: 1561864741
    nsecs: 708239583
  frame_id: "ti_mmwave"
point_id: 20
x: 4.8828125
y: -0.30859375
z: 0.744140625
range: 5.27281332016
velocity: 0.0
doppler_bin: 8
bearing: -3.61628341675
intensity: 30.9307136536
---
header: 
  seq: 778172
  stamp: 
    secs: 1561864741
    nsecs: 708250962
  frame_id: "ti_mmwave"
point_id: 21
x: 4.951171875
y: -0.623046875
z: 0.06640625
range: 5.31639051437
velocity: 0.0
doppler_bin: 8
bearing: -7.17230129242
intensity: 29.6236934662
---
header: 
  seq: 778173
  stamp: 
    secs: 1561864741
    nsecs: 708262466
  frame_id: "ti_mmwave"
point_id: 22
x: 0.009765625
y: 0.03125
z: 0.025390625
range: 0.0435769706964
velocity: 0.0
doppler_bin: 8
bearing: 72.6459732056
intensity: 29.3247375488
---
header: 
  seq: 778174
  stamp: 
    secs: 1561864741
    nsecs: 708278466
  frame_id: "ti_mmwave"
point_id: 23
x: 0.041015625
y: -0.033203125
z: 0.0625
range: 0.0871539413929
velocity: 0.0
doppler_bin: 8
bearing: -38.9909973145
intensity: 30.0945091248
---
header: 
  seq: 778175
  stamp: 
    secs: 1561864741
    nsecs: 708388867
  frame_id: "ti_mmwave"
point_id: 24
x: 0.044921875
y: -0.046875
z: 0.103515625
range: 0.130730912089
velocity: 0.0
doppler_bin: 8
bearing: -46.218875885
intensity: 28.9652614594
---
header: 
  seq: 778176
  stamp: 
    secs: 1561864741
    nsecs: 709491202
  frame_id: "ti_mmwave"
point_id: 0
x: 0.01171875
y: -0.0390625
z: -0.0078125
range: 0.0435769706964
velocity: 0.0
doppler_bin: 8
bearing: -73.3007583618
intensity: 30.6669845581
---
header: 
  seq: 778177
  stamp: 
    secs: 1561864741
    nsecs: 709542316
  frame_id: "ti_mmwave"
point_id: 1
x: 0.017578125
y: -0.080078125
z: -0.0078125
range: 0.0871539413929
velocity: 0.0
doppler_bin: 8
bearing: -77.6192398071
intensity: 31.9117145538
---
header: 
  seq: 778178
  stamp: 
    secs: 1561864741
    nsecs: 709554012
  frame_id: "ti_mmwave"
point_id: 2
x: 0.029296875
y: -0.119140625
z: -0.005859375
range: 0.130730912089
velocity: 0.0
doppler_bin: 8
bearing: -76.1849746704
intensity: 30.1619739532
---
header: 
  seq: 778179
  stamp: 
    secs: 1561864741
    nsecs: 709562313
  frame_id: "ti_mmwave"
point_id: 3
x: 0.056640625
y: -0.154296875
z: 0.005859375
range: 0.174307882786
velocity: 0.0
doppler_bin: 8
bearing: -69.8423843384
intensity: 25.4530715942
---
header: 
  seq: 778180
  stamp: 
    secs: 1561864741
    nsecs: 709570508
  frame_id: "ti_mmwave"
point_id: 4
x: 0.10546875
y: -0.080078125
z: 1.26171875
range: 1.35088610649
velocity: 0.0
doppler_bin: 8
bearing: -37.2079238892
intensity: 23.138671875
---
header: 
  seq: 778181
  stamp: 
    secs: 1561864741
    nsecs: 709578725
  frame_id: "ti_mmwave"
point_id: 5
x: 0.126953125
y: -0.08203125
z: -1.30078125
range: 1.39446306229
velocity: 0.0
doppler_bin: 8
bearing: -32.8686790466
intensity: 24.6389293671
---
header: 
  seq: 778182
  stamp: 
    secs: 1561864741
    nsecs: 709587977
  frame_id: "ti_mmwave"
point_id: 6
x: 0.75390625
y: -0.04296875
z: -1.119140625
range: 1.43804001808
velocity: 0.0
doppler_bin: 8
bearing: -3.26203346252
intensity: 23.1806335449
---
header: 
  seq: 778183
  stamp: 
    secs: 1561864741
    nsecs: 709596179
  frame_id: "ti_mmwave"
point_id: 7
x: 1.05078125
y: -0.0
z: -0.91015625
range: 1.48161697388
velocity: 0.0
doppler_bin: 8
bearing: -0.0
intensity: 21.6731739044
---
header: 
  seq: 778184
  stamp: 
    secs: 1561864741
    nsecs: 709603697
  frame_id: "ti_mmwave"
point_id: 8
x: 1.005859375
y: -0.0
z: -1.017578125
range: 1.52519392967
velocity: 0.0
doppler_bin: 8
bearing: -0.0
intensity: 22.4054927826
---
header: 
  seq: 778185
  stamp: 
    secs: 1561864741
    nsecs: 709612424
  frame_id: "ti_mmwave"
point_id: 9
x: 1.416015625
y: 0.046875
z: -0.533203125
range: 1.61234796047
velocity: 0.0
doppler_bin: 8
bearing: 1.89599537849
intensity: 24.5178642273
---
header: 
  seq: 778186
  stamp: 
    secs: 1561864741
    nsecs: 709621650
  frame_id: "ti_mmwave"
point_id: 10
x: 1.525390625
y: 0.09765625
z: -0.283203125
range: 1.65592491627
velocity: 0.0
doppler_bin: 8
bearing: 3.66310429573
intensity: 26.0852603912
---
header: 
  seq: 778187
  stamp: 
    secs: 1561864741
    nsecs: 709629441
  frame_id: "ti_mmwave"
point_id: 11
x: 1.5703125
y: 0.150390625
z: -0.2421875
range: 1.69950187206
velocity: 0.0
doppler_bin: 8
bearing: 5.47059726715
intensity: 27.4507484436
---
header: 
  seq: 778188
  stamp: 
    secs: 1561864741
    nsecs: 709637477
  frame_id: "ti_mmwave"
point_id: 12
x: 1.58984375
y: 0.205078125
z: -0.330078125
range: 1.74307882786
velocity: 0.0
doppler_bin: 8
bearing: 7.3501458168
intensity: 27.1432971954
---
header: 
  seq: 778189
  stamp: 
    secs: 1561864741
    nsecs: 709647144
  frame_id: "ti_mmwave"
point_id: 13
x: 2.615234375
y: -0.17578125
z: 1.046875
range: 3.00681090355
velocity: 0.0
doppler_bin: 8
bearing: -3.84531402588
intensity: 29.0848503113
---
header: 
  seq: 778190
  stamp: 
    secs: 1561864741
    nsecs: 709715887
  frame_id: "ti_mmwave"
point_id: 14
x: 2.689453125
y: -0.08984375
z: 0.978515625
range: 3.05038785934
velocity: 0.0
doppler_bin: 8
bearing: -1.91330885887
intensity: 32.2375526428
---
header: 
  seq: 778191
  stamp: 
    secs: 1561864741
    nsecs: 709725409
  frame_id: "ti_mmwave"
point_id: 15
x: 2.755859375
y: -0.08984375
z: 0.912109375
range: 3.09396481514
velocity: 0.0
doppler_bin: 8
bearing: -1.86723792553
intensity: 31.2515583038
---
header: 
  seq: 778192
  stamp: 
    secs: 1561864741
    nsecs: 709733133
  frame_id: "ti_mmwave"
point_id: 16
x: 4.419921875
y: -0.142578125
z: 1.201171875
range: 4.88062095642
velocity: 0.0
doppler_bin: 8
bearing: -1.847610116
intensity: 31.2417812347
---
header: 
  seq: 778193
  stamp: 
    secs: 1561864741
    nsecs: 709740716
  frame_id: "ti_mmwave"
point_id: 17
x: 4.44140625
y: -0.14453125
z: 1.2734375
range: 4.9241976738
velocity: 0.0
doppler_bin: 8
bearing: -1.86384868622
intensity: 30.6520614624
---
header: 
  seq: 778194
  stamp: 
    secs: 1561864741
    nsecs: 709749705
  frame_id: "ti_mmwave"
point_id: 18
x: 4.740234375
y: -0.298828125
z: -0.587890625
range: 5.09850549698
velocity: 0.0
doppler_bin: 8
bearing: -3.60719799995
intensity: 33.4380226135
---
header: 
  seq: 778195
  stamp: 
    secs: 1561864741
    nsecs: 709757376
  frame_id: "ti_mmwave"
point_id: 19
x: 4.775390625
y: -0.30078125
z: -0.6328125
range: 5.14208269119
velocity: 0.0
doppler_bin: 8
bearing: -3.60405302048
intensity: 33.8898887634
---
header: 
  seq: 778196
  stamp: 
    secs: 1561864741
    nsecs: 709766721
  frame_id: "ti_mmwave"
point_id: 20
x: 4.744140625
y: -0.3046875
z: -1.05078125
range: 5.18565940857
velocity: 0.0
doppler_bin: 8
bearing: -3.67471528053
intensity: 29.7543182373
---
header: 
  seq: 778197
  stamp: 
    secs: 1561864741
    nsecs: 709773912
  frame_id: "ti_mmwave"
point_id: 21
x: 4.880859375
y: -0.30859375
z: 0.767578125
range: 5.27281332016
velocity: 0.0
doppler_bin: 8
bearing: -3.61772704124
intensity: 30.99335289
---
header: 
  seq: 778198
  stamp: 
    secs: 1561864741
    nsecs: 709781284
  frame_id: "ti_mmwave"
point_id: 22
x: 4.951171875
y: -0.623046875
z: 0.087890625
range: 5.31639051437
velocity: 0.0
doppler_bin: 8
bearing: -7.17230129242
intensity: 29.7863693237
---
header: 
  seq: 778199
  stamp: 
    secs: 1561864741
    nsecs: 709788999
  frame_id: "ti_mmwave"
point_id: 23
x: 0.009765625
y: 0.03125
z: 0.025390625
range: 0.0435769706964
velocity: 0.0
doppler_bin: 8
bearing: 72.6459732056
intensity: 29.3247375488
---
header: 
  seq: 778200
  stamp: 
    secs: 1561864741
    nsecs: 709798508
  frame_id: "ti_mmwave"
point_id: 24
x: 0.041015625
y: -0.033203125
z: 0.0625
range: 0.0871539413929
velocity: 0.0
doppler_bin: 8
bearing: -38.9909973145
intensity: 30.0945091248
---
header: 
  seq: 778201
  stamp: 
    secs: 1561864741
    nsecs: 709806029
  frame_id: "ti_mmwave"
point_id: 25
x: 0.044921875
y: -0.046875
z: 0.103515625
range: 0.130730912089
velocity: 0.0
doppler_bin: 8
bearing: -46.218875885
intensity: 28.9707698822
---
header: 
  seq: 778202
  stamp: 
    secs: 1561864741
    nsecs: 709815857
  frame_id: "ti_mmwave"
point_id: 27
x: 1.265625
y: 0.662109375
z: -0.501953125
range: 1.61234796047
velocity: 0.0
doppler_bin: 8
bearing: 27.616230011
intensity: 22.7875366211
---
header: 
  seq: 778203
  stamp: 
    secs: 1561864741
    nsecs: 709825339
  frame_id: "ti_mmwave"
point_id: 28
x: 0.34375
y: 0.875
z: -1.23828125
range: 1.65592491627
velocity: 0.0
doppler_bin: 8
bearing: 68.5522613525
intensity: 23.7657699585
---
header: 
  seq: 778204
  stamp: 
    secs: 1561864741
    nsecs: 767593134
  frame_id: "ti_mmwave"
point_id: 0
x: 0.01171875
y: -0.0390625
z: -0.0078125
range: 0.0435769706964
velocity: 0.0
doppler_bin: 8
bearing: -73.3007583618
intensity: 30.6707077026
---
header: 
  seq: 778205
  stamp: 
    secs: 1561864741
    nsecs: 767641642
  frame_id: "ti_mmwave"
point_id: 1
x: 0.017578125
y: -0.080078125
z: -0.0078125
range: 0.0871539413929
velocity: 0.0
doppler_bin: 8
bearing: -77.6192398071
intensity: 31.9145107269
---
header: 
  seq: 778206
  stamp: 
    secs: 1561864741
    nsecs: 767648710
  frame_id: "ti_mmwave"
point_id: 2
x: 0.029296875
y: -0.119140625
z: -0.005859375
range: 0.130730912089
velocity: 0.0
doppler_bin: 8
bearing: -76.1849746704
intensity: 30.1619739532
---
header: 
  seq: 778207
  stamp: 
    secs: 1561864741
    nsecs: 767654315
  frame_id: "ti_mmwave"
point_id: 3
x: 0.056640625
y: -0.154296875
z: 0.005859375
range: 0.174307882786
velocity: 0.0
doppler_bin: 8
bearing: -69.8423843384
intensity: 25.4406795502
---
header: 
  seq: 778208
  stamp: 
    secs: 1561864741
    nsecs: 767660272
  frame_id: "ti_mmwave"
point_id: 4
x: 0.09375
y: -0.080078125
z: 1.26171875
range: 1.35088610649
velocity: 0.0
doppler_bin: 8
bearing: -40.5028457642
intensity: 23.1175384521
---
header: 
  seq: 778209
  stamp: 
    secs: 1561864741
    nsecs: 767667338
  frame_id: "ti_mmwave"
point_id: 5
x: 0.056640625
y: -0.08203125
z: -1.3046875
range: 1.39446306229
velocity: 0.0
doppler_bin: 8
bearing: -55.3758430481
intensity: 24.6239795685
---
header: 
  seq: 778210
  stamp: 
    secs: 1561864741
    nsecs: 767672810
  frame_id: "ti_mmwave"
point_id: 6
x: 0.455078125
y: -0.083984375
z: -1.267578125
range: 1.43804001808
velocity: 0.0
doppler_bin: 8
bearing: -10.4562511444
intensity: 22.9225616455
---
header: 
  seq: 778211
  stamp: 
    secs: 1561864741
    nsecs: 767678289
  frame_id: "ti_mmwave"
point_id: 7
x: 1.439453125
y: 0.18359375
z: -0.25390625
range: 1.56877088547
velocity: 0.0
doppler_bin: 8
bearing: 7.26849508286
intensity: 27.7232170105
---
header: 
  seq: 778212
  stamp: 
    secs: 1561864741
    nsecs: 767685629
  frame_id: "ti_mmwave"
point_id: 8
x: 1.47265625
y: 0.236328125
z: -0.25390625
range: 1.61234796047
velocity: 0.0
doppler_bin: 8
bearing: 9.11694812775
intensity: 29.2737045288
---
header: 
  seq: 778213
  stamp: 
    secs: 1561864741
    nsecs: 767796767
  frame_id: "ti_mmwave"
point_id: 9
x: 1.462890625
y: 0.291015625
z: -0.435546875
range: 1.65592491627
velocity: 0.0
doppler_bin: 8
bearing: 11.2510766983
intensity: 26.9897003174
---
header: 
  seq: 778214
  stamp: 
    secs: 1561864741
    nsecs: 767811005
  frame_id: "ti_mmwave"
point_id: 10
x: 2.611328125
y: -0.17578125
z: 1.0546875
range: 3.00681090355
velocity: 0.0
doppler_bin: 8
bearing: -3.85104894638
intensity: 29.1434307098
---
header: 
  seq: 778215
  stamp: 
    secs: 1561864741
    nsecs: 767816530
  frame_id: "ti_mmwave"
point_id: 11
x: 2.6875
y: -0.08984375
z: 0.984375
range: 3.05038785934
velocity: 0.0
doppler_bin: 8
bearing: -1.91469812393
intensity: 32.2427406311
---
header: 
  seq: 778216
  stamp: 
    secs: 1561864741
    nsecs: 767823487
  frame_id: "ti_mmwave"
point_id: 12
x: 2.751953125
y: -0.08984375
z: 0.92578125
range: 3.09396481514
velocity: 0.0
doppler_bin: 8
bearing: -1.86988639832
intensity: 31.1859531403
---
header: 
  seq: 778217
  stamp: 
    secs: 1561864741
    nsecs: 767828907
  frame_id: "ti_mmwave"
point_id: 13
x: 4.4140625
y: -0.287109375
z: 1.193359375
range: 4.88062095642
velocity: 0.0
doppler_bin: 8
bearing: -3.72151875496
intensity: 30.9864368439
---
header: 
  seq: 778218
  stamp: 
    secs: 1561864741
    nsecs: 767834297
  frame_id: "ti_mmwave"
point_id: 14
x: 4.451171875
y: -0.14453125
z: 1.236328125
range: 4.9241976738
velocity: 0.0
doppler_bin: 8
bearing: -1.8597625494
intensity: 30.3261871338
---
header: 
  seq: 778219
  stamp: 
    secs: 1561864741
    nsecs: 767839421
  frame_id: "ti_mmwave"
point_id: 15
x: 4.732421875
y: -0.298828125
z: -0.654296875
range: 5.09850549698
velocity: 0.0
doppler_bin: 8
bearing: -3.61313724518
intensity: 30.8062648773
---
header: 
  seq: 778220
  stamp: 
    secs: 1561864741
    nsecs: 767843856
  frame_id: "ti_mmwave"
point_id: 16
x: 4.755859375
y: -0.30078125
z: -0.771484375
range: 5.14208269119
velocity: 0.0
doppler_bin: 8
bearing: -3.61881446838
intensity: 31.027765274
---
header: 
  seq: 778221
  stamp: 
    secs: 1561864741
    nsecs: 767846985
  frame_id: "ti_mmwave"
point_id: 17
x: 4.875
y: -0.30859375
z: 0.79296875
range: 5.27281332016
velocity: 0.0
doppler_bin: 8
bearing: -3.62206339836
intensity: 31.0482845306
---
header: 
  seq: 778222
  stamp: 
    secs: 1561864741
    nsecs: 767865227
  frame_id: "ti_mmwave"
point_id: 18
x: 4.94921875
y: -0.623046875
z: 0.1328125
range: 5.31639051437
velocity: 0.0
doppler_bin: 8
bearing: -7.17510271072
intensity: 29.6754798889
---
header: 
  seq: 778223
  stamp: 
    secs: 1561864741
    nsecs: 767877645
  frame_id: "ti_mmwave"
point_id: 19
x: 0.009765625
y: 0.03125
z: 0.025390625
range: 0.0435769706964
velocity: 0.0
doppler_bin: 8
bearing: 72.6459732056
intensity: 29.3196620941
---
header: 
  seq: 778224
  stamp: 
    secs: 1561864741
    nsecs: 767890885
  frame_id: "ti_mmwave"
point_id: 20
x: 0.041015625
y: -0.033203125
z: 0.0625
range: 0.0871539413929
velocity: 0.0
doppler_bin: 8
bearing: -38.9909973145
intensity: 30.0987567902
---
header: 
  seq: 778225
  stamp: 
    secs: 1561864741
    nsecs: 767902924
  frame_id: "ti_mmwave"
point_id: 21
x: 0.044921875
y: -0.046875
z: 0.103515625
range: 0.130730912089
velocity: 0.0
doppler_bin: 8
bearing: -46.218875885
intensity: 28.9652614594
---
header: 
  seq: 778226
  stamp: 
    secs: 1561864741
    nsecs: 767916297
  frame_id: "ti_mmwave"
point_id: 23
x: 0.529296875
y: 0.970703125
z: -1.091796875
range: 1.65592491627
velocity: 0.0
doppler_bin: 8
bearing: 61.3976173401
intensity: 23.9967365265
---
header: 
  seq: 778227
  stamp: 
    secs: 1561864741
    nsecs: 768648942
  frame_id: "ti_mmwave"
point_id: 0
x: 0.01171875
y: -0.0390625
z: -0.0078125
range: 0.0435769706964
velocity: 0.0
doppler_bin: 8
bearing: -73.3007583618
intensity: 30.6632595062
---
header: 
  seq: 778228
  stamp: 
    secs: 1561864741
    nsecs: 768678950
  frame_id: "ti_mmwave"
point_id: 1
x: 0.017578125
y: -0.080078125
z: -0.0078125
range: 0.0871539413929
velocity: 0.0
doppler_bin: 8
bearing: -77.6192398071
intensity: 31.9117145538
---
header: 
  seq: 778229
  stamp: 
    secs: 1561864741
    nsecs: 768691083
  frame_id: "ti_mmwave"
point_id: 2
x: 0.029296875
y: -0.119140625
z: -0.005859375
range: 0.130730912089
velocity: 0.0
doppler_bin: 8
bearing: -76.1849746704
intensity: 30.1619739532
---
header: 
  seq: 778230
  stamp: 
    secs: 1561864741
    nsecs: 768707801
  frame_id: "ti_mmwave"
point_id: 3
x: 0.056640625
y: -0.154296875
z: 0.005859375
range: 0.174307882786
velocity: 0.0
doppler_bin: 8
bearing: -69.8423843384
intensity: 25.4530715942
---
header: 
  seq: 778231
  stamp: 
    secs: 1561864741
    nsecs: 768720495
  frame_id: "ti_mmwave"
point_id: 4
x: 0.095703125
y: -0.080078125
z: 1.26171875
range: 1.35088610649
velocity: 0.0
doppler_bin: 8
bearing: -39.9203910828
intensity: 23.0963020325
---
header: 
  seq: 778232
  stamp: 
    secs: 1561864741
    nsecs: 768762117
  frame_id: "ti_mmwave"
point_id: 5
x: 0.068359375
y: -0.08203125
z: -1.3046875
range: 1.39446306229
velocity: 0.0
doppler_bin: 8
bearing: -50.1944313049
intensity: 24.5939254761
---
header: 
  seq: 778233
  stamp: 
    secs: 1561864741
    nsecs: 768773174
  frame_id: "ti_mmwave"
point_id: 6
x: 0.630859375
y: -0.04296875
z: -1.193359375
range: 1.43804001808
velocity: 0.0
doppler_bin: 8
bearing: -3.89648079872
intensity: 23.2014636993
---
header: 
  seq: 778234
  stamp: 
    secs: 1561864741
    nsecs: 768780615
  frame_id: "ti_mmwave"
point_id: 7
x: 0.818359375
y: -0.04296875
z: -1.123046875
range: 1.48161697388
velocity: 0.0
doppler_bin: 8
bearing: -3.00561022758
intensity: 22.3552837372
---
header: 
  seq: 778235
  stamp: 
    secs: 1561864741
    nsecs: 768788885
  frame_id: "ti_mmwave"
point_id: 8
x: 1.16796875
y: -0.0
z: 0.828125
range: 1.52519392967
velocity: 0.0
doppler_bin: 8
bearing: -0.0
intensity: 24.393327713
---
header: 
  seq: 778236
  stamp: 
    secs: 1561864741
    nsecs: 768799552
  frame_id: "ti_mmwave"
point_id: 9
x: 1.458984375
y: 0.18359375
z: -0.072265625
range: 1.56877088547
velocity: 0.0
doppler_bin: 8
bearing: 7.17221260071
intensity: 29.4250411987
---
header: 
  seq: 778237
  stamp: 
    secs: 1561864741
    nsecs: 768806264
  frame_id: "ti_mmwave"
point_id: 10
x: 1.494140625
y: 0.189453125
z: -0.146484375
range: 1.61234796047
velocity: 0.0
doppler_bin: 8
bearing: 7.22639226913
intensity: 31.1159858704
---
header: 
  seq: 778238
  stamp: 
    secs: 1561864741
    nsecs: 768820439
  frame_id: "ti_mmwave"
point_id: 11
x: 1.53515625
y: 0.193359375
z: -0.15625
range: 1.65592491627
velocity: 0.0
doppler_bin: 8
bearing: 7.17884063721
intensity: 29.5999488831
---
header: 
  seq: 778239
  stamp: 
    secs: 1561864741
    nsecs: 768833019
  frame_id: "ti_mmwave"
point_id: 12
x: 1.580078125
y: 0.19921875
z: -0.0859375
range: 1.69950187206
velocity: 0.0
doppler_bin: 8
bearing: 7.18602514267
intensity: 25.4406795502
---
header: 
  seq: 778240
  stamp: 
    secs: 1561864741
    nsecs: 768846212
  frame_id: "ti_mmwave"
point_id: 13
x: 2.615234375
y: -0.17578125
z: 1.048828125
range: 3.00681090355
velocity: 0.0
doppler_bin: 8
bearing: -3.84531402588
intensity: 28.9872512817
---
header: 
  seq: 778241
  stamp: 
    secs: 1561864741
    nsecs: 768856014
  frame_id: "ti_mmwave"
point_id: 14
x: 2.69140625
y: -0.08984375
z: 0.9765625
range: 3.05038785934
velocity: 0.0
doppler_bin: 8
bearing: -1.91192126274
intensity: 32.1906051636
---
header: 
  seq: 778242
  stamp: 
    secs: 1561864741
    nsecs: 768867212
  frame_id: "ti_mmwave"
point_id: 15
x: 2.755859375
y: -0.08984375
z: 0.9140625
range: 3.09396481514
velocity: 0.0
doppler_bin: 8
bearing: -1.86723792553
intensity: 31.2188796997
---
header: 
  seq: 778243
  stamp: 
    secs: 1561864741
    nsecs: 768911740
  frame_id: "ti_mmwave"
point_id: 16
x: 4.421875
y: -0.142578125
z: 1.189453125
range: 4.88062095642
velocity: 0.0
doppler_bin: 8
bearing: -1.84679484367
intensity: 31.209028244
---
header: 
  seq: 778244
  stamp: 
    secs: 1561864741
    nsecs: 768921479
  frame_id: "ti_mmwave"
point_id: 17
x: 4.455078125
y: -0.14453125
z: 1.22265625
range: 4.9241976738
velocity: 0.0
doppler_bin: 8
bearing: -1.85813295841
intensity: 30.5994186401
---
header: 
  seq: 778245
  stamp: 
    secs: 1561864741
    nsecs: 768929657
  frame_id: "ti_mmwave"
point_id: 18
x: 4.833984375
y: -0.154296875
z: 0.837890625
range: 5.22923660278
velocity: 0.0
doppler_bin: 8
bearing: -1.82821428776
intensity: 30.0389118195
---
header: 
  seq: 778246
  stamp: 
    secs: 1561864741
    nsecs: 768938570
  frame_id: "ti_mmwave"
point_id: 19
x: 4.8828125
y: -0.30859375
z: 0.74609375
range: 5.27281332016
velocity: 0.0
doppler_bin: 8
bearing: -3.61628341675
intensity: 31.1660766602
---
header: 
  seq: 778247
  stamp: 
    secs: 1561864741
    nsecs: 768948059
  frame_id: "ti_mmwave"
point_id: 20
x: 4.951171875
y: -0.623046875
z: 0.08203125
range: 5.31639051437
velocity: 0.0
doppler_bin: 8
bearing: -7.17230129242
intensity: 29.7543182373
---
header: 
  seq: 778248
  stamp: 
    secs: 1561864741
    nsecs: 768956148
  frame_id: "ti_mmwave"
point_id: 21
x: 0.009765625
y: 0.03125
z: 0.025390625
range: 0.0435769706964
velocity: 0.0
doppler_bin: 8
bearing: 72.6459732056
intensity: 29.3298072815
---
header: 
  seq: 778249
  stamp: 
    secs: 1561864741
    nsecs: 768964021
  frame_id: "ti_mmwave"
point_id: 22
x: 0.041015625
y: -0.033203125
z: 0.0625
range: 0.0871539413929
velocity: 0.0
doppler_bin: 8
bearing: -38.9909973145
intensity: 30.0902576447
---
header: 
  seq: 778250
  stamp: 
    secs: 1561864741
    nsecs: 768974161
  frame_id: "ti_mmwave"
point_id: 23
x: 0.044921875
y: -0.046875
z: 0.103515625
range: 0.130730912089
velocity: 0.0
doppler_bin: 8
bearing: -46.218875885
intensity: 28.9707698822
---
header: 
  seq: 778251
  stamp: 
    secs: 1561864741
    nsecs: 827831803
  frame_id: "ti_mmwave"
point_id: 0
x: 0.01171875
y: -0.0390625
z: -0.0078125
range: 0.0435769706964
velocity: 0.0
doppler_bin: 8
bearing: -73.3007583618
intensity: 30.6632595062
---
header: 
  seq: 778252
  stamp: 
    secs: 1561864741
    nsecs: 827897190
  frame_id: "ti_mmwave"
point_id: 1
x: 0.017578125
y: -0.080078125
z: -0.0078125
range: 0.0871539413929
velocity: 0.0
doppler_bin: 8
bearing: -77.6192398071
intensity: 31.9117145538
---
header: 
  seq: 778253
  stamp: 
    secs: 1561864741
    nsecs: 827907739
  frame_id: "ti_mmwave"
point_id: 2
x: 0.029296875
y: -0.119140625
z: -0.005859375
range: 0.130730912089
velocity: 0.0
doppler_bin: 8
bearing: -76.1849746704
intensity: 30.1619739532
---
header: 
  seq: 778254
  stamp: 
    secs: 1561864741
    nsecs: 827916302
  frame_id: "ti_mmwave"
point_id: 3
x: 0.056640625
y: -0.154296875
z: 0.005859375
range: 0.174307882786
velocity: 0.0
doppler_bin: 8
bearing: -69.8423843384
intensity: 25.4406795502
---
header: 
  seq: 778255
  stamp: 
    secs: 1561864741
    nsecs: 827924666
  frame_id: "ti_mmwave"
point_id: 4
x: 0.103515625
y: -0.080078125
z: 1.26171875
range: 1.35088610649
velocity: 0.0
doppler_bin: 8
bearing: -37.7249946594
intensity: 23.138671875
---
header: 
  seq: 778256
  stamp: 
    secs: 1561864741
    nsecs: 827936629
  frame_id: "ti_mmwave"
point_id: 6
x: 0.427734375
y: -0.083984375
z: -1.27734375
range: 1.43804001808
velocity: 0.0
doppler_bin: 8
bearing: -11.1085424423
intensity: 22.6717166901
---
header: 
  seq: 778257
  stamp: 
    secs: 1561864741
    nsecs: 827982443
  frame_id: "ti_mmwave"
point_id: 7
x: 1.390625
y: -0.0
z: -0.482421875
range: 1.56877088547
velocity: 0.0
doppler_bin: 8
bearing: -0.0
intensity: 25.6229286194
---
header: 
  seq: 778258
  stamp: 
    secs: 1561864741
    nsecs: 828029005
  frame_id: "ti_mmwave"
point_id: 8
x: 1.43359375
y: 0.37890625
z: 0.30078125
range: 1.61234796047
velocity: 0.0
doppler_bin: 8
bearing: 14.8050222397
intensity: 26.9196510315
---
header: 
  seq: 778259
  stamp: 
    secs: 1561864741
    nsecs: 828045869
  frame_id: "ti_mmwave"
point_id: 9
x: 1.509765625
y: 0.291015625
z: 0.234375
range: 1.65592491627
velocity: 0.0
doppler_bin: 8
bearing: 10.9102678299
intensity: 28.7157287598
---
header: 
  seq: 778260
  stamp: 
    secs: 1561864741
    nsecs: 828062827
  frame_id: "ti_mmwave"
point_id: 10
x: 1.57421875
y: 0.25
z: 0.05078125
range: 1.69950187206
velocity: 0.0
doppler_bin: 8
bearing: 9.02372455597
intensity: 27.4115161896
---
header: 
  seq: 778261
  stamp: 
    secs: 1561864741
    nsecs: 828080088
  frame_id: "ti_mmwave"
point_id: 11
x: 2.62890625
y: -0.17578125
z: 1.013671875
range: 3.00681090355
velocity: 0.0
doppler_bin: 8
bearing: -3.82537555695
intensity: 29.0471553802
---
header: 
  seq: 778262
  stamp: 
    secs: 1561864741
    nsecs: 828096335
  frame_id: "ti_mmwave"
point_id: 12
x: 2.693359375
y: -0.08984375
z: 0.96875
range: 3.05038785934
velocity: 0.0
doppler_bin: 8
bearing: -1.91053581238
intensity: 32.166934967
---
header: 
  seq: 778263
  stamp: 
    secs: 1561864741
    nsecs: 828111717
  frame_id: "ti_mmwave"
point_id: 13
x: 2.75390625
y: -0.08984375
z: 0.916015625
range: 3.09396481514
velocity: 0.0
doppler_bin: 8
bearing: -1.86856126785
intensity: 31.1561050415
---
header: 
  seq: 778264
  stamp: 
    secs: 1561864741
    nsecs: 828128460
  frame_id: "ti_mmwave"
point_id: 14
x: 4.416015625
y: -0.142578125
z: 1.212890625
range: 4.88062095642
velocity: 0.0
doppler_bin: 8
bearing: -1.84924340248
intensity: 31.3225975037
---
header: 
  seq: 778265
  stamp: 
    secs: 1561864741
    nsecs: 828145357
  frame_id: "ti_mmwave"
point_id: 15
x: 4.45703125
y: -0.14453125
z: 1.216796875
range: 4.9241976738
velocity: 0.0
doppler_bin: 8
bearing: -1.8573192358
intensity: 30.7591171265
---
header: 
  seq: 778266
  stamp: 
    secs: 1561864741
    nsecs: 828153281
  frame_id: "ti_mmwave"
point_id: 16
x: 4.78515625
y: -0.154296875
z: 1.080078125
range: 5.22923660278
velocity: 0.0
doppler_bin: 8
bearing: -1.84685671329
intensity: 29.6425971985
---
header: 
  seq: 778267
  stamp: 
    secs: 1561864741
    nsecs: 828317795
  frame_id: "ti_mmwave"
point_id: 17
x: 4.875
y: -0.30859375
z: 0.794921875
range: 5.27281332016
velocity: 0.0
doppler_bin: 8
bearing: -3.62206339836
intensity: 31.0653076172
---
header: 
  seq: 778268
  stamp: 
    secs: 1561864741
    nsecs: 828338420
  frame_id: "ti_mmwave"
point_id: 18
x: 4.94921875
y: -0.623046875
z: 0.115234375
range: 5.31639051437
velocity: 0.0
doppler_bin: 8
bearing: -7.17510271072
intensity: 29.5951843262
---
header: 
  seq: 778269
  stamp: 
    secs: 1561864741
    nsecs: 828347007
  frame_id: "ti_mmwave"
point_id: 19
x: 0.009765625
y: 0.03125
z: 0.025390625
range: 0.0435769706964
velocity: 0.0
doppler_bin: 8
bearing: 72.6459732056
intensity: 29.3298072815
---
header: 
  seq: 778270
  stamp: 
    secs: 1561864741
    nsecs: 828356041
  frame_id: "ti_mmwave"
point_id: 20
x: 0.041015625
y: -0.033203125
z: 0.0625
range: 0.0871539413929
velocity: 0.0
doppler_bin: 8
bearing: -38.9909973145
intensity: 30.0945091248
---
header: 
  seq: 778271
  stamp: 
    secs: 1561864741
    nsecs: 828364162
  frame_id: "ti_mmwave"
point_id: 21
x: 0.044921875
y: -0.046875
z: 0.103515625
range: 0.130730912089
velocity: 0.0
doppler_bin: 8
bearing: -46.218875885
intensity: 28.9652614594
---
header: 
  seq: 778272
  stamp: 
    secs: 1561864741
    nsecs: 828375190
  frame_id: "ti_mmwave"
point_id: 23
x: 1.294921875
y: -0.142578125
z: -0.76953125
range: 1.61234796047
velocity: 0.0
doppler_bin: 8
bearing: -6.28327560425
intensity: 26.6464195251
---
header: 
  seq: 778273
  stamp: 
    secs: 1561864741
    nsecs: 828384235
  frame_id: "ti_mmwave"
point_id: 24
x: 1.1328125
y: -0.2421875
z: -1.037109375
range: 1.65592491627
velocity: 0.0
doppler_bin: 8
bearing: -12.0677690506
intensity: 26.4640369415
---
header: 
  seq: 778274
  stamp: 
    secs: 1561864741
    nsecs: 828392362
  frame_id: "ti_mmwave"
point_id: 25
x: 0.791015625
y: -0.349609375
z: -1.33984375
range: 1.69950187206
velocity: 0.0
doppler_bin: 8
bearing: -23.8442459106
intensity: 24.9276046753
---
header: 
  seq: 778275
  stamp: 
    secs: 1561864741
    nsecs: 887825620
  frame_id: "ti_mmwave"
point_id: 0
x: 0.01171875
y: -0.0390625
z: -0.0078125
range: 0.0435769706964
velocity: 0.0
doppler_bin: 8
bearing: -73.3007583618
intensity: 30.6632595062
---
header: 
  seq: 778276
  stamp: 
    secs: 1561864741
    nsecs: 887901500
  frame_id: "ti_mmwave"
point_id: 1
x: 0.017578125
y: -0.080078125
z: -0.0078125
range: 0.0871539413929
velocity: 0.0
doppler_bin: 8
bearing: -77.6192398071
intensity: 31.9089164734
---
header: 
  seq: 778277
  stamp: 
    secs: 1561864741
    nsecs: 887913197
  frame_id: "ti_mmwave"
point_id: 2
x: 0.029296875
y: -0.119140625
z: -0.005859375
range: 0.130730912089
velocity: 0.0
doppler_bin: 8
bearing: -76.1849746704
intensity: 30.157787323
---
header: 
  seq: 778278
  stamp: 
    secs: 1561864741
    nsecs: 887921214
  frame_id: "ti_mmwave"
point_id: 3
x: 0.056640625
y: -0.154296875
z: 0.005859375
range: 0.174307882786
velocity: 0.0
doppler_bin: 8
bearing: -69.8423843384
intensity: 25.4406795502
---
header: 
  seq: 778279
  stamp: 
    secs: 1561864741
    nsecs: 887932666
  frame_id: "ti_mmwave"
point_id: 4
x: 0.126953125
y: -0.080078125
z: 1.259765625
range: 1.35088610649
velocity: 0.0
doppler_bin: 8
bearing: -32.2424697876
intensity: 23.1597042084
---
header: 
  seq: 778280
  stamp: 
    secs: 1561864741
    nsecs: 887975667
  frame_id: "ti_mmwave"
point_id: 6
x: 0.265625
y: -0.083984375
z: -1.3203125
range: 1.43804001808
velocity: 0.0
doppler_bin: 8
bearing: -17.5457286835
intensity: 22.9666519165
---
header: 
  seq: 778281
  stamp: 
    secs: 1561864741
    nsecs: 887986192
  frame_id: "ti_mmwave"
point_id: 7
x: 1.423828125
y: 0.044921875
z: 0.146484375
range: 1.52519392967
velocity: 0.0
doppler_bin: 8
bearing: 1.80708646774
intensity: 25.6348114014
---
header: 
  seq: 778282
  stamp: 
    secs: 1561864741
    nsecs: 887993987
  frame_id: "ti_mmwave"
point_id: 8
x: 1.47265625
y: 0.046875
z: -0.013671875
range: 1.56877088547
velocity: 0.0
doppler_bin: 8
bearing: 1.823122859
intensity: 27.5127906799
---
header: 
  seq: 778283
  stamp: 
    secs: 1561864741
    nsecs: 888005799
  frame_id: "ti_mmwave"
point_id: 9
x: 1.451171875
y: 0.283203125
z: -0.318359375
range: 1.61234796047
velocity: 0.0
doppler_bin: 8
bearing: 11.0427522659
intensity: 29.7034683228
---
header: 
  seq: 778284
  stamp: 
    secs: 1561864741
    nsecs: 888014871
  frame_id: "ti_mmwave"
point_id: 10
x: 1.5234375
y: 0.2421875
z: -0.18359375
range: 1.65592491627
velocity: 0.0
doppler_bin: 8
bearing: 9.03296947479
intensity: 29.4743366241
---
header: 
  seq: 778285
  stamp: 
    secs: 1561864741
    nsecs: 888023078
  frame_id: "ti_mmwave"
point_id: 11
x: 0.89453125
y: 0.6484375
z: -1.150390625
range: 1.69950187206
velocity: 0.0
doppler_bin: 8
bearing: 35.9380111694
intensity: 24.2324581146
---
header: 
  seq: 778286
  stamp: 
    secs: 1561864741
    nsecs: 888030799
  frame_id: "ti_mmwave"
point_id: 12
x: 2.611328125
y: -0.17578125
z: 1.0546875
range: 3.00681090355
velocity: 0.0
doppler_bin: 8
bearing: -3.85104894638
intensity: 29.0036716461
---
header: 
  seq: 778287
  stamp: 
    secs: 1561864741
    nsecs: 888054602
  frame_id: "ti_mmwave"
point_id: 13
x: 2.69140625
y: -0.08984375
z: 0.97265625
range: 3.05038785934
velocity: 0.0
doppler_bin: 8
bearing: -1.91192126274
intensity: 32.2089233398
---
header: 
  seq: 778288
  stamp: 
    secs: 1561864741
    nsecs: 888062703
  frame_id: "ti_mmwave"
point_id: 14
x: 2.755859375
y: -0.08984375
z: 0.91015625
range: 3.09396481514
velocity: 0.0
doppler_bin: 8
bearing: -1.86723792553
intensity: 31.2319812775
---
header: 
  seq: 778289
  stamp: 
    secs: 1561864741
    nsecs: 888251125
  frame_id: "ti_mmwave"
point_id: 15
x: 4.412109375
y: -0.142578125
z: 1.2265625
range: 4.88062095642
velocity: 0.0
doppler_bin: 8
bearing: -1.85087943077
intensity: 31.3097667694
---
header: 
  seq: 778290
  stamp: 
    secs: 1561864741
    nsecs: 888271929
  frame_id: "ti_mmwave"
point_id: 16
x: 4.4453125
y: -0.14453125
z: 1.255859375
range: 4.9241976738
velocity: 0.0
doppler_bin: 8
bearing: -1.86221218109
intensity: 30.7554702759
---
header: 
  seq: 778291
  stamp: 
    secs: 1561864741
    nsecs: 888280523
  frame_id: "ti_mmwave"
point_id: 17
x: 4.7890625
y: -0.306640625
z: 1.029296875
range: 5.22923660278
velocity: 0.0
doppler_bin: 8
bearing: -3.66361141205
intensity: 29.5951843262
---
header: 
  seq: 778292
  stamp: 
    secs: 1561864741
    nsecs: 888288495
  frame_id: "ti_mmwave"
point_id: 18
x: 4.869140625
y: -0.30859375
z: 0.837890625
range: 5.27281332016
velocity: 0.0
doppler_bin: 8
bearing: -3.62641048431
intensity: 30.9725723267
---
header: 
  seq: 778293
  stamp: 
    secs: 1561864741
    nsecs: 888296863
  frame_id: "ti_mmwave"
point_id: 19
x: 4.94921875
y: -0.623046875
z: 0.146484375
range: 5.31639051437
velocity: 0.0
doppler_bin: 8
bearing: -7.17510271072
intensity: 29.6801567078
---
header: 
  seq: 778294
  stamp: 
    secs: 1561864741
    nsecs: 888304844
  frame_id: "ti_mmwave"
point_id: 20
x: 0.009765625
y: 0.03125
z: 0.025390625
range: 0.0435769706964
velocity: 0.0
doppler_bin: 8
bearing: 72.6459732056
intensity: 29.3196620941
---
header: 
  seq: 778295
  stamp: 
    secs: 1561864741
    nsecs: 888313589
  frame_id: "ti_mmwave"
point_id: 21
x: 0.041015625
y: -0.033203125
z: 0.0625
range: 0.0871539413929
velocity: 0.0
doppler_bin: 8
bearing: -38.9909973145
intensity: 30.0945091248
---
header: 
  seq: 778296
  stamp: 
    secs: 1561864741
    nsecs: 888322230
  frame_id: "ti_mmwave"
point_id: 22
x: 0.044921875
y: -0.046875
z: 0.103515625
range: 0.130730912089
velocity: 0.0
doppler_bin: 8
bearing: -46.218875885
intensity: 28.9762706757
---
header: 
  seq: 778297
  stamp: 
    secs: 1561864741
    nsecs: 888333254
  frame_id: "ti_mmwave"
point_id: 24
x: 0.8125
y: -0.291015625
z: 1.29296875
range: 1.65592491627
velocity: 0.0
doppler_bin: 8
bearing: -19.706155777
intensity: 26.7024593353
---
header: 
  seq: 778298
  stamp: 
    secs: 1561864741
    nsecs: 888340900
  frame_id: "ti_mmwave"
point_id: 25
x: 1.576171875
y: 0.19921875
z: 0.134765625
range: 1.69950187206
velocity: 0.0
doppler_bin: 8
bearing: 7.20364665985
intensity: 23.8021125793
---
header: 
  seq: 778299
  stamp: 
    secs: 1561864741
    nsecs: 889419672
  frame_id: "ti_mmwave"
point_id: 0
x: 0.01171875
y: -0.0390625
z: -0.0078125
range: 0.0435769706964
velocity: 0.0
doppler_bin: 8
bearing: -73.3007583618
intensity: 30.6669845581
---
header: 
  seq: 778300
  stamp: 
    secs: 1561864741
    nsecs: 889474552
  frame_id: "ti_mmwave"
point_id: 1
x: 0.017578125
y: -0.080078125
z: -0.0078125
range: 0.0871539413929
velocity: 0.0
doppler_bin: 8
bearing: -77.6192398071
intensity: 31.9089164734
---
header: 
  seq: 778301
  stamp: 
    secs: 1561864741
    nsecs: 889493904
  frame_id: "ti_mmwave"
point_id: 2
x: 0.029296875
y: -0.119140625
z: -0.005859375
range: 0.130730912089
velocity: 0.0
doppler_bin: 8
bearing: -76.1849746704
intensity: 30.157787323
---
header: 
  seq: 778302
  stamp: 
    secs: 1561864741
    nsecs: 889507062
  frame_id: "ti_mmwave"
point_id: 3
x: 0.056640625
y: -0.154296875
z: 0.005859375
range: 0.174307882786
velocity: 0.0
doppler_bin: 8
bearing: -69.8423843384
intensity: 25.4406795502
---
header: 
  seq: 778303
  stamp: 
    secs: 1561864741
    nsecs: 889519792
  frame_id: "ti_mmwave"
point_id: 4
x: 0.154296875
y: -0.080078125
z: 1.255859375
range: 1.35088610649
velocity: 0.0
doppler_bin: 8
bearing: -27.4287414551
intensity: 23.0963020325
---
header: 
  seq: 778304
  stamp: 
    secs: 1561864741
    nsecs: 889537480
  frame_id: "ti_mmwave"
point_id: 6
x: 0.482421875
y: -0.083984375
z: -1.2578125
range: 1.43804001808
velocity: 0.0
doppler_bin: 8
bearing: -9.87559604645
intensity: 22.8330116272
---
header: 
  seq: 778305
  stamp: 
    secs: 1561864741
    nsecs: 889555788
  frame_id: "ti_mmwave"
point_id: 7
x: 1.453125
y: 0.37890625
z: -0.193359375
range: 1.61234796047
velocity: 0.0
doppler_bin: 8
bearing: 14.6146039963
intensity: 27.3639640808
---
header: 
  seq: 778306
  stamp: 
    secs: 1561864741
    nsecs: 889624725
  frame_id: "ti_mmwave"
point_id: 8
x: 1.505859375
y: 0.33984375
z: -0.17578125
range: 1.65592491627
velocity: 0.0
doppler_bin: 8
bearing: 12.7175121307
intensity: 28.3569049835
---
header: 
  seq: 778307
  stamp: 
    secs: 1561864741
    nsecs: 889641926
  frame_id: "ti_mmwave"
point_id: 9
x: 1.54296875
y: 0.3984375
z: -0.08984375
range: 1.69950187206
velocity: 0.0
doppler_bin: 8
bearing: 14.4790687561
intensity: 24.8429985046
---
header: 
  seq: 778308
  stamp: 
    secs: 1561864741
    nsecs: 889654638
  frame_id: "ti_mmwave"
point_id: 10
x: 2.611328125
y: -0.17578125
z: 1.056640625
range: 3.00681090355
velocity: 0.0
doppler_bin: 8
bearing: -3.85104894638
intensity: 28.8705444336
---
header: 
  seq: 778309
  stamp: 
    secs: 1561864741
    nsecs: 889667841
  frame_id: "ti_mmwave"
point_id: 11
x: 2.69140625
y: -0.08984375
z: 0.970703125
range: 3.05038785934
velocity: 0.0
doppler_bin: 8
bearing: -1.91192126274
intensity: 32.1800994873
---
header: 
  seq: 778310
  stamp: 
    secs: 1561864741
    nsecs: 889681483
  frame_id: "ti_mmwave"
point_id: 12
x: 2.755859375
y: -0.08984375
z: 0.912109375
range: 3.09396481514
velocity: 0.0
doppler_bin: 8
bearing: -1.86723792553
intensity: 31.2548122406
---
header: 
  seq: 778311
  stamp: 
    secs: 1561864741
    nsecs: 889694135
  frame_id: "ti_mmwave"
point_id: 13
x: 4.42578125
y: -0.142578125
z: 1.173828125
range: 4.88062095642
velocity: 0.0
doppler_bin: 8
bearing: -1.84516572952
intensity: 31.1360912323
---
header: 
  seq: 778312
  stamp: 
    secs: 1561864741
    nsecs: 889708893
  frame_id: "ti_mmwave"
point_id: 14
x: 4.470703125
y: -0.14453125
z: 1.16796875
range: 4.9241976738
velocity: 0.0
doppler_bin: 8
bearing: -1.8516433239
intensity: 30.5537834167
---
header: 
  seq: 778313
  stamp: 
    secs: 1561864741
    nsecs: 889822542
  frame_id: "ti_mmwave"
point_id: 15
x: 4.83984375
y: -0.306640625
z: 0.763671875
range: 5.22923660278
velocity: 0.0
doppler_bin: 8
bearing: -3.62527441978
intensity: 29.8855895996
---
header: 
  seq: 778314
  stamp: 
    secs: 1561864741
    nsecs: 889838150
  frame_id: "ti_mmwave"
point_id: 16
x: 4.8828125
y: -0.30859375
z: 0.748046875
range: 5.27281332016
velocity: 0.0
doppler_bin: 8
bearing: -3.61628341675
intensity: 30.9898967743
---
header: 
  seq: 778315
  stamp: 
    secs: 1561864741
    nsecs: 889933251
  frame_id: "ti_mmwave"
point_id: 17
x: 4.951171875
y: -0.623046875
z: 0.064453125
range: 5.31639051437
velocity: 0.0
doppler_bin: 8
bearing: -7.17230129242
intensity: 29.7034683228
---
header: 
  seq: 778316
  stamp: 
    secs: 1561864741
    nsecs: 889987308
  frame_id: "ti_mmwave"
point_id: 18
x: 0.01171875
y: 0.03125
z: 0.025390625
range: 0.0435769706964
velocity: 0.0
doppler_bin: 8
bearing: 69.4439544678
intensity: 29.3298072815
---
header: 
  seq: 778317
  stamp: 
    secs: 1561864741
    nsecs: 890003714
  frame_id: "ti_mmwave"
point_id: 19
x: 0.041015625
y: -0.033203125
z: 0.0625
range: 0.0871539413929
velocity: 0.0
doppler_bin: 8
bearing: -38.9909973145
intensity: 30.0945091248
---
header: 
  seq: 778318
  stamp: 
    secs: 1561864741
    nsecs: 890131964
  frame_id: "ti_mmwave"
point_id: 20
x: 0.044921875
y: -0.046875
z: 0.103515625
range: 0.130730912089
velocity: 0.0
doppler_bin: 8
bearing: -46.218875885
intensity: 28.9707698822
---
header: 
  seq: 778319
  stamp: 
    secs: 1561864741
    nsecs: 947769714
  frame_id: "ti_mmwave"
point_id: 0
x: 0.01171875
y: -0.0390625
z: -0.0078125
range: 0.0435769706964
velocity: 0.0
doppler_bin: 8
bearing: -73.3007583618
intensity: 30.6669845581
---
header: 
  seq: 778320
  stamp: 
    secs: 1561864741
    nsecs: 947852326
  frame_id: "ti_mmwave"
point_id: 1
x: 0.017578125
y: -0.080078125
z: -0.0078125
range: 0.0871539413929
velocity: 0.0
doppler_bin: 8
bearing: -77.6192398071
intensity: 31.9117145538
---
header: 
  seq: 778321
  stamp: 
    secs: 1561864741
    nsecs: 947869841
  frame_id: "ti_mmwave"
point_id: 2
x: 0.029296875
y: -0.119140625
z: -0.005859375
range: 0.130730912089
velocity: 0.0
doppler_bin: 8
bearing: -76.1849746704
intensity: 30.1619739532
---
header: 
  seq: 778322
  stamp: 
    secs: 1561864741
    nsecs: 947883643
  frame_id: "ti_mmwave"
point_id: 3
x: 0.056640625
y: -0.154296875
z: 0.005859375
range: 0.174307882786
velocity: 0.0
doppler_bin: 8
bearing: -69.8423843384
intensity: 25.4530715942
---
header: 
  seq: 778323
  stamp: 
    secs: 1561864741
    nsecs: 947896748
  frame_id: "ti_mmwave"
point_id: 4
x: 0.12890625
y: -0.080078125
z: 1.259765625
range: 1.35088610649
velocity: 0.0
doppler_bin: 8
bearing: -31.8490524292
intensity: 23.1175384521
---
header: 
  seq: 778324
  stamp: 
    secs: 1561864741
    nsecs: 947924794
  frame_id: "ti_mmwave"
point_id: 6
x: 0.6875
y: -0.04296875
z: -1.16015625
range: 1.43804001808
velocity: 0.0
doppler_bin: 8
bearing: -3.57633447647
intensity: 23.3845653534
---
header: 
  seq: 778325
  stamp: 
    secs: 1561864741
    nsecs: 948086335
  frame_id: "ti_mmwave"
point_id: 7
x: 1.126953125
y: -0.0
z: -0.81640625
range: 1.48161697388
velocity: 0.0
doppler_bin: 8
bearing: -0.0
intensity: 23.138671875
---
header: 
  seq: 778326
  stamp: 
    secs: 1561864741
    nsecs: 948102141
  frame_id: "ti_mmwave"
point_id: 8
x: 1.337890625
y: 0.08984375
z: -0.501953125
range: 1.52519392967
velocity: 0.0
doppler_bin: 8
bearing: 3.84183168411
intensity: 25.1719589233
---
header: 
  seq: 778327
  stamp: 
    secs: 1561864741
    nsecs: 948115604
  frame_id: "ti_mmwave"
point_id: 9
x: 1.447265625
y: 0.138671875
z: -0.232421875
range: 1.56877088547
velocity: 0.0
doppler_bin: 8
bearing: 5.47317075729
intensity: 28.9707698822
---
header: 
  seq: 778328
  stamp: 
    secs: 1561864741
    nsecs: 948126932
  frame_id: "ti_mmwave"
point_id: 10
x: 1.48046875
y: 0.189453125
z: -0.25390625
range: 1.61234796047
velocity: 0.0
doppler_bin: 8
bearing: 7.2924118042
intensity: 31.3640346527
---
header: 
  seq: 778329
  stamp: 
    secs: 1561864741
    nsecs: 948138062
  frame_id: "ti_mmwave"
point_id: 11
x: 1.513671875
y: 0.193359375
z: -0.298828125
range: 1.65592491627
velocity: 0.0
doppler_bin: 8
bearing: 7.27964782715
intensity: 30.4257545471
---
header: 
  seq: 778330
  stamp: 
    secs: 1561864741
    nsecs: 948150459
  frame_id: "ti_mmwave"
point_id: 13
x: 2.619140625
y: -0.17578125
z: 1.037109375
range: 3.00681090355
velocity: 0.0
doppler_bin: 8
bearing: -3.83959650993
intensity: 28.9431610107
---
header: 
  seq: 778331
  stamp: 
    secs: 1561864741
    nsecs: 948160557
  frame_id: "ti_mmwave"
point_id: 14
x: 2.693359375
y: -0.08984375
z: 0.966796875
range: 3.05038785934
velocity: 0.0
doppler_bin: 8
bearing: -1.91053581238
intensity: 32.1932258606
---
header: 
  seq: 778332
  stamp: 
    secs: 1561864741
    nsecs: 948171036
  frame_id: "ti_mmwave"
point_id: 15
x: 2.751953125
y: -0.08984375
z: 0.921875
range: 3.09396481514
velocity: 0.0
doppler_bin: 8
bearing: -1.86988639832
intensity: 31.2936763763
---
header: 
  seq: 778333
  stamp: 
    secs: 1561864741
    nsecs: 948183364
  frame_id: "ti_mmwave"
point_id: 16
x: 4.41796875
y: -0.142578125
z: 1.203125
range: 4.88062095642
velocity: 0.0
doppler_bin: 8
bearing: -1.84842634201
intensity: 30.9725723267
---
header: 
  seq: 778334
  stamp: 
    secs: 1561864741
    nsecs: 948195768
  frame_id: "ti_mmwave"
point_id: 17
x: 4.45703125
y: -0.14453125
z: 1.21875
range: 4.9241976738
velocity: 0.0
doppler_bin: 8
bearing: -1.8573192358
intensity: 30.3862018585
---
header: 
  seq: 778335
  stamp: 
    secs: 1561864741
    nsecs: 948206114
  frame_id: "ti_mmwave"
point_id: 18
x: 4.833984375
y: -0.306640625
z: 0.802734375
range: 5.22923660278
velocity: 0.0
doppler_bin: 8
bearing: -3.62965679169
intensity: 29.986951828
---
header: 
  seq: 778336
  stamp: 
    secs: 1561864741
    nsecs: 948219085
  frame_id: "ti_mmwave"
point_id: 19
x: 4.884765625
y: -0.30859375
z: 0.736328125
range: 5.27281332016
velocity: 0.0
doppler_bin: 8
bearing: -3.6148416996
intensity: 31.3289985657
---
header: 
  seq: 778337
  stamp: 
    secs: 1561864741
    nsecs: 948232005
  frame_id: "ti_mmwave"
point_id: 20
x: 4.966796875
y: -0.46875
z: 0.09375
range: 5.31639051437
velocity: 0.0
doppler_bin: 8
bearing: -5.39141845703
intensity: 29.9956550598
---
header: 
  seq: 778338
  stamp: 
    secs: 1561864741
    nsecs: 948243906
  frame_id: "ti_mmwave"
point_id: 21
x: 0.009765625
y: 0.03125
z: 0.025390625
range: 0.0435769706964
velocity: 0.0
doppler_bin: 8
bearing: 72.6459732056
intensity: 29.3196620941
---
header: 
  seq: 778339
  stamp: 
    secs: 1561864741
    nsecs: 948334557
  frame_id: "ti_mmwave"
point_id: 22
x: 0.041015625
y: -0.033203125
z: 0.0625
range: 0.0871539413929
velocity: 0.0
doppler_bin: 8
bearing: -38.9909973145
intensity: 30.0945091248
---
header: 
  seq: 778340
  stamp: 
    secs: 1561864741
    nsecs: 948355906
  frame_id: "ti_mmwave"
point_id: 23
x: 0.044921875
y: -0.046875
z: 0.103515625
range: 0.130730912089
velocity: 0.0
doppler_bin: 8
bearing: -46.218875885
intensity: 28.9707698822
---
header: 
  seq: 778341
  stamp: 
    secs: 1561864741
    nsecs: 948374386
  frame_id: "ti_mmwave"
point_id: 25
x: 1.501953125
y: 0.349609375
z: -0.408203125
range: 1.69950187206
velocity: 0.0
doppler_bin: 8
bearing: 13.1033992767
intensity: 24.8429985046
---
header: 
  seq: 778342
  stamp: 
    secs: 1561864741
    nsecs: 949522766
  frame_id: "ti_mmwave"
point_id: 0
x: 0.01171875
y: -0.0390625
z: -0.0078125
range: 0.0435769706964
velocity: 0.0
doppler_bin: 8
bearing: -73.3007583618
intensity: 30.6632595062
---
header: 
  seq: 778343
  stamp: 
    secs: 1561864741
    nsecs: 949622928
  frame_id: "ti_mmwave"
point_id: 1
x: 0.017578125
y: -0.080078125
z: -0.0078125
range: 0.0871539413929
velocity: 0.0
doppler_bin: 8
bearing: -77.6192398071
intensity: 31.9117145538
---
header: 
  seq: 778344
  stamp: 
    secs: 1561864741
    nsecs: 949653515
  frame_id: "ti_mmwave"
point_id: 2
x: 0.029296875
y: -0.119140625
z: -0.005859375
range: 0.130730912089
velocity: 0.0
doppler_bin: 8
bearing: -76.1849746704
intensity: 30.1619739532
---
header: 
  seq: 778345
  stamp: 
    secs: 1561864741
    nsecs: 949673344
  frame_id: "ti_mmwave"
point_id: 3
x: 0.056640625
y: -0.154296875
z: 0.005859375
range: 0.174307882786
velocity: 0.0
doppler_bin: 8
bearing: -69.8423843384
intensity: 25.4406795502
---
header: 
  seq: 778346
  stamp: 
    secs: 1561864741
    nsecs: 949697448
  frame_id: "ti_mmwave"
point_id: 4
x: 0.14453125
y: -0.080078125
z: 1.2578125
range: 1.35088610649
velocity: 0.0
doppler_bin: 8
bearing: -28.9888248444
intensity: 23.1175384521
---
header: 
  seq: 778347
  stamp: 
    secs: 1561864741
    nsecs: 949719364
  frame_id: "ti_mmwave"
point_id: 6
x: 0.5234375
y: -0.083984375
z: -1.2421875
range: 1.43804001808
velocity: 0.0
doppler_bin: 8
bearing: -9.11528968811
intensity: 23.031961441
---
header: 
  seq: 778348
  stamp: 
    secs: 1561864741
    nsecs: 949789361
  frame_id: "ti_mmwave"
point_id: 7
x: 0.79296875
y: -0.04296875
z: -1.142578125
range: 1.48161697388
velocity: 0.0
doppler_bin: 8
bearing: -3.10166406631
intensity: 21.3353881836
---
header: 
  seq: 778349
  stamp: 
    secs: 1561864741
    nsecs: 949798256
  frame_id: "ti_mmwave"
point_id: 8
x: 1.44140625
y: 0.18359375
z: -0.23828125
range: 1.56877088547
velocity: 0.0
doppler_bin: 8
bearing: 7.25875043869
intensity: 27.2098579407
---
header: 
  seq: 778350
  stamp: 
    secs: 1561864741
    nsecs: 949806722
  frame_id: "ti_mmwave"
point_id: 9
x: 1.4765625
y: 0.189453125
z: -0.279296875
range: 1.61234796047
velocity: 0.0
doppler_bin: 8
bearing: 7.31149530411
intensity: 31.2839927673
---
header: 
  seq: 778351
  stamp: 
    secs: 1561864741
    nsecs: 949816310
  frame_id: "ti_mmwave"
point_id: 10
x: 1.521484375
y: 0.193359375
z: -0.25
range: 1.65592491627
velocity: 0.0
doppler_bin: 8
bearing: 7.24266672134
intensity: 32.5041999817
---
header: 
  seq: 778352
  stamp: 
    secs: 1561864741
    nsecs: 949824500
  frame_id: "ti_mmwave"
point_id: 11
x: 1.5703125
y: 0.19921875
z: -0.19921875
range: 1.69950187206
velocity: 0.0
doppler_bin: 8
bearing: 7.23024272919
intensity: 30.7335166931
---
header: 
  seq: 778353
  stamp: 
    secs: 1561864741
    nsecs: 949833178
  frame_id: "ti_mmwave"
point_id: 12
x: 1.619140625
y: 0.205078125
z: -0.119140625
range: 1.74307882786
velocity: 0.0
doppler_bin: 8
bearing: 7.21856737137
intensity: 26.570558548
---
header: 
  seq: 778354
  stamp: 
    secs: 1561864741
    nsecs: 949840625
  frame_id: "ti_mmwave"
point_id: 13
x: 2.61328125
y: -0.17578125
z: 1.048828125
range: 3.00681090355
velocity: 0.0
doppler_bin: 8
bearing: -3.84817934036
intensity: 29.0794849396
---
header: 
  seq: 778355
  stamp: 
    secs: 1561864741
    nsecs: 949848123
  frame_id: "ti_mmwave"
point_id: 14
x: 2.6875
y: -0.08984375
z: 0.984375
range: 3.05038785934
velocity: 0.0
doppler_bin: 8
bearing: -1.91469812393
intensity: 32.2762947083
---
header: 
  seq: 778356
  stamp: 
    secs: 1561864741
    nsecs: 949855594
  frame_id: "ti_mmwave"
point_id: 15
x: 2.74609375
y: -0.08984375
z: 0.94140625
range: 3.09396481514
velocity: 0.0
doppler_bin: 8
bearing: -1.8738732338
intensity: 31.332195282
---
header: 
  seq: 778357
  stamp: 
    secs: 1561864741
    nsecs: 949862840
  frame_id: "ti_mmwave"
point_id: 16
x: 4.4140625
y: -0.142578125
z: 1.21875
range: 4.88062095642
velocity: 0.0
doppler_bin: 8
bearing: -1.850061059
intensity: 31.2417812347
---
header: 
  seq: 778358
  stamp: 
    secs: 1561864741
    nsecs: 949873268
  frame_id: "ti_mmwave"
point_id: 17
x: 4.4453125
y: -0.14453125
z: 1.26171875
range: 4.9241976738
velocity: 0.0
doppler_bin: 8
bearing: -1.86221218109
intensity: 30.7335166931
---
header: 
  seq: 778359
  stamp: 
    secs: 1561864741
    nsecs: 949884516
  frame_id: "ti_mmwave"
point_id: 18
x: 4.740234375
y: -0.298828125
z: -0.58984375
range: 5.09850549698
velocity: 0.0
doppler_bin: 8
bearing: -3.60719799995
intensity: 30.588054657
---
header: 
  seq: 778360
  stamp: 
    secs: 1561864741
    nsecs: 949895256
  frame_id: "ti_mmwave"
point_id: 19
x: 4.759765625
y: -0.30078125
z: -0.75
range: 5.14208269119
velocity: 0.0
doppler_bin: 8
bearing: -3.61585259438
intensity: 30.8493366241
---
header: 
  seq: 778361
  stamp: 
    secs: 1561864741
    nsecs: 949908167
  frame_id: "ti_mmwave"
point_id: 20
x: 4.900390625
y: -0.30859375
z: 0.626953125
range: 5.27281332016
velocity: 0.0
doppler_bin: 8
bearing: -3.60334610939
intensity: 30.7261753082
---
header: 
  seq: 778362
  stamp: 
    secs: 1561864741
    nsecs: 949920983
  frame_id: "ti_mmwave"
point_id: 21
x: 4.951171875
y: -0.623046875
z: -0.0859375
range: 5.31639051437
velocity: 0.0
doppler_bin: 8
bearing: -7.17230129242
intensity: 29.6142101288
---
header: 
  seq: 778363
  stamp: 
    secs: 1561864741
    nsecs: 949947118
  frame_id: "ti_mmwave"
point_id: 22
x: 0.009765625
y: 0.03125
z: 0.025390625
range: 0.0435769706964
velocity: 0.0
doppler_bin: 8
bearing: 72.6459732056
intensity: 29.3247375488
---
header: 
  seq: 778364
  stamp: 
    secs: 1561864741
    nsecs: 950060727
  frame_id: "ti_mmwave"
point_id: 23
x: 0.041015625
y: -0.033203125
z: 0.0625
range: 0.0871539413929
velocity: 0.0
doppler_bin: 8
bearing: -38.9909973145
intensity: 30.0945091248
---
header: 
  seq: 778365
  stamp: 
    secs: 1561864741
    nsecs: 950077823
  frame_id: "ti_mmwave"
point_id: 24
x: 0.044921875
y: -0.046875
z: 0.103515625
range: 0.130730912089
velocity: 0.0
doppler_bin: 8
bearing: -46.218875885
intensity: 28.9707698822
---
header: 
  seq: 778366
  stamp: 
    secs: 1561864742
    nsecs:   7865008
  frame_id: "ti_mmwave"
point_id: 0
x: 0.01171875
y: -0.0390625
z: -0.0078125
range: 0.0435769706964
velocity: 0.0
doppler_bin: 8
bearing: -73.3007583618
intensity: 30.6595306396
---
header: 
  seq: 778367
  stamp: 
    secs: 1561864742
    nsecs:   7941272
  frame_id: "ti_mmwave"
point_id: 1
x: 0.017578125
y: -0.080078125
z: -0.0078125
range: 0.0871539413929
velocity: 0.0
doppler_bin: 8
bearing: -77.6192398071
intensity: 31.9089164734
---
header: 
  seq: 778368
  stamp: 
    secs: 1561864742
    nsecs:   7981933
  frame_id: "ti_mmwave"
point_id: 2
x: 0.029296875
y: -0.119140625
z: -0.005859375
range: 0.130730912089
velocity: 0.0
doppler_bin: 8
bearing: -76.1849746704
intensity: 30.157787323
---
header: 
  seq: 778369
  stamp: 
    secs: 1561864742
    nsecs:   7990953
  frame_id: "ti_mmwave"
point_id: 3
x: 0.056640625
y: -0.154296875
z: 0.005859375
range: 0.174307882786
velocity: 0.0
doppler_bin: 8
bearing: -69.8423843384
intensity: 25.4406795502
---
header: 
  seq: 778370
  stamp: 
    secs: 1561864742
    nsecs:   7999382
  frame_id: "ti_mmwave"
point_id: 4
x: 0.154296875
y: -0.080078125
z: 1.255859375
range: 1.35088610649
velocity: 0.0
doppler_bin: 8
bearing: -27.4287414551
intensity: 23.0535144806
---
header: 
  seq: 778371
  stamp: 
    secs: 1561864742
    nsecs:   8011522
  frame_id: "ti_mmwave"
point_id: 6
x: 0.470703125
y: -0.083984375
z: -1.26171875
range: 1.43804001808
velocity: 0.0
doppler_bin: 8
bearing: -10.116443634
intensity: 23.1806335449
---
header: 
  seq: 778372
  stamp: 
    secs: 1561864742
    nsecs:   8023965
  frame_id: "ti_mmwave"
point_id: 7
x: 0.734375
y: -0.04296875
z: -1.181640625
range: 1.48161697388
velocity: 0.0
doppler_bin: 8
bearing: -3.34859490395
intensity: 22.2530937195
---
header: 
  seq: 778373
  stamp: 
    secs: 1561864742
    nsecs:   8036822
  frame_id: "ti_mmwave"
point_id: 8
x: 1.470703125
y: 0.283203125
z: -0.21875
range: 1.61234796047
velocity: 0.0
doppler_bin: 8
bearing: 10.8996372223
intensity: 28.6628742218
---
header: 
  seq: 778374
  stamp: 
    secs: 1561864742
    nsecs:   8052008
  frame_id: "ti_mmwave"
point_id: 9
x: 1.529296875
y: 0.2421875
z: -0.146484375
range: 1.65592491627
velocity: 0.0
doppler_bin: 8
bearing: 8.99892807007
intensity: 31.6136798859
---
header: 
  seq: 778375
  stamp: 
    secs: 1561864742
    nsecs:   8214129
  frame_id: "ti_mmwave"
point_id: 10
x: 1.57421875
y: 0.25
z: -0.064453125
range: 1.69950187206
velocity: 0.0
doppler_bin: 8
bearing: 9.02372455597
intensity: 31.2904510498
---
header: 
  seq: 778376
  stamp: 
    secs: 1561864742
    nsecs:   8235258
  frame_id: "ti_mmwave"
point_id: 11
x: 1.611328125
y: 0.255859375
z: 0.1171875
range: 1.74307882786
velocity: 0.0
doppler_bin: 8
bearing: 9.02254867554
intensity: 27.7597427368
---
header: 
  seq: 778377
  stamp: 
    secs: 1561864742
    nsecs:   8243778
  frame_id: "ti_mmwave"
point_id: 12
x: 2.60546875
y: -0.17578125
z: 1.072265625
range: 3.00681090355
velocity: 0.0
doppler_bin: 8
bearing: -3.85968351364
intensity: 29.0687351227
---
header: 
  seq: 778378
  stamp: 
    secs: 1561864742
    nsecs:   8252111
  frame_id: "ti_mmwave"
point_id: 13
x: 2.685546875
y: -0.08984375
z: 0.9921875
range: 3.05038785934
velocity: 0.0
doppler_bin: 8
bearing: -1.91608965397
intensity: 32.1958465576
---
header: 
  seq: 778379
  stamp: 
    secs: 1561864742
    nsecs:   8260750
  frame_id: "ti_mmwave"
point_id: 14
x: 2.748046875
y: -0.08984375
z: 0.93359375
range: 3.09396481514
velocity: 0.0
doppler_bin: 8
bearing: -1.8725425005
intensity: 31.205739975
---
header: 
  seq: 778380
  stamp: 
    secs: 1561864742
    nsecs:   8271291
  frame_id: "ti_mmwave"
point_id: 15
x: 4.412109375
y: -0.142578125
z: 1.224609375
range: 4.88062095642
velocity: 0.0
doppler_bin: 8
bearing: -1.85087943077
intensity: 31.3001194
---
header: 
  seq: 778381
  stamp: 
    secs: 1561864742
    nsecs:   8281044
  frame_id: "ti_mmwave"
point_id: 16
x: 4.427734375
y: -0.14453125
z: 1.322265625
range: 4.9241976738
velocity: 0.0
doppler_bin: 8
bearing: -1.86959993839
intensity: 30.7518177032
---
header: 
  seq: 778382
  stamp: 
    secs: 1561864742
    nsecs:   8305233
  frame_id: "ti_mmwave"
point_id: 17
x: 4.7421875
y: -0.298828125
z: -0.58203125
range: 5.09850549698
velocity: 0.0
doppler_bin: 8
bearing: -3.60571622849
intensity: 33.6248245239
---
header: 
  seq: 778383
  stamp: 
    secs: 1561864742
    nsecs:   8313252
  frame_id: "ti_mmwave"
point_id: 18
x: 4.775390625
y: -0.30078125
z: -0.638671875
range: 5.14208269119
velocity: 0.0
doppler_bin: 8
