header: 
  seq: 765694
  stamp: 
    secs: 1561864719
    nsecs: 927975165
  frame_id: "ti_mmwave"
point_id: 0
x: 0.01171875
y: -0.0390625
z: -0.0078125
range: 0.0435769706964
velocity: 0.0
doppler_bin: 8
bearing: -73.3007583618
intensity: 30.6632595062
---
header: 
  seq: 765695
  stamp: 
    secs: 1561864719
    nsecs: 928058153
  frame_id: "ti_mmwave"
point_id: 1
x: 0.017578125
y: -0.080078125
z: -0.0078125
range: 0.0871539413929
velocity: 0.0
doppler_bin: 8
bearing: -77.6192398071
intensity: 31.9117145538
---
header: 
  seq: 765696
  stamp: 
    secs: 1561864719
    nsecs: 928072056
  frame_id: "ti_mmwave"
point_id: 2
x: 0.029296875
y: -0.119140625
z: -0.005859375
range: 0.130730912089
velocity: 0.0
doppler_bin: 8
bearing: -76.1849746704
intensity: 30.1619739532
---
header: 
  seq: 765697
  stamp: 
    secs: 1561864719
    nsecs: 928084356
  frame_id: "ti_mmwave"
point_id: 3
x: 0.056640625
y: -0.154296875
z: 0.005859375
range: 0.174307882786
velocity: 0.0
doppler_bin: 8
bearing: -69.8423843384
intensity: 25.4654273987
---
header: 
  seq: 765698
  stamp: 
    secs: 1561864719
    nsecs: 928092603
  frame_id: "ti_mmwave"
point_id: 4
x: 1.177734375
y: -0.0390625
z: -0.345703125
range: 1.3073091507
velocity: 0.0
doppler_bin: 8
bearing: -1.89966106415
intensity: 24.0823993683
---
header: 
  seq: 765699
  stamp: 
    secs: 1561864719
    nsecs: 928100747
  frame_id: "ti_mmwave"
point_id: 5
x: 1.234375
y: -0.0
z: -0.2890625
range: 1.35088610649
velocity: 0.0
doppler_bin: 8
bearing: -0.0
intensity: 29.9387683868
---
header: 
  seq: 765700
  stamp: 
    secs: 1561864719
    nsecs: 928108559
  frame_id: "ti_mmwave"
point_id: 6
x: 1.283203125
y: -0.0
z: -0.255859375
range: 1.39446306229
velocity: 0.0
doppler_bin: 8
bearing: -0.0
intensity: 31.2807598114
---
header: 
  seq: 765701
  stamp: 
    secs: 1561864719
    nsecs: 928116750
  frame_id: "ti_mmwave"
point_id: 7
x: 1.333984375
y: -0.0
z: -0.208984375
range: 1.43804001808
velocity: 0.0
doppler_bin: 8
bearing: -0.0
intensity: 28.6864452362
---
header: 
  seq: 765702
  stamp: 
    secs: 1561864719
    nsecs: 928124535
  frame_id: "ti_mmwave"
point_id: 8
x: 1.29296875
y: -0.216796875
z: 0.462890625
range: 1.48161697388
velocity: 0.0
doppler_bin: 8
bearing: -9.51845359802
intensity: 23.5218257904
---
header: 
  seq: 765703
  stamp: 
    secs: 1561864719
    nsecs: 928132414
  frame_id: "ti_mmwave"
point_id: 9
x: 1.380859375
y: 0.044921875
z: 0.376953125
range: 1.52519392967
velocity: 0.0
doppler_bin: 8
bearing: 1.86327898502
intensity: 22.6007137299
---
header: 
  seq: 765704
  stamp: 
    secs: 1561864719
    nsecs: 928141601
  frame_id: "ti_mmwave"
point_id: 10
x: 2.623046875
y: -0.17578125
z: 1.025390625
range: 3.00681090355
velocity: 0.0
doppler_bin: 8
bearing: -3.83389568329
intensity: 29.1009063721
---
header: 
  seq: 765705
  stamp: 
    secs: 1561864719
    nsecs: 928150235
  frame_id: "ti_mmwave"
point_id: 11
x: 2.69140625
y: -0.08984375
z: 0.974609375
range: 3.05038785934
velocity: 0.0
doppler_bin: 8
bearing: -1.91192126274
intensity: 32.2245635986
---
header: 
  seq: 765706
  stamp: 
    secs: 1561864719
    nsecs: 928158095
  frame_id: "ti_mmwave"
point_id: 12
x: 2.75
y: -0.08984375
z: 0.931640625
range: 3.09396481514
velocity: 0.0
doppler_bin: 8
bearing: -1.87121355534
intensity: 31.1461105347
---
header: 
  seq: 765707
  stamp: 
    secs: 1561864719
    nsecs: 928166330
  frame_id: "ti_mmwave"
point_id: 13
x: 0.009765625
y: 0.03125
z: 0.025390625
range: 0.0435769706964
velocity: 0.0
doppler_bin: 8
bearing: 72.6459732056
intensity: 29.3247375488
---
header: 
  seq: 765708
  stamp: 
    secs: 1561864719
    nsecs: 928174719
  frame_id: "ti_mmwave"
point_id: 14
x: 0.041015625
y: -0.033203125
z: 0.0625
range: 0.0871539413929
velocity: 0.0
doppler_bin: 8
bearing: -38.9909973145
intensity: 30.0945091248
---
header: 
  seq: 765709
  stamp: 
    secs: 1561864719
    nsecs: 928182926
  frame_id: "ti_mmwave"
point_id: 15
x: 0.044921875
y: -0.046875
z: 0.103515625
range: 0.130730912089
velocity: 0.0
doppler_bin: 8
bearing: -46.218875885
intensity: 28.9707698822
---
header: 
  seq: 765710
  stamp: 
    secs: 1561864719
    nsecs: 928192455
  frame_id: "ti_mmwave"
point_id: 17
x: 0.55078125
y: 0.65234375
z: 1.09765625
range: 1.48161697388
velocity: 0.0
doppler_bin: 8
bearing: 49.8252182007
intensity: 20.6069774628
---
header: 
  seq: 765711
  stamp: 
    secs: 1561864719
    nsecs: 987897082
  frame_id: "ti_mmwave"
point_id: 0
x: 0.01171875
y: -0.0390625
z: -0.0078125
range: 0.0435769706964
velocity: 0.0
doppler_bin: 8
bearing: -73.3007583618
intensity: 30.6744289398
---
header: 
  seq: 765712
  stamp: 
    secs: 1561864719
    nsecs: 988015595
  frame_id: "ti_mmwave"
point_id: 1
x: 0.017578125
y: -0.080078125
z: -0.0078125
range: 0.0871539413929
velocity: 0.0
doppler_bin: 8
bearing: -77.6192398071
intensity: 31.9173030853
---
header: 
  seq: 765713
  stamp: 
    secs: 1561864719
    nsecs: 988039288
  frame_id: "ti_mmwave"
point_id: 2
x: 0.029296875
y: -0.119140625
z: -0.005859375
range: 0.130730912089
velocity: 0.0
doppler_bin: 8
bearing: -76.1849746704
intensity: 30.1661548615
---
header: 
  seq: 765714
  stamp: 
    secs: 1561864719
    nsecs: 988055629
  frame_id: "ti_mmwave"
point_id: 3
x: 0.056640625
y: -0.154296875
z: 0.005859375
range: 0.174307882786
velocity: 0.0
doppler_bin: 8
bearing: -69.8423843384
intensity: 25.4406795502
---
header: 
  seq: 765715
  stamp: 
    secs: 1561864719
    nsecs: 988066782
  frame_id: "ti_mmwave"
point_id: 4
x: 1.2265625
y: -0.0390625
z: -0.009765625
range: 1.3073091507
velocity: 0.0
doppler_bin: 8
bearing: -1.82409000397
intensity: 28.0413951874
---
header: 
  seq: 765716
  stamp: 
    secs: 1561864719
    nsecs: 988220641
  frame_id: "ti_mmwave"
point_id: 5
x: 1.267578125
y: -0.0390625
z: -0.02734375
range: 1.35088610649
velocity: 0.0
doppler_bin: 8
bearing: -1.76510488987
intensity: 34.1396980286
---
header: 
  seq: 765717
  stamp: 
    secs: 1561864719
    nsecs: 988269979
  frame_id: "ti_mmwave"
point_id: 6
x: 1.306640625
y: -0.08203125
z: -0.04296875
range: 1.39446306229
velocity: 0.0
doppler_bin: 8
bearing: -3.59232997894
intensity: 35.7978363037
---
header: 
  seq: 765718
  stamp: 
    secs: 1561864719
    nsecs: 988279587
  frame_id: "ti_mmwave"
point_id: 7
x: 1.345703125
y: -0.083984375
z: -0.044921875
range: 1.43804001808
velocity: 0.0
doppler_bin: 8
bearing: -3.57115721703
intensity: 33.6847267151
---
header: 
  seq: 765719
  stamp: 
    secs: 1561864719
    nsecs: 988306724
  frame_id: "ti_mmwave"
point_id: 8
x: 1.390625
y: -0.04296875
z: 0.037109375
range: 1.48161697388
velocity: 0.0
doppler_bin: 8
bearing: -1.76981210709
intensity: 26.981004715
---
header: 
  seq: 765720
  stamp: 
    secs: 1561864719
    nsecs: 988321479
  frame_id: "ti_mmwave"
point_id: 9
x: 2.6171875
y: -0.17578125
z: 1.04296875
range: 3.00681090355
velocity: 0.0
doppler_bin: 8
bearing: -3.84245300293
intensity: 29.0091304779
---
header: 
  seq: 765721
  stamp: 
    secs: 1561864719
    nsecs: 988335525
  frame_id: "ti_mmwave"
point_id: 10
x: 2.689453125
y: -0.08984375
z: 0.978515625
range: 3.05038785934
velocity: 0.0
doppler_bin: 8
bearing: -1.91330885887
intensity: 32.2193565369
---
header: 
  seq: 765722
  stamp: 
    secs: 1561864719
    nsecs: 988396617
  frame_id: "ti_mmwave"
point_id: 11
x: 2.748046875
y: -0.08984375
z: 0.93359375
range: 3.09396481514
velocity: 0.0
doppler_bin: 8
bearing: -1.8725425005
intensity: 31.2319812775
---
header: 
  seq: 765723
  stamp: 
    secs: 1561864719
    nsecs: 988406495
  frame_id: "ti_mmwave"
point_id: 12
x: 0.009765625
y: 0.03125
z: 0.025390625
range: 0.0435769706964
velocity: 0.0
doppler_bin: 8
bearing: 72.6459732056
intensity: 29.3348731995
---
header: 
  seq: 765724
  stamp: 
    secs: 1561864719
    nsecs: 988416725
  frame_id: "ti_mmwave"
point_id: 13
x: 0.041015625
y: -0.033203125
z: 0.0625
range: 0.0871539413929
velocity: 0.0
doppler_bin: 8
bearing: -38.9909973145
intensity: 30.0945091248
---
header: 
  seq: 765725
  stamp: 
    secs: 1561864719
    nsecs: 988425112
  frame_id: "ti_mmwave"
point_id: 14
x: 0.052734375
y: -0.04296875
z: 0.1015625
range: 0.130730912089
velocity: 0.0
doppler_bin: 8
bearing: -39.1736602783
intensity: 28.9707698822
---
header: 
  seq: 765726
  stamp: 
    secs: 1561864719
    nsecs: 989275504
  frame_id: "ti_mmwave"
point_id: 0
x: 0.01171875
y: -0.0390625
z: -0.0078125
range: 0.0435769706964
velocity: 0.0
doppler_bin: 8
bearing: -73.3007583618
intensity: 30.6707077026
---
header: 
  seq: 765727
  stamp: 
    secs: 1561864719
    nsecs: 989342273
  frame_id: "ti_mmwave"
point_id: 1
x: 0.017578125
y: -0.080078125
z: -0.0078125
range: 0.0871539413929
velocity: 0.0
doppler_bin: 8
bearing: -77.6192398071
intensity: 31.9145107269
---
header: 
  seq: 765728
  stamp: 
    secs: 1561864719
    nsecs: 989352593
  frame_id: "ti_mmwave"
point_id: 2
x: 0.029296875
y: -0.119140625
z: -0.005859375
range: 0.130730912089
velocity: 0.0
doppler_bin: 8
bearing: -76.1849746704
intensity: 30.1661548615
---
header: 
  seq: 765729
  stamp: 
    secs: 1561864719
    nsecs: 989362166
  frame_id: "ti_mmwave"
point_id: 3
x: 0.056640625
y: -0.154296875
z: 0.005859375
range: 0.174307882786
velocity: 0.0
doppler_bin: 8
bearing: -69.8423843384
intensity: 25.4530715942
---
header: 
  seq: 765730
  stamp: 
    secs: 1561864719
    nsecs: 989372108
  frame_id: "ti_mmwave"
point_id: 4
x: 0.947265625
y: 0.111328125
z: -0.70703125
range: 1.2637321949
velocity: 0.0
doppler_bin: 8
bearing: 6.70298242569
intensity: 20.7554702759
---
header: 
  seq: 765731
  stamp: 
    secs: 1561864719
    nsecs: 989380464
  frame_id: "ti_mmwave"
point_id: 5
x: 1.10546875
y: -0.267578125
z: 0.4609375
range: 1.3073091507
velocity: 0.0
doppler_bin: 8
bearing: -13.6067113876
intensity: 25.965970993
---
header: 
  seq: 765732
  stamp: 
    secs: 1561864719
    nsecs: 989397188
  frame_id: "ti_mmwave"
point_id: 6
x: 1.236328125
y: -0.27734375
z: 0.0625
range: 1.35088610649
velocity: 0.0
doppler_bin: 8
bearing: -12.6437625885
intensity: 29.9033889771
---
header: 
  seq: 765733
  stamp: 
    secs: 1561864719
    nsecs: 989407216
  frame_id: "ti_mmwave"
point_id: 7
x: 1.27734375
y: -0.287109375
z: 0.044921875
range: 1.39446306229
velocity: 0.0
doppler_bin: 8
bearing: -12.6678743362
intensity: 30.5956344604
---
header: 
  seq: 765734
  stamp: 
    secs: 1561864719
    nsecs: 989559766
  frame_id: "ti_mmwave"
point_id: 8
x: 1.333984375
y: -0.16796875
z: 0.111328125
range: 1.43804001808
velocity: 0.0
doppler_bin: 8
bearing: -7.17663431168
intensity: 28.6923179626
---
header: 
  seq: 765735
  stamp: 
    secs: 1561864719
    nsecs: 989599802
  frame_id: "ti_mmwave"
point_id: 9
x: 1.388671875
y: -0.04296875
z: 0.0390625
range: 1.48161697388
velocity: 0.0
doppler_bin: 8
bearing: -1.77229964733
intensity: 26.9284687042
---
header: 
  seq: 765736
  stamp: 
    secs: 1561864719
    nsecs: 989620287
  frame_id: "ti_mmwave"
point_id: 10
x: 1.427734375
y: -0.044921875
z: -0.099609375
range: 1.52519392967
velocity: 0.0
doppler_bin: 8
bearing: -1.80214560032
intensity: 25.6466598511
---
header: 
  seq: 765737
  stamp: 
    secs: 1561864719
    nsecs: 989673808
  frame_id: "ti_mmwave"
point_id: 11
x: 2.62109375
y: -0.17578125
z: 1.033203125
range: 3.00681090355
velocity: 0.0
doppler_bin: 8
bearing: -3.83674383163
intensity: 29.1169013977
---
header: 
  seq: 765738
  stamp: 
    secs: 1561864719
    nsecs: 989687374
  frame_id: "ti_mmwave"
point_id: 12
x: 2.69140625
y: -0.08984375
z: 0.970703125
range: 3.05038785934
velocity: 0.0
doppler_bin: 8
bearing: -1.91192126274
intensity: 32.1138763428
---
header: 
  seq: 765739
  stamp: 
    secs: 1561864719
    nsecs: 989699815
  frame_id: "ti_mmwave"
point_id: 13
x: 2.759765625
y: -0.08984375
z: 0.90234375
range: 3.09396481514
velocity: 0.0
doppler_bin: 8
bearing: -1.86459684372
intensity: 31.0482845306
---
header: 
  seq: 765740
  stamp: 
    secs: 1561864719
    nsecs: 989967271
  frame_id: "ti_mmwave"
point_id: 14
x: 0.009765625
y: 0.03125
z: 0.025390625
range: 0.0435769706964
velocity: 0.0
doppler_bin: 8
bearing: 72.6459732056
intensity: 29.3298072815
---
header: 
  seq: 765741
  stamp: 
    secs: 1561864719
    nsecs: 989989145
  frame_id: "ti_mmwave"
point_id: 15
x: 0.041015625
y: -0.033203125
z: 0.0625
range: 0.0871539413929
velocity: 0.0
doppler_bin: 8
bearing: -38.9909973145
intensity: 30.0945091248
---
header: 
  seq: 765742
  stamp: 
    secs: 1561864719
    nsecs: 990002866
  frame_id: "ti_mmwave"
point_id: 16
x: 0.044921875
y: -0.046875
z: 0.103515625
range: 0.130730912089
velocity: 0.0
doppler_bin: 8
bearing: -46.218875885
intensity: 28.9762706757
---
header: 
  seq: 765743
  stamp: 
    secs: 1561864719
    nsecs: 990017776
  frame_id: "ti_mmwave"
point_id: 18
x: 1.0859375
y: -0.296875
z: 0.375
range: 1.2637321949
velocity: 0.0
doppler_bin: 8
bearing: -15.2899913788
intensity: 20.0
---
header: 
  seq: 765744
  stamp: 
    secs: 1561864719
    nsecs: 990033203
  frame_id: "ti_mmwave"
point_id: 19
x: 1.169921875
y: 0.154296875
z: -0.33984375
range: 1.3073091507
velocity: 0.0
doppler_bin: 8
bearing: 7.51317739487
intensity: 25.7518787384
---
header: 
  seq: 765745
  stamp: 
    secs: 1561864719
    nsecs: 990047420
  frame_id: "ti_mmwave"
point_id: 20
x: 1.23828125
y: 0.158203125
z: -0.224609375
range: 1.35088610649
velocity: 0.0
doppler_bin: 8
bearing: 7.2806801796
intensity: 28.7390155792
---
header: 
  seq: 765746
  stamp: 
    secs: 1561864719
    nsecs: 990055482
  frame_id: "ti_mmwave"
point_id: 21
x: 1.244140625
y: 0.1640625
z: -0.369140625
range: 1.39446306229
velocity: 0.0
doppler_bin: 8
bearing: 7.51214408875
intensity: 29.0525608063
---
header: 
  seq: 765747
  stamp: 
    secs: 1561864720
    nsecs:  47893408
  frame_id: "ti_mmwave"
point_id: 0
x: 0.01171875
y: -0.0390625
z: -0.0078125
range: 0.0435769706964
velocity: 0.0
doppler_bin: 8
bearing: -73.3007583618
intensity: 30.6632595062
---
header: 
  seq: 765748
  stamp: 
    secs: 1561864720
    nsecs:  47940643
  frame_id: "ti_mmwave"
point_id: 1
x: 0.017578125
y: -0.080078125
z: -0.0078125
range: 0.0871539413929
velocity: 0.0
doppler_bin: 8
bearing: -77.6192398071
intensity: 31.9117145538
---
header: 
  seq: 765749
  stamp: 
    secs: 1561864720
    nsecs:  47973863
  frame_id: "ti_mmwave"
point_id: 2
x: 0.029296875
y: -0.119140625
z: -0.005859375
range: 0.130730912089
velocity: 0.0
doppler_bin: 8
bearing: -76.1849746704
intensity: 30.1619739532
---
header: 
  seq: 765750
  stamp: 
    secs: 1561864720
    nsecs:  47981805
  frame_id: "ti_mmwave"
point_id: 3
x: 0.056640625
y: -0.154296875
z: 0.005859375
range: 0.174307882786
velocity: 0.0
doppler_bin: 8
bearing: -69.8423843384
intensity: 25.4406795502
---
header: 
  seq: 765751
  stamp: 
    secs: 1561864720
    nsecs:  47987350
  frame_id: "ti_mmwave"
point_id: 4
x: 1.15234375
y: 0.07421875
z: -0.271484375
range: 1.2637321949
velocity: 0.0
doppler_bin: 8
bearing: 3.68514657021
intensity: 20.8635978699
---
header: 
  seq: 765752
  stamp: 
    secs: 1561864720
    nsecs:  47992796
  frame_id: "ti_mmwave"
point_id: 5
x: 1.224609375
y: -0.0390625
z: -0.05078125
range: 1.3073091507
velocity: 0.0
doppler_bin: 8
bearing: -1.8269970417
intensity: 28.8195495605
---
header: 
  seq: 765753
  stamp: 
    secs: 1561864720
    nsecs:  47998780
  frame_id: "ti_mmwave"
point_id: 6
x: 1.259765625
y: -0.0390625
z: -0.1328125
range: 1.35088610649
velocity: 0.0
doppler_bin: 8
bearing: -1.77604424953
intensity: 33.9898109436
---
header: 
  seq: 765754
  stamp: 
    secs: 1561864720
    nsecs:  48004283
  frame_id: "ti_mmwave"
point_id: 7
x: 1.291015625
y: -0.041015625
z: -0.2109375
range: 1.39446306229
velocity: 0.0
doppler_bin: 8
bearing: -1.81967747211
intensity: 34.871383667
---
header: 
  seq: 765755
  stamp: 
    secs: 1561864720
    nsecs:  48009816
  frame_id: "ti_mmwave"
point_id: 8
x: 1.314453125
y: -0.04296875
z: -0.302734375
range: 1.43804001808
velocity: 0.0
doppler_bin: 8
bearing: -1.87230062485
intensity: 31.7405986786
---
header: 
  seq: 765756
  stamp: 
    secs: 1561864720
    nsecs:  48015148
  frame_id: "ti_mmwave"
point_id: 9
x: 1.376953125
y: -0.0
z: -0.201171875
range: 1.48161697388
velocity: 0.0
doppler_bin: 8
bearing: -0.0
intensity: 24.4870624542
---
header: 
  seq: 765757
  stamp: 
    secs: 1561864720
    nsecs:  48021265
  frame_id: "ti_mmwave"
point_id: 10
x: 2.609375
y: -0.17578125
z: 1.0625
range: 3.00681090355
velocity: 0.0
doppler_bin: 8
bearing: -3.85392260551
intensity: 28.9817657471
---
header: 
  seq: 765758
  stamp: 
    secs: 1561864720
    nsecs:  48026588
  frame_id: "ti_mmwave"
point_id: 11
x: 2.689453125
y: -0.08984375
z: 0.9765625
range: 3.05038785934
velocity: 0.0
doppler_bin: 8
bearing: -1.91330885887
intensity: 32.0574569702
---
header: 
  seq: 765759
  stamp: 
    secs: 1561864720
    nsecs:  48040189
  frame_id: "ti_mmwave"
point_id: 12
x: 2.755859375
y: -0.08984375
z: 0.91015625
range: 3.09396481514
velocity: 0.0
doppler_bin: 8
bearing: -1.86723792553
intensity: 30.9201850891
---
header: 
  seq: 765760
  stamp: 
    secs: 1561864720
    nsecs:  48045493
  frame_id: "ti_mmwave"
point_id: 13
x: 0.009765625
y: 0.03125
z: 0.025390625
range: 0.0435769706964
velocity: 0.0
doppler_bin: 8
bearing: 72.6459732056
intensity: 29.3298072815
---
header: 
  seq: 765761
  stamp: 
    secs: 1561864720
    nsecs:  48156150
  frame_id: "ti_mmwave"
point_id: 14
x: 0.041015625
y: -0.033203125
z: 0.0625
range: 0.0871539413929
velocity: 0.0
doppler_bin: 8
bearing: -38.9909973145
intensity: 30.0987567902
---
header: 
  seq: 765762
  stamp: 
    secs: 1561864720
    nsecs:  48168574
  frame_id: "ti_mmwave"
point_id: 15
x: 0.044921875
y: -0.046875
z: 0.103515625
range: 0.130730912089
velocity: 0.0
doppler_bin: 8
bearing: -46.218875885
intensity: 28.9762706757
---
header: 
  seq: 765763
  stamp: 
    secs: 1561864720
    nsecs:  48696538
  frame_id: "ti_mmwave"
point_id: 0
x: 0.01171875
y: -0.0390625
z: -0.0078125
range: 0.0435769706964
velocity: 0.0
doppler_bin: 8
bearing: -73.3007583618
intensity: 30.6707077026
---
header: 
  seq: 765764
  stamp: 
    secs: 1561864720
    nsecs:  48745738
  frame_id: "ti_mmwave"
point_id: 1
x: 0.017578125
y: -0.080078125
z: -0.0078125
range: 0.0871539413929
velocity: 0.0
doppler_bin: 8
bearing: -77.6192398071
intensity: 31.9145107269
---
header: 
  seq: 765765
  stamp: 
    secs: 1561864720
    nsecs:  48757572
  frame_id: "ti_mmwave"
point_id: 2
x: 0.029296875
y: -0.119140625
z: -0.005859375
range: 0.130730912089
velocity: 0.0
doppler_bin: 8
bearing: -76.1849746704
intensity: 30.1661548615
---
header: 
  seq: 765766
  stamp: 
    secs: 1561864720
    nsecs:  48763375
  frame_id: "ti_mmwave"
point_id: 3
x: 0.056640625
y: -0.154296875
z: 0.005859375
range: 0.174307882786
velocity: 0.0
doppler_bin: 8
bearing: -69.8423843384
intensity: 25.4654273987
---
header: 
  seq: 765767
  stamp: 
    secs: 1561864720
    nsecs:  48769421
  frame_id: "ti_mmwave"
point_id: 4
x: 1.15234375
y: -0.154296875
z: 0.392578125
range: 1.3073091507
velocity: 0.0
doppler_bin: 8
bearing: -7.62644577026
intensity: 24.2813472748
---
header: 
  seq: 765768
  stamp: 
    secs: 1561864720
    nsecs:  48783167
  frame_id: "ti_mmwave"
point_id: 5
x: 1.181640625
y: -0.197265625
z: 0.4140625
range: 1.35088610649
velocity: 0.0
doppler_bin: 8
bearing: -9.47767925262
intensity: 28.2151355743
---
header: 
  seq: 765769
  stamp: 
    secs: 1561864720
    nsecs:  48797106
  frame_id: "ti_mmwave"
point_id: 6
x: 1.275390625
y: -0.123046875
z: 0.26953125
range: 1.39446306229
velocity: 0.0
doppler_bin: 8
bearing: -5.51071500778
intensity: 29.6331558228
---
header: 
  seq: 765770
  stamp: 
    secs: 1561864720
    nsecs:  48914968
  frame_id: "ti_mmwave"
point_id: 7
x: 1.33203125
y: -0.126953125
z: 0.173828125
range: 1.43804001808
velocity: 0.0
doppler_bin: 8
bearing: -5.44429636002
intensity: 29.4694328308
---
header: 
  seq: 765771
  stamp: 
    secs: 1561864720
    nsecs:  48928329
  frame_id: "ti_mmwave"
point_id: 8
x: 1.3828125
y: -0.130859375
z: 0.068359375
range: 1.48161697388
velocity: 0.0
doppler_bin: 8
bearing: -5.40595912933
intensity: 25.8658733368
---
header: 
  seq: 765772
  stamp: 
    secs: 1561864720
    nsecs:  48933887
  frame_id: "ti_mmwave"
point_id: 9
x: 2.607421875
y: -0.17578125
z: 1.064453125
range: 3.00681090355
velocity: 0.0
doppler_bin: 8
bearing: -3.8568007946
intensity: 28.9209461212
---
header: 
  seq: 765773
  stamp: 
    secs: 1561864720
    nsecs:  48940010
  frame_id: "ti_mmwave"
point_id: 10
x: 2.6875
y: -0.08984375
z: 0.984375
range: 3.05038785934
velocity: 0.0
doppler_bin: 8
bearing: -1.91469812393
intensity: 32.1031837463
---
header: 
  seq: 765774
  stamp: 
    secs: 1561864720
    nsecs:  48945430
  frame_id: "ti_mmwave"
point_id: 11
x: 2.755859375
y: -0.08984375
z: 0.912109375
range: 3.09396481514
velocity: 0.0
doppler_bin: 8
bearing: -1.86723792553
intensity: 31.209028244
---
header: 
  seq: 765775
  stamp: 
    secs: 1561864720
    nsecs:  48950673
  frame_id: "ti_mmwave"
point_id: 12
x: 0.009765625
y: 0.03125
z: 0.025390625
range: 0.0435769706964
velocity: 0.0
doppler_bin: 8
bearing: 72.6459732056
intensity: 29.3247375488
---
header: 
  seq: 765776
  stamp: 
    secs: 1561864720
    nsecs:  48956210
  frame_id: "ti_mmwave"
point_id: 13
x: 0.041015625
y: -0.033203125
z: 0.0625
range: 0.0871539413929
velocity: 0.0
doppler_bin: 8
bearing: -38.9909973145
intensity: 30.0987567902
---
header: 
  seq: 765777
  stamp: 
    secs: 1561864720
    nsecs:  48972007
  frame_id: "ti_mmwave"
point_id: 14
x: 0.052734375
y: -0.04296875
z: 0.1015625
range: 0.130730912089
velocity: 0.0
doppler_bin: 8
bearing: -39.1736602783
intensity: 28.9707698822
---
header: 
  seq: 765778
  stamp: 
    secs: 1561864720
    nsecs: 107870181
  frame_id: "ti_mmwave"
point_id: 0
x: 0.01171875
y: -0.0390625
z: -0.0078125
range: 0.0435769706964
velocity: 0.0
doppler_bin: 8
bearing: -73.3007583618
intensity: 30.6744289398
---
header: 
  seq: 765779
  stamp: 
    secs: 1561864720
    nsecs: 107995416
  frame_id: "ti_mmwave"
point_id: 1
x: 0.017578125
y: -0.080078125
z: -0.0078125
range: 0.0871539413929
velocity: 0.0
doppler_bin: 8
bearing: -77.6192398071
intensity: 31.9173030853
---
header: 
  seq: 765780
  stamp: 
    secs: 1561864720
    nsecs: 108016355
  frame_id: "ti_mmwave"
point_id: 2
x: 0.029296875
y: -0.119140625
z: -0.005859375
range: 0.130730912089
velocity: 0.0
doppler_bin: 8
bearing: -76.1849746704
intensity: 30.1661548615
---
header: 
  seq: 765781
  stamp: 
    secs: 1561864720
    nsecs: 108043496
  frame_id: "ti_mmwave"
point_id: 3
x: 0.056640625
y: -0.154296875
z: 0.005859375
range: 0.174307882786
velocity: 0.0
doppler_bin: 8
bearing: -69.8423843384
intensity: 25.4530715942
---
header: 
  seq: 765782
  stamp: 
    secs: 1561864720
    nsecs: 108064701
  frame_id: "ti_mmwave"
point_id: 4
x: 1.08984375
y: -0.111328125
z: -0.455078125
range: 1.2637321949
velocity: 0.0
doppler_bin: 8
bearing: -5.83256340027
intensity: 21.0380363464
---
header: 
  seq: 765783
  stamp: 
    secs: 1561864720
    nsecs: 108141897
  frame_id: "ti_mmwave"
point_id: 5
x: 1.203125
y: -0.076171875
z: -0.2265625
range: 1.3073091507
velocity: 0.0
doppler_bin: 8
bearing: -3.62265729904
intensity: 28.9320678711
---
header: 
  seq: 765784
  stamp: 
    secs: 1561864720
    nsecs: 108157010
  frame_id: "ti_mmwave"
point_id: 6
x: 1.248046875
y: -0.0390625
z: -0.224609375
range: 1.35088610649
velocity: 0.0
doppler_bin: 8
bearing: -1.79270994663
intensity: 32.992893219
---
header: 
  seq: 765785
  stamp: 
    secs: 1561864720
    nsecs: 108171748
  frame_id: "ti_mmwave"
point_id: 7
x: 1.287109375
y: -0.041015625
z: -0.234375
range: 1.39446306229
velocity: 0.0
doppler_bin: 8
bearing: -1.82519626617
intensity: 33.4242286682
---
header: 
  seq: 765786
  stamp: 
    secs: 1561864720
    nsecs: 108185003
  frame_id: "ti_mmwave"
point_id: 8
x: 1.33984375
y: -0.04296875
z: -0.1640625
range: 1.43804001808
velocity: 0.0
doppler_bin: 8
bearing: -1.83684444427
intensity: 30.9307136536
---
header: 
  seq: 765787
  stamp: 
    secs: 1561864720
    nsecs: 108198061
  frame_id: "ti_mmwave"
point_id: 9
x: 1.38671875
y: -0.087890625
z: 0.06640625
range: 1.48161697388
velocity: 0.0
doppler_bin: 8
bearing: -3.62657165527
intensity: 27.9657440186
---
header: 
  seq: 765788
  stamp: 
    secs: 1561864720
    nsecs: 108212147
  frame_id: "ti_mmwave"
point_id: 10
x: 1.400390625
y: -0.0
z: 0.296875
range: 1.52519392967
velocity: 0.0
doppler_bin: 8
bearing: -0.0
intensity: 25.2762985229
---
header: 
  seq: 765789
  stamp: 
    secs: 1561864720
    nsecs: 108221169
  frame_id: "ti_mmwave"
point_id: 11
x: 2.609375
y: -0.17578125
z: 1.064453125
range: 3.00681090355
velocity: 0.0
doppler_bin: 8
bearing: -3.85392260551
intensity: 28.9486961365
---
header: 
  seq: 765790
  stamp: 
    secs: 1561864720
    nsecs: 108276223
  frame_id: "ti_mmwave"
point_id: 12
x: 2.66015625
y: -0.1796875
z: 1.04296875
range: 3.05038785934
velocity: 0.0
doppler_bin: 8
bearing: -3.86432933807
intensity: 32.2349586487
---
header: 
  seq: 765791
  stamp: 
    secs: 1561864720
    nsecs: 108291283
  frame_id: "ti_mmwave"
point_id: 13
x: 2.755859375
y: -0.08984375
z: 0.91015625
range: 3.09396481514
velocity: 0.0
doppler_bin: 8
bearing: -1.86723792553
intensity: 31.4082221985
---
header: 
  seq: 765792
  stamp: 
    secs: 1561864720
    nsecs: 108304682
  frame_id: "ti_mmwave"
point_id: 14
x: 0.009765625
y: 0.03125
z: 0.025390625
range: 0.0435769706964
velocity: 0.0
doppler_bin: 8
bearing: 72.6459732056
intensity: 29.3298072815
---
header: 
  seq: 765793
  stamp: 
    secs: 1561864720
    nsecs: 108320290
  frame_id: "ti_mmwave"
point_id: 15
x: 0.041015625
y: -0.033203125
z: 0.0625
range: 0.0871539413929
velocity: 0.0
doppler_bin: 8
bearing: -38.9909973145
intensity: 30.0987567902
---
header: 
  seq: 765794
  stamp: 
    secs: 1561864720
    nsecs: 108345018
  frame_id: "ti_mmwave"
point_id: 16
x: 0.044921875
y: -0.046875
z: 0.103515625
range: 0.130730912089
velocity: 0.0
doppler_bin: 8
bearing: -46.218875885
intensity: 28.9762706757
---
header: 
  seq: 765795
  stamp: 
    secs: 1561864720
    nsecs: 109128824
  frame_id: "ti_mmwave"
point_id: 0
x: 0.01171875
y: -0.0390625
z: -0.0078125
range: 0.0435769706964
velocity: 0.0
doppler_bin: 8
bearing: -73.3007583618
intensity: 30.6744289398
---
header: 
  seq: 765796
  stamp: 
    secs: 1561864720
    nsecs: 109174693
  frame_id: "ti_mmwave"
point_id: 1
x: 0.017578125
y: -0.080078125
z: -0.0078125
range: 0.0871539413929
velocity: 0.0
doppler_bin: 8
bearing: -77.6192398071
intensity: 31.9145107269
---
header: 
  seq: 765797
  stamp: 
    secs: 1561864720
    nsecs: 109189631
  frame_id: "ti_mmwave"
point_id: 2
x: 0.029296875
y: -0.119140625
z: -0.005859375
range: 0.130730912089
velocity: 0.0
doppler_bin: 8
bearing: -76.1849746704
intensity: 30.1619739532
---
header: 
  seq: 765798
  stamp: 
    secs: 1561864720
    nsecs: 109238188
  frame_id: "ti_mmwave"
point_id: 3
x: 0.056640625
y: -0.154296875
z: 0.005859375
range: 0.174307882786
velocity: 0.0
doppler_bin: 8
bearing: -69.8423843384
intensity: 25.4406795502
---
header: 
  seq: 765799
  stamp: 
    secs: 1561864720
    nsecs: 109252485
  frame_id: "ti_mmwave"
point_id: 4
x: 1.1015625
y: -0.259765625
z: -0.357421875
range: 1.2637321949
velocity: 0.0
doppler_bin: 8
bearing: -13.2688274384
intensity: 21.3987903595
---
header: 
  seq: 765800
  stamp: 
    secs: 1561864720
    nsecs: 109266719
  frame_id: "ti_mmwave"
point_id: 5
x: 1.1953125
y: -0.115234375
z: -0.25
range: 1.3073091507
velocity: 0.0
doppler_bin: 8
bearing: -5.50659561157
intensity: 28.8874092102
---
header: 
  seq: 765801
  stamp: 
    secs: 1561864720
    nsecs: 109308373
  frame_id: "ti_mmwave"
point_id: 6
x: 1.234375
y: -0.080078125
z: -0.279296875
range: 1.35088610649
velocity: 0.0
doppler_bin: 8
bearing: -3.71177196503
intensity: 33.6097183228
---
header: 
  seq: 765802
  stamp: 
    secs: 1561864720
    nsecs: 109322552
  frame_id: "ti_mmwave"
point_id: 7
x: 1.2734375
y: -0.08203125
z: -0.294921875
range: 1.39446306229
velocity: 0.0
doppler_bin: 8
bearing: -3.68573999405
intensity: 34.6819953918
---
header: 
  seq: 765803
  stamp: 
    secs: 1561864720
    nsecs: 109361627
  frame_id: "ti_mmwave"
point_id: 8
x: 1.314453125
y: -0.04296875
z: -0.306640625
range: 1.43804001808
velocity: 0.0
doppler_bin: 8
bearing: -1.87230062485
intensity: 32.6292533875
---
header: 
  seq: 765804
  stamp: 
    secs: 1561864720
    nsecs: 109381978
  frame_id: "ti_mmwave"
point_id: 9
x: 1.373046875
y: -0.04296875
z: -0.21484375
range: 1.48161697388
velocity: 0.0
doppler_bin: 8
bearing: -1.79245507717
intensity: 28.2282161713
---
header: 
  seq: 765805
  stamp: 
    secs: 1561864720
    nsecs: 109419403
  frame_id: "ti_mmwave"
point_id: 10
x: 2.626953125
y: -0.17578125
z: 1.017578125
range: 3.00681090355
velocity: 0.0
doppler_bin: 8
bearing: -3.82821130753
intensity: 29.127532959
---
header: 
  seq: 765806
  stamp: 
    secs: 1561864720
    nsecs: 109433335
  frame_id: "ti_mmwave"
point_id: 11
x: 2.6953125
y: -0.08984375
z: 0.962890625
range: 3.05038785934
velocity: 0.0
doppler_bin: 8
bearing: -1.90915250778
intensity: 32.3172454834
---
header: 
  seq: 765807
  stamp: 
    secs: 1561864720
    nsecs: 109442313
  frame_id: "ti_mmwave"
point_id: 12
x: 2.755859375
y: -0.08984375
z: 0.912109375
range: 3.09396481514
velocity: 0.0
doppler_bin: 8
bearing: -1.86723792553
intensity: 31.3161869049
---
header: 
  seq: 765808
  stamp: 
    secs: 1561864720
    nsecs: 109487681
  frame_id: "ti_mmwave"
point_id: 13
x: 1.4296875
y: -0.044921875
z: 0.033203125
range: 1.52519392967
velocity: -0.614668667316
doppler_bin: 7
bearing: -1.79968500137
intensity: 24.393327713
---
header: 
  seq: 765809
  stamp: 
    secs: 1561864720
    nsecs: 109503823
  frame_id: "ti_mmwave"
point_id: 14
x: 0.01171875
y: 0.03125
z: 0.025390625
range: 0.0435769706964
velocity: 0.0
doppler_bin: 8
bearing: 69.4439544678
intensity: 29.3196620941
---
header: 
  seq: 765810
  stamp: 
    secs: 1561864720
    nsecs: 109515730
  frame_id: "ti_mmwave"
point_id: 15
x: 0.041015625
y: -0.033203125
z: 0.0625
range: 0.0871539413929
velocity: 0.0
doppler_bin: 8
bearing: -38.9909973145
intensity: 30.1029987335
---
header: 
  seq: 765811
  stamp: 
    secs: 1561864720
    nsecs: 109565003
  frame_id: "ti_mmwave"
point_id: 16
x: 0.044921875
y: -0.046875
z: 0.103515625
range: 0.130730912089
velocity: 0.0
doppler_bin: 8
bearing: -46.218875885
intensity: 28.9762706757
---
header: 
  seq: 765812
  stamp: 
    secs: 1561864720
    nsecs: 167981550
  frame_id: "ti_mmwave"
point_id: 0
x: 0.01171875
y: -0.0390625
z: -0.0078125
range: 0.0435769706964
velocity: 0.0
doppler_bin: 8
bearing: -73.3007583618
intensity: 30.6632595062
---
header: 
  seq: 765813
  stamp: 
    secs: 1561864720
    nsecs: 168071158
  frame_id: "ti_mmwave"
point_id: 1
x: 0.017578125
y: -0.080078125
z: -0.0078125
range: 0.0871539413929
velocity: 0.0
doppler_bin: 8
bearing: -77.6192398071
intensity: 31.9145107269
---
header: 
  seq: 765814
  stamp: 
    secs: 1561864720
    nsecs: 168089225
  frame_id: "ti_mmwave"
point_id: 2
x: 0.029296875
y: -0.119140625
z: -0.005859375
range: 0.130730912089
velocity: 0.0
doppler_bin: 8
bearing: -76.1849746704
intensity: 30.1661548615
---
header: 
  seq: 765815
  stamp: 
    secs: 1561864720
    nsecs: 168104256
  frame_id: "ti_mmwave"
point_id: 3
x: 0.056640625
y: -0.154296875
z: 0.005859375
range: 0.174307882786
velocity: 0.0
doppler_bin: 8
bearing: -69.8423843384
intensity: 25.4406795502
---
header: 
  seq: 765816
  stamp: 
    secs: 1561864720
    nsecs: 168121362
  frame_id: "ti_mmwave"
point_id: 4
x: 1.212890625
y: -0.154296875
z: -0.109375
range: 1.3073091507
velocity: 0.0
doppler_bin: 8
bearing: -7.2498922348
intensity: 25.9106464386
---
header: 
  seq: 765817
  stamp: 
    secs: 1561864720
    nsecs: 168148516
  frame_id: "ti_mmwave"
point_id: 5
x: 1.24609375
y: -0.080078125
z: -0.220703125
range: 1.35088610649
velocity: 0.0
doppler_bin: 8
bearing: -3.67696094513
intensity: 31.6849746704
---
header: 
  seq: 765818
  stamp: 
    secs: 1561864720
    nsecs: 168168580
  frame_id: "ti_mmwave"
point_id: 6
x: 1.275390625
y: -0.08203125
z: -0.283203125
range: 1.39446306229
velocity: 0.0
doppler_bin: 8
bearing: -3.6801109314
intensity: 33.0081291199
---
header: 
  seq: 765819
  stamp: 
    secs: 1561864720
    nsecs: 168193025
  frame_id: "ti_mmwave"
point_id: 7
x: 1.30078125
y: -0.083984375
z: -0.353515625
range: 1.43804001808
velocity: 0.0
doppler_bin: 8
bearing: -3.69414973259
intensity: 30.5728569031
---
header: 
  seq: 765820
  stamp: 
    secs: 1561864720
    nsecs: 168213803
  frame_id: "ti_mmwave"
point_id: 8
x: 1.205078125
y: -0.04296875
z: -0.693359375
range: 1.48161697388
velocity: 0.0
doppler_bin: 8
bearing: -2.04209637642
intensity: 24.5331840515
---
header: 
  seq: 765821
  stamp: 
    secs: 1561864720
    nsecs: 168227417
  frame_id: "ti_mmwave"
point_id: 9
x: 2.61328125
y: -0.17578125
z: 1.052734375
range: 3.00681090355
velocity: 0.0
doppler_bin: 8
bearing: -3.84817934036
intensity: 28.9817657471
---
header: 
  seq: 765822
  stamp: 
    secs: 1561864720
    nsecs: 168247604
  frame_id: "ti_mmwave"
point_id: 10
x: 2.69140625
y: -0.08984375
z: 0.970703125
range: 3.05038785934
velocity: 0.0
doppler_bin: 8
bearing: -1.91192126274
intensity: 32.1537322998
---
header: 
  seq: 765823
  stamp: 
    secs: 1561864720
    nsecs: 168269850
  frame_id: "ti_mmwave"
point_id: 11
x: 2.759765625
y: -0.08984375
z: 0.90234375
range: 3.09396481514
velocity: 0.0
doppler_bin: 8
bearing: -1.86459684372
intensity: 31.1561050415
---
header: 
  seq: 765824
  stamp: 
    secs: 1561864720
    nsecs: 168283523
  frame_id: "ti_mmwave"
point_id: 12
x: 0.009765625
y: 0.03125
z: 0.025390625
range: 0.0435769706964
velocity: 0.0
doppler_bin: 8
bearing: 72.6459732056
intensity: 29.3247375488
---
header: 
  seq: 765825
  stamp: 
    secs: 1561864720
    nsecs: 168382527
  frame_id: "ti_mmwave"
point_id: 13
x: 0.041015625
y: -0.033203125
z: 0.0625
range: 0.0871539413929
velocity: 0.0
doppler_bin: 8
bearing: -38.9909973145
intensity: 30.0987567902
---
header: 
  seq: 765826
  stamp: 
    secs: 1561864720
    nsecs: 168399194
  frame_id: "ti_mmwave"
point_id: 14
x: 0.044921875
y: -0.046875
z: 0.103515625
range: 0.130730912089
velocity: 0.0
doppler_bin: 8
bearing: -46.218875885
intensity: 28.9707698822
---
header: 
  seq: 765827
  stamp: 
    secs: 1561864720
    nsecs: 169197523
  frame_id: "ti_mmwave"
point_id: 0
x: 0.01171875
y: -0.0390625
z: -0.0078125
range: 0.0435769706964
velocity: 0.0
doppler_bin: 8
bearing: -73.3007583618
intensity: 30.6669845581
---
header: 
  seq: 765828
  stamp: 
    secs: 1561864720
    nsecs: 169263596
  frame_id: "ti_mmwave"
point_id: 1
x: 0.017578125
y: -0.080078125
z: -0.0078125
range: 0.0871539413929
velocity: 0.0
doppler_bin: 8
bearing: -77.6192398071
intensity: 31.9145107269
---
header: 
  seq: 765829
  stamp: 
    secs: 1561864720
    nsecs: 169281482
  frame_id: "ti_mmwave"
point_id: 2
x: 0.029296875
y: -0.119140625
z: -0.005859375
range: 0.130730912089
velocity: 0.0
doppler_bin: 8
bearing: -76.1849746704
intensity: 30.1661548615
---
header: 
  seq: 765830
  stamp: 
    secs: 1561864720
    nsecs: 169295501
  frame_id: "ti_mmwave"
point_id: 3
x: 0.056640625
y: -0.154296875
z: 0.005859375
range: 0.174307882786
velocity: 0.0
doppler_bin: 8
bearing: -69.8423843384
intensity: 25.4530715942
---
header: 
  seq: 765831
  stamp: 
    secs: 1561864720
    nsecs: 169358254
  frame_id: "ti_mmwave"
point_id: 4
x: 1.21484375
y: -0.115234375
z: -0.12890625
range: 1.3073091507
velocity: 0.0
doppler_bin: 8
bearing: -5.41859674454
intensity: 24.1329975128
---
header: 
  seq: 765832
  stamp: 
    secs: 1561864720
    nsecs: 169372926
  frame_id: "ti_mmwave"
point_id: 5
x: 1.16015625
y: -0.119140625
z: -0.498046875
range: 1.35088610649
velocity: 0.0
doppler_bin: 8
bearing: -5.86335611343
intensity: 28.0208930969
---
header: 
  seq: 765833
  stamp: 
    secs: 1561864720
    nsecs: 169387396
  frame_id: "ti_mmwave"
point_id: 6
x: 1.298828125
y: -0.083984375
z: 0.359375
range: 1.43804001808
velocity: 0.0
doppler_bin: 8
bearing: -3.69968938828
intensity: 26.3848934174
---
header: 
  seq: 765834
  stamp: 
    secs: 1561864720
    nsecs: 169400710
  frame_id: "ti_mmwave"
point_id: 7
x: 1.3359375
y: -0.130859375
z: 0.365234375
range: 1.48161697388
velocity: 0.0
doppler_bin: 8
bearing: -5.59445858002
intensity: 27.0926990509
---
header: 
  seq: 765835
  stamp: 
    secs: 1561864720
    nsecs: 169413662
  frame_id: "ti_mmwave"
point_id: 8
x: 1.361328125
y: -0.134765625
z: 0.421875
range: 1.52519392967
velocity: 0.0
doppler_bin: 8
bearing: -5.65361499786
intensity: 24.8429985046
---
header: 
  seq: 765836
  stamp: 
    secs: 1561864720
    nsecs: 169433777
  frame_id: "ti_mmwave"
point_id: 9
x: 2.607421875
y: -0.17578125
z: 1.06640625
range: 3.00681090355
velocity: 0.0
doppler_bin: 8
bearing: -3.8568007946
intensity: 28.9209461212
---
header: 
  seq: 765837
  stamp: 
    secs: 1561864720
    nsecs: 169497042
  frame_id: "ti_mmwave"
point_id: 10
x: 2.6875
y: -0.08984375
z: 0.982421875
range: 3.05038785934
velocity: 0.0
doppler_bin: 8
bearing: -1.91469812393
intensity: 32.1590194702
---
header: 
  seq: 765838
  stamp: 
    secs: 1561864720
    nsecs: 169512755
  frame_id: "ti_mmwave"
point_id: 11
x: 2.75390625
y: -0.08984375
z: 0.91796875
range: 3.09396481514
velocity: 0.0
doppler_bin: 8
bearing: -1.86856126785
intensity: 31.2287101746
---
header: 
  seq: 765839
  stamp: 
    secs: 1561864720
    nsecs: 169525949
  frame_id: "ti_mmwave"
point_id: 12
x: 1.203125
y: -0.08203125
z: -0.5078125
range: 1.39446306229
velocity: 0.614668667316
doppler_bin: 9
bearing: -3.90049386024
intensity: 25.5266819
---
header: 
  seq: 765840
  stamp: 
    secs: 1561864720
    nsecs: 169539361
  frame_id: "ti_mmwave"
point_id: 13
x: 0.009765625
y: 0.03125
z: 0.025390625
range: 0.0435769706964
velocity: 0.0
doppler_bin: 8
bearing: 72.6459732056
intensity: 29.3348731995
---
header: 
  seq: 765841
  stamp: 
    secs: 1561864720
    nsecs: 169557042
  frame_id: "ti_mmwave"
point_id: 14
x: 0.041015625
y: -0.033203125
z: 0.0625
range: 0.0871539413929
velocity: 0.0
doppler_bin: 8
bearing: -38.9909973145
intensity: 30.0945091248
---
header: 
  seq: 765842
  stamp: 
    secs: 1561864720
    nsecs: 169618084
  frame_id: "ti_mmwave"
point_id: 15
x: 0.052734375
y: -0.04296875
z: 0.1015625
range: 0.130730912089
velocity: 0.0
doppler_bin: 8
bearing: -39.1736602783
intensity: 28.9707698822
---
header: 
  seq: 765843
  stamp: 
    secs: 1561864720
    nsecs: 227890909
  frame_id: "ti_mmwave"
point_id: 0
x: 0.01171875
y: -0.0390625
z: -0.0078125
range: 0.0435769706964
velocity: 0.0
doppler_bin: 8
bearing: -73.3007583618
intensity: 30.6669845581
---
header: 
  seq: 765844
  stamp: 
    secs: 1561864720
    nsecs: 228019038
  frame_id: "ti_mmwave"
point_id: 1
x: 0.017578125
y: -0.080078125
z: -0.0078125
range: 0.0871539413929
velocity: 0.0
doppler_bin: 8
bearing: -77.6192398071
intensity: 31.9173030853
---
header: 
  seq: 765845
  stamp: 
    secs: 1561864720
    nsecs: 228039588
  frame_id: "ti_mmwave"
point_id: 2
x: 0.029296875
y: -0.119140625
z: -0.005859375
range: 0.130730912089
velocity: 0.0
doppler_bin: 8
bearing: -76.1849746704
intensity: 30.1661548615
---
header: 
  seq: 765846
  stamp: 
    secs: 1561864720
    nsecs: 228054194
  frame_id: "ti_mmwave"
point_id: 3
x: 0.056640625
y: -0.154296875
z: 0.005859375
range: 0.174307882786
velocity: 0.0
doppler_bin: 8
bearing: -69.8423843384
intensity: 25.4406795502
---
header: 
  seq: 765847
  stamp: 
    secs: 1561864720
    nsecs: 228067989
  frame_id: "ti_mmwave"
point_id: 4
x: 1.150390625
y: -0.154296875
z: -0.400390625
range: 1.3073091507
velocity: 0.0
doppler_bin: 8
bearing: -7.63924121857
intensity: 24.6389293671
---
header: 
  seq: 765848
  stamp: 
    secs: 1561864720
    nsecs: 228092457
  frame_id: "ti_mmwave"
point_id: 5
x: 1.197265625
y: -0.080078125
z: -0.412109375
range: 1.35088610649
velocity: 0.0
doppler_bin: 8
bearing: -3.82648205757
intensity: 29.127532959
---
header: 
  seq: 765849
  stamp: 
    secs: 1561864720
    nsecs: 228116651
  frame_id: "ti_mmwave"
point_id: 6
x: 1.240234375
y: -0.041015625
z: -0.4140625
range: 1.39446306229
velocity: 0.0
doppler_bin: 8
bearing: -1.894130826
intensity: 30.696680069
---
header: 
  seq: 765850
  stamp: 
    secs: 1561864720
    nsecs: 228137593
  frame_id: "ti_mmwave"
point_id: 7
x: 1.2734375
y: -0.0
z: -0.447265625
range: 1.43804001808
velocity: 0.0
doppler_bin: 8
bearing: -0.0
intensity: 28.6093654633
---
header: 
  seq: 765851
  stamp: 
    secs: 1561864720
    nsecs: 228158701
  frame_id: "ti_mmwave"
point_id: 8
x: 1.248046875
y: 0.04296875
z: -0.611328125
range: 1.48161697388
velocity: 0.0
doppler_bin: 8
bearing: 1.97184574604
intensity: 24.4715805054
---
header: 
  seq: 765852
  stamp: 
    secs: 1561864720
    nsecs: 228171684
  frame_id: "ti_mmwave"
point_id: 9
x: 1.078125
y: 0.08984375
z: -0.9375
range: 1.52519392967
velocity: 0.0
doppler_bin: 8
bearing: 4.76364183426
intensity: 23.0535144806
---
header: 
  seq: 765853
  stamp: 
    secs: 1561864720
    nsecs: 228191728
  frame_id: "ti_mmwave"
point_id: 10
x: 2.615234375
y: -0.17578125
z: 1.046875
range: 3.00681090355
velocity: 0.0
doppler_bin: 8
bearing: -3.84531402588
intensity: 28.9927310944
---
header: 
  seq: 765854
  stamp: 
    secs: 1561864720
    nsecs: 228212469
  frame_id: "ti_mmwave"
point_id: 11
x: 2.6875
y: -0.08984375
z: 0.984375
range: 3.05038785934
velocity: 0.0
doppler_bin: 8
bearing: -1.91469812393
intensity: 32.1879806519
---
header: 
  seq: 765855
  stamp: 
    secs: 1561864720
    nsecs: 228225533
  frame_id: "ti_mmwave"
point_id: 12
x: 2.74609375
y: -0.08984375
z: 0.939453125
range: 3.09396481514
velocity: 0.0
doppler_bin: 8
bearing: -1.8738732338
intensity: 31.2548122406
---
header: 
  seq: 765856
  stamp: 
    secs: 1561864720
    nsecs: 228247390
  frame_id: "ti_mmwave"
point_id: 13
x: 0.009765625
y: 0.03125
z: 0.025390625
range: 0.0435769706964
velocity: 0.0
doppler_bin: 8
bearing: 72.6459732056
intensity: 29.3247375488
---
header: 
  seq: 765857
  stamp: 
    secs: 1561864720
    nsecs: 228270794
  frame_id: "ti_mmwave"
point_id: 14
x: 0.041015625
y: -0.033203125
z: 0.0625
range: 0.0871539413929
velocity: 0.0
doppler_bin: 8
bearing: -38.9909973145
intensity: 30.0945091248
---
header: 
  seq: 765858
  stamp: 
    secs: 1561864720
    nsecs: 228368627
  frame_id: "ti_mmwave"
point_id: 15
x: 0.044921875
y: -0.046875
z: 0.103515625
range: 0.130730912089
velocity: 0.0
doppler_bin: 8
bearing: -46.218875885
intensity: 28.9707698822
---
header: 
  seq: 765859
  stamp: 
    secs: 1561864720
    nsecs: 228387093
  frame_id: "ti_mmwave"
point_id: 17
x: 1.33203125
y: -0.447265625
z: 0.27734375
range: 1.52519392967
velocity: 0.0
doppler_bin: 8
bearing: -18.5608730316
intensity: 20.293838501
---
header: 
  seq: 765860
  stamp: 
    secs: 1561864720
    nsecs: 287874287
  frame_id: "ti_mmwave"
point_id: 0
x: 0.01171875
y: -0.0390625
z: -0.0078125
range: 0.0435769706964
velocity: 0.0
doppler_bin: 8
bearing: -73.3007583618
intensity: 30.6707077026
---
header: 
  seq: 765861
  stamp: 
    secs: 1561864720
    nsecs: 287978670
  frame_id: "ti_mmwave"
point_id: 1
x: 0.017578125
y: -0.080078125
z: -0.0078125
range: 0.0871539413929
velocity: 0.0
doppler_bin: 8
bearing: -77.6192398071
intensity: 31.9145107269
---
header: 
  seq: 765862
  stamp: 
    secs: 1561864720
    nsecs: 288001730
  frame_id: "ti_mmwave"
point_id: 2
x: 0.029296875
y: -0.119140625
z: -0.005859375
range: 0.130730912089
velocity: 0.0
doppler_bin: 8
bearing: -76.1849746704
intensity: 30.1661548615
---
header: 
  seq: 765863
  stamp: 
    secs: 1561864720
    nsecs: 288014949
  frame_id: "ti_mmwave"
point_id: 3
x: 0.056640625
y: -0.154296875
z: 0.005859375
range: 0.174307882786
velocity: 0.0
doppler_bin: 8
bearing: -69.8423843384
intensity: 25.4530715942
---
header: 
  seq: 765864
  stamp: 
    secs: 1561864720
    nsecs: 288036736
  frame_id: "ti_mmwave"
point_id: 4
x: 1.140625
y: -0.22265625
z: -0.236328125
range: 1.2637321949
velocity: 0.0
doppler_bin: 8
bearing: -11.0455503464
intensity: 21.7026176453
---
header: 
  seq: 765865
  stamp: 
    secs: 1561864720
    nsecs: 288055936
  frame_id: "ti_mmwave"
point_id: 5
x: 1.205078125
y: -0.076171875
z: -0.220703125
range: 1.3073091507
velocity: 0.0
doppler_bin: 8
bearing: -3.61680150032
intensity: 28.8536128998
---
header: 
  seq: 765866
  stamp: 
    secs: 1561864720
    nsecs: 288064653
  frame_id: "ti_mmwave"
point_id: 6
x: 1.244140625
y: -0.0390625
z: -0.2421875
range: 1.35088610649
velocity: 0.0
doppler_bin: 8
bearing: -1.79833483696
intensity: 33.2592582703
---
header: 
  seq: 765867
  stamp: 
    secs: 1561864720
    nsecs: 288212020
  frame_id: "ti_mmwave"
point_id: 7
x: 1.28125
y: -0.041015625
z: -0.267578125
range: 1.39446306229
velocity: 0.0
doppler_bin: 8
bearing: -1.83353734016
intensity: 34.0790061951
---
header: 
  seq: 765868
  stamp: 
    secs: 1561864720
    nsecs: 288249747
  frame_id: "ti_mmwave"
point_id: 8
x: 1.306640625
y: -0.0
z: -0.3359375
range: 1.43804001808
velocity: 0.0
doppler_bin: 8
bearing: -0.0
intensity: 31.306552887
---
header: 
  seq: 765869
  stamp: 
    secs: 1561864720
    nsecs: 288264827
  frame_id: "ti_mmwave"
point_id: 9
x: 1.14453125
y: -0.0
z: -0.7890625
range: 1.48161697388
velocity: 0.0
doppler_bin: 8
bearing: -0.0
intensity: 24.6538276672
---
header: 
  seq: 765870
  stamp: 
    secs: 1561864720
    nsecs: 288301706
  frame_id: "ti_mmwave"
point_id: 10
x: 2.615234375
y: -0.17578125
z: 1.048828125
range: 3.00681090355
velocity: 0.0
doppler_bin: 8
bearing: -3.84531402588
intensity: 29.0308990479
---
header: 
  seq: 765871
  stamp: 
    secs: 1561864720
    nsecs: 288310353
  frame_id: "ti_mmwave"
point_id: 11
x: 2.6875
y: -0.08984375
z: 0.986328125
range: 3.05038785934
velocity: 0.0
doppler_bin: 8
bearing: -1.91469812393
intensity: 32.1879806519
---
header: 
  seq: 765872
  stamp: 
    secs: 1561864720
    nsecs: 288318142
  frame_id: "ti_mmwave"
point_id: 12
x: 2.748046875
y: -0.08984375
z: 0.9375
range: 3.09396481514
velocity: 0.0
doppler_bin: 8
bearing: -1.8725425005
intensity: 31.2123146057
---
header: 
  seq: 765873
  stamp: 
    secs: 1561864720
    nsecs: 288325289
  frame_id: "ti_mmwave"
point_id: 13
x: 0.009765625
y: 0.03125
z: 0.025390625
range: 0.0435769706964
velocity: 0.0
doppler_bin: 8
bearing: 72.6459732056
intensity: 29.3298072815
---
header: 
  seq: 765874
  stamp: 
    secs: 1561864720
    nsecs: 288344039
  frame_id: "ti_mmwave"
point_id: 14
x: 0.041015625
y: -0.033203125
z: 0.0625
range: 0.0871539413929
velocity: 0.0
doppler_bin: 8
bearing: -38.9909973145
intensity: 30.0945091248
---
header: 
  seq: 765875
  stamp: 
    secs: 1561864720
    nsecs: 288352007
  frame_id: "ti_mmwave"
point_id: 15
x: 0.044921875
y: -0.046875
z: 0.103515625
range: 0.130730912089
velocity: 0.0
doppler_bin: 8
bearing: -46.218875885
intensity: 28.9707698822
---
header: 
  seq: 765876
  stamp: 
    secs: 1561864720
    nsecs: 288411791
  frame_id: "ti_mmwave"
point_id: 17
x: 1.12890625
y: -0.521484375
z: 0.623046875
range: 1.48161697388
velocity: 0.0
doppler_bin: 8
bearing: -24.7939968109
intensity: 22.0682582855
---
header: 
  seq: 765877
  stamp: 
    secs: 1561864720
    nsecs: 289195899
  frame_id: "ti_mmwave"
point_id: 0
x: 0.01171875
y: -0.0390625
z: -0.0078125
range: 0.0435769706964
velocity: 0.0
doppler_bin: 8
bearing: -73.3007583618
intensity: 30.678144455
---
header: 
  seq: 765878
  stamp: 
    secs: 1561864720
    nsecs: 289246200
  frame_id: "ti_mmwave"
point_id: 1
x: 0.017578125
y: -0.080078125
z: -0.0078125
range: 0.0871539413929
velocity: 0.0
doppler_bin: 8
bearing: -77.6192398071
intensity: 31.9145107269
---
header: 
  seq: 765879
  stamp: 
    secs: 1561864720
    nsecs: 289256629
  frame_id: "ti_mmwave"
point_id: 2
x: 0.029296875
y: -0.119140625
z: -0.005859375
range: 0.130730912089
velocity: 0.0
doppler_bin: 8
bearing: -76.1849746704
intensity: 30.1661548615
---
header: 
  seq: 765880
  stamp: 
    secs: 1561864720
    nsecs: 289266184
  frame_id: "ti_mmwave"
point_id: 3
x: 0.056640625
y: -0.154296875
z: 0.005859375
range: 0.174307882786
velocity: 0.0
doppler_bin: 8
bearing: -69.8423843384
intensity: 25.4406795502
---
header: 
  seq: 765881
  stamp: 
    secs: 1561864720
    nsecs: 289276861
  frame_id: "ti_mmwave"
point_id: 4
x: 1.166015625
y: -0.22265625
z: 0.005859375
range: 1.2637321949
velocity: 0.0
doppler_bin: 8
bearing: -10.8107557297
intensity: 20.7554702759
---
header: 
  seq: 765882
  stamp: 
    secs: 1561864720
    nsecs: 289286472
  frame_id: "ti_mmwave"
point_id: 5
x: 1.2109375
y: -0.19140625
z: -0.02734375
range: 1.3073091507
velocity: 0.0
doppler_bin: 8
bearing: -8.98211669922
intensity: 27.5358314514
---
header: 
  seq: 765883
  stamp: 
    secs: 1561864720
    nsecs: 289438778
  frame_id: "ti_mmwave"
point_id: 6
x: 1.2578125
y: -0.158203125
z: -0.056640625
range: 1.35088610649
velocity: 0.0
doppler_bin: 8
bearing: -7.1688117981
intensity: 30.7114524841
---
header: 
  seq: 765884
  stamp: 
    secs: 1561864720
    nsecs: 289488164
  frame_id: "ti_mmwave"
point_id: 7
x: 0.1953125
y: -0.216796875
z: 1.359375
range: 1.48161697388
velocity: 0.0
doppler_bin: 8
bearing: -47.9842834473
intensity: 22.6245117188
---
header: 
  seq: 765885
  stamp: 
    secs: 1561864720
    nsecs: 289498887
  frame_id: "ti_mmwave"
point_id: 8
x: 2.615234375
y: -0.17578125
z: 1.044921875
range: 3.00681090355
velocity: 0.0
doppler_bin: 8
bearing: -3.84531402588
intensity: 29.1434307098
---
header: 
  seq: 765886
  stamp: 
    secs: 1561864720
    nsecs: 289509832
  frame_id: "ti_mmwave"
point_id: 9
x: 2.69140625
y: -0.08984375
z: 0.97265625
range: 3.05038785934
velocity: 0.0
doppler_bin: 8
bearing: -1.91192126274
intensity: 32.3325004578
---
header: 
  seq: 765887
  stamp: 
    secs: 1561864720
    nsecs: 289522747
  frame_id: "ti_mmwave"
point_id: 10
x: 2.7578125
y: -0.08984375
z: 0.908203125
range: 3.09396481514
velocity: 0.0
doppler_bin: 8
bearing: -1.86591637135
intensity: 31.4426269531
---
header: 
  seq: 765888
  stamp: 
    secs: 1561864720
    nsecs: 289536842
  frame_id: "ti_mmwave"
point_id: 11
x: 1.291015625
y: -0.08984375
z: 0.611328125
range: 1.52519392967
velocity: 0.614668667316
doppler_bin: 9
bearing: -3.98088264465
intensity: 23.2221927643
---
header: 
  seq: 765889
  stamp: 
    secs: 1561864720
    nsecs: 289671077
  frame_id: "ti_mmwave"
point_id: 12
x: 1.27734375
y: -0.1640625
z: -0.23046875
range: 1.39446306229
velocity: -0.614668667316
doppler_bin: 7
bearing: -7.31901884079
intensity: 30.1283721924
---
header: 
  seq: 765890
  stamp: 
    secs: 1561864720
    nsecs: 289755736
  frame_id: "ti_mmwave"
point_id: 13
x: 1.259765625
y: -0.126953125
z: -0.466796875
range: 1.43804001808
velocity: -0.614668667316
doppler_bin: 7
bearing: -5.75456523895
intensity: 26.3548374176
---
header: 
  seq: 765891
  stamp: 
    secs: 1561864720
    nsecs: 289804337
  frame_id: "ti_mmwave"
point_id: 14
x: 0.009765625
y: 0.03125
z: 0.025390625
range: 0.0435769706964
velocity: 0.0
doppler_bin: 8
bearing: 72.6459732056
intensity: 29.3247375488
---
header: 
  seq: 765892
  stamp: 
    secs: 1561864720
    nsecs: 289820420
  frame_id: "ti_mmwave"
point_id: 15
x: 0.041015625
y: -0.033203125
z: 0.0625
range: 0.0871539413929
velocity: 0.0
doppler_bin: 8
bearing: -38.9909973145
intensity: 30.0987567902
---
header: 
  seq: 765893
  stamp: 
    secs: 1561864720
    nsecs: 289869550
  frame_id: "ti_mmwave"
point_id: 16
x: 0.044921875
y: -0.046875
z: 0.103515625
range: 0.130730912089
velocity: 0.0
doppler_bin: 8
bearing: -46.218875885
intensity: 28.9762706757
---
header: 
  seq: 765894
  stamp: 
    secs: 1561864720
    nsecs: 289887456
  frame_id: "ti_mmwave"
point_id: 18
x: 0.916015625
y: 0.07421875
z: -0.75
range: 1.2637321949
velocity: 0.0
doppler_bin: 8
bearing: 4.63218307495
intensity: 18.0618000031
---
header: 
  seq: 765895
  stamp: 
    secs: 1561864720
    nsecs: 347871413
  frame_id: "ti_mmwave"
point_id: 0
x: 0.01171875
y: -0.0390625
z: -0.0078125
range: 0.0435769706964
velocity: 0.0
doppler_bin: 8
bearing: -73.3007583618
intensity: 30.6669845581
---
header: 
  seq: 765896
  stamp: 
    secs: 1561864720
    nsecs: 347992039
  frame_id: "ti_mmwave"
point_id: 1
x: 0.017578125
y: -0.080078125
z: -0.0078125
range: 0.0871539413929
velocity: 0.0
doppler_bin: 8
bearing: -77.6192398071
intensity: 31.9117145538
---
header: 
  seq: 765897
  stamp: 
    secs: 1561864720
    nsecs: 348015426
  frame_id: "ti_mmwave"
point_id: 2
x: 0.029296875
y: -0.119140625
z: -0.005859375
range: 0.130730912089
velocity: 0.0
doppler_bin: 8
bearing: -76.1849746704
intensity: 30.157787323
---
header: 
  seq: 765898
  stamp: 
    secs: 1561864720
    nsecs: 348031683
  frame_id: "ti_mmwave"
point_id: 3
x: 0.056640625
y: -0.154296875
z: 0.005859375
range: 0.174307882786
velocity: 0.0
doppler_bin: 8
bearing: -69.8423843384
intensity: 25.4406795502
---
header: 
  seq: 765899
  stamp: 
    secs: 1561864720
    nsecs: 348115909
  frame_id: "ti_mmwave"
point_id: 4
x: 1.193359375
y: -0.076171875
z: -0.271484375
range: 1.3073091507
velocity: 0.0
doppler_bin: 8
bearing: -3.65222287178
intensity: 27.2263393402
---
header: 
  seq: 765900
  stamp: 
    secs: 1561864720
    nsecs: 348132144
  frame_id: "ti_mmwave"
point_id: 5
x: 1.22265625
y: -0.0390625
z: -0.33203125
range: 1.35088610649
velocity: 0.0
doppler_bin: 8
bearing: -1.82991373539
intensity: 30.9968070984
---
header: 
  seq: 765901
  stamp: 
    secs: 1561864720
    nsecs: 348145763
  frame_id: "ti_mmwave"
point_id: 6
x: 1.232421875
y: -0.041015625
z: -0.4375
range: 1.39446306229
velocity: 0.0
doppler_bin: 8
bearing: -1.90612912178
intensity: 30.7664051056
---
header: 
  seq: 765902
  stamp: 
    secs: 1561864720
    nsecs: 348163047
  frame_id: "ti_mmwave"
point_id: 7
x: 1.1328125
y: -0.0
z: -0.734375
range: 1.43804001808
velocity: 0.0
doppler_bin: 8
bearing: -0.0
intensity: 27.4429302216
---
header: 
  seq: 765903
  stamp: 
    secs: 1561864720
    nsecs: 348175904
  frame_id: "ti_mmwave"
point_id: 8
x: 1.265625
y: -0.04296875
z: 0.576171875
range: 1.48161697388
velocity: 0.0
doppler_bin: 8
bearing: -1.94448018074
intensity: 25.9328613281
---
header: 
  seq: 765904
  stamp: 
    secs: 1561864720
    nsecs: 348189913
  frame_id: "ti_mmwave"
point_id: 9
x: 2.623046875
y: -0.17578125
z: 1.025390625
range: 3.00681090355
velocity: 0.0
doppler_bin: 8
bearing: -3.83389568329
intensity: 29.2116603851
---
header: 
  seq: 765905
  stamp: 
    secs: 1561864720
    nsecs: 348202060
  frame_id: "ti_mmwave"
point_id: 10
x: 2.693359375
y: -0.08984375
z: 0.96875
range: 3.05038785934
velocity: 0.0
doppler_bin: 8
bearing: -1.91053581238
intensity: 32.2582588196
---
header: 
  seq: 765906
  stamp: 
    secs: 1561864720
    nsecs: 348228301
  frame_id: "ti_mmwave"
point_id: 11
x: 2.7578125
y: -0.08984375
z: 0.90625
range: 3.09396481514
velocity: 0.0
doppler_bin: 8
bearing: -1.86591637135
intensity: 31.235250473
---
header: 
  seq: 765907
  stamp: 
    secs: 1561864720
    nsecs: 348249779
  frame_id: "ti_mmwave"
point_id: 12
x: 0.009765625
y: 0.03125
z: 0.025390625
range: 0.0435769706964
velocity: 0.0
doppler_bin: 8
bearing: 72.6459732056
intensity: 29.3298072815
---
header: 
  seq: 765908
  stamp: 
    secs: 1561864720
    nsecs: 348273079
  frame_id: "ti_mmwave"
point_id: 13
x: 0.041015625
y: -0.033203125
z: 0.0625
range: 0.0871539413929
velocity: 0.0
doppler_bin: 8
bearing: -38.9909973145
intensity: 30.0902576447
---
header: 
  seq: 765909
  stamp: 
    secs: 1561864720
    nsecs: 348288313
  frame_id: "ti_mmwave"
point_id: 14
x: 0.044921875
y: -0.046875
z: 0.103515625
range: 0.130730912089
velocity: 0.0
doppler_bin: 8
bearing: -46.218875885
intensity: 28.9652614594
---
header: 
  seq: 765910
  stamp: 
    secs: 1561864720
    nsecs: 349195063
  frame_id: "ti_mmwave"
point_id: 0
x: 0.01171875
y: -0.0390625
z: -0.0078125
range: 0.0435769706964
velocity: 0.0
doppler_bin: 8
bearing: -73.3007583618
intensity: 30.6669845581
---
header: 
  seq: 765911
  stamp: 
    secs: 1561864720
    nsecs: 349263508
  frame_id: "ti_mmwave"
point_id: 1
x: 0.017578125
y: -0.080078125
z: -0.0078125
range: 0.0871539413929
velocity: 0.0
doppler_bin: 8
bearing: -77.6192398071
intensity: 31.9145107269
---
header: 
  seq: 765912
  stamp: 
    secs: 1561864720
    nsecs: 349274573
  frame_id: "ti_mmwave"
point_id: 2
x: 0.029296875
y: -0.119140625
z: -0.005859375
range: 0.130730912089
velocity: 0.0
doppler_bin: 8
bearing: -76.1849746704
intensity: 30.1619739532
---
header: 
  seq: 765913
  stamp: 
    secs: 1561864720
    nsecs: 349285275
  frame_id: "ti_mmwave"
point_id: 3
x: 0.056640625
y: -0.154296875
z: 0.005859375
range: 0.174307882786
velocity: 0.0
doppler_bin: 8
bearing: -69.8423843384
intensity: 25.4406795502
---
header: 
  seq: 765914
  stamp: 
    secs: 1561864720
    nsecs: 349339271
  frame_id: "ti_mmwave"
point_id: 4
x: 1.20703125
y: -0.154296875
z: -0.15234375
range: 1.3073091507
velocity: 0.0
doppler_bin: 8
bearing: -7.28470945358
intensity: 29.5951843262
---
header: 
  seq: 765915
  stamp: 
    secs: 1561864720
    nsecs: 349350114
  frame_id: "ti_mmwave"
point_id: 5
x: 1.25
y: -0.158203125
z: -0.146484375
range: 1.35088610649
velocity: 0.0
doppler_bin: 8
bearing: -7.21314668655
intensity: 32.7508087158
---
header: 
  seq: 765916
  stamp: 
    secs: 1561864720
    nsecs: 349358266
  frame_id: "ti_mmwave"
point_id: 6
x: 1.298828125
y: -0.123046875
z: -0.111328125
range: 1.39446306229
velocity: 0.0
doppler_bin: 8
bearing: -5.41186904907
intensity: 32.1537322998
---
header: 
  seq: 765917
  stamp: 
    secs: 1561864720
    nsecs: 349365855
  frame_id: "ti_mmwave"
point_id: 7
x: 1.33984375
y: -0.126953125
z: 0.1171875
range: 1.43804001808
velocity: 0.0
doppler_bin: 8
bearing: -5.4127407074
intensity: 28.633228302
---
header: 
  seq: 765918
  stamp: 
    secs: 1561864720
    nsecs: 349373526
  frame_id: "ti_mmwave"
point_id: 8
x: 0.865234375
y: 0.04296875
z: -1.087890625
range: 1.48161697388
velocity: 0.0
doppler_bin: 8
bearing: 2.84305286407
intensity: 23.4635295868
---
header: 
  seq: 765919
  stamp: 
    secs: 1561864720
    nsecs: 349381021
  frame_id: "ti_mmwave"
point_id: 9
x: 2.609375
y: -0.17578125
z: 1.060546875
range: 3.00681090355
velocity: 0.0
doppler_bin: 8
bearing: -3.85392260551
intensity: 28.9431610107
---
header: 
  seq: 765920
  stamp: 
    secs: 1561864720
    nsecs: 349388942
  frame_id: "ti_mmwave"
point_id: 10
x: 2.6875
y: -0.08984375
z: 0.982421875
range: 3.05038785934
velocity: 0.0
doppler_bin: 8
bearing: -1.91469812393
intensity: 32.1906051636
---
header: 
  seq: 765921
  stamp: 
    secs: 1561864720
    nsecs: 349454421
  frame_id: "ti_mmwave"
point_id: 11
x: 2.75390625
y: -0.08984375
z: 0.919921875
range: 3.09396481514
velocity: 0.0
doppler_bin: 8
bearing: -1.86856126785
intensity: 31.2417812347
---
header: 
  seq: 765922
  stamp: 
    secs: 1561864720
    nsecs: 349466141
  frame_id: "ti_mmwave"
point_id: 12
x: 0.009765625
y: 0.03125
z: 0.025390625
range: 0.0435769706964
velocity: 0.0
doppler_bin: 8
bearing: 72.6459732056
intensity: 29.3247375488
---
header: 
  seq: 765923
  stamp: 
    secs: 1561864720
    nsecs: 349474272
  frame_id: "ti_mmwave"
point_id: 13
x: 0.041015625
y: -0.033203125
z: 0.0625
range: 0.0871539413929
velocity: 0.0
doppler_bin: 8
bearing: -38.9909973145
intensity: 30.0987567902
---
header: 
  seq: 765924
  stamp: 
    secs: 1561864720
    nsecs: 349482802
  frame_id: "ti_mmwave"
point_id: 14
x: 0.044921875
y: -0.046875
z: 0.103515625
range: 0.130730912089
velocity: 0.0
doppler_bin: 8
bearing: -46.218875885
intensity: 28.9762706757
---
header: 
  seq: 765925
  stamp: 
    secs: 1561864720
    nsecs: 349492647
  frame_id: "ti_mmwave"
point_id: 16
x: 1.111328125
y: -0.3046875
z: 0.779296875
range: 1.48161697388
velocity: 0.0
doppler_bin: 8
bearing: -15.3317747116
intensity: 23.0535144806
---
header: 
  seq: 765926
  stamp: 
    secs: 1561864720
    nsecs: 407818585
  frame_id: "ti_mmwave"
point_id: 0
x: 0.01171875
y: -0.0390625
z: -0.0078125
range: 0.0435769706964
velocity: 0.0
