header: 
  seq: 752060
  stamp: 
    secs: 1561864697
    nsecs: 847898767
  frame_id: "ti_mmwave"
point_id: 0
x: 0.01171875
y: -0.0390625
z: -0.0078125
range: 0.0435769706964
velocity: 0.0
doppler_bin: 8
bearing: -73.3007583618
intensity: 30.6707077026
---
header: 
  seq: 752061
  stamp: 
    secs: 1561864697
    nsecs: 848023352
  frame_id: "ti_mmwave"
point_id: 1
x: 0.017578125
y: -0.080078125
z: -0.0078125
range: 0.0871539413929
velocity: 0.0
doppler_bin: 8
bearing: -77.6192398071
intensity: 31.9173030853
---
header: 
  seq: 752062
  stamp: 
    secs: 1561864697
    nsecs: 848043045
  frame_id: "ti_mmwave"
point_id: 2
x: 0.029296875
y: -0.119140625
z: -0.005859375
range: 0.130730912089
velocity: 0.0
doppler_bin: 8
bearing: -76.1849746704
intensity: 30.1703338623
---
header: 
  seq: 752063
  stamp: 
    secs: 1561864697
    nsecs: 848055217
  frame_id: "ti_mmwave"
point_id: 3
x: 0.056640625
y: -0.154296875
z: 0.005859375
range: 0.174307882786
velocity: 0.0
doppler_bin: 8
bearing: -69.8423843384
intensity: 25.4654273987
---
header: 
  seq: 752064
  stamp: 
    secs: 1561864697
    nsecs: 848066795
  frame_id: "ti_mmwave"
point_id: 4
x: 0.1171875
y: -0.080078125
z: 1.259765625
range: 1.35088610649
velocity: 0.0
doppler_bin: 8
bearing: -34.3460998535
intensity: 23.0749607086
---
header: 
  seq: 752065
  stamp: 
    secs: 1561864697
    nsecs: 848090762
  frame_id: "ti_mmwave"
point_id: 6
x: 0.43359375
y: -0.083984375
z: -1.275390625
range: 1.43804001808
velocity: 0.0
doppler_bin: 8
bearing: -10.9620876312
intensity: 22.9885311127
---
header: 
  seq: 752066
  stamp: 
    secs: 1561864697
    nsecs: 848171684
  frame_id: "ti_mmwave"
point_id: 7
x: 0.587890625
y: -0.04296875
z: -1.259765625
range: 1.48161697388
velocity: 0.0
doppler_bin: 8
bearing: -4.1802983284
intensity: 21.5533599854
---
header: 
  seq: 752067
  stamp: 
    secs: 1561864697
    nsecs: 848187551
  frame_id: "ti_mmwave"
point_id: 8
x: 1.6171875
y: 0.154296875
z: -0.201171875
range: 1.74307882786
velocity: 0.0
doppler_bin: 8
bearing: 5.4501285553
intensity: 26.1595001221
---
header: 
  seq: 752068
  stamp: 
    secs: 1561864697
    nsecs: 848198860
  frame_id: "ti_mmwave"
point_id: 9
x: 2.59375
y: -0.17578125
z: 1.099609375
range: 3.00681090355
velocity: 0.0
doppler_bin: 8
bearing: -3.87706851959
intensity: 29.1169013977
---
header: 
  seq: 752069
  stamp: 
    secs: 1561864697
    nsecs: 848212246
  frame_id: "ti_mmwave"
point_id: 10
x: 2.685546875
y: -0.08984375
z: 0.9921875
range: 3.05038785934
velocity: 0.0
doppler_bin: 8
bearing: -1.91608965397
intensity: 32.1774711609
---
header: 
  seq: 752070
  stamp: 
    secs: 1561864697
    nsecs: 848222762
  frame_id: "ti_mmwave"
point_id: 11
x: 2.748046875
y: -0.08984375
z: 0.93359375
range: 3.09396481514
velocity: 0.0
doppler_bin: 8
bearing: -1.8725425005
intensity: 31.1494445801
---
header: 
  seq: 752071
  stamp: 
    secs: 1561864697
    nsecs: 848233254
  frame_id: "ti_mmwave"
point_id: 12
x: 4.416015625
y: -0.142578125
z: 1.2109375
range: 4.88062095642
velocity: 0.0
doppler_bin: 8
bearing: -1.84924340248
intensity: 31.0788803101
---
header: 
  seq: 752072
  stamp: 
    secs: 1561864697
    nsecs: 848246013
  frame_id: "ti_mmwave"
point_id: 13
x: 4.44921875
y: -0.14453125
z: 1.24609375
range: 4.9241976738
velocity: 0.0
doppler_bin: 8
bearing: -1.86057829857
intensity: 30.5230903625
---
header: 
  seq: 752073
  stamp: 
    secs: 1561864697
    nsecs: 848255814
  frame_id: "ti_mmwave"
point_id: 14
x: 4.806640625
y: -0.154296875
z: 0.984375
range: 5.22923660278
velocity: 0.0
doppler_bin: 8
bearing: -1.83860731125
intensity: 30.4532299042
---
header: 
  seq: 752074
  stamp: 
    secs: 1561864697
    nsecs: 848266145
  frame_id: "ti_mmwave"
point_id: 15
x: 4.880859375
y: -0.30859375
z: 0.759765625
range: 5.27281332016
velocity: 0.0
doppler_bin: 8
bearing: -3.61772704124
intensity: 31.3001194
---
header: 
  seq: 752075
  stamp: 
    secs: 1561864697
    nsecs: 848276605
  frame_id: "ti_mmwave"
point_id: 16
x: 4.951171875
y: -0.623046875
z: -0.0234375
range: 5.31639051437
velocity: 0.0
doppler_bin: 8
bearing: -7.17230129242
intensity: 29.3951931
---
header: 
  seq: 752076
  stamp: 
    secs: 1561864697
    nsecs: 848287457
  frame_id: "ti_mmwave"
point_id: 17
x: 0.009765625
y: 0.03125
z: 0.025390625
range: 0.0435769706964
velocity: 0.0
doppler_bin: 8
bearing: 72.6459732056
intensity: 29.3298072815
---
header: 
  seq: 752077
  stamp: 
    secs: 1561864697
    nsecs: 848302654
  frame_id: "ti_mmwave"
point_id: 18
x: 0.041015625
y: -0.033203125
z: 0.0625
range: 0.0871539413929
velocity: 0.0
doppler_bin: 8
bearing: -38.9909973145
intensity: 30.0945091248
---
header: 
  seq: 752078
  stamp: 
    secs: 1561864697
    nsecs: 848310675
  frame_id: "ti_mmwave"
point_id: 19
x: 0.052734375
y: -0.04296875
z: 0.1015625
range: 0.130730912089
velocity: 0.0
doppler_bin: 8
bearing: -39.1736602783
intensity: 28.9707698822
---
header: 
  seq: 752079
  stamp: 
    secs: 1561864697
    nsecs: 848377366
  frame_id: "ti_mmwave"
point_id: 21
x: 0.255859375
y: -0.408203125
z: 1.5625
range: 1.74307882786
velocity: 0.0
doppler_bin: 8
bearing: -57.9207496643
intensity: 23.9619941711
---
header: 
  seq: 752080
  stamp: 
    secs: 1561864697
    nsecs: 849218783
  frame_id: "ti_mmwave"
point_id: 0
x: 0.01171875
y: -0.0390625
z: -0.0078125
range: 0.0435769706964
velocity: 0.0
doppler_bin: 8
bearing: -73.3007583618
intensity: 30.6707077026
---
header: 
  seq: 752081
  stamp: 
    secs: 1561864697
    nsecs: 849282209
  frame_id: "ti_mmwave"
point_id: 1
x: 0.017578125
y: -0.080078125
z: -0.0078125
range: 0.0871539413929
velocity: 0.0
doppler_bin: 8
bearing: -77.6192398071
intensity: 31.9145107269
---
header: 
  seq: 752082
  stamp: 
    secs: 1561864697
    nsecs: 849301171
  frame_id: "ti_mmwave"
point_id: 2
x: 0.029296875
y: -0.119140625
z: -0.005859375
range: 0.130730912089
velocity: 0.0
doppler_bin: 8
bearing: -76.1849746704
intensity: 30.1661548615
---
header: 
  seq: 752083
  stamp: 
    secs: 1561864697
    nsecs: 849316055
  frame_id: "ti_mmwave"
point_id: 3
x: 0.056640625
y: -0.154296875
z: 0.005859375
range: 0.174307882786
velocity: 0.0
doppler_bin: 8
bearing: -69.8423843384
intensity: 25.4654273987
---
header: 
  seq: 752084
  stamp: 
    secs: 1561864697
    nsecs: 849328985
  frame_id: "ti_mmwave"
point_id: 4
x: 0.125
y: -0.080078125
z: 1.259765625
range: 1.35088610649
velocity: 0.0
doppler_bin: 8
bearing: -32.6446380615
intensity: 23.138671875
---
header: 
  seq: 752085
  stamp: 
    secs: 1561864697
    nsecs: 849431684
  frame_id: "ti_mmwave"
point_id: 6
x: 0.4296875
y: -0.083984375
z: -1.27734375
range: 1.43804001808
velocity: 0.0
doppler_bin: 8
bearing: -11.0592975616
intensity: 22.9885311127
---
header: 
  seq: 752086
  stamp: 
    secs: 1561864697
    nsecs: 849448055
  frame_id: "ti_mmwave"
point_id: 7
x: 0.576171875
y: -0.04296875
z: -1.265625
range: 1.48161697388
velocity: 0.0
doppler_bin: 8
bearing: -4.2650103569
intensity: 21.5228843689
---
header: 
  seq: 752087
  stamp: 
    secs: 1561864697
    nsecs: 849459287
  frame_id: "ti_mmwave"
point_id: 8
x: 2.6171875
y: -0.17578125
z: 1.044921875
range: 3.00681090355
velocity: 0.0
doppler_bin: 8
bearing: -3.84245300293
intensity: 29.0363254547
---
header: 
  seq: 752088
  stamp: 
    secs: 1561864697
    nsecs: 849470211
  frame_id: "ti_mmwave"
point_id: 9
x: 2.689453125
y: -0.08984375
z: 0.978515625
range: 3.05038785934
velocity: 0.0
doppler_bin: 8
bearing: -1.91330885887
intensity: 32.2089233398
---
header: 
  seq: 752089
  stamp: 
    secs: 1561864697
    nsecs: 849479704
  frame_id: "ti_mmwave"
point_id: 10
x: 2.751953125
y: -0.08984375
z: 0.921875
range: 3.09396481514
velocity: 0.0
doppler_bin: 8
bearing: -1.86988639832
intensity: 31.2123146057
---
header: 
  seq: 752090
  stamp: 
    secs: 1561864697
    nsecs: 849513378
  frame_id: "ti_mmwave"
point_id: 11
x: 4.416015625
y: -0.142578125
z: 1.046875
range: 4.83704376221
velocity: 0.0
doppler_bin: 8
bearing: -1.84924340248
intensity: 27.9518451691
---
header: 
  seq: 752091
  stamp: 
    secs: 1561864697
    nsecs: 849527294
  frame_id: "ti_mmwave"
point_id: 12
x: 4.41796875
y: -0.142578125
z: 1.205078125
range: 4.88062095642
velocity: 0.0
doppler_bin: 8
bearing: -1.84842634201
intensity: 31.3703746796
---
header: 
  seq: 752092
  stamp: 
    secs: 1561864697
    nsecs: 849561567
  frame_id: "ti_mmwave"
point_id: 13
x: 4.455078125
y: -0.14453125
z: 1.224609375
range: 4.9241976738
velocity: 0.0
doppler_bin: 8
bearing: -1.85813295841
intensity: 30.99335289
---
header: 
  seq: 752093
  stamp: 
    secs: 1561864697
    nsecs: 849589662
  frame_id: "ti_mmwave"
point_id: 14
x: 4.787109375
y: -0.154296875
z: 1.072265625
range: 5.22923660278
velocity: 0.0
doppler_bin: 8
bearing: -1.84610366821
intensity: 30.8493366241
---
header: 
  seq: 752094
  stamp: 
    secs: 1561864697
    nsecs: 849679419
  frame_id: "ti_mmwave"
point_id: 15
x: 4.8671875
y: -0.30859375
z: 0.849609375
range: 5.27281332016
velocity: 0.0
doppler_bin: 8
bearing: -3.62786221504
intensity: 31.9534606934
---
header: 
  seq: 752095
  stamp: 
    secs: 1561864697
    nsecs: 849694643
  frame_id: "ti_mmwave"
point_id: 16
x: 4.962890625
y: -0.46875
z: 0.255859375
range: 5.31639051437
velocity: 0.0
doppler_bin: 8
bearing: -5.39563703537
intensity: 30.2077541351
---
header: 
  seq: 752096
  stamp: 
    secs: 1561864697
    nsecs: 849703593
  frame_id: "ti_mmwave"
point_id: 17
x: 1.59765625
y: 0.154296875
z: -0.31640625
range: 1.74307882786
velocity: -0.614668667316
doppler_bin: 7
bearing: 5.51634740829
intensity: 26.0422611237
---
header: 
  seq: 752097
  stamp: 
    secs: 1561864697
    nsecs: 849711908
  frame_id: "ti_mmwave"
point_id: 18
x: 0.009765625
y: 0.03125
z: 0.025390625
range: 0.0435769706964
velocity: 0.0
doppler_bin: 8
bearing: 72.6459732056
intensity: 29.3298072815
---
header: 
  seq: 752098
  stamp: 
    secs: 1561864697
    nsecs: 849720283
  frame_id: "ti_mmwave"
point_id: 19
x: 0.041015625
y: -0.033203125
z: 0.0625
range: 0.0871539413929
velocity: 0.0
doppler_bin: 8
bearing: -38.9909973145
intensity: 30.0987567902
---
header: 
  seq: 752099
  stamp: 
    secs: 1561864697
    nsecs: 849729817
  frame_id: "ti_mmwave"
point_id: 20
x: 0.044921875
y: -0.046875
z: 0.103515625
range: 0.130730912089
velocity: 0.0
doppler_bin: 8
bearing: -46.218875885
intensity: 28.9762706757
---
header: 
  seq: 752100
  stamp: 
    secs: 1561864697
    nsecs: 907809148
  frame_id: "ti_mmwave"
point_id: 0
x: 0.01171875
y: -0.0390625
z: -0.0078125
range: 0.0435769706964
velocity: 0.0
doppler_bin: 8
bearing: -73.3007583618
intensity: 30.6557979584
---
header: 
  seq: 752101
  stamp: 
    secs: 1561864697
    nsecs: 907882556
  frame_id: "ti_mmwave"
point_id: 1
x: 0.017578125
y: -0.080078125
z: -0.0078125
range: 0.0871539413929
velocity: 0.0
doppler_bin: 8
bearing: -77.6192398071
intensity: 31.9117145538
---
header: 
  seq: 752102
  stamp: 
    secs: 1561864697
    nsecs: 907894353
  frame_id: "ti_mmwave"
point_id: 2
x: 0.029296875
y: -0.119140625
z: -0.005859375
range: 0.130730912089
velocity: 0.0
doppler_bin: 8
bearing: -76.1849746704
intensity: 30.1619739532
---
header: 
  seq: 752103
  stamp: 
    secs: 1561864697
    nsecs: 907902732
  frame_id: "ti_mmwave"
point_id: 3
x: 0.056640625
y: -0.154296875
z: 0.005859375
range: 0.174307882786
velocity: 0.0
doppler_bin: 8
bearing: -69.8423843384
intensity: 25.4406795502
---
header: 
  seq: 752104
  stamp: 
    secs: 1561864697
    nsecs: 907911504
  frame_id: "ti_mmwave"
point_id: 4
x: 0.126953125
y: -0.080078125
z: 1.259765625
range: 1.35088610649
velocity: 0.0
doppler_bin: 8
bearing: -32.2424697876
intensity: 23.0963020325
---
header: 
  seq: 752105
  stamp: 
    secs: 1561864697
    nsecs: 907921785
  frame_id: "ti_mmwave"
point_id: 5
x: 0.068359375
y: -0.08203125
z: -1.3046875
range: 1.39446306229
velocity: 0.0
doppler_bin: 8
bearing: -50.1944313049
intensity: 24.5939254761
---
header: 
  seq: 752106
  stamp: 
    secs: 1561864697
    nsecs: 907930518
  frame_id: "ti_mmwave"
point_id: 6
x: 0.435546875
y: -0.083984375
z: -1.275390625
range: 1.43804001808
velocity: 0.0
doppler_bin: 8
bearing: -10.9141130447
intensity: 22.9885311127
---
header: 
  seq: 752107
  stamp: 
    secs: 1561864697
    nsecs: 907939169
  frame_id: "ti_mmwave"
point_id: 7
x: 1.58984375
y: 0.099609375
z: -0.083984375
range: 1.69950187206
velocity: 0.0
doppler_bin: 8
bearing: 3.58509850502
intensity: 29.8855895996
---
header: 
  seq: 752108
  stamp: 
    secs: 1561864697
    nsecs: 908018577
  frame_id: "ti_mmwave"
point_id: 8
x: 1.634765625
y: 0.05078125
z: -0.064453125
range: 1.74307882786
velocity: 0.0
doppler_bin: 8
bearing: 1.77922511101
intensity: 30.1786766052
---
header: 
  seq: 752109
  stamp: 
    secs: 1561864697
    nsecs: 908039602
  frame_id: "ti_mmwave"
point_id: 9
x: 1.673828125
y: 0.10546875
z: -0.03515625
range: 1.78665578365
velocity: 0.0
doppler_bin: 8
bearing: 3.60546898842
intensity: 27.2997436523
---
header: 
  seq: 752110
  stamp: 
    secs: 1561864697
    nsecs: 908169926
  frame_id: "ti_mmwave"
point_id: 10
x: 2.607421875
y: -0.17578125
z: 1.064453125
range: 3.00681090355
velocity: 0.0
doppler_bin: 8
bearing: -3.8568007946
intensity: 29.0687351227
---
header: 
  seq: 752111
  stamp: 
    secs: 1561864697
    nsecs: 908181202
  frame_id: "ti_mmwave"
point_id: 11
x: 2.68359375
y: -0.08984375
z: 0.9921875
range: 3.05038785934
velocity: 0.0
doppler_bin: 8
bearing: -1.91748321056
intensity: 32.2115325928
---
header: 
  seq: 752112
  stamp: 
    secs: 1561864697
    nsecs: 908191435
  frame_id: "ti_mmwave"
point_id: 12
x: 2.74609375
y: -0.08984375
z: 0.939453125
range: 3.09396481514
velocity: 0.0
doppler_bin: 8
bearing: -1.8738732338
intensity: 31.2287101746
---
header: 
  seq: 752113
  stamp: 
    secs: 1561864697
    nsecs: 908200247
  frame_id: "ti_mmwave"
point_id: 13
x: 4.40625
y: -0.142578125
z: 1.0859375
range: 4.83704376221
velocity: 0.0
doppler_bin: 8
bearing: -1.85333895683
intensity: 28.0071716309
---
header: 
  seq: 752114
  stamp: 
    secs: 1561864697
    nsecs: 908208639
  frame_id: "ti_mmwave"
point_id: 14
x: 4.416015625
y: -0.142578125
z: 1.21484375
range: 4.88062095642
velocity: 0.0
doppler_bin: 8
bearing: -1.84924340248
intensity: 31.0924091339
---
header: 
  seq: 752115
  stamp: 
    secs: 1561864697
    nsecs: 908216447
  frame_id: "ti_mmwave"
point_id: 15
x: 4.44921875
y: -0.14453125
z: 1.244140625
range: 4.9241976738
velocity: 0.0
doppler_bin: 8
bearing: -1.86057829857
intensity: 30.4218158722
---
header: 
  seq: 752116
  stamp: 
    secs: 1561864697
    nsecs: 908224108
  frame_id: "ti_mmwave"
point_id: 16
x: 4.8125
y: -0.154296875
z: 0.955078125
range: 5.22923660278
velocity: 0.0
doppler_bin: 8
bearing: -1.83637046814
intensity: 30.7990455627
---
header: 
  seq: 752117
  stamp: 
    secs: 1561864697
    nsecs: 908232830
  frame_id: "ti_mmwave"
point_id: 17
x: 4.875
y: -0.30859375
z: 0.798828125
range: 5.27281332016
velocity: 0.0
doppler_bin: 8
bearing: -3.62206339836
intensity: 32.0844154358
---
header: 
  seq: 752118
  stamp: 
    secs: 1561864697
    nsecs: 908255315
  frame_id: "ti_mmwave"
point_id: 18
x: 4.958984375
y: -0.46875
z: 0.294921875
range: 5.31639051437
velocity: 0.0
doppler_bin: 8
bearing: -5.39986228943
intensity: 30.3941402435
---
header: 
  seq: 752119
  stamp: 
    secs: 1561864697
    nsecs: 908266560
  frame_id: "ti_mmwave"
point_id: 19
x: 0.009765625
y: 0.03125
z: 0.025390625
range: 0.0435769706964
velocity: 0.0
doppler_bin: 8
bearing: 72.6459732056
intensity: 29.3298072815
---
header: 
  seq: 752120
  stamp: 
    secs: 1561864697
    nsecs: 908274919
  frame_id: "ti_mmwave"
point_id: 20
x: 0.041015625
y: -0.033203125
z: 0.0625
range: 0.0871539413929
velocity: 0.0
doppler_bin: 8
bearing: -38.9909973145
intensity: 30.1029987335
---
header: 
  seq: 752121
  stamp: 
    secs: 1561864697
    nsecs: 908283009
  frame_id: "ti_mmwave"
point_id: 21
x: 0.052734375
y: -0.04296875
z: 0.1015625
range: 0.130730912089
velocity: 0.0
doppler_bin: 8
bearing: -39.1736602783
intensity: 28.9762706757
---
header: 
  seq: 752122
  stamp: 
    secs: 1561864697
    nsecs: 909397852
  frame_id: "ti_mmwave"
point_id: 0
x: 0.01171875
y: -0.0390625
z: -0.0078125
range: 0.0435769706964
velocity: 0.0
doppler_bin: 8
bearing: -73.3007583618
intensity: 30.6520614624
---
header: 
  seq: 752123
  stamp: 
    secs: 1561864697
    nsecs: 909466592
  frame_id: "ti_mmwave"
point_id: 1
x: 0.017578125
y: -0.080078125
z: -0.0078125
range: 0.0871539413929
velocity: 0.0
doppler_bin: 8
bearing: -77.6192398071
intensity: 31.9089164734
---
header: 
  seq: 752124
  stamp: 
    secs: 1561864697
    nsecs: 909484501
  frame_id: "ti_mmwave"
point_id: 2
x: 0.029296875
y: -0.119140625
z: -0.005859375
range: 0.130730912089
velocity: 0.0
doppler_bin: 8
bearing: -76.1849746704
intensity: 30.1619739532
---
header: 
  seq: 752125
  stamp: 
    secs: 1561864697
    nsecs: 909508675
  frame_id: "ti_mmwave"
point_id: 3
x: 0.056640625
y: -0.154296875
z: 0.005859375
range: 0.174307882786
velocity: 0.0
doppler_bin: 8
bearing: -69.8423843384
intensity: 25.4406795502
---
header: 
  seq: 752126
  stamp: 
    secs: 1561864697
    nsecs: 909530259
  frame_id: "ti_mmwave"
point_id: 4
x: 0.119140625
y: -0.080078125
z: 1.259765625
range: 1.35088610649
velocity: 0.0
doppler_bin: 8
bearing: -33.9062767029
intensity: 23.1175384521
---
header: 
  seq: 752127
  stamp: 
    secs: 1561864697
    nsecs: 909548926
  frame_id: "ti_mmwave"
point_id: 6
x: 0.4296875
y: -0.083984375
z: -1.27734375
range: 1.43804001808
velocity: 0.0
doppler_bin: 8
bearing: -11.0592975616
intensity: 23.0535144806
---
header: 
  seq: 752128
  stamp: 
    secs: 1561864697
    nsecs: 909563388
  frame_id: "ti_mmwave"
point_id: 7
x: 1.5859375
y: 0.150390625
z: -0.08984375
range: 1.69950187206
velocity: 0.0
doppler_bin: 8
bearing: 5.41702222824
intensity: 29.6520175934
---
header: 
  seq: 752129
  stamp: 
    secs: 1561864697
    nsecs: 909579190
  frame_id: "ti_mmwave"
point_id: 8
x: 1.62890625
y: 0.154296875
z: -0.0390625
range: 1.74307882786
velocity: 0.0
doppler_bin: 8
bearing: 5.41115236282
intensity: 30.0560951233
---
header: 
  seq: 752130
  stamp: 
    secs: 1561864697
    nsecs: 909589210
  frame_id: "ti_mmwave"
point_id: 9
x: 1.66796875
y: 0.10546875
z: 0.138671875
range: 1.78665578365
velocity: 0.0
doppler_bin: 8
bearing: 3.61810112
intensity: 26.981004715
---
header: 
  seq: 752131
  stamp: 
    secs: 1561864697
    nsecs: 909657544
  frame_id: "ti_mmwave"
point_id: 10
x: 2.595703125
y: -0.17578125
z: 1.09375
range: 3.00681090355
velocity: 0.0
doppler_bin: 8
bearing: -3.87416052818
intensity: 29.020029068
---
header: 
  seq: 752132
  stamp: 
    secs: 1561864697
    nsecs: 909669719
  frame_id: "ti_mmwave"
point_id: 11
x: 2.68359375
y: -0.08984375
z: 0.994140625
range: 3.05038785934
velocity: 0.0
doppler_bin: 8
bearing: -1.91748321056
intensity: 32.1800994873
---
header: 
  seq: 752133
  stamp: 
    secs: 1561864697
    nsecs: 909678197
  frame_id: "ti_mmwave"
point_id: 12
x: 2.751953125
y: -0.08984375
z: 0.923828125
range: 3.09396481514
velocity: 0.0
doppler_bin: 8
bearing: -1.86988639832
intensity: 31.2417812347
---
header: 
  seq: 752134
  stamp: 
    secs: 1561864697
    nsecs: 909686588
  frame_id: "ti_mmwave"
point_id: 13
x: 4.404296875
y: -0.142578125
z: 1.09765625
range: 4.83704376221
velocity: 0.0
doppler_bin: 8
bearing: -1.85416030884
intensity: 28.8366146088
---
header: 
  seq: 752135
  stamp: 
    secs: 1561864697
    nsecs: 909694550
  frame_id: "ti_mmwave"
point_id: 14
x: 4.4140625
y: -0.142578125
z: 1.21875
range: 4.88062095642
velocity: 0.0
doppler_bin: 8
bearing: -1.850061059
intensity: 32.1192092896
---
header: 
  seq: 752136
  stamp: 
    secs: 1561864697
    nsecs: 909702394
  frame_id: "ti_mmwave"
point_id: 15
x: 4.451171875
y: -0.14453125
z: 1.236328125
range: 4.9241976738
velocity: 0.0
doppler_bin: 8
bearing: -1.8597625494
intensity: 31.5986785889
---
header: 
  seq: 752137
  stamp: 
    secs: 1561864697
    nsecs: 909710296
  frame_id: "ti_mmwave"
point_id: 16
x: 4.80078125
y: -0.306640625
z: 0.974609375
range: 5.22923660278
velocity: 0.0
doppler_bin: 8
bearing: -3.65469241142
intensity: 31.020904541
---
header: 
  seq: 752138
  stamp: 
    secs: 1561864697
    nsecs: 909719331
  frame_id: "ti_mmwave"
point_id: 17
x: 4.87890625
y: -0.30859375
z: 0.77734375
range: 5.27281332016
velocity: 0.0
doppler_bin: 8
bearing: -3.61917114258
intensity: 32.2814369202
---
header: 
  seq: 752139
  stamp: 
    secs: 1561864697
    nsecs: 909733247
  frame_id: "ti_mmwave"
point_id: 18
x: 4.96484375
y: -0.46875
z: 0.1953125
range: 5.31639051437
velocity: 0.0
doppler_bin: 8
bearing: -5.39352655411
intensity: 30.6258201599
---
header: 
  seq: 752140
  stamp: 
    secs: 1561864697
    nsecs: 909746202
  frame_id: "ti_mmwave"
point_id: 19
x: 0.009765625
y: 0.03125
z: 0.025390625
range: 0.0435769706964
velocity: 0.0
doppler_bin: 8
bearing: 72.6459732056
intensity: 29.3298072815
---
header: 
  seq: 752141
  stamp: 
    secs: 1561864697
    nsecs: 909757843
  frame_id: "ti_mmwave"
point_id: 20
x: 0.041015625
y: -0.033203125
z: 0.0625
range: 0.0871539413929
velocity: 0.0
doppler_bin: 8
bearing: -38.9909973145
intensity: 30.0945091248
---
header: 
  seq: 752142
  stamp: 
    secs: 1561864697
    nsecs: 909770120
  frame_id: "ti_mmwave"
point_id: 21
x: 0.044921875
y: -0.046875
z: 0.103515625
range: 0.130730912089
velocity: 0.0
doppler_bin: 8
bearing: -46.218875885
intensity: 28.9707698822
---
header: 
  seq: 752143
  stamp: 
    secs: 1561864697
    nsecs: 967876437
  frame_id: "ti_mmwave"
point_id: 0
x: 0.01171875
y: -0.0390625
z: -0.0078125
range: 0.0435769706964
velocity: 0.0
doppler_bin: 8
bearing: -73.3007583618
intensity: 30.6595306396
---
header: 
  seq: 752144
  stamp: 
    secs: 1561864697
    nsecs: 968001326
  frame_id: "ti_mmwave"
point_id: 1
x: 0.017578125
y: -0.080078125
z: -0.0078125
range: 0.0871539413929
velocity: 0.0
doppler_bin: 8
bearing: -77.6192398071
intensity: 31.9117145538
---
header: 
  seq: 752145
  stamp: 
    secs: 1561864697
    nsecs: 968020492
  frame_id: "ti_mmwave"
point_id: 2
x: 0.029296875
y: -0.119140625
z: -0.005859375
range: 0.130730912089
velocity: 0.0
doppler_bin: 8
bearing: -76.1849746704
intensity: 30.1661548615
---
header: 
  seq: 752146
  stamp: 
    secs: 1561864697
    nsecs: 968029972
  frame_id: "ti_mmwave"
point_id: 3
x: 0.056640625
y: -0.154296875
z: 0.005859375
range: 0.174307882786
velocity: 0.0
doppler_bin: 8
bearing: -69.8423843384
intensity: 25.4530715942
---
header: 
  seq: 752147
  stamp: 
    secs: 1561864697
    nsecs: 968041336
  frame_id: "ti_mmwave"
point_id: 4
x: 0.12109375
y: -0.080078125
z: 1.259765625
range: 1.35088610649
velocity: 0.0
doppler_bin: 8
bearing: -33.4762802124
intensity: 23.0749607086
---
header: 
  seq: 752148
  stamp: 
    secs: 1561864697
    nsecs: 968050598
  frame_id: "ti_mmwave"
point_id: 5
x: 0.05859375
y: -0.08203125
z: 1.3046875
range: 1.39446306229
velocity: 0.0
doppler_bin: 8
bearing: -54.4623222351
intensity: 24.5788192749
---
header: 
  seq: 752149
  stamp: 
    secs: 1561864697
    nsecs: 968058937
  frame_id: "ti_mmwave"
point_id: 6
x: 0.416015625
y: -0.083984375
z: -1.28125
range: 1.43804001808
velocity: 0.0
doppler_bin: 8
bearing: -11.4133548737
intensity: 23.0102996826
---
header: 
  seq: 752150
  stamp: 
    secs: 1561864697
    nsecs: 968066525
  frame_id: "ti_mmwave"
point_id: 7
x: 0.533203125
y: -0.04296875
z: -1.283203125
range: 1.48161697388
velocity: 0.0
doppler_bin: 8
bearing: -4.60728597641
intensity: 21.6136798859
---
header: 
  seq: 752151
  stamp: 
    secs: 1561864697
    nsecs: 968087760
  frame_id: "ti_mmwave"
point_id: 8
x: 1.5390625
y: 0.09765625
z: -0.201171875
range: 1.65592491627
velocity: 0.0
doppler_bin: 8
bearing: 3.630651474
intensity: 25.5870857239
---
header: 
  seq: 752152
  stamp: 
    secs: 1561864697
    nsecs: 968097852
  frame_id: "ti_mmwave"
point_id: 9
x: 1.58984375
y: 0.05078125
z: -0.111328125
range: 1.69950187206
velocity: 0.0
doppler_bin: 8
bearing: 1.82946419716
intensity: 29.1062431335
---
header: 
  seq: 752153
  stamp: 
    secs: 1561864697
    nsecs: 968264597
  frame_id: "ti_mmwave"
point_id: 10
x: 1.630859375
y: 0.1015625
z: -0.078125
range: 1.74307882786
velocity: 0.0
doppler_bin: 8
bearing: 3.56351852417
intensity: 29.0091304779
---
header: 
  seq: 752154
  stamp: 
    secs: 1561864697
    nsecs: 968286186
  frame_id: "ti_mmwave"
point_id: 11
x: 1.669921875
y: 0.10546875
z: -0.107421875
range: 1.78665578365
velocity: 0.0
doppler_bin: 8
bearing: 3.61388087273
intensity: 26.6745300293
---
header: 
  seq: 752155
  stamp: 
    secs: 1561864697
    nsecs: 968299157
  frame_id: "ti_mmwave"
point_id: 12
x: 1.697265625
y: 0.16015625
z: -0.212890625
range: 1.83023273945
velocity: 0.0
doppler_bin: 8
bearing: 5.39054489136
intensity: 26.8033542633
---
header: 
  seq: 752156
  stamp: 
    secs: 1561864697
    nsecs: 968310258
  frame_id: "ti_mmwave"
point_id: 13
x: 2.6171875
y: -0.17578125
z: 1.04296875
range: 3.00681090355
velocity: 0.0
doppler_bin: 8
bearing: -3.84245300293
intensity: 29.0145835876
---
header: 
  seq: 752157
  stamp: 
    secs: 1561864697
    nsecs: 968320527
  frame_id: "ti_mmwave"
point_id: 14
x: 2.693359375
y: -0.08984375
z: 0.96875
range: 3.05038785934
velocity: 0.0
doppler_bin: 8
bearing: -1.91053581238
intensity: 32.2193565369
---
header: 
  seq: 752158
  stamp: 
    secs: 1561864697
    nsecs: 968332711
  frame_id: "ti_mmwave"
point_id: 15
x: 2.755859375
y: -0.08984375
z: 0.9140625
range: 3.09396481514
velocity: 0.0
doppler_bin: 8
bearing: -1.86723792553
intensity: 31.2155990601
---
header: 
  seq: 752159
  stamp: 
    secs: 1561864697
    nsecs: 968345774
  frame_id: "ti_mmwave"
point_id: 16
x: 4.40625
y: -0.142578125
z: 1.087890625
range: 4.83704376221
velocity: 0.0
doppler_bin: 8
bearing: -1.85333895683
intensity: 29.1381378174
---
header: 
  seq: 752160
  stamp: 
    secs: 1561864697
    nsecs: 968357363
  frame_id: "ti_mmwave"
point_id: 17
x: 4.419921875
y: -0.142578125
z: 1.19921875
range: 4.88062095642
velocity: 0.0
doppler_bin: 8
bearing: -1.847610116
intensity: 32.4895362854
---
header: 
  seq: 752161
  stamp: 
    secs: 1561864697
    nsecs: 968370437
  frame_id: "ti_mmwave"
point_id: 18
x: 4.4609375
y: -0.14453125
z: 1.203125
range: 4.9241976738
velocity: 0.0
doppler_bin: 8
bearing: -1.85569405556
intensity: 32.0817260742
---
header: 
  seq: 752162
  stamp: 
    secs: 1561864697
    nsecs: 968381670
  frame_id: "ti_mmwave"
point_id: 19
x: 4.81640625
y: -0.306640625
z: 0.900390625
range: 5.22923660278
velocity: 0.0
doppler_bin: 8
bearing: -3.64286804199
intensity: 30.8062648773
---
header: 
  seq: 752163
  stamp: 
    secs: 1561864697
    nsecs: 968392491
  frame_id: "ti_mmwave"
point_id: 20
x: 4.880859375
y: -0.30859375
z: 0.765625
range: 5.27281332016
velocity: 0.0
doppler_bin: 8
bearing: -3.61772704124
intensity: 32.0520439148
---
header: 
  seq: 752164
  stamp: 
    secs: 1561864697
    nsecs: 968403140
  frame_id: "ti_mmwave"
point_id: 21
x: 4.947265625
y: -0.623046875
z: 0.1796875
range: 5.31639051437
velocity: 0.0
doppler_bin: 8
bearing: -7.17790555954
intensity: 30.4414768219
---
header: 
  seq: 752165
  stamp: 
    secs: 1561864697
    nsecs: 968414431
  frame_id: "ti_mmwave"
point_id: 22
x: 0.009765625
y: 0.03125
z: 0.025390625
range: 0.0435769706964
velocity: 0.0
doppler_bin: 8
bearing: 72.6459732056
intensity: 29.3298072815
---
header: 
  seq: 752166
  stamp: 
    secs: 1561864697
    nsecs: 968429144
  frame_id: "ti_mmwave"
point_id: 23
x: 0.041015625
y: -0.033203125
z: 0.0625
range: 0.0871539413929
velocity: 0.0
doppler_bin: 8
bearing: -38.9909973145
intensity: 30.0987567902
---
header: 
  seq: 752167
  stamp: 
    secs: 1561864697
    nsecs: 968441696
  frame_id: "ti_mmwave"
point_id: 24
x: 0.044921875
y: -0.046875
z: 0.103515625
range: 0.130730912089
velocity: 0.0
doppler_bin: 8
bearing: -46.218875885
intensity: 28.9762706757
---
header: 
  seq: 752168
  stamp: 
    secs: 1561864697
    nsecs: 968451718
  frame_id: "ti_mmwave"
point_id: 26
x: 1.55078125
y: -0.0
z: -0.1171875
range: 1.65592491627
velocity: 0.0
doppler_bin: 8
bearing: -0.0
intensity: 25.4406795502
---
header: 
  seq: 752169
  stamp: 
    secs: 1561864697
    nsecs: 969438036
  frame_id: "ti_mmwave"
point_id: 0
x: 0.01171875
y: -0.0390625
z: -0.0078125
range: 0.0435769706964
velocity: 0.0
doppler_bin: 8
bearing: -73.3007583618
intensity: 30.6632595062
---
header: 
  seq: 752170
  stamp: 
    secs: 1561864697
    nsecs: 969499954
  frame_id: "ti_mmwave"
point_id: 1
x: 0.017578125
y: -0.080078125
z: -0.0078125
range: 0.0871539413929
velocity: 0.0
doppler_bin: 8
bearing: -77.6192398071
intensity: 31.9117145538
---
header: 
  seq: 752171
  stamp: 
    secs: 1561864697
    nsecs: 969515828
  frame_id: "ti_mmwave"
point_id: 2
x: 0.029296875
y: -0.119140625
z: -0.005859375
range: 0.130730912089
velocity: 0.0
doppler_bin: 8
bearing: -76.1849746704
intensity: 30.1619739532
---
header: 
  seq: 752172
  stamp: 
    secs: 1561864697
    nsecs: 969526968
  frame_id: "ti_mmwave"
point_id: 3
x: 0.056640625
y: -0.154296875
z: 0.005859375
range: 0.174307882786
velocity: 0.0
doppler_bin: 8
bearing: -69.8423843384
intensity: 25.4282550812
---
header: 
  seq: 752173
  stamp: 
    secs: 1561864697
    nsecs: 969536300
  frame_id: "ti_mmwave"
point_id: 4
x: 0.072265625
y: -0.080078125
z: 1.263671875
range: 1.35088610649
velocity: 0.0
doppler_bin: 8
bearing: -47.93567276
intensity: 23.0963020325
---
header: 
  seq: 752174
  stamp: 
    secs: 1561864697
    nsecs: 969594876
  frame_id: "ti_mmwave"
point_id: 6
x: 0.435546875
y: -0.083984375
z: -1.275390625
range: 1.43804001808
velocity: 0.0
doppler_bin: 8
bearing: -10.9141130447
intensity: 22.9885311127
---
header: 
  seq: 752175
  stamp: 
    secs: 1561864697
    nsecs: 969605657
  frame_id: "ti_mmwave"
point_id: 7
x: 0.56640625
y: -0.04296875
z: -1.26953125
range: 1.48161697388
velocity: 0.0
doppler_bin: 8
bearing: -4.33826684952
intensity: 21.6435279846
---
header: 
  seq: 752176
  stamp: 
    secs: 1561864697
    nsecs: 969613658
  frame_id: "ti_mmwave"
point_id: 8
x: 1.533203125
y: 0.09765625
z: -0.23046875
range: 1.65592491627
velocity: 0.0
doppler_bin: 8
bearing: 3.64448952675
intensity: 27.6641292572
---
header: 
  seq: 752177
  stamp: 
    secs: 1561864697
    nsecs: 969621266
  frame_id: "ti_mmwave"
point_id: 9
x: 1.576171875
y: 0.150390625
z: -0.19140625
range: 1.69950187206
velocity: 0.0
doppler_bin: 8
bearing: 5.45038318634
intensity: 31.7376880646
---
header: 
  seq: 752178
  stamp: 
    secs: 1561864697
    nsecs: 969628891
  frame_id: "ti_mmwave"
point_id: 10
x: 1.625
y: 0.1015625
z: -0.158203125
range: 1.74307882786
velocity: 0.0
doppler_bin: 8
bearing: 3.57633447647
intensity: 31.9173030853
---
header: 
  seq: 752179
  stamp: 
    secs: 1561864697
    nsecs: 969638477
  frame_id: "ti_mmwave"
point_id: 11
x: 1.66015625
y: 0.208984375
z: -0.119140625
range: 1.78665578365
velocity: 0.0
doppler_bin: 8
bearing: 7.17478847504
intensity: 28.1690387726
---
header: 
  seq: 752180
  stamp: 
    secs: 1561864697
    nsecs: 969645954
  frame_id: "ti_mmwave"
point_id: 12
x: 2.626953125
y: -0.17578125
z: 1.01953125
range: 3.00681090355
velocity: 0.0
doppler_bin: 8
bearing: -3.82821130753
intensity: 29.0525608063
---
header: 
  seq: 752181
  stamp: 
    secs: 1561864697
    nsecs: 969653239
  frame_id: "ti_mmwave"
point_id: 13
x: 2.6953125
y: -0.08984375
z: 0.962890625
range: 3.05038785934
velocity: 0.0
doppler_bin: 8
bearing: -1.90915250778
intensity: 32.1932258606
---
header: 
  seq: 752182
  stamp: 
    secs: 1561864697
    nsecs: 969660751
  frame_id: "ti_mmwave"
point_id: 14
x: 2.75390625
y: -0.08984375
z: 0.919921875
range: 3.09396481514
velocity: 0.0
doppler_bin: 8
bearing: -1.86856126785
intensity: 31.172712326
---
header: 
  seq: 752183
  stamp: 
    secs: 1561864697
    nsecs: 969669306
  frame_id: "ti_mmwave"
point_id: 15
x: 4.40625
y: -0.142578125
z: 1.08984375
range: 4.83704376221
velocity: 0.0
doppler_bin: 8
bearing: -1.85333895683
intensity: 29.1750545502
---
header: 
  seq: 752184
  stamp: 
    secs: 1561864697
    nsecs: 969676937
  frame_id: "ti_mmwave"
point_id: 16
x: 4.419921875
y: -0.142578125
z: 1.197265625
range: 4.88062095642
velocity: 0.0
doppler_bin: 8
bearing: -1.847610116
intensity: 32.5188140869
---
header: 
  seq: 752185
  stamp: 
    secs: 1561864697
    nsecs: 969684688
  frame_id: "ti_mmwave"
point_id: 17
x: 4.45703125
y: -0.14453125
z: 1.216796875
range: 4.9241976738
velocity: 0.0
doppler_bin: 8
bearing: -1.8573192358
intensity: 32.0924682617
---
header: 
  seq: 752186
  stamp: 
    secs: 1561864697
    nsecs: 969693978
  frame_id: "ti_mmwave"
point_id: 18
x: 4.81640625
y: -0.306640625
z: 0.89453125
range: 5.22923660278
velocity: 0.0
doppler_bin: 8
bearing: -3.64286804199
intensity: 30.7188205719
---
header: 
  seq: 752187
  stamp: 
    secs: 1561864697
    nsecs: 969701361
  frame_id: "ti_mmwave"
point_id: 19
x: 4.876953125
y: -0.30859375
z: 0.783203125
range: 5.27281332016
velocity: 0.0
doppler_bin: 8
bearing: -3.62061715126
intensity: 31.8836593628
---
header: 
  seq: 752188
  stamp: 
    secs: 1561864697
    nsecs: 969709253
  frame_id: "ti_mmwave"
point_id: 20
x: 4.966796875
y: -0.46875
z: 0.15234375
range: 5.31639051437
velocity: 0.0
doppler_bin: 8
bearing: -5.39141845703
intensity: 30.1661548615
---
header: 
  seq: 752189
  stamp: 
    secs: 1561864697
    nsecs: 969716662
  frame_id: "ti_mmwave"
point_id: 21
x: 0.009765625
y: 0.03125
z: 0.025390625
range: 0.0435769706964
velocity: 0.0
doppler_bin: 8
bearing: 72.6459732056
intensity: 29.3196620941
---
header: 
  seq: 752190
  stamp: 
    secs: 1561864697
    nsecs: 969724264
  frame_id: "ti_mmwave"
point_id: 22
x: 0.041015625
y: -0.033203125
z: 0.0625
range: 0.0871539413929
velocity: 0.0
doppler_bin: 8
bearing: -38.9909973145
intensity: 30.0987567902
---
header: 
  seq: 752191
  stamp: 
    secs: 1561864697
    nsecs: 969730383
  frame_id: "ti_mmwave"
point_id: 23
x: 0.044921875
y: -0.046875
z: 0.103515625
range: 0.130730912089
velocity: 0.0
doppler_bin: 8
bearing: -46.218875885
intensity: 28.9707698822
---
header: 
  seq: 752192
  stamp: 
    secs: 1561864697
    nsecs: 969743149
  frame_id: "ti_mmwave"
point_id: 25
x: 1.017578125
y: -0.33984375
z: -1.125
range: 1.65592491627
velocity: 0.0
doppler_bin: 8
bearing: -18.4679355621
intensity: 24.9968700409
---
header: 
  seq: 752193
  stamp: 
    secs: 1561864698
    nsecs:  27996456
  frame_id: "ti_mmwave"
point_id: 0
x: 0.01171875
y: -0.0390625
z: -0.0078125
range: 0.0435769706964
velocity: 0.0
doppler_bin: 8
bearing: -73.3007583618
intensity: 30.6632595062
---
header: 
  seq: 752194
  stamp: 
    secs: 1561864698
    nsecs:  28077467
  frame_id: "ti_mmwave"
point_id: 1
x: 0.017578125
y: -0.080078125
z: -0.0078125
range: 0.0871539413929
velocity: 0.0
doppler_bin: 8
bearing: -77.6192398071
intensity: 31.9145107269
---
header: 
  seq: 752195
  stamp: 
    secs: 1561864698
    nsecs:  28094092
  frame_id: "ti_mmwave"
point_id: 2
x: 0.029296875
y: -0.119140625
z: -0.005859375
range: 0.130730912089
velocity: 0.0
doppler_bin: 8
bearing: -76.1849746704
intensity: 30.1661548615
---
header: 
  seq: 752196
  stamp: 
    secs: 1561864698
    nsecs:  28113599
  frame_id: "ti_mmwave"
point_id: 3
x: 0.056640625
y: -0.154296875
z: 0.005859375
range: 0.174307882786
velocity: 0.0
doppler_bin: 8
bearing: -69.8423843384
intensity: 25.4654273987
---
header: 
  seq: 752197
  stamp: 
    secs: 1561864698
    nsecs:  28125079
  frame_id: "ti_mmwave"
point_id: 4
x: 0.080078125
y: -0.080078125
z: 1.263671875
range: 1.35088610649
velocity: 0.0
doppler_bin: 8
bearing: -45.0
intensity: 23.0749607086
---
header: 
  seq: 752198
  stamp: 
    secs: 1561864698
    nsecs:  28206373
  frame_id: "ti_mmwave"
point_id: 5
x: 0.099609375
y: -0.08203125
z: -1.302734375
range: 1.39446306229
velocity: 0.0
doppler_bin: 8
bearing: -39.4724617004
intensity: 24.5788192749
---
header: 
  seq: 752199
  stamp: 
    secs: 1561864698
    nsecs:  28220294
  frame_id: "ti_mmwave"
point_id: 6
x: 0.443359375
y: -0.083984375
z: -1.271484375
range: 1.43804001808
velocity: 0.0
doppler_bin: 8
bearing: -10.7262945175
intensity: 22.9446620941
---
header: 
  seq: 752200
  stamp: 
    secs: 1561864698
    nsecs:  28232000
  frame_id: "ti_mmwave"
point_id: 7
x: 0.576171875
y: -0.04296875
z: -1.265625
range: 1.48161697388
velocity: 0.0
doppler_bin: 8
bearing: -4.2650103569
intensity: 21.5836257935
---
header: 
  seq: 752201
  stamp: 
    secs: 1561864698
    nsecs:  28243187
  frame_id: "ti_mmwave"
point_id: 8
x: 1.55078125
y: -0.048828125
z: -0.09765625
range: 1.65592491627
velocity: 0.0
doppler_bin: 8
bearing: -1.80342757702
intensity: 29.0471553802
---
header: 
  seq: 752202
  stamp: 
    secs: 1561864698
    nsecs:  28253535
  frame_id: "ti_mmwave"
point_id: 9
x: 1.595703125
y: -0.0
z: -0.04296875
range: 1.69950187206
velocity: 0.0
doppler_bin: 8
bearing: -0.0
intensity: 30.3901729584
---
header: 
  seq: 752203
  stamp: 
    secs: 1561864698
    nsecs:  28266430
  frame_id: "ti_mmwave"
point_id: 10
x: 1.630859375
y: 0.1015625
z: 0.064453125
range: 1.74307882786
velocity: 0.0
doppler_bin: 8
bearing: 3.56351852417
intensity: 28.4135951996
---
header: 
  seq: 752204
  stamp: 
    secs: 1561864698
    nsecs:  28279925
  frame_id: "ti_mmwave"
point_id: 11
x: 2.619140625
y: -0.17578125
z: 1.0390625
range: 3.00681090355
velocity: 0.0
doppler_bin: 8
bearing: -3.83959650993
intensity: 29.0741138458
---
header: 
  seq: 752205
  stamp: 
    secs: 1561864698
    nsecs:  28291417
  frame_id: "ti_mmwave"
point_id: 12
x: 2.689453125
y: -0.08984375
z: 0.978515625
range: 3.05038785934
velocity: 0.0
doppler_bin: 8
bearing: -1.91330885887
intensity: 32.2608413696
---
header: 
  seq: 752206
  stamp: 
    secs: 1561864698
    nsecs:  28303974
  frame_id: "ti_mmwave"
point_id: 13
x: 2.7578125
y: -0.08984375
z: 0.908203125
range: 3.09396481514
velocity: 0.0
doppler_bin: 8
bearing: -1.86591637135
intensity: 31.4050807953
---
header: 
  seq: 752207
  stamp: 
    secs: 1561864698
    nsecs:  28316717
  frame_id: "ti_mmwave"
point_id: 14
x: 4.408203125
y: -0.142578125
z: 1.076171875
range: 4.83704376221
velocity: 0.0
doppler_bin: 8
bearing: -1.85251843929
intensity: 29.2116603851
---
header: 
  seq: 752208
  stamp: 
    secs: 1561864698
    nsecs:  28326340
  frame_id: "ti_mmwave"
point_id: 15
x: 4.419921875
y: -0.142578125
z: 1.197265625
range: 4.88062095642
velocity: 0.0
doppler_bin: 8
bearing: -1.847610116
intensity: 32.5478973389
---
header: 
  seq: 752209
  stamp: 
    secs: 1561864698
    nsecs:  28349074
  frame_id: "ti_mmwave"
point_id: 16
x: 4.455078125
y: -0.14453125
z: 1.22265625
range: 4.9241976738
velocity: 0.0
doppler_bin: 8
bearing: -1.85813295841
intensity: 32.129863739
---
header: 
  seq: 752210
  stamp: 
    secs: 1561864698
    nsecs:  28370550
  frame_id: "ti_mmwave"
point_id: 17
x: 4.82421875
y: -0.306640625
z: 0.849609375
range: 5.22923660278
velocity: 0.0
doppler_bin: 8
bearing: -3.6369843483
intensity: 30.934217453
---
header: 
  seq: 752211
  stamp: 
    secs: 1561864698
    nsecs:  28440496
  frame_id: "ti_mmwave"
point_id: 18
x: 4.8828125
y: -0.30859375
z: 0.751953125
range: 5.27281332016
velocity: 0.0
doppler_bin: 8
bearing: -3.61628341675
intensity: 32.0167007446
---
header: 
  seq: 752212
  stamp: 
    secs: 1561864698
    nsecs:  28459266
  frame_id: "ti_mmwave"
point_id: 19
x: 4.966796875
y: -0.46875
z: 0.1171875
range: 5.31639051437
velocity: 0.0
doppler_bin: 8
bearing: -5.39141845703
intensity: 30.3742656708
---
header: 
  seq: 752213
  stamp: 
    secs: 1561864698
    nsecs:  28471663
  frame_id: "ti_mmwave"
point_id: 20
x: 0.009765625
y: 0.03125
z: 0.025390625
range: 0.0435769706964
velocity: 0.0
doppler_bin: 8
bearing: 72.6459732056
intensity: 29.3247375488
---
header: 
  seq: 752214
  stamp: 
    secs: 1561864698
    nsecs:  28483980
  frame_id: "ti_mmwave"
point_id: 21
x: 0.041015625
y: -0.033203125
z: 0.0625
range: 0.0871539413929
velocity: 0.0
doppler_bin: 8
bearing: -38.9909973145
intensity: 30.0902576447
---
header: 
  seq: 752215
  stamp: 
    secs: 1561864698
    nsecs:  28496384
  frame_id: "ti_mmwave"
point_id: 22
x: 0.044921875
y: -0.046875
z: 0.103515625
range: 0.130730912089
velocity: 0.0
doppler_bin: 8
bearing: -46.218875885
intensity: 28.9707698822
---
header: 
  seq: 752216
  stamp: 
    secs: 1561864698
    nsecs:  87812129
  frame_id: "ti_mmwave"
point_id: 0
x: 0.01171875
y: -0.0390625
z: -0.0078125
range: 0.0435769706964
velocity: 0.0
doppler_bin: 8
bearing: -73.3007583618
intensity: 30.6632595062
---
header: 
  seq: 752217
  stamp: 
    secs: 1561864698
    nsecs:  87886507
  frame_id: "ti_mmwave"
point_id: 1
x: 0.017578125
y: -0.080078125
z: -0.0078125
range: 0.0871539413929
velocity: 0.0
doppler_bin: 8
bearing: -77.6192398071
intensity: 31.9117145538
---
header: 
  seq: 752218
  stamp: 
    secs: 1561864698
    nsecs:  87902440
  frame_id: "ti_mmwave"
point_id: 2
x: 0.029296875
y: -0.119140625
z: -0.005859375
range: 0.130730912089
velocity: 0.0
doppler_bin: 8
bearing: -76.1849746704
intensity: 30.157787323
---
header: 
  seq: 752219
  stamp: 
    secs: 1561864698
    nsecs:  87916986
  frame_id: "ti_mmwave"
point_id: 3
x: 0.056640625
y: -0.154296875
z: 0.005859375
range: 0.174307882786
velocity: 0.0
doppler_bin: 8
bearing: -69.8423843384
intensity: 25.4406795502
---
header: 
  seq: 752220
  stamp: 
    secs: 1561864698
    nsecs:  87933970
  frame_id: "ti_mmwave"
point_id: 4
x: 0.109375
y: -0.080078125
z: 1.26171875
range: 1.35088610649
velocity: 0.0
doppler_bin: 8
bearing: -36.2094573975
intensity: 23.0963020325
---
header: 
  seq: 752221
  stamp: 
    secs: 1561864698
    nsecs:  88050811
  frame_id: "ti_mmwave"
point_id: 6
x: 0.419921875
y: -0.083984375
z: -1.279296875
range: 1.43804001808
velocity: 0.0
doppler_bin: 8
bearing: -11.3099327087
intensity: 22.9666519165
---
header: 
  seq: 752222
  stamp: 
    secs: 1561864698
    nsecs:  88066453
  frame_id: "ti_mmwave"
point_id: 7
x: 0.525390625
y: -0.04296875
z: -1.287109375
range: 1.48161697388
velocity: 0.0
doppler_bin: 8
bearing: -4.67549467087
intensity: 21.5533599854
---
header: 
  seq: 752223
  stamp: 
    secs: 1561864698
    nsecs:  88080477
  frame_id: "ti_mmwave"
point_id: 8
x: 1.5390625
y: 0.146484375
z: -0.169921875
range: 1.65592491627
velocity: 0.0
doppler_bin: 8
bearing: 5.43690061569
intensity: 25.6466598511
---
header: 
  seq: 752224
  stamp: 
    secs: 1561864698
    nsecs:  88091139
  frame_id: "ti_mmwave"
point_id: 9
x: 1.578125
y: 0.150390625
z: -0.177734375
range: 1.69950187206
velocity: 0.0
doppler_bin: 8
bearing: 5.44367837906
intensity: 29.4792366028
---
header: 
  seq: 752225
  stamp: 
    secs: 1561864698
    nsecs:  88101624
  frame_id: "ti_mmwave"
point_id: 10
x: 1.625
y: 0.154296875
z: -0.123046875
range: 1.74307882786
velocity: 0.0
doppler_bin: 8
bearing: 5.42408227921
intensity: 29.5568771362
---
header: 
  seq: 752226
  stamp: 
    secs: 1561864698
    nsecs:  88112491
  frame_id: "ti_mmwave"
point_id: 11
x: 1.66796875
y: 0.10546875
z: -0.14453125
range: 1.78665578365
velocity: 0.0
doppler_bin: 8
bearing: 3.61810112
intensity: 26.0314445496
---
header: 
  seq: 752227
  stamp: 
    secs: 1561864698
    nsecs:  88123878
  frame_id: "ti_mmwave"
point_id: 12
x: 2.603515625
y: -0.17578125
z: 1.076171875
range: 3.00681090355
velocity: 0.0
doppler_bin: 8
bearing: -3.86257004738
intensity: 29.0363254547
---
header: 
  seq: 752228
  stamp: 
    secs: 1561864698
    nsecs:  88137292
  frame_id: "ti_mmwave"
point_id: 13
x: 2.6875
y: -0.08984375
z: 0.982421875
range: 3.05038785934
velocity: 0.0
doppler_bin: 8
bearing: -1.91469812393
intensity: 32.2141418457
---
header: 
  seq: 752229
  stamp: 
    secs: 1561864698
    nsecs:  88149791
  frame_id: "ti_mmwave"
point_id: 14
x: 2.75390625
y: -0.08984375
z: 0.91796875
range: 3.09396481514
velocity: 0.0
doppler_bin: 8
bearing: -1.86856126785
intensity: 31.344959259
---
header: 
  seq: 752230
  stamp: 
    secs: 1561864698
    nsecs:  88162962
  frame_id: "ti_mmwave"
point_id: 15
x: 4.41015625
y: -0.142578125
z: 1.072265625
range: 4.83704376221
velocity: 0.0
doppler_bin: 8
bearing: -1.85169863701
intensity: 29.0254669189
---
header: 
  seq: 752231
  stamp: 
    secs: 1561864698
    nsecs:  88215374
  frame_id: "ti_mmwave"
point_id: 16
x: 4.419921875
y: -0.142578125
z: 1.19921875
range: 4.88062095642
velocity: 0.0
doppler_bin: 8
bearing: -1.847610116
intensity: 32.3904914856
---
header: 
  seq: 752232
  stamp: 
    secs: 1561864698
    nsecs:  88231491
  frame_id: "ti_mmwave"
point_id: 17
x: 4.455078125
y: -0.14453125
z: 1.2265625
range: 4.9241976738
velocity: 0.0
doppler_bin: 8
bearing: -1.85813295841
intensity: 31.9173030853
---
header: 
  seq: 752233
  stamp: 
    secs: 1561864698
    nsecs:  88245240
  frame_id: "ti_mmwave"
point_id: 18
x: 4.810546875
y: -0.306640625
z: 0.927734375
range: 5.22923660278
velocity: 0.0
doppler_bin: 8
bearing: -3.64729380608
intensity: 31.2188796997
---
header: 
  seq: 752234
  stamp: 
    secs: 1561864698
    nsecs:  88255865
  frame_id: "ti_mmwave"
point_id: 19
x: 4.8671875
y: -0.30859375
z: 0.83984375
range: 5.27281332016
velocity: 0.0
doppler_bin: 8
bearing: -3.62786221504
intensity: 32.3299598694
---
header: 
  seq: 752235
  stamp: 
    secs: 1561864698
    nsecs:  88267548
  frame_id: "ti_mmwave"
point_id: 20
x: 4.958984375
y: -0.46875
z: 0.302734375
range: 5.31639051437
velocity: 0.0
doppler_bin: 8
bearing: -5.39986228943
intensity: 30.5076637268
---
header: 
  seq: 752236
  stamp: 
    secs: 1561864698
    nsecs:  88282539
  frame_id: "ti_mmwave"
point_id: 21
x: 0.009765625
y: 0.03125
z: 0.025390625
range: 0.0435769706964
velocity: 0.0
doppler_bin: 8
bearing: 72.6459732056
intensity: 29.3247375488
---
header: 
  seq: 752237
  stamp: 
    secs: 1561864698
    nsecs:  88297127
  frame_id: "ti_mmwave"
point_id: 22
x: 0.041015625
y: -0.033203125
z: 0.0625
range: 0.0871539413929
velocity: 0.0
doppler_bin: 8
bearing: -38.9909973145
intensity: 30.0987567902
---
header: 
  seq: 752238
  stamp: 
    secs: 1561864698
    nsecs:  88310353
  frame_id: "ti_mmwave"
point_id: 23
x: 0.044921875
y: -0.046875
z: 0.103515625
range: 0.130730912089
velocity: 0.0
doppler_bin: 8
bearing: -46.218875885
intensity: 28.9762706757
---
header: 
  seq: 752239
  stamp: 
    secs: 1561864698
    nsecs:  88326000
  frame_id: "ti_mmwave"
point_id: 25
x: 0.41015625
y: 1.068359375
z: -1.05078125
range: 1.65592491627
velocity: 0.0
doppler_bin: 8
bearing: 68.9975891113
intensity: 24.2813472748
---
header: 
  seq: 752240
  stamp: 
    secs: 1561864698
    nsecs:  89145110
  frame_id: "ti_mmwave"
point_id: 0
x: 0.01171875
y: -0.0390625
z: -0.0078125
range: 0.0435769706964
velocity: 0.0
doppler_bin: 8
bearing: -73.3007583618
intensity: 30.6669845581
---
header: 
  seq: 752241
  stamp: 
    secs: 1561864698
    nsecs:  89192412
  frame_id: "ti_mmwave"
point_id: 1
x: 0.017578125
y: -0.080078125
z: -0.0078125
range: 0.0871539413929
velocity: 0.0
doppler_bin: 8
bearing: -77.6192398071
intensity: 31.9145107269
---
header: 
  seq: 752242
  stamp: 
    secs: 1561864698
    nsecs:  89208469
  frame_id: "ti_mmwave"
point_id: 2
x: 0.029296875
y: -0.119140625
z: -0.005859375
range: 0.130730912089
velocity: 0.0
doppler_bin: 8
bearing: -76.1849746704
intensity: 30.1661548615
---
header: 
  seq: 752243
  stamp: 
    secs: 1561864698
    nsecs:  89222705
  frame_id: "ti_mmwave"
point_id: 3
x: 0.056640625
y: -0.154296875
z: 0.005859375
range: 0.174307882786
velocity: 0.0
doppler_bin: 8
bearing: -69.8423843384
intensity: 25.4530715942
---
header: 
  seq: 752244
  stamp: 
    secs: 1561864698
    nsecs:  89235985
  frame_id: "ti_mmwave"
point_id: 4
x: 0.1171875
y: -0.080078125
z: 1.259765625
range: 1.35088610649
velocity: 0.0
doppler_bin: 8
bearing: -34.3460998535
intensity: 23.0535144806
---
header: 
  seq: 752245
  stamp: 
    secs: 1561864698
    nsecs:  89250949
  frame_id: "ti_mmwave"
point_id: 6
x: 0.4140625
y: -0.083984375
z: -1.28125
range: 1.43804001808
velocity: 0.0
doppler_bin: 8
bearing: -11.4657688141
intensity: 22.9446620941
---
header: 
  seq: 752246
  stamp: 
    secs: 1561864698
    nsecs:  89263002
  frame_id: "ti_mmwave"
point_id: 7
x: 0.533203125
y: -0.04296875
z: -1.283203125
range: 1.48161697388
velocity: 0.0
doppler_bin: 8
bearing: -4.60728597641
intensity: 21.5228843689
---
header: 
  seq: 752247
  stamp: 
    secs: 1561864698
    nsecs:  89274870
  frame_id: "ti_mmwave"
point_id: 8
x: 1.53515625
y: -0.0
z: -0.23828125
range: 1.65592491627
velocity: 0.0
doppler_bin: 8
bearing: -0.0
intensity: 27.5663604736
---
header: 
  seq: 752248
  stamp: 
    secs: 1561864698
    nsecs:  89288124
  frame_id: "ti_mmwave"
point_id: 9
x: 1.560546875
y: 0.05078125
z: -0.32421875
range: 1.69950187206
velocity: 0.0
doppler_bin: 8
bearing: 1.86378574371
intensity: 29.2012329102
---
header: 
  seq: 752249
  stamp: 
    secs: 1561864698
    nsecs:  89301761
  frame_id: "ti_mmwave"
point_id: 10
x: 1.53125
y: 0.05078125
z: -0.576171875
range: 1.74307882786
velocity: 0.0
doppler_bin: 8
bearing: 1.89941906929
intensity: 27.2098579407
---
header: 
  seq: 752250
  stamp: 
    secs: 1561864698
    nsecs:  89321762
  frame_id: "ti_mmwave"
point_id: 11
x: 2.6171875
y: -0.17578125
z: 1.041015625
range: 3.00681090355
velocity: 0.0
doppler_bin: 8
bearing: -3.84245300293
intensity: 28.8874092102
---
header: 
  seq: 752251
  stamp: 
    secs: 1561864698
    nsecs:  89334359
  frame_id: "ti_mmwave"
point_id: 12
x: 2.689453125
y: -0.08984375
z: 0.9765625
range: 3.05038785934
velocity: 0.0
doppler_bin: 8
bearing: -1.91330885887
intensity: 32.1748390198
---
header: 
  seq: 752252
  stamp: 
    secs: 1561864698
    nsecs:  89347589
  frame_id: "ti_mmwave"
point_id: 13
x: 2.75390625
y: -0.08984375
z: 0.91796875
range: 3.09396481514
velocity: 0.0
doppler_bin: 8
bearing: -1.86856126785
intensity: 31.2548122406
---
header: 
  seq: 752253
  stamp: 
    secs: 1561864698
    nsecs:  89359303
  frame_id: "ti_mmwave"
point_id: 14
x: 4.41015625
y: -0.142578125
z: 1.068359375
range: 4.83704376221
velocity: 0.0
doppler_bin: 8
bearing: -1.85169863701
intensity: 28.6391735077
---
header: 
  seq: 752254
  stamp: 
    secs: 1561864698
    nsecs:  89370065
  frame_id: "ti_mmwave"
point_id: 15
x: 4.419921875
y: -0.142578125
z: 1.1953125
range: 4.88062095642
velocity: 0.0
doppler_bin: 8
bearing: -1.847610116
intensity: 31.8241462708
---
header: 
  seq: 752255
  stamp: 
    secs: 1561864698
    nsecs:  89381908
  frame_id: "ti_mmwave"
point_id: 16
x: 4.453125
y: -0.14453125
z: 1.23046875
range: 4.9241976738
velocity: 0.0
doppler_bin: 8
bearing: -1.85894739628
intensity: 31.2548122406
---
header: 
  seq: 752256
  stamp: 
    secs: 1561864698
    nsecs:  89454252
  frame_id: "ti_mmwave"
point_id: 17
x: 4.8046875
y: -0.306640625
z: 0.955078125
range: 5.22923660278
velocity: 0.0
doppler_bin: 8
bearing: -3.6517291069
intensity: 30.8529052734
---
header: 
  seq: 752257
  stamp: 
    secs: 1561864698
    nsecs:  89469115
  frame_id: "ti_mmwave"
point_id: 18
x: 4.87890625
y: -0.30859375
z: 0.775390625
range: 5.27281332016
velocity: 0.0
doppler_bin: 8
bearing: -3.61917114258
intensity: 32.0167007446
---
header: 
  seq: 752258
  stamp: 
    secs: 1561864698
    nsecs:  89480353
  frame_id: "ti_mmwave"
point_id: 19
x: 4.96484375
y: -0.46875
z: 0.17578125
range: 5.31639051437
velocity: 0.0
doppler_bin: 8
bearing: -5.39352655411
intensity: 30.3059978485
---
header: 
  seq: 752259
  stamp: 
    secs: 1561864698
    nsecs:  89492003
  frame_id: "ti_mmwave"
point_id: 20
x: 0.009765625
y: 0.03125
z: 0.025390625
range: 0.0435769706964
velocity: 0.0
doppler_bin: 8
bearing: 72.6459732056
intensity: 29.3247375488
---
header: 
  seq: 752260
  stamp: 
    secs: 1561864698
    nsecs:  89504852
  frame_id: "ti_mmwave"
point_id: 21
x: 0.041015625
y: -0.033203125
z: 0.0625
range: 0.0871539413929
velocity: 0.0
doppler_bin: 8
bearing: -38.9909973145
intensity: 30.0945091248
---
header: 
  seq: 752261
  stamp: 
    secs: 1561864698
    nsecs:  89518019
  frame_id: "ti_mmwave"
point_id: 22
x: 0.044921875
y: -0.046875
z: 0.103515625
range: 0.130730912089
velocity: 0.0
doppler_bin: 8
bearing: -46.218875885
intensity: 28.9707698822
---
header: 
  seq: 752262
  stamp: 
    secs: 1561864698
    nsecs: 147787213
  frame_id: "ti_mmwave"
point_id: 0
x: 0.01171875
y: -0.0390625
z: -0.0078125
range: 0.0435769706964
velocity: 0.0
doppler_bin: 8
bearing: -73.3007583618
intensity: 30.6632595062
---
header: 
  seq: 752263
  stamp: 
    secs: 1561864698
    nsecs: 147883609
  frame_id: "ti_mmwave"
point_id: 1
x: 0.017578125
y: -0.080078125
z: -0.0078125
range: 0.0871539413929
velocity: 0.0
doppler_bin: 8
bearing: -77.6192398071
intensity: 31.9173030853
---
header: 
  seq: 752264
  stamp: 
    secs: 1561864698
    nsecs: 147907781
  frame_id: "ti_mmwave"
point_id: 2
x: 0.029296875
y: -0.119140625
z: -0.005859375
range: 0.130730912089
velocity: 0.0
doppler_bin: 8
bearing: -76.1849746704
intensity: 30.1703338623
---
header: 
  seq: 752265
  stamp: 
    secs: 1561864698
    nsecs: 147921781
  frame_id: "ti_mmwave"
point_id: 3
x: 0.056640625
y: -0.154296875
z: 0.005859375
range: 0.174307882786
velocity: 0.0
doppler_bin: 8
bearing: -69.8423843384
intensity: 25.4530715942
---
header: 
  seq: 752266
  stamp: 
    secs: 1561864698
    nsecs: 147934444
  frame_id: "ti_mmwave"
point_id: 4
x: 0.162109375
y: -0.080078125
z: 1.255859375
range: 1.35088610649
velocity: 0.0
doppler_bin: 8
bearing: -26.2882633209
intensity: 23.0749607086
---
header: 
  seq: 752267
  stamp: 
    secs: 1561864698
    nsecs: 147982872
  frame_id: "ti_mmwave"
point_id: 6
x: 0.419921875
y: -0.083984375
z: -1.279296875
range: 1.43804001808
velocity: 0.0
doppler_bin: 8
bearing: -11.3099327087
intensity: 22.9885311127
---
header: 
  seq: 752268
  stamp: 
    secs: 1561864698
    nsecs: 147999246
  frame_id: "ti_mmwave"
point_id: 7
x: 0.548828125
y: -0.04296875
z: -1.27734375
range: 1.48161697388
velocity: 0.0
doppler_bin: 8
bearing: -4.47665882111
intensity: 21.6136798859
---
header: 
  seq: 752269
  stamp: 
    secs: 1561864698
    nsecs: 148023187
  frame_id: "ti_mmwave"
point_id: 8
x: 1.546875
y: 0.09765625
z: -0.11328125
range: 1.65592491627
velocity: 0.0
doppler_bin: 8
bearing: 3.61236357689
intensity: 27.9379043579
---
header: 
  seq: 752270
  stamp: 
    secs: 1561864698
    nsecs: 148113126
  frame_id: "ti_mmwave"
point_id: 9
x: 1.58203125
y: 0.099609375
z: -0.1796875
range: 1.69950187206
velocity: 0.0
doppler_bin: 8
bearing: 3.60275626183
intensity: 30.788192749
---
header: 
  seq: 752271
  stamp: 
    secs: 1561864698
    nsecs: 148130378
  frame_id: "ti_mmwave"
point_id: 10
x: 1.61328125
y: 0.1015625
z: -0.255859375
range: 1.74307882786
velocity: 0.0
doppler_bin: 8
bearing: 3.60224437714
intensity: 29.6567192078
---
header: 
  seq: 752272
  stamp: 
    secs: 1561864698
    nsecs: 148141613
  frame_id: "ti_mmwave"
point_id: 11
x: 1.671875
y: 0.10546875
z: -0.080078125
range: 1.78665578365
velocity: 0.0
doppler_bin: 8
bearing: 3.60966992378
intensity: 27.5127906799
---
header: 
  seq: 752273
  stamp: 
    secs: 1561864698
    nsecs: 148152699
  frame_id: "ti_mmwave"
point_id: 12
x: 1.712890625
y: 0.052734375
z: -0.111328125
range: 1.83023273945
velocity: 0.0
doppler_bin: 8
bearing: 1.76339519024
intensity: 27.1011734009
---
header: 
  seq: 752274
  stamp: 
    secs: 1561864698
    nsecs: 148164692
  frame_id: "ti_mmwave"
point_id: 13
x: 2.607421875
y: -0.17578125
z: 1.06640625
range: 3.00681090355
velocity: 0.0
doppler_bin: 8
bearing: -3.8568007946
intensity: 28.9486961365
---
header: 
  seq: 752275
  stamp: 
    secs: 1561864698
    nsecs: 148175774
  frame_id: "ti_mmwave"
point_id: 14
x: 2.6875
y: -0.08984375
z: 0.982421875
range: 3.05038785934
velocity: 0.0
doppler_bin: 8
bearing: -1.91469812393
intensity: 32.1774711609
---
header: 
  seq: 752276
  stamp: 
    secs: 1561864698
    nsecs: 148187287
  frame_id: "ti_mmwave"
point_id: 15
x: 2.7578125
y: -0.08984375
z: 0.908203125
range: 3.09396481514
velocity: 0.0
doppler_bin: 8
bearing: -1.86591637135
intensity: 31.2613143921
---
header: 
  seq: 752277
  stamp: 
    secs: 1561864698
    nsecs: 148201830
  frame_id: "ti_mmwave"
point_id: 16
x: 4.419921875
y: -0.142578125
z: 1.19921875
range: 4.88062095642
velocity: 0.0
doppler_bin: 8
bearing: -1.847610116
intensity: 30.9412155151
---
header: 
  seq: 752278
  stamp: 
    secs: 1561864698
    nsecs: 148213073
  frame_id: "ti_mmwave"
point_id: 17
x: 4.453125
y: -0.14453125
z: 1.232421875
range: 4.9241976738
velocity: 0.0
doppler_bin: 8
bearing: -1.85894739628
intensity: 30.3941402435
---
header: 
  seq: 752279
  stamp: 
    secs: 1561864698
    nsecs: 148222649
  frame_id: "ti_mmwave"
point_id: 18
x: 4.806640625
y: -0.306640625
z: 0.951171875
range: 5.22923660278
velocity: 0.0
doppler_bin: 8
bearing: -3.65024900436
intensity: 31.00715065
---
header: 
  seq: 752280
  stamp: 
    secs: 1561864698
    nsecs: 148246750
  frame_id: "ti_mmwave"
point_id: 19
x: 4.876953125
y: -0.30859375
z: 0.787109375
range: 5.27281332016
velocity: 0.0
doppler_bin: 8
bearing: -3.62061715126
intensity: 32.2891349792
---
header: 
  seq: 752281
  stamp: 
    secs: 1561864698
    nsecs: 148267149
  frame_id: "ti_mmwave"
point_id: 20
x: 4.9609375
y: -0.46875
z: 0.2734375
range: 5.31639051437
velocity: 0.0
doppler_bin: 8
bearing: -5.39774847031
intensity: 30.6220588684
---
header: 
  seq: 752282
  stamp: 
    secs: 1561864698
    nsecs: 148333291
  frame_id: "ti_mmwave"
point_id: 21
x: 0.009765625
y: 0.03125
z: 0.025390625
range: 0.0435769706964
velocity: 0.0
doppler_bin: 8
bearing: 72.6459732056
intensity: 29.3247375488
---
header: 
  seq: 752283
  stamp: 
    secs: 1561864698
    nsecs: 148348948
  frame_id: "ti_mmwave"
point_id: 22
x: 0.041015625
y: -0.033203125
z: 0.0625
range: 0.0871539413929
velocity: 0.0
doppler_bin: 8
bearing: -38.9909973145
intensity: 30.0945091248
---
header: 
  seq: 752284
  stamp: 
    secs: 1561864698
    nsecs: 148363221
  frame_id: "ti_mmwave"
point_id: 23
x: 0.052734375
y: -0.04296875
z: 0.1015625
range: 0.130730912089
velocity: 0.0
doppler_bin: 8
bearing: -39.1736602783
intensity: 28.9707698822
---
header: 
  seq: 752285
  stamp: 
    secs: 1561864698
    nsecs: 148377354
  frame_id: "ti_mmwave"
point_id: 25
x: 0.310546875
y: 0.6796875
z: 1.36328125
range: 1.65592491627
velocity: 0.0
doppler_bin: 8
bearing: 65.4445037842
intensity: 25.1851387024
---
header: 
  seq: 752286
  stamp: 
    secs: 1561864698
    nsecs: 149282204
  frame_id: "ti_mmwave"
point_id: 0
x: 0.01171875
y: -0.0390625
z: -0.0078125
range: 0.0435769706964
velocity: 0.0
doppler_bin: 8
bearing: -73.3007583618
intensity: 30.6669845581
---
header: 
  seq: 752287
  stamp: 
    secs: 1561864698
    nsecs: 149336937
  frame_id: "ti_mmwave"
point_id: 1
x: 0.017578125
y: -0.080078125
z: -0.0078125
range: 0.0871539413929
velocity: 0.0
doppler_bin: 8
bearing: -77.6192398071
intensity: 31.9145107269
---
header: 
  seq: 752288
  stamp: 
    secs: 1561864698
    nsecs: 149354929
  frame_id: "ti_mmwave"
point_id: 2
x: 0.029296875
y: -0.119140625
z: -0.005859375
range: 0.130730912089
velocity: 0.0
doppler_bin: 8
bearing: -76.1849746704
intensity: 30.1619739532
---
header: 
  seq: 752289
  stamp: 
    secs: 1561864698
    nsecs: 149367486
  frame_id: "ti_mmwave"
point_id: 3
x: 0.056640625
y: -0.154296875
z: 0.005859375
range: 0.174307882786
velocity: 0.0
doppler_bin: 8
bearing: -69.8423843384
intensity: 25.4530715942
---
header: 
  seq: 752290
  stamp: 
    secs: 1561864698
    nsecs: 149380055
  frame_id: "ti_mmwave"
point_id: 4
x: 0.1171875
y: -0.080078125
z: 1.259765625
range: 1.35088610649
velocity: 0.0
doppler_bin: 8
bearing: -34.3460998535
intensity: 23.1175384521
---
header: 
  seq: 752291
  stamp: 
    secs: 1561864698
    nsecs: 149391830
  frame_id: "ti_mmwave"
point_id: 5
x: 0.041015625
y: -0.08203125
z: -1.306640625
range: 1.39446306229
velocity: 0.0
doppler_bin: 8
bearing: -63.4349517822
intensity: 24.6089782715
---
header: 
  seq: 752292
  stamp: 
    secs: 1561864698
    nsecs: 149403825
  frame_id: "ti_mmwave"
point_id: 6
x: 0.431640625
y: -0.083984375
