header: 
  seq: 113632
  stamp: 
    secs: 1561863713
    nsecs: 638655691
  frame_id: "ti_mmwave"
point_id: 0
x: 0.01171875
y: -0.0390625
z: -0.0078125
range: 0.0435769706964
velocity: 0.0
doppler_bin: 8
bearing: -73.3007583618
intensity: 30.8919830322
---
header: 
  seq: 113633
  stamp: 
    secs: 1561863713
    nsecs: 638731452
  frame_id: "ti_mmwave"
point_id: 1
x: 0.017578125
y: -0.080078125
z: -0.009765625
range: 0.0871539413929
velocity: 0.0
doppler_bin: 8
bearing: -77.6192398071
intensity: 32.1031837463
---
header: 
  seq: 113634
  stamp: 
    secs: 1561863713
    nsecs: 638746702
  frame_id: "ti_mmwave"
point_id: 2
x: 0.041015625
y: -0.115234375
z: -0.009765625
range: 0.130730912089
velocity: 0.0
doppler_bin: 8
bearing: -70.4077224731
intensity: 30.3742656708
---
header: 
  seq: 113635
  stamp: 
    secs: 1561863713
    nsecs: 638763054
  frame_id: "ti_mmwave"
point_id: 3
x: 0.056640625
y: -0.154296875
z: 0.00390625
range: 0.174307882786
velocity: 0.0
doppler_bin: 8
bearing: -69.8423843384
intensity: 25.6110134125
---
header: 
  seq: 113636
  stamp: 
    secs: 1561863713
    nsecs: 638773448
  frame_id: "ti_mmwave"
point_id: 4
x: 1.232421875
y: 0.0390625
z: 0.294921875
range: 1.35088610649
velocity: 0.0
doppler_bin: 8
bearing: 1.8154232502
intensity: 22.2271652222
---
header: 
  seq: 113637
  stamp: 
    secs: 1561863713
    nsecs: 638847204
  frame_id: "ti_mmwave"
point_id: 5
x: 1.306640625
y: -0.0
z: 0.068359375
range: 1.39446306229
velocity: 0.0
doppler_bin: 8
bearing: -0.0
intensity: 29.2890777588
---
header: 
  seq: 113638
  stamp: 
    secs: 1561863713
    nsecs: 638860245
  frame_id: "ti_mmwave"
point_id: 6
x: 1.34765625
y: -0.0
z: -0.0703125
range: 1.43804001808
velocity: 0.0
doppler_bin: 8
bearing: -0.0
intensity: 32.1906051636
---
header: 
  seq: 113639
  stamp: 
    secs: 1561863713
    nsecs: 638871379
  frame_id: "ti_mmwave"
point_id: 7
x: 1.388671875
y: 0.04296875
z: -0.06640625
range: 1.48161697388
velocity: 0.0
doppler_bin: 8
bearing: 1.77229964733
intensity: 31.9506893158
---
header: 
  seq: 113640
  stamp: 
    secs: 1561863713
    nsecs: 638881650
  frame_id: "ti_mmwave"
point_id: 8
x: 1.431640625
y: -0.0
z: 0.025390625
range: 1.52519392967
velocity: 0.0
doppler_bin: 8
bearing: -0.0
intensity: 29.6614170074
---
header: 
  seq: 113641
  stamp: 
    secs: 1561863713
    nsecs: 638892125
  frame_id: "ti_mmwave"
point_id: 9
x: 1.46875
y: 0.091796875
z: -0.041015625
range: 1.56877088547
velocity: 0.0
doppler_bin: 8
bearing: 3.57633447647
intensity: 26.0638141632
---
header: 
  seq: 113642
  stamp: 
    secs: 1561863713
    nsecs: 638902691
  frame_id: "ti_mmwave"
point_id: 10
x: 2.619140625
y: -0.17578125
z: 1.0390625
range: 3.00681090355
velocity: 0.0
doppler_bin: 8
bearing: -3.83959650993
intensity: 29.2941894531
---
header: 
  seq: 113643
  stamp: 
    secs: 1561863713
    nsecs: 638915560
  frame_id: "ti_mmwave"
point_id: 11
x: 2.693359375
y: -0.08984375
z: 0.970703125
range: 3.05038785934
velocity: 0.0
doppler_bin: 8
bearing: -1.91053581238
intensity: 32.5163803101
---
header: 
  seq: 113644
  stamp: 
    secs: 1561863713
    nsecs: 638928976
  frame_id: "ti_mmwave"
point_id: 12
x: 2.755859375
y: -0.08984375
z: 0.91015625
range: 3.09396481514
velocity: 0.0
doppler_bin: 8
bearing: -1.86723792553
intensity: 31.6286296844
---
header: 
  seq: 113645
  stamp: 
    secs: 1561863713
    nsecs: 638940279
  frame_id: "ti_mmwave"
point_id: 13
x: 0.01171875
y: 0.03125
z: 0.0234375
range: 0.0435769706964
velocity: 0.0
doppler_bin: 8
bearing: 69.4439544678
intensity: 29.4987773895
---
header: 
  seq: 113646
  stamp: 
    secs: 1561863713
    nsecs: 638951634
  frame_id: "ti_mmwave"
point_id: 14
x: 0.041015625
y: -0.033203125
z: 0.0625
range: 0.0871539413929
velocity: 0.0
doppler_bin: 8
bearing: -38.9909973145
intensity: 30.2284069061
---
header: 
  seq: 113647
  stamp: 
    secs: 1561863713
    nsecs: 638963238
  frame_id: "ti_mmwave"
point_id: 15
x: 0.05078125
y: -0.04296875
z: 0.103515625
range: 0.130730912089
velocity: 0.0
doppler_bin: 8
bearing: -40.2363586426
intensity: 29.1009063721
---
header: 
  seq: 113648
  stamp: 
    secs: 1561863713
    nsecs: 638977775
  frame_id: "ti_mmwave"
point_id: 17
x: 1.388671875
y: -0.04296875
z: -0.05078125
range: 1.48161697388
velocity: 0.0
doppler_bin: 8
bearing: -1.77229964733
intensity: 31.9228858948
---
header: 
  seq: 113649
  stamp: 
    secs: 1561863713
    nsecs: 639833845
  frame_id: "ti_mmwave"
point_id: 0
x: 0.01171875
y: -0.0390625
z: -0.0078125
range: 0.0435769706964
velocity: 0.0
doppler_bin: 8
bearing: -73.3007583618
intensity: 30.8990516663
---
header: 
  seq: 113650
  stamp: 
    secs: 1561863713
    nsecs: 639902244
  frame_id: "ti_mmwave"
point_id: 1
x: 0.017578125
y: -0.080078125
z: -0.009765625
range: 0.0871539413929
velocity: 0.0
doppler_bin: 8
bearing: -77.6192398071
intensity: 32.1005096436
---
header: 
  seq: 113651
  stamp: 
    secs: 1561863713
    nsecs: 639924821
  frame_id: "ti_mmwave"
point_id: 2
x: 0.041015625
y: -0.115234375
z: -0.009765625
range: 0.130730912089
velocity: 0.0
doppler_bin: 8
bearing: -70.4077224731
intensity: 30.3702793121
---
header: 
  seq: 113652
  stamp: 
    secs: 1561863713
    nsecs: 639972875
  frame_id: "ti_mmwave"
point_id: 3
x: 0.056640625
y: -0.154296875
z: 0.005859375
range: 0.174307882786
velocity: 0.0
doppler_bin: 8
bearing: -69.8423843384
intensity: 25.5870857239
---
header: 
  seq: 113653
  stamp: 
    secs: 1561863713
    nsecs: 640065187
  frame_id: "ti_mmwave"
point_id: 4
x: 0.80859375
y: -0.080078125
z: 0.974609375
range: 1.35088610649
velocity: 0.0
doppler_bin: 8
bearing: -5.65577793121
intensity: 24.6686763763
---
header: 
  seq: 113654
  stamp: 
    secs: 1561863713
    nsecs: 640089060
  frame_id: "ti_mmwave"
point_id: 5
x: 1.267578125
y: -0.041015625
z: 0.3203125
range: 1.39446306229
velocity: 0.0
doppler_bin: 8
bearing: -1.8533000946
intensity: 28.9707698822
---
header: 
  seq: 113655
  stamp: 
    secs: 1561863713
    nsecs: 640102645
  frame_id: "ti_mmwave"
point_id: 6
x: 1.349609375
y: -0.0
z: 0.03515625
range: 1.43804001808
velocity: 0.0
doppler_bin: 8
bearing: -0.0
intensity: 30.5499591827
---
header: 
  seq: 113656
  stamp: 
    secs: 1561863713
    nsecs: 640112147
  frame_id: "ti_mmwave"
point_id: 7
x: 1.373046875
y: 0.04296875
z: -0.21875
range: 1.48161697388
velocity: 0.0
doppler_bin: 8
bearing: 1.79245507717
intensity: 28.1557769775
---
header: 
  seq: 113657
  stamp: 
    secs: 1561863713
    nsecs: 640155935
  frame_id: "ti_mmwave"
point_id: 8
x: 1.37109375
y: -0.044921875
z: 0.408203125
range: 1.52519392967
velocity: 0.0
doppler_bin: 8
bearing: -1.87654089928
intensity: 26.0745506287
---
header: 
  seq: 113658
  stamp: 
    secs: 1561863713
    nsecs: 640170385
  frame_id: "ti_mmwave"
point_id: 9
x: 1.470703125
y: -0.046875
z: 0.05078125
range: 1.56877088547
velocity: 0.0
doppler_bin: 8
bearing: -1.82554244995
intensity: 23.8021125793
---
header: 
  seq: 113659
  stamp: 
    secs: 1561863713
    nsecs: 640183911
  frame_id: "ti_mmwave"
point_id: 10
x: 2.6015625
y: -0.17578125
z: 1.08203125
range: 3.00681090355
velocity: 0.0
doppler_bin: 8
bearing: -3.86546111107
intensity: 29.2272548676
---
header: 
  seq: 113660
  stamp: 
    secs: 1561863713
    nsecs: 640197137
  frame_id: "ti_mmwave"
point_id: 11
x: 2.685546875
y: -0.08984375
z: 0.98828125
range: 3.05038785934
velocity: 0.0
doppler_bin: 8
bearing: -1.91608965397
intensity: 32.4501876831
---
header: 
  seq: 113661
  stamp: 
    secs: 1561863713
    nsecs: 640219801
  frame_id: "ti_mmwave"
point_id: 12
x: 2.751953125
y: -0.08984375
z: 0.92578125
range: 3.09396481514
velocity: 0.0
doppler_bin: 8
bearing: -1.86988639832
intensity: 31.4519634247
---
header: 
  seq: 113662
  stamp: 
    secs: 1561863713
    nsecs: 640277905
  frame_id: "ti_mmwave"
point_id: 13
x: 0.01171875
y: 0.03125
z: 0.0234375
range: 0.0435769706964
velocity: 0.0
doppler_bin: 8
bearing: 69.4439544678
intensity: 29.4939002991
---
header: 
  seq: 113663
  stamp: 
    secs: 1561863713
    nsecs: 640291453
  frame_id: "ti_mmwave"
point_id: 14
x: 0.0390625
y: -0.033203125
z: 0.0625
range: 0.0871539413929
velocity: 0.0
doppler_bin: 8
bearing: -40.3645362854
intensity: 30.2201576233
---
header: 
  seq: 113664
  stamp: 
    secs: 1561863713
    nsecs: 640304946
  frame_id: "ti_mmwave"
point_id: 15
x: 0.05078125
y: -0.04296875
z: 0.103515625
range: 0.130730912089
velocity: 0.0
doppler_bin: 8
bearing: -40.2363586426
intensity: 29.1009063721
---
header: 
  seq: 113665
  stamp: 
    secs: 1561863713
    nsecs: 698632557
  frame_id: "ti_mmwave"
point_id: 0
x: 0.01171875
y: -0.0390625
z: -0.0078125
range: 0.0435769706964
velocity: 0.0
doppler_bin: 8
bearing: -73.3007583618
intensity: 30.8990516663
---
header: 
  seq: 113666
  stamp: 
    secs: 1561863713
    nsecs: 698721511
  frame_id: "ti_mmwave"
point_id: 1
x: 0.017578125
y: -0.080078125
z: -0.009765625
range: 0.0871539413929
velocity: 0.0
doppler_bin: 8
bearing: -77.6192398071
intensity: 32.1058616638
---
header: 
  seq: 113667
  stamp: 
    secs: 1561863713
    nsecs: 698741541
  frame_id: "ti_mmwave"
point_id: 2
x: 0.041015625
y: -0.115234375
z: -0.009765625
range: 0.130730912089
velocity: 0.0
doppler_bin: 8
bearing: -70.4077224731
intensity: 30.382226944
---
header: 
  seq: 113668
  stamp: 
    secs: 1561863713
    nsecs: 698750636
  frame_id: "ti_mmwave"
point_id: 3
x: 0.056640625
y: -0.154296875
z: 0.005859375
range: 0.174307882786
velocity: 0.0
doppler_bin: 8
bearing: -69.8423843384
intensity: 25.6348114014
---
header: 
  seq: 113669
  stamp: 
    secs: 1561863713
    nsecs: 698758936
  frame_id: "ti_mmwave"
point_id: 4
x: 1.0859375
y: -0.0390625
z: -0.654296875
range: 1.35088610649
velocity: 0.0
doppler_bin: 8
bearing: -2.06011128426
intensity: 25.1851387024
---
header: 
  seq: 113670
  stamp: 
    secs: 1561863713
    nsecs: 698769273
  frame_id: "ti_mmwave"
point_id: 5
x: 1.279296875
y: -0.0
z: -0.279296875
range: 1.39446306229
velocity: 0.0
doppler_bin: 8
bearing: -0.0
intensity: 31.0822658539
---
header: 
  seq: 113671
  stamp: 
    secs: 1561863713
    nsecs: 698779500
  frame_id: "ti_mmwave"
point_id: 6
x: 1.337890625
y: -0.0
z: -0.181640625
range: 1.43804001808
velocity: 0.0
doppler_bin: 8
bearing: -0.0
intensity: 33.0211448669
---
header: 
  seq: 113672
  stamp: 
    secs: 1561863713
    nsecs: 698787535
  frame_id: "ti_mmwave"
point_id: 7
x: 1.3671875
y: 0.04296875
z: -0.251953125
range: 1.48161697388
velocity: 0.0
doppler_bin: 8
bearing: 1.80013203621
intensity: 31.7493152618
---
header: 
  seq: 113673
  stamp: 
    secs: 1561863713
    nsecs: 698795065
  frame_id: "ti_mmwave"
point_id: 8
x: 1.431640625
y: -0.0
z: 0.04296875
range: 1.52519392967
velocity: 0.0
doppler_bin: 8
bearing: -0.0
intensity: 31.2483005524
---
header: 
  seq: 113674
  stamp: 
    secs: 1561863713
    nsecs: 698803077
  frame_id: "ti_mmwave"
point_id: 9
x: 1.42578125
y: 0.046875
z: 0.36328125
range: 1.56877088547
velocity: 0.0
doppler_bin: 8
bearing: 1.88301849365
intensity: 30.5076637268
---
header: 
  seq: 113675
  stamp: 
    secs: 1561863713
    nsecs: 698812494
  frame_id: "ti_mmwave"
point_id: 10
x: 1.419921875
y: 0.09375
z: 0.517578125
range: 1.61234796047
velocity: 0.0
doppler_bin: 8
bearing: 3.77745747566
intensity: 27.2591171265
---
header: 
  seq: 113676
  stamp: 
    secs: 1561863713
    nsecs: 698821151
  frame_id: "ti_mmwave"
point_id: 11
x: 2.626953125
y: -0.17578125
z: 1.015625
range: 3.00681090355
velocity: 0.0
doppler_bin: 8
bearing: -3.82821130753
intensity: 29.1328392029
---
header: 
  seq: 113677
  stamp: 
    secs: 1561863713
    nsecs: 698830269
  frame_id: "ti_mmwave"
point_id: 12
x: 2.693359375
y: -0.08984375
z: 0.96875
range: 3.05038785934
velocity: 0.0
doppler_bin: 8
bearing: -1.91053581238
intensity: 32.3325004578
---
header: 
  seq: 113678
  stamp: 
    secs: 1561863713
    nsecs: 698842606
  frame_id: "ti_mmwave"
point_id: 13
x: 2.7578125
y: -0.08984375
z: 0.90625
range: 3.09396481514
velocity: 0.0
doppler_bin: 8
bearing: -1.86591637135
intensity: 31.4144973755
---
header: 
  seq: 113679
  stamp: 
    secs: 1561863713
    nsecs: 698854875
  frame_id: "ti_mmwave"
point_id: 14
x: 4.80859375
y: -1.248046875
z: -0.470703125
range: 5.31639051437
velocity: 0.0
doppler_bin: 8
bearing: -14.5497989655
intensity: 28.9320678711
---
header: 
  seq: 113680
  stamp: 
    secs: 1561863713
    nsecs: 698943164
  frame_id: "ti_mmwave"
point_id: 15
x: 0.01171875
y: 0.03125
z: 0.0234375
range: 0.0435769706964
velocity: 0.0
doppler_bin: 8
bearing: 69.4439544678
intensity: 29.5036487579
---
header: 
  seq: 113681
  stamp: 
    secs: 1561863713
    nsecs: 698959939
  frame_id: "ti_mmwave"
point_id: 16
x: 0.041015625
y: -0.033203125
z: 0.0625
range: 0.0871539413929
velocity: 0.0
doppler_bin: 8
bearing: -38.9909973145
intensity: 30.2284069061
---
header: 
  seq: 113682
  stamp: 
    secs: 1561863713
    nsecs: 698970522
  frame_id: "ti_mmwave"
point_id: 17
x: 0.05078125
y: -0.04296875
z: 0.103515625
range: 0.130730912089
velocity: 0.0
doppler_bin: 8
bearing: -40.2363586426
intensity: 29.1115760803
---
header: 
  seq: 113683
  stamp: 
    secs: 1561863713
    nsecs: 699937756
  frame_id: "ti_mmwave"
point_id: 0
x: 0.01171875
y: -0.0390625
z: -0.0078125
range: 0.0435769706964
velocity: 0.0
doppler_bin: 8
bearing: -73.3007583618
intensity: 30.8990516663
---
header: 
  seq: 113684
  stamp: 
    secs: 1561863713
    nsecs: 700026424
  frame_id: "ti_mmwave"
point_id: 1
x: 0.017578125
y: -0.080078125
z: -0.009765625
range: 0.0871539413929
velocity: 0.0
doppler_bin: 8
bearing: -77.6192398071
intensity: 32.1031837463
---
header: 
  seq: 113685
  stamp: 
    secs: 1561863713
    nsecs: 700043601
  frame_id: "ti_mmwave"
point_id: 2
x: 0.041015625
y: -0.115234375
z: -0.009765625
range: 0.130730912089
velocity: 0.0
doppler_bin: 8
bearing: -70.4077224731
intensity: 30.3782482147
---
header: 
  seq: 113686
  stamp: 
    secs: 1561863713
    nsecs: 700055876
  frame_id: "ti_mmwave"
point_id: 3
x: 0.056640625
y: -0.154296875
z: 0.005859375
range: 0.174307882786
velocity: 0.0
doppler_bin: 8
bearing: -69.8423843384
intensity: 25.5990657806
---
header: 
  seq: 113687
  stamp: 
    secs: 1561863713
    nsecs: 700067322
  frame_id: "ti_mmwave"
point_id: 4
x: 1.13671875
y: -0.0390625
z: 0.5625
range: 1.35088610649
velocity: 0.0
doppler_bin: 8
bearing: -1.96815252304
intensity: 25.9439258575
---
header: 
  seq: 113688
  stamp: 
    secs: 1561863713
    nsecs: 700079030
  frame_id: "ti_mmwave"
point_id: 5
x: 1.30859375
y: -0.041015625
z: -0.04296875
range: 1.39446306229
velocity: 0.0
doppler_bin: 8
bearing: -1.79525017738
intensity: 30.7736797333
---
header: 
  seq: 113689
  stamp: 
    secs: 1561863713
    nsecs: 700090853
  frame_id: "ti_mmwave"
point_id: 6
x: 1.33984375
y: -0.04296875
z: -0.16015625
range: 1.43804001808
velocity: 0.0
doppler_bin: 8
bearing: -1.83684444427
intensity: 31.7983894348
---
header: 
  seq: 113690
  stamp: 
    secs: 1561863713
    nsecs: 700105148
  frame_id: "ti_mmwave"
point_id: 7
x: 1.3359375
y: -0.0
z: -0.38671875
range: 1.48161697388
velocity: 0.0
doppler_bin: 8
bearing: -0.0
intensity: 27.5663604736
---
header: 
  seq: 113691
  stamp: 
    secs: 1561863713
    nsecs: 700116822
  frame_id: "ti_mmwave"
point_id: 8
x: 1.37109375
y: -0.044921875
z: 0.41015625
range: 1.52519392967
velocity: 0.0
doppler_bin: 8
bearing: -1.87654089928
intensity: 26.9983768463
---
header: 
  seq: 113692
  stamp: 
    secs: 1561863713
    nsecs: 700128118
  frame_id: "ti_mmwave"
point_id: 9
x: 1.431640625
y: -0.0
z: 0.34765625
range: 1.56877088547
velocity: 0.0
doppler_bin: 8
bearing: -0.0
intensity: 28.1424751282
---
header: 
  seq: 113693
  stamp: 
    secs: 1561863713
    nsecs: 700139493
  frame_id: "ti_mmwave"
point_id: 10
x: 1.46875
y: -0.0
z: 0.365234375
range: 1.61234796047
velocity: 0.0
doppler_bin: 8
bearing: -0.0
intensity: 25.7749176025
---
header: 
  seq: 113694
  stamp: 
    secs: 1561863713
    nsecs: 700151169
  frame_id: "ti_mmwave"
point_id: 11
x: 2.623046875
y: -0.17578125
z: 1.02734375
range: 3.00681090355
velocity: 0.0
doppler_bin: 8
bearing: -3.83389568329
intensity: 29.0091304779
---
header: 
  seq: 113695
  stamp: 
    secs: 1561863713
    nsecs: 700162308
  frame_id: "ti_mmwave"
point_id: 12
x: 2.6953125
y: -0.08984375
z: 0.962890625
range: 3.05038785934
velocity: 0.0
doppler_bin: 8
bearing: -1.90915250778
intensity: 32.2711524963
---
header: 
  seq: 113696
  stamp: 
    secs: 1561863713
    nsecs: 700173994
  frame_id: "ti_mmwave"
point_id: 13
x: 2.755859375
y: -0.08984375
z: 0.912109375
range: 3.09396481514
velocity: 0.0
doppler_bin: 8
bearing: -1.86723792553
intensity: 31.3576850891
---
header: 
  seq: 113697
  stamp: 
    secs: 1561863713
    nsecs: 700187327
  frame_id: "ti_mmwave"
point_id: 14
x: 4.8125
y: -1.248046875
z: -0.443359375
range: 5.31639051437
velocity: 0.0
doppler_bin: 8
bearing: -14.5384893417
intensity: 28.8536128998
---
header: 
  seq: 113698
  stamp: 
    secs: 1561863713
    nsecs: 700313971
  frame_id: "ti_mmwave"
point_id: 15
x: 0.01171875
y: 0.03125
z: 0.0234375
range: 0.0435769706964
velocity: 0.0
doppler_bin: 8
bearing: 69.4439544678
intensity: 29.4939002991
---
header: 
  seq: 113699
  stamp: 
    secs: 1561863713
    nsecs: 700330465
  frame_id: "ti_mmwave"
point_id: 16
x: 0.041015625
y: -0.033203125
z: 0.0625
range: 0.0871539413929
velocity: 0.0
doppler_bin: 8
bearing: -38.9909973145
intensity: 30.2242832184
---
header: 
  seq: 113700
  stamp: 
    secs: 1561863713
    nsecs: 700342348
  frame_id: "ti_mmwave"
point_id: 17
x: 0.05078125
y: -0.04296875
z: 0.103515625
range: 0.130730912089
velocity: 0.0
doppler_bin: 8
bearing: -40.2363586426
intensity: 29.1062431335
---
header: 
  seq: 113701
  stamp: 
    secs: 1561863713
    nsecs: 700355663
  frame_id: "ti_mmwave"
point_id: 19
x: 0.78515625
y: 0.568359375
z: -1.162109375
range: 1.61234796047
velocity: 0.0
doppler_bin: 8
bearing: 35.9000473022
intensity: 23.2633590698
---
header: 
  seq: 113702
  stamp: 
    secs: 1561863713
    nsecs: 758719687
  frame_id: "ti_mmwave"
point_id: 0
x: 0.01171875
y: -0.0390625
z: -0.0078125
range: 0.0435769706964
velocity: 0.0
doppler_bin: 8
bearing: -73.3007583618
intensity: 30.8990516663
---
header: 
  seq: 113703
  stamp: 
    secs: 1561863713
    nsecs: 758815891
  frame_id: "ti_mmwave"
point_id: 1
x: 0.017578125
y: -0.080078125
z: -0.009765625
range: 0.0871539413929
velocity: 0.0
doppler_bin: 8
bearing: -77.6192398071
intensity: 32.1031837463
---
header: 
  seq: 113704
  stamp: 
    secs: 1561863713
    nsecs: 758827073
  frame_id: "ti_mmwave"
point_id: 2
x: 0.041015625
y: -0.115234375
z: -0.009765625
range: 0.130730912089
velocity: 0.0
doppler_bin: 8
bearing: -70.4077224731
intensity: 30.3742656708
---
header: 
  seq: 113705
  stamp: 
    secs: 1561863713
    nsecs: 758835183
  frame_id: "ti_mmwave"
point_id: 3
x: 0.056640625
y: -0.154296875
z: 0.00390625
range: 0.174307882786
velocity: 0.0
doppler_bin: 8
bearing: -69.8423843384
intensity: 25.5990657806
---
header: 
  seq: 113706
  stamp: 
    secs: 1561863713
    nsecs: 758844179
  frame_id: "ti_mmwave"
point_id: 4
x: 0.87109375
y: -0.154296875
z: -0.8515625
range: 1.3073091507
velocity: 0.0
doppler_bin: 8
bearing: -10.0446186066
intensity: 20.1283721924
---
header: 
  seq: 113707
  stamp: 
    secs: 1561863713
    nsecs: 758853964
  frame_id: "ti_mmwave"
point_id: 5
x: 1.251953125
y: 0.197265625
z: 0.0
range: 1.35088610649
velocity: 0.0
doppler_bin: 8
bearing: 8.95426654816
intensity: 23.031961441
---
header: 
  seq: 113708
  stamp: 
    secs: 1561863713
    nsecs: 758864752
  frame_id: "ti_mmwave"
point_id: 6
x: 1.306640625
y: 0.08203125
z: -0.0390625
range: 1.39446306229
velocity: 0.0
doppler_bin: 8
bearing: 3.59232997894
intensity: 28.5003318787
---
header: 
  seq: 113709
  stamp: 
    secs: 1561863713
    nsecs: 758875513
  frame_id: "ti_mmwave"
point_id: 7
x: 1.34765625
y: 0.04296875
z: -0.056640625
range: 1.43804001808
velocity: 0.0
doppler_bin: 8
bearing: 1.82620322704
intensity: 31.5654907227
---
header: 
  seq: 113710
  stamp: 
    secs: 1561863713
    nsecs: 758887021
  frame_id: "ti_mmwave"
point_id: 8
x: 1.390625
y: -0.0
z: 0.052734375
range: 1.48161697388
velocity: 0.0
doppler_bin: 8
bearing: -0.0
intensity: 32.1351776123
---
header: 
  seq: 113711
  stamp: 
    secs: 1561863713
    nsecs: 758895195
  frame_id: "ti_mmwave"
point_id: 9
x: 1.416015625
y: -0.0
z: 0.205078125
range: 1.52519392967
velocity: 0.0
doppler_bin: 8
bearing: -0.0
intensity: 31.2710475922
---
header: 
  seq: 113712
  stamp: 
    secs: 1561863713
    nsecs: 758903133
  frame_id: "ti_mmwave"
point_id: 10
x: 1.44921875
y: -0.046875
z: 0.2578125
range: 1.56877088547
velocity: 0.0
doppler_bin: 8
bearing: -1.85258674622
intensity: 28.7794704437
---
header: 
  seq: 113713
  stamp: 
    secs: 1561863713
    nsecs: 758910690
  frame_id: "ti_mmwave"
point_id: 11
x: 2.59765625
y: -0.17578125
z: 1.08984375
range: 3.00681090355
velocity: 0.0
doppler_bin: 8
bearing: -3.87125635147
intensity: 29.0308990479
---
header: 
  seq: 113714
  stamp: 
    secs: 1561863713
    nsecs: 758919756
  frame_id: "ti_mmwave"
point_id: 12
x: 2.681640625
y: -0.08984375
z: 1.0
range: 3.05038785934
velocity: 0.0
doppler_bin: 8
bearing: -1.91887867451
intensity: 32.2659988403
---
header: 
  seq: 113715
  stamp: 
    secs: 1561863713
    nsecs: 758927986
  frame_id: "ti_mmwave"
point_id: 13
x: 2.75
y: -0.08984375
z: 0.931640625
range: 3.09396481514
velocity: 0.0
doppler_bin: 8
bearing: -1.87121355534
intensity: 31.3257980347
---
header: 
  seq: 113716
  stamp: 
    secs: 1561863713
    nsecs: 758948316
  frame_id: "ti_mmwave"
point_id: 14
x: 4.814453125
y: -1.248046875
z: -0.423828125
range: 5.31639051437
velocity: 0.0
doppler_bin: 8
bearing: -14.5328426361
intensity: 28.7563991547
---
header: 
  seq: 113717
  stamp: 
    secs: 1561863713
    nsecs: 758963867
  frame_id: "ti_mmwave"
point_id: 15
x: 0.01171875
y: 0.03125
z: 0.0234375
range: 0.0435769706964
velocity: 0.0
doppler_bin: 8
bearing: 69.4439544678
intensity: 29.4987773895
---
header: 
  seq: 113718
  stamp: 
    secs: 1561863713
    nsecs: 758977312
  frame_id: "ti_mmwave"
point_id: 16
x: 0.041015625
y: -0.033203125
z: 0.0625
range: 0.0871539413929
velocity: 0.0
doppler_bin: 8
bearing: -38.9909973145
intensity: 30.2242832184
---
header: 
  seq: 113719
  stamp: 
    secs: 1561863713
    nsecs: 758985137
  frame_id: "ti_mmwave"
point_id: 17
x: 0.05078125
y: -0.04296875
z: 0.103515625
range: 0.130730912089
velocity: 0.0
doppler_bin: 8
bearing: -40.2363586426
intensity: 29.1062431335
---
header: 
  seq: 113720
  stamp: 
    secs: 1561863713
    nsecs: 759179554
  frame_id: "ti_mmwave"
point_id: 19
x: 1.205078125
y: 0.19140625
z: 0.12890625
range: 1.3073091507
velocity: 0.0
doppler_bin: 8
bearing: 9.02507305145
intensity: 18.0618000031
---
header: 
  seq: 113721
  stamp: 
    secs: 1561863713
    nsecs: 759197407
  frame_id: "ti_mmwave"
point_id: 20
x: 0.962890625
y: -0.158203125
z: -0.810546875
range: 1.35088610649
velocity: 0.0
doppler_bin: 8
bearing: -9.33034801483
intensity: 22.1484394073
---
header: 
  seq: 113722
  stamp: 
    secs: 1561863713
    nsecs: 818725242
  frame_id: "ti_mmwave"
point_id: 0
x: 0.01171875
y: -0.0390625
z: -0.0078125
range: 0.0435769706964
velocity: 0.0
doppler_bin: 8
bearing: -73.3007583618
intensity: 30.8990516663
---
header: 
  seq: 113723
  stamp: 
    secs: 1561863713
    nsecs: 818807136
  frame_id: "ti_mmwave"
point_id: 1
x: 0.017578125
y: -0.080078125
z: -0.009765625
range: 0.0871539413929
velocity: 0.0
doppler_bin: 8
bearing: -77.6192398071
intensity: 32.1031837463
---
header: 
  seq: 113724
  stamp: 
    secs: 1561863713
    nsecs: 818818964
  frame_id: "ti_mmwave"
point_id: 2
x: 0.041015625
y: -0.115234375
z: -0.009765625
range: 0.130730912089
velocity: 0.0
doppler_bin: 8
bearing: -70.4077224731
intensity: 30.3742656708
---
header: 
  seq: 113725
  stamp: 
    secs: 1561863713
    nsecs: 818828162
  frame_id: "ti_mmwave"
point_id: 3
x: 0.056640625
y: -0.154296875
z: 0.00390625
range: 0.174307882786
velocity: 0.0
doppler_bin: 8
bearing: -69.8423843384
intensity: 25.5990657806
---
header: 
  seq: 113726
  stamp: 
    secs: 1561863713
    nsecs: 818836409
  frame_id: "ti_mmwave"
point_id: 4
x: 0.7578125
y: -0.154296875
z: -0.953125
range: 1.3073091507
velocity: 0.0
doppler_bin: 8
bearing: -11.5085792542
intensity: 19.0848503113
---
header: 
  seq: 113727
  stamp: 
    secs: 1561863713
    nsecs: 818844542
  frame_id: "ti_mmwave"
point_id: 5
x: 0.88671875
y: -0.0390625
z: 0.904296875
range: 1.35088610649
velocity: 0.0
doppler_bin: 8
bearing: -2.52241206169
intensity: 24.7421627045
---
header: 
  seq: 113728
  stamp: 
    secs: 1561863713
    nsecs: 818852517
  frame_id: "ti_mmwave"
point_id: 6
x: 1.30859375
y: -0.0
z: 0.015625
range: 1.39446306229
velocity: 0.0
doppler_bin: 8
bearing: -0.0
intensity: 30.6483230591
---
header: 
  seq: 113729
  stamp: 
    secs: 1561863713
    nsecs: 818860549
  frame_id: "ti_mmwave"
point_id: 7
x: 1.34375
y: -0.0
z: -0.13671875
range: 1.43804001808
velocity: 0.0
doppler_bin: 8
bearing: -0.0
intensity: 32.5285301208
---
header: 
  seq: 113730
  stamp: 
    secs: 1561863713
    nsecs: 818873313
  frame_id: "ti_mmwave"
point_id: 8
x: 1.375
y: 0.04296875
z: -0.205078125
range: 1.48161697388
velocity: 0.0
doppler_bin: 8
bearing: 1.7899106741
intensity: 29.7081165314
---
header: 
  seq: 113731
  stamp: 
    secs: 1561863713
    nsecs: 818881254
  frame_id: "ti_mmwave"
point_id: 9
x: 1.431640625
y: 0.044921875
z: 0.0078125
range: 1.52519392967
velocity: 0.0
doppler_bin: 8
bearing: 1.79723155499
intensity: 28.0277366638
---
header: 
  seq: 113732
  stamp: 
    secs: 1561863713
    nsecs: 818889314
  frame_id: "ti_mmwave"
point_id: 10
x: 1.47265625
y: -0.0
z: 0.025390625
range: 1.56877088547
velocity: 0.0
doppler_bin: 8
bearing: -0.0
intensity: 27.2591171265
---
header: 
  seq: 113733
  stamp: 
    secs: 1561863713
    nsecs: 818897375
  frame_id: "ti_mmwave"
point_id: 11
x: 2.625
y: -0.17578125
z: 1.01953125
range: 3.00681090355
velocity: 0.0
doppler_bin: 8
bearing: -3.83105134964
intensity: 29.3701610565
---
header: 
  seq: 113734
  stamp: 
    secs: 1561863713
    nsecs: 818905303
  frame_id: "ti_mmwave"
point_id: 12
x: 2.69921875
y: -0.08984375
z: 0.953125
range: 3.05038785934
velocity: 0.0
doppler_bin: 8
bearing: -1.90639162064
intensity: 32.5695800781
---
header: 
  seq: 113735
  stamp: 
    secs: 1561863713
    nsecs: 818913454
  frame_id: "ti_mmwave"
point_id: 13
x: 2.759765625
y: -0.08984375
z: 0.8984375
range: 3.09396481514
velocity: 0.0
doppler_bin: 8
bearing: -1.86459684372
intensity: 31.6435279846
---
header: 
  seq: 113736
  stamp: 
    secs: 1561863713
    nsecs: 818921796
  frame_id: "ti_mmwave"
point_id: 14
x: 0.01171875
y: 0.03125
z: 0.0234375
range: 0.0435769706964
velocity: 0.0
doppler_bin: 8
bearing: 69.4439544678
intensity: 29.4939002991
---
header: 
  seq: 113737
  stamp: 
    secs: 1561863713
    nsecs: 818931446
  frame_id: "ti_mmwave"
point_id: 15
x: 0.041015625
y: -0.033203125
z: 0.0625
range: 0.0871539413929
velocity: 0.0
doppler_bin: 8
bearing: -38.9909973145
intensity: 30.2242832184
---
header: 
  seq: 113738
  stamp: 
    secs: 1561863713
    nsecs: 818941379
  frame_id: "ti_mmwave"
point_id: 16
x: 0.05078125
y: -0.04296875
z: 0.103515625
range: 0.130730912089
velocity: 0.0
doppler_bin: 8
bearing: -40.2363586426
intensity: 29.1009063721
---
header: 
  seq: 113739
  stamp: 
    secs: 1561863713
    nsecs: 820230367
  frame_id: "ti_mmwave"
point_id: 0
x: 0.01171875
y: -0.0390625
z: -0.0078125
range: 0.0435769706964
velocity: 0.0
doppler_bin: 8
bearing: -73.3007583618
intensity: 30.8955192566
---
header: 
  seq: 113740
  stamp: 
    secs: 1561863713
    nsecs: 820307214
  frame_id: "ti_mmwave"
point_id: 1
x: 0.017578125
y: -0.080078125
z: -0.009765625
range: 0.0871539413929
velocity: 0.0
doppler_bin: 8
bearing: -77.6192398071
intensity: 32.1005096436
---
header: 
  seq: 113741
  stamp: 
    secs: 1561863713
    nsecs: 820325990
  frame_id: "ti_mmwave"
point_id: 2
x: 0.041015625
y: -0.115234375
z: -0.009765625
range: 0.130730912089
velocity: 0.0
doppler_bin: 8
bearing: -70.4077224731
intensity: 30.3742656708
---
header: 
  seq: 113742
  stamp: 
    secs: 1561863713
    nsecs: 820341718
  frame_id: "ti_mmwave"
point_id: 3
x: 0.056640625
y: -0.154296875
z: 0.00390625
range: 0.174307882786
velocity: 0.0
doppler_bin: 8
bearing: -69.8423843384
intensity: 25.6110134125
---
header: 
  seq: 113743
  stamp: 
    secs: 1561863713
    nsecs: 820352767
  frame_id: "ti_mmwave"
point_id: 4
x: 1.166015625
y: 0.0390625
z: -0.498046875
range: 1.35088610649
velocity: 0.0
doppler_bin: 8
bearing: 1.91873908043
intensity: 21.7026176453
---
header: 
  seq: 113744
  stamp: 
    secs: 1561863713
    nsecs: 820520588
  frame_id: "ti_mmwave"
point_id: 5
x: 1.298828125
y: -0.0
z: -0.16015625
range: 1.39446306229
velocity: 0.0
doppler_bin: 8
bearing: -0.0
intensity: 29.8587532043
---
header: 
  seq: 113745
  stamp: 
    secs: 1561863713
    nsecs: 820547055
  frame_id: "ti_mmwave"
point_id: 6
x: 1.345703125
y: -0.0
z: -0.115234375
range: 1.43804001808
velocity: 0.0
doppler_bin: 8
bearing: -0.0
intensity: 32.7921066284
---
header: 
  seq: 113746
  stamp: 
    secs: 1561863713
    nsecs: 820624069
  frame_id: "ti_mmwave"
point_id: 7
x: 1.384765625
y: 0.04296875
z: -0.12109375
range: 1.48161697388
velocity: 0.0
doppler_bin: 8
bearing: 1.77729594707
intensity: 30.4921798706
---
header: 
  seq: 113747
  stamp: 
    secs: 1561863713
    nsecs: 820641731
  frame_id: "ti_mmwave"
point_id: 8
x: 1.4140625
y: -0.0
z: 0.228515625
range: 1.52519392967
velocity: 0.0
doppler_bin: 8
bearing: -0.0
intensity: 28.8422870636
---
header: 
  seq: 113748
  stamp: 
    secs: 1561863713
    nsecs: 820654573
  frame_id: "ti_mmwave"
point_id: 9
x: 1.46875
y: -0.0
z: 0.1015625
range: 1.56877088547
velocity: 0.0
doppler_bin: 8
bearing: -0.0
intensity: 29.1697998047
---
header: 
  seq: 113749
  stamp: 
    secs: 1561863713
    nsecs: 820667194
  frame_id: "ti_mmwave"
point_id: 10
x: 1.509765625
y: -0.046875
z: 0.095703125
range: 1.61234796047
velocity: 0.0
doppler_bin: 8
bearing: -1.77834033966
intensity: 24.683473587
---
header: 
  seq: 113750
  stamp: 
    secs: 1561863713
    nsecs: 820698830
  frame_id: "ti_mmwave"
point_id: 11
x: 2.609375
y: -0.17578125
z: 1.0625
range: 3.00681090355
velocity: 0.0
doppler_bin: 8
bearing: -3.85392260551
intensity: 29.1487178802
---
header: 
  seq: 113751
  stamp: 
    secs: 1561863713
    nsecs: 820722523
  frame_id: "ti_mmwave"
point_id: 12
x: 2.685546875
y: -0.08984375
z: 0.990234375
range: 3.05038785934
velocity: 0.0
doppler_bin: 8
bearing: -1.91608965397
intensity: 32.327419281
---
header: 
  seq: 113752
  stamp: 
    secs: 1561863713
    nsecs: 820782564
  frame_id: "ti_mmwave"
point_id: 13
x: 2.748046875
y: -0.08984375
z: 0.93359375
range: 3.09396481514
velocity: 0.0
doppler_bin: 8
bearing: -1.8725425005
intensity: 31.3385810852
---
header: 
  seq: 113753
  stamp: 
    secs: 1561863713
    nsecs: 820800777
  frame_id: "ti_mmwave"
point_id: 14
x: 4.837890625
y: -1.091796875
z: -0.548828125
range: 5.31639051437
velocity: 0.0
doppler_bin: 8
bearing: -12.7172555923
intensity: 29.3550720215
---
header: 
  seq: 113754
  stamp: 
    secs: 1561863713
    nsecs: 820816738
  frame_id: "ti_mmwave"
point_id: 15
x: 0.01171875
y: 0.03125
z: 0.0234375
range: 0.0435769706964
velocity: 0.0
doppler_bin: 8
bearing: 69.4439544678
intensity: 29.4987773895
---
header: 
  seq: 113755
  stamp: 
    secs: 1561863713
    nsecs: 820830204
  frame_id: "ti_mmwave"
point_id: 16
x: 0.041015625
y: -0.033203125
z: 0.0625
range: 0.0871539413929
velocity: 0.0
doppler_bin: 8
bearing: -38.9909973145
intensity: 30.2201576233
---
header: 
  seq: 113756
  stamp: 
    secs: 1561863713
    nsecs: 820843450
  frame_id: "ti_mmwave"
point_id: 17
x: 0.05078125
y: -0.04296875
z: 0.103515625
range: 0.130730912089
velocity: 0.0
doppler_bin: 8
bearing: -40.2363586426
intensity: 29.1009063721
---
header: 
  seq: 113757
  stamp: 
    secs: 1561863713
    nsecs: 820859998
  frame_id: "ti_mmwave"
point_id: 19
x: 1.013671875
y: -0.435546875
z: 0.625
range: 1.35088610649
velocity: 0.0
doppler_bin: 8
bearing: -23.251865387
intensity: 19.2427921295
---
header: 
  seq: 113758
  stamp: 
    secs: 1561863713
    nsecs: 820894352
  frame_id: "ti_mmwave"
point_id: 20
x: 1.51171875
y: 0.046875
z: 0.056640625
range: 1.61234796047
velocity: 0.0
doppler_bin: 8
bearing: 1.77604424953
intensity: 24.6686763763
---
header: 
  seq: 113759
  stamp: 
    secs: 1561863713
    nsecs: 878888415
  frame_id: "ti_mmwave"
point_id: 0
x: 0.01171875
y: -0.0390625
z: -0.0078125
range: 0.0435769706964
velocity: 0.0
doppler_bin: 8
bearing: -73.3007583618
intensity: 30.9096298218
---
header: 
  seq: 113760
  stamp: 
    secs: 1561863713
    nsecs: 878979386
  frame_id: "ti_mmwave"
point_id: 1
x: 0.017578125
y: -0.080078125
z: -0.009765625
range: 0.0871539413929
velocity: 0.0
doppler_bin: 8
bearing: -77.6192398071
intensity: 32.1058616638
---
header: 
  seq: 113761
  stamp: 
    secs: 1561863713
    nsecs: 878998153
  frame_id: "ti_mmwave"
point_id: 2
x: 0.041015625
y: -0.115234375
z: -0.009765625
range: 0.130730912089
velocity: 0.0
doppler_bin: 8
bearing: -70.4077224731
intensity: 30.3702793121
---
header: 
  seq: 113762
  stamp: 
    secs: 1561863713
    nsecs: 879013533
  frame_id: "ti_mmwave"
point_id: 3
x: 0.056640625
y: -0.154296875
z: 0.00390625
range: 0.174307882786
velocity: 0.0
doppler_bin: 8
bearing: -69.8423843384
intensity: 25.5990657806
---
header: 
  seq: 113763
  stamp: 
    secs: 1561863713
    nsecs: 879028024
  frame_id: "ti_mmwave"
point_id: 4
x: 0.767578125
y: -0.0
z: -1.0078125
range: 1.35088610649
velocity: 0.0
doppler_bin: 8
bearing: -0.0
intensity: 24.5788192749
---
header: 
  seq: 113764
  stamp: 
    secs: 1561863713
    nsecs: 879040162
  frame_id: "ti_mmwave"
point_id: 5
x: 1.24609375
y: 0.041015625
z: -0.3984375
range: 1.39446306229
velocity: 0.0
doppler_bin: 8
bearing: 1.88523066044
intensity: 30.9898967743
---
header: 
  seq: 113765
  stamp: 
    secs: 1561863713
    nsecs: 879051691
  frame_id: "ti_mmwave"
point_id: 6
x: 1.3125
y: 0.04296875
z: -0.314453125
range: 1.43804001808
velocity: 0.0
doppler_bin: 8
bearing: 1.87508499622
intensity: 33.6210517883
---
header: 
  seq: 113766
  stamp: 
    secs: 1561863713
    nsecs: 879066267
  frame_id: "ti_mmwave"
point_id: 7
x: 1.341796875
y: 0.04296875
z: -0.361328125
range: 1.48161697388
velocity: 0.0
doppler_bin: 8
bearing: 1.83417236805
intensity: 32.4649848938
---
header: 
  seq: 113767
  stamp: 
    secs: 1561863713
    nsecs: 879080699
  frame_id: "ti_mmwave"
point_id: 8
x: 1.34765625
y: 0.1796875
z: -0.447265625
range: 1.52519392967
velocity: 0.0
doppler_bin: 8
bearing: 7.59464359283
intensity: 26.0314445496
---
header: 
  seq: 113768
  stamp: 
    secs: 1561863713
    nsecs: 879097030
  frame_id: "ti_mmwave"
point_id: 9
x: 2.630859375
y: -0.17578125
z: 1.0078125
range: 3.00681090355
velocity: 0.0
doppler_bin: 8
bearing: -3.82254433632
intensity: 29.2941894531
---
header: 
  seq: 113769
  stamp: 
    secs: 1561863713
    nsecs: 879125861
  frame_id: "ti_mmwave"
point_id: 10
x: 2.693359375
y: -0.08984375
z: 0.96875
range: 3.05038785934
velocity: 0.0
doppler_bin: 8
bearing: -1.91053581238
intensity: 32.4179534912
---
header: 
  seq: 113770
  stamp: 
    secs: 1561863713
    nsecs: 879145116
  frame_id: "ti_mmwave"
point_id: 11
x: 2.759765625
y: -0.08984375
z: 0.90234375
range: 3.09396481514
velocity: 0.0
doppler_bin: 8
bearing: -1.86459684372
intensity: 31.4798526764
---
header: 
  seq: 113771
  stamp: 
    secs: 1561863713
    nsecs: 879159402
  frame_id: "ti_mmwave"
point_id: 12
x: 1.443359375
y: -0.046875
z: 0.28515625
range: 1.56877088547
velocity: -0.614668667316
doppler_bin: 7
bearing: -1.86010229588
intensity: 26.4933490753
---
header: 
  seq: 113772
  stamp: 
    secs: 1561863713
    nsecs: 879175454
  frame_id: "ti_mmwave"
point_id: 13
x: 0.01171875
y: 0.03125
z: 0.0234375
range: 0.0435769706964
velocity: 0.0
doppler_bin: 8
bearing: 69.4439544678
intensity: 29.4939002991
---
header: 
  seq: 113773
  stamp: 
    secs: 1561863713
    nsecs: 879189928
  frame_id: "ti_mmwave"
point_id: 14
x: 0.041015625
y: -0.033203125
z: 0.0625
range: 0.0871539413929
velocity: 0.0
doppler_bin: 8
bearing: -38.9909973145
intensity: 30.2242832184
---
header: 
  seq: 113774
  stamp: 
    secs: 1561863713
    nsecs: 879204074
  frame_id: "ti_mmwave"
point_id: 15
x: 0.05078125
y: -0.04296875
z: 0.103515625
range: 0.130730912089
velocity: 0.0
doppler_bin: 8
bearing: -40.2363586426
intensity: 29.1009063721
---
header: 
  seq: 113775
  stamp: 
    secs: 1561863713
    nsecs: 879217980
  frame_id: "ti_mmwave"
point_id: 17
x: 0.966796875
y: -0.357421875
z: 0.994140625
range: 1.52519392967
velocity: 0.0
doppler_bin: 8
bearing: -20.2892017365
intensity: 24.1329975128
---
header: 
  seq: 113776
  stamp: 
    secs: 1561863713
    nsecs: 879873218
  frame_id: "ti_mmwave"
point_id: 0
x: 0.01171875
y: -0.0390625
z: -0.0078125
range: 0.0435769706964
velocity: 0.0
doppler_bin: 8
bearing: -73.3007583618
intensity: 30.8990516663
---
header: 
  seq: 113777
  stamp: 
    secs: 1561863713
    nsecs: 879976939
  frame_id: "ti_mmwave"
point_id: 1
x: 0.017578125
y: -0.080078125
z: -0.009765625
range: 0.0871539413929
velocity: 0.0
doppler_bin: 8
bearing: -77.6192398071
intensity: 32.1031837463
---
header: 
  seq: 113778
  stamp: 
    secs: 1561863713
    nsecs: 880000116
  frame_id: "ti_mmwave"
point_id: 2
x: 0.041015625
y: -0.115234375
z: -0.009765625
range: 0.130730912089
velocity: 0.0
doppler_bin: 8
bearing: -70.4077224731
intensity: 30.3742656708
---
header: 
  seq: 113779
  stamp: 
    secs: 1561863713
    nsecs: 880014552
  frame_id: "ti_mmwave"
point_id: 3
x: 0.056640625
y: -0.154296875
z: 0.005859375
range: 0.174307882786
velocity: 0.0
doppler_bin: 8
bearing: -69.8423843384
intensity: 25.5870857239
---
header: 
  seq: 113780
  stamp: 
    secs: 1561863713
    nsecs: 880093648
  frame_id: "ti_mmwave"
point_id: 4
x: 1.16015625
y: -0.19140625
z: 0.3515625
range: 1.3073091507
velocity: 0.0
doppler_bin: 8
bearing: -9.3684463501
intensity: 20.3342380524
---
header: 
  seq: 113781
  stamp: 
    secs: 1561863713
    nsecs: 880108881
  frame_id: "ti_mmwave"
point_id: 5
x: 0.98046875
y: -0.119140625
z: 0.796875
range: 1.35088610649
velocity: 0.0
doppler_bin: 8
bearing: -6.92826938629
intensity: 24.3775062561
---
header: 
  seq: 113782
  stamp: 
    secs: 1561863713
    nsecs: 880123881
  frame_id: "ti_mmwave"
point_id: 6
x: 1.123046875
y: 0.08203125
z: -0.66796875
range: 1.39446306229
velocity: 0.0
doppler_bin: 8
bearing: 4.1776638031
intensity: 26.9983768463
---
header: 
  seq: 113783
  stamp: 
    secs: 1561863713
    nsecs: 880173032
  frame_id: "ti_mmwave"
point_id: 7
x: 1.271484375
y: 0.083984375
z: -0.4453125
range: 1.43804001808
velocity: 0.0
doppler_bin: 8
bearing: 3.77902460098
intensity: 28.9153747559
---
header: 
  seq: 113784
  stamp: 
    secs: 1561863713
    nsecs: 880187565
  frame_id: "ti_mmwave"
point_id: 8
x: 1.310546875
y: 0.087890625
z: -0.45703125
range: 1.48161697388
velocity: 0.0
doppler_bin: 8
bearing: 3.83674383163
intensity: 28.8024177551
---
header: 
  seq: 113785
  stamp: 
    secs: 1561863713
    nsecs: 880201214
  frame_id: "ti_mmwave"
point_id: 9
x: 1.287109375
y: 0.044921875
z: -0.625
range: 1.52519392967
velocity: 0.0
doppler_bin: 8
bearing: 1.99888968468
intensity: 26.7942790985
---
header: 
  seq: 113786
  stamp: 
    secs: 1561863713
    nsecs: 880213164
  frame_id: "ti_mmwave"
point_id: 10
x: 2.60546875
y: -0.17578125
z: 1.072265625
range: 3.00681090355
velocity: 0.0
doppler_bin: 8
bearing: -3.85968351364
intensity: 29.2116603851
---
header: 
  seq: 113787
  stamp: 
    secs: 1561863713
    nsecs: 880269611
  frame_id: "ti_mmwave"
point_id: 11
x: 2.685546875
y: -0.08984375
z: 0.986328125
range: 3.05038785934
velocity: 0.0
doppler_bin: 8
bearing: -1.91608965397
intensity: 32.3804626465
---
header: 
  seq: 113788
  stamp: 
    secs: 1561863713
    nsecs: 880283430
  frame_id: "ti_mmwave"
point_id: 12
x: 2.755859375
y: -0.08984375
z: 0.9140625
range: 3.09396481514
velocity: 0.0
doppler_bin: 8
bearing: -1.86723792553
intensity: 31.4176330566
---
header: 
  seq: 113789
  stamp: 
    secs: 1561863713
    nsecs: 880300369
  frame_id: "ti_mmwave"
point_id: 13
x: 0.01171875
y: 0.03125
z: 0.0234375
range: 0.0435769706964
velocity: 0.0
doppler_bin: 8
bearing: 69.4439544678
intensity: 29.4987773895
---
header: 
  seq: 113790
  stamp: 
    secs: 1561863713
    nsecs: 880346878
  frame_id: "ti_mmwave"
point_id: 14
x: 0.0390625
y: -0.033203125
z: 0.0625
range: 0.0871539413929
velocity: 0.0
doppler_bin: 8
bearing: -40.3645362854
intensity: 30.2242832184
---
header: 
  seq: 113791
  stamp: 
    secs: 1561863713
    nsecs: 880360851
  frame_id: "ti_mmwave"
point_id: 15
x: 0.05078125
y: -0.04296875
z: 0.103515625
range: 0.130730912089
velocity: 0.0
doppler_bin: 8
bearing: -40.2363586426
intensity: 29.0955600739
---
header: 
  seq: 113792
  stamp: 
    secs: 1561863713
    nsecs: 938767121
  frame_id: "ti_mmwave"
point_id: 0
x: 0.01171875
y: -0.0390625
z: -0.0078125
range: 0.0435769706964
velocity: 0.0
doppler_bin: 8
bearing: -73.3007583618
intensity: 30.8990516663
---
header: 
  seq: 113793
  stamp: 
    secs: 1561863713
    nsecs: 938864237
  frame_id: "ti_mmwave"
point_id: 1
x: 0.017578125
y: -0.080078125
z: -0.009765625
range: 0.0871539413929
velocity: 0.0
doppler_bin: 8
bearing: -77.6192398071
intensity: 32.1031837463
---
header: 
  seq: 113794
  stamp: 
    secs: 1561863713
    nsecs: 938883016
  frame_id: "ti_mmwave"
point_id: 2
x: 0.041015625
y: -0.115234375
z: -0.009765625
range: 0.130730912089
velocity: 0.0
doppler_bin: 8
bearing: -70.4077224731
intensity: 30.3742656708
---
header: 
  seq: 113795
  stamp: 
    secs: 1561863713
    nsecs: 938897102
  frame_id: "ti_mmwave"
point_id: 3
x: 0.056640625
y: -0.154296875
z: 0.00390625
range: 0.174307882786
velocity: 0.0
doppler_bin: 8
bearing: -69.8423843384
intensity: 25.5990657806
---
header: 
  seq: 113796
  stamp: 
    secs: 1561863713
    nsecs: 938916617
  frame_id: "ti_mmwave"
point_id: 5
x: 0.66796875
y: -0.080078125
z: -1.076171875
range: 1.35088610649
velocity: 0.0
doppler_bin: 8
bearing: -6.83616685867
intensity: 26.5609817505
---
header: 
  seq: 113797
  stamp: 
    secs: 1561863713
    nsecs: 938930529
  frame_id: "ti_mmwave"
point_id: 6
x: 1.263671875
y: -0.041015625
z: -0.337890625
range: 1.39446306229
velocity: 0.0
doppler_bin: 8
bearing: -1.85902488232
intensity: 30.7298469543
---
header: 
  seq: 113798
  stamp: 
    secs: 1561863713
    nsecs: 938943904
  frame_id: "ti_mmwave"
point_id: 7
x: 1.326171875
y: 0.04296875
z: -0.248046875
range: 1.43804001808
velocity: 0.0
doppler_bin: 8
bearing: 1.8557677269
intensity: 32.6150093079
---
header: 
  seq: 113799
  stamp: 
    secs: 1561863713
    nsecs: 938957688
  frame_id: "ti_mmwave"
point_id: 8
x: 1.3671875
y: 0.04296875
z: -0.255859375
range: 1.48161697388
velocity: 0.0
doppler_bin: 8
bearing: 1.80013203621
intensity: 31.6405525208
---
header: 
  seq: 113800
  stamp: 
    secs: 1561863713
    nsecs: 938970815
  frame_id: "ti_mmwave"
point_id: 9
x: 1.36328125
y: 0.044921875
z: -0.43359375
range: 1.52519392967
velocity: 0.0
doppler_bin: 8
bearing: 1.88728690147
intensity: 26.5127792358
---
header: 
  seq: 113801
  stamp: 
    secs: 1561863713
    nsecs: 938984315
  frame_id: "ti_mmwave"
point_id: 10
x: 2.607421875
y: -0.17578125
z: 1.064453125
range: 3.00681090355
velocity: 0.0
doppler_bin: 8
bearing: -3.8568007946
intensity: 29.1062431335
---
header: 
  seq: 113802
  stamp: 
    secs: 1561863713
    nsecs: 939071708
  frame_id: "ti_mmwave"
point_id: 11
x: 2.6875
y: -0.08984375
z: 0.986328125
range: 3.05038785934
velocity: 0.0
doppler_bin: 8
bearing: -1.91469812393
intensity: 32.3197898865
---
header: 
  seq: 113803
  stamp: 
    secs: 1561863713
    nsecs: 939091279
  frame_id: "ti_mmwave"
point_id: 12
x: 2.75390625
y: -0.08984375
z: 0.919921875
range: 3.09396481514
velocity: 0.0
doppler_bin: 8
bearing: -1.86856126785
intensity: 31.389339447
---
header: 
  seq: 113804
  stamp: 
    secs: 1561863713
    nsecs: 939104628
  frame_id: "ti_mmwave"
point_id: 13
x: 0.01171875
y: 0.03125
z: 0.0234375
range: 0.0435769706964
velocity: 0.0
doppler_bin: 8
bearing: 69.4439544678
intensity: 29.5036487579
---
header: 
  seq: 113805
  stamp: 
    secs: 1561863713
    nsecs: 939118409
  frame_id: "ti_mmwave"
point_id: 14
x: 0.041015625
y: -0.033203125
z: 0.0625
range: 0.0871539413929
velocity: 0.0
doppler_bin: 8
bearing: -38.9909973145
intensity: 30.2242832184
---
header: 
  seq: 113806
  stamp: 
    secs: 1561863713
    nsecs: 939131809
  frame_id: "ti_mmwave"
point_id: 15
x: 0.05078125
y: -0.04296875
z: 0.103515625
range: 0.130730912089
velocity: 0.0
doppler_bin: 8
bearing: -40.2363586426
intensity: 29.1009063721
---
header: 
  seq: 113807
  stamp: 
    secs: 1561863713
    nsecs: 939868612
  frame_id: "ti_mmwave"
point_id: 0
x: 0.01171875
y: -0.0390625
z: -0.0078125
range: 0.0435769706964
velocity: 0.0
doppler_bin: 8
bearing: -73.3007583618
intensity: 30.8955192566
---
header: 
  seq: 113808
  stamp: 
    secs: 1561863713
    nsecs: 939930191
  frame_id: "ti_mmwave"
point_id: 1
x: 0.017578125
y: -0.080078125
z: -0.009765625
range: 0.0871539413929
velocity: 0.0
doppler_bin: 8
bearing: -77.6192398071
intensity: 32.0978317261
---
header: 
  seq: 113809
  stamp: 
    secs: 1561863713
    nsecs: 939977578
  frame_id: "ti_mmwave"
point_id: 2
x: 0.041015625
y: -0.115234375
z: -0.009765625
range: 0.130730912089
velocity: 0.0
doppler_bin: 8
bearing: -70.4077224731
intensity: 30.3702793121
---
header: 
  seq: 113810
  stamp: 
    secs: 1561863713
    nsecs: 939997850
  frame_id: "ti_mmwave"
point_id: 3
x: 0.056640625
y: -0.154296875
z: 0.005859375
range: 0.174307882786
velocity: 0.0
doppler_bin: 8
bearing: -69.8423843384
intensity: 25.5990657806
---
header: 
  seq: 113811
  stamp: 
    secs: 1561863713
    nsecs: 940007330
  frame_id: "ti_mmwave"
point_id: 4
x: 0.8984375
y: -0.19140625
z: -0.8125
range: 1.3073091507
velocity: 0.0
doppler_bin: 8
bearing: -12.0266904831
intensity: 23.7474842072
---
header: 
  seq: 113812
  stamp: 
    secs: 1561863713
    nsecs: 940092394
  frame_id: "ti_mmwave"
point_id: 5
x: 0.9453125
y: -0.080078125
z: -0.841796875
range: 1.35088610649
velocity: 0.0
doppler_bin: 8
bearing: -4.8420085907
intensity: 26.9722938538
---
header: 
  seq: 113813
  stamp: 
    secs: 1561863713
    nsecs: 940108578
  frame_id: "ti_mmwave"
point_id: 6
x: 0.896484375
y: -0.0
z: -0.955078125
range: 1.39446306229
velocity: 0.0
doppler_bin: 8
bearing: -0.0
intensity: 28.034570694
---
header: 
  seq: 113814
  stamp: 
    secs: 1561863713
    nsecs: 940122628
  frame_id: "ti_mmwave"
point_id: 7
x: 1.34765625
y: 0.083984375
z: 0.029296875
range: 1.43804001808
velocity: 0.0
doppler_bin: 8
bearing: 3.56599473953
intensity: 28.645111084
---
header: 
  seq: 113815
  stamp: 
    secs: 1561863713
    nsecs: 940134262
  frame_id: "ti_mmwave"
point_id: 8
x: 1.38671875
y: 0.087890625
z: 0.048828125
range: 1.48161697388
velocity: 0.0
doppler_bin: 8
bearing: 3.62657165527
intensity: 28.4633712769
---
header: 
  seq: 113816
  stamp: 
    secs: 1561863713
    nsecs: 940146887
  frame_id: "ti_mmwave"
point_id: 9
x: 1.421875
y: -0.0
z: 0.16015625
range: 1.52519392967
velocity: 0.0
doppler_bin: 8
bearing: -0.0
intensity: 26.9983768463
---
header: 
  seq: 113817
  stamp: 
    secs: 1561863713
    nsecs: 940155576
  frame_id: "ti_mmwave"
point_id: 10
x: 2.60546875
y: -0.17578125
z: 1.072265625
range: 3.00681090355
velocity: 0.0
doppler_bin: 8
bearing: -3.85968351364
intensity: 29.0471553802
---
header: 
  seq: 113818
  stamp: 
    secs: 1561863713
    nsecs: 940169366
  frame_id: "ti_mmwave"
point_id: 11
x: 2.689453125
y: -0.08984375
z: 0.9765625
range: 3.05038785934
velocity: 0.0
doppler_bin: 8
bearing: -1.91330885887
intensity: 32.3325004578
---
header: 
  seq: 113819
  stamp: 
    secs: 1561863713
    nsecs: 940178116
  frame_id: "ti_mmwave"
point_id: 12
x: 2.7578125
y: -0.08984375
z: 0.908203125
range: 3.09396481514
velocity: 0.0
doppler_bin: 8
bearing: -1.86591637135
intensity: 31.4363918304
---
header: 
  seq: 113820
  stamp: 
    secs: 1561863713
    nsecs: 940208828
  frame_id: "ti_mmwave"
point_id: 13
x: 0.01171875
y: 0.03125
z: 0.0234375
range: 0.0435769706964
velocity: 0.0
doppler_bin: 8
bearing: 69.4439544678
intensity: 29.4939002991
---
header: 
  seq: 113821
  stamp: 
    secs: 1561863713
    nsecs: 940232122
  frame_id: "ti_mmwave"
point_id: 14
x: 0.041015625
y: -0.033203125
z: 0.0625
range: 0.0871539413929
velocity: 0.0
doppler_bin: 8
bearing: -38.9909973145
intensity: 30.2242832184
---
header: 
  seq: 113822
  stamp: 
    secs: 1561863713
    nsecs: 940315213
  frame_id: "ti_mmwave"
point_id: 15
x: 0.05078125
y: -0.04296875
z: 0.103515625
range: 0.130730912089
velocity: 0.0
doppler_bin: 8
bearing: -40.2363586426
intensity: 29.1062431335
---
header: 
  seq: 113823
  stamp: 
    secs: 1561863713
    nsecs: 998737404
  frame_id: "ti_mmwave"
point_id: 0
x: 0.01171875
y: -0.0390625
z: -0.0078125
range: 0.0435769706964
velocity: 0.0
doppler_bin: 8
bearing: -73.3007583618
intensity: 30.8990516663
---
header: 
  seq: 113824
  stamp: 
    secs: 1561863713
    nsecs: 998830593
  frame_id: "ti_mmwave"
point_id: 1
x: 0.017578125
y: -0.080078125
z: -0.009765625
range: 0.0871539413929
velocity: 0.0
doppler_bin: 8
bearing: -77.6192398071
intensity: 32.1031837463
---
header: 
  seq: 113825
  stamp: 
    secs: 1561863713
    nsecs: 998847239
  frame_id: "ti_mmwave"
point_id: 2
x: 0.041015625
y: -0.115234375
z: -0.009765625
range: 0.130730912089
velocity: 0.0
doppler_bin: 8
bearing: -70.4077224731
intensity: 30.3782482147
---
header: 
  seq: 113826
  stamp: 
    secs: 1561863713
    nsecs: 998863415
  frame_id: "ti_mmwave"
point_id: 3
x: 0.056640625
y: -0.154296875
z: 0.00390625
range: 0.174307882786
velocity: 0.0
doppler_bin: 8
bearing: -69.8423843384
intensity: 25.6229286194
---
header: 
  seq: 113827
  stamp: 
    secs: 1561863713
    nsecs: 998876492
  frame_id: "ti_mmwave"
point_id: 4
x: 1.177734375
y: -0.154296875
z: 0.30859375
range: 1.3073091507
velocity: 0.0
doppler_bin: 8
bearing: -7.46390199661
intensity: 22.4303798676
---
header: 
  seq: 113828
  stamp: 
    secs: 1561863713
    nsecs: 998890182
  frame_id: "ti_mmwave"
point_id: 5
x: 1.244140625
y: -0.080078125
z: 0.23046875
range: 1.35088610649
velocity: 0.0
doppler_bin: 8
bearing: -3.68271756172
intensity: 27.5281639099
---
header: 
  seq: 113829
  stamp: 
    secs: 1561863713
    nsecs: 998906351
  frame_id: "ti_mmwave"
point_id: 6
x: 1.30859375
y: -0.041015625
z: 0.0234375
range: 1.39446306229
velocity: 0.0
doppler_bin: 8
bearing: -1.79525017738
intensity: 30.6445808411
---
header: 
  seq: 113830
  stamp: 
    secs: 1561863713
    nsecs: 998989681
  frame_id: "ti_mmwave"
point_id: 7
x: 1.34765625
y: -0.0
z: -0.076171875
range: 1.43804001808
velocity: 0.0
doppler_bin: 8
bearing: -0.0
intensity: 31.5896530151
---
header: 
  seq: 113831
  stamp: 
    secs: 1561863713
    nsecs: 999003904
  frame_id: "ti_mmwave"
point_id: 8
x: 1.388671875
y: -0.0
z: -0.072265625
range: 1.48161697388
velocity: 0.0
doppler_bin: 8
bearing: -0.0
intensity: 30.310043335
---
header: 
  seq: 113832
  stamp: 
    secs: 1561863713
    nsecs: 999016731
  frame_id: "ti_mmwave"
point_id: 9
x: 1.427734375
y: -0.0
z: 0.1015625
range: 1.52519392967
velocity: 0.0
doppler_bin: 8
bearing: -0.0
intensity: 27.8675136566
---
header: 
  seq: 113833
  stamp: 
    secs: 1561863713
    nsecs: 999029939
  frame_id: "ti_mmwave"
point_id: 10
x: 2.60546875
y: -0.17578125
z: 1.07421875
range: 3.00681090355
velocity: 0.0
doppler_bin: 8
bearing: -3.85968351364
intensity: 29.1697998047
---
header: 
  seq: 113834
  stamp: 
    secs: 1561863713
    nsecs: 999045430
  frame_id: "ti_mmwave"
point_id: 11
x: 2.68359375
y: -0.08984375
z: 0.994140625
range: 3.05038785934
velocity: 0.0
doppler_bin: 8
bearing: -1.91748321056
intensity: 32.3325004578
---
header: 
  seq: 113835
  stamp: 
    secs: 1561863713
    nsecs: 999058581
  frame_id: "ti_mmwave"
point_id: 12
x: 2.75
y: -0.08984375
z: 0.9296875
range: 3.09396481514
velocity: 0.0
doppler_bin: 8
bearing: -1.87121355534
intensity: 31.383026123
---
header: 
  seq: 113836
  stamp: 
    secs: 1561863713
    nsecs: 999074992
  frame_id: "ti_mmwave"
point_id: 13
x: 0.01171875
y: 0.03125
z: 0.0234375
range: 0.0435769706964
velocity: 0.0
doppler_bin: 8
bearing: 69.4439544678
intensity: 29.4939002991
---
header: 
  seq: 113837
  stamp: 
    secs: 1561863713
    nsecs: 999105827
  frame_id: "ti_mmwave"
point_id: 14
x: 0.041015625
y: -0.033203125
z: 0.0625
range: 0.0871539413929
velocity: 0.0
doppler_bin: 8
bearing: -38.9909973145
intensity: 30.2284069061
---
header: 
  seq: 113838
  stamp: 
    secs: 1561863713
    nsecs: 999166877
  frame_id: "ti_mmwave"
point_id: 15
x: 0.05078125
y: -0.04296875
z: 0.103515625
range: 0.130730912089
velocity: 0.0
doppler_bin: 8
bearing: -40.2363586426
intensity: 29.1009063721
---
header: 
  seq: 113839
  stamp: 
    secs: 1561863713
    nsecs: 999875917
  frame_id: "ti_mmwave"
point_id: 0
x: 0.01171875
y: -0.0390625
z: -0.0078125
range: 0.0435769706964
velocity: 0.0
doppler_bin: 8
bearing: -73.3007583618
intensity: 30.8990516663
---
header: 
  seq: 113840
  stamp: 
    secs: 1561863713
    nsecs: 999941430
  frame_id: "ti_mmwave"
point_id: 1
x: 0.017578125
y: -0.080078125
z: -0.009765625
range: 0.0871539413929
velocity: 0.0
doppler_bin: 8
bearing: -77.6192398071
intensity: 32.1031837463
---
header: 
  seq: 113841
  stamp: 
    secs: 1561863713
    nsecs: 999987224
  frame_id: "ti_mmwave"
point_id: 2
x: 0.041015625
y: -0.115234375
z: -0.009765625
range: 0.130730912089
velocity: 0.0
doppler_bin: 8
bearing: -70.4077224731
intensity: 30.3702793121
---
header: 
  seq: 113842
  stamp: 
    secs: 1561863713
    nsecs: 999998922
  frame_id: "ti_mmwave"
point_id: 3
x: 0.056640625
y: -0.154296875
z: 0.005859375
range: 0.174307882786
velocity: 0.0
doppler_bin: 8
bearing: -69.8423843384
intensity: 25.5990657806
---
header: 
  seq: 113843
  stamp: 
    secs: 1561863714
    nsecs:      7513
  frame_id: "ti_mmwave"
point_id: 4
x: 1.06640625
y: -0.0
z: -0.685546875
range: 1.35088610649
velocity: 0.0
doppler_bin: 8
bearing: -0.0
intensity: 25.5750713348
---
header: 
  seq: 113844
  stamp: 
    secs: 1561863714
    nsecs:     18799
  frame_id: "ti_mmwave"
point_id: 5
x: 1.2421875
y: -0.0
z: -0.4140625
range: 1.39446306229
velocity: 0.0
doppler_bin: 8
bearing: -0.0
intensity: 27.9098854065
---
header: 
  seq: 113845
  stamp: 
    secs: 1561863714
    nsecs:     31165
  frame_id: "ti_mmwave"
point_id: 6
x: 1.33203125
y: -0.0
z: -0.212890625
range: 1.43804001808
velocity: 0.0
doppler_bin: 8
bearing: -0.0
intensity: 28.4073314667
---
header: 
  seq: 113846
  stamp: 
    secs: 1561863714
    nsecs:     42830
  frame_id: "ti_mmwave"
point_id: 7
x: 1.3828125
y: -0.0
z: -0.142578125
range: 1.48161697388
velocity: 0.0
doppler_bin: 8
bearing: -0.0
intensity: 27.4193916321
---
header: 
  seq: 113847
  stamp: 
    secs: 1561863714
    nsecs:     54976
  frame_id: "ti_mmwave"
point_id: 8
x: 2.603515625
y: -0.17578125
z: 1.078125
range: 3.00681090355
velocity: 0.0
doppler_bin: 8
bearing: -3.86257004738
intensity: 29.1697998047
---
header: 
  seq: 113848
  stamp: 
    secs: 1561863714
    nsecs:     67045
  frame_id: "ti_mmwave"
point_id: 9
x: 2.68359375
y: -0.08984375
z: 0.99609375
range: 3.05038785934
velocity: 0.0
doppler_bin: 8
bearing: -1.91748321056
intensity: 32.3578071594
---
header: 
  seq: 113849
  stamp: 
    secs: 1561863714
    nsecs:     80851
  frame_id: "ti_mmwave"
point_id: 10
x: 2.748046875
y: -0.08984375
z: 0.935546875
range: 3.09396481514
velocity: 0.0
doppler_bin: 8
bearing: -1.8725425005
intensity: 31.4113616943
---
header: 
  seq: 113850
  stamp: 
    secs: 1561863714
    nsecs:     93814
  frame_id: "ti_mmwave"
point_id: 11
x: 1.41015625
y: -0.044921875
z: 0.240234375
range: 1.52519392967
velocity: 0.614668667316
doppler_bin: 9
bearing: -1.8245947361
intensity: 26.503074646
---
header: 
  seq: 113851
  stamp: 
    secs: 1561863714
    nsecs:    102643
  frame_id: "ti_mmwave"
point_id: 12
x: 1.41796875
y: -0.046875
z: 0.39453125
range: 1.56877088547
velocity: 0.614668667316
doppler_bin: 9
bearing: -1.89338588715
intensity: 25.8994960785
---
header: 
  seq: 113852
  stamp: 
    secs: 1561863714
    nsecs:    111125
  frame_id: "ti_mmwave"
point_id: 13
x: 0.01171875
y: 0.03125
z: 0.0234375
range: 0.0435769706964
velocity: 0.0
doppler_bin: 8
bearing: 69.4439544678
intensity: 29.4987773895
---
header: 
  seq: 113853
  stamp: 
    secs: 1561863714
    nsecs:    120143
  frame_id: "ti_mmwave"
point_id: 14
x: 0.041015625
y: -0.033203125
z: 0.0625
range: 0.0871539413929
velocity: 0.0
doppler_bin: 8
bearing: -38.9909973145
intensity: 30.2242832184
---
header: 
  seq: 113854
  stamp: 
    secs: 1561863714
    nsecs:    128373
  frame_id: "ti_mmwave"
point_id: 15
x: 0.05078125
y: -0.04296875
z: 0.103515625
range: 0.130730912089
velocity: 0.0
doppler_bin: 8
bearing: -40.2363586426
intensity: 29.1062431335
---
header: 
  seq: 113855
  stamp: 
    secs: 1561863714
    nsecs:  58724811
  frame_id: "ti_mmwave"
point_id: 0
x: 0.01171875
y: -0.0390625
z: -0.0078125
range: 0.0435769706964
velocity: 0.0
doppler_bin: 8
bearing: -73.3007583618
intensity: 30.8955192566
---
header: 
  seq: 113856
  stamp: 
    secs: 1561863714
    nsecs:  58799133
  frame_id: "ti_mmwave"
point_id: 1
x: 0.017578125
y: -0.080078125
z: -0.009765625
range: 0.0871539413929
velocity: 0.0
doppler_bin: 8
bearing: -77.6192398071
intensity: 32.1005096436
---
header: 
  seq: 113857
  stamp: 
    secs: 1561863714
    nsecs:  58810057
  frame_id: "ti_mmwave"
point_id: 2
x: 0.041015625
y: -0.115234375
z: -0.009765625
range: 0.130730912089
velocity: 0.0
doppler_bin: 8
bearing: -70.4077224731
intensity: 30.3742656708
---
header: 
  seq: 113858
  stamp: 
    secs: 1561863714
    nsecs:  58820799
  frame_id: "ti_mmwave"
point_id: 3
x: 0.056640625
y: -0.154296875
z: 0.005859375
range: 0.174307882786
velocity: 0.0
doppler_bin: 8
bearing: -69.8423843384
intensity: 25.6110134125
---
header: 
  seq: 113859
  stamp: 
    secs: 1561863714
    nsecs:  58829136
  frame_id: "ti_mmwave"
point_id: 4
x: 0.525390625
y: -0.19140625
z: 1.091796875
range: 1.3073091507
velocity: 0.0
doppler_bin: 8
bearing: -20.0173015594
intensity: 19.9122600555
---
header: 
  seq: 113860
  stamp: 
    secs: 1561863714
    nsecs:  58836914
  frame_id: "ti_mmwave"
point_id: 5
x: 1.103515625
y: -0.080078125
z: -0.62109375
range: 1.35088610649
velocity: 0.0
doppler_bin: 8
bearing: -4.15047216415
intensity: 26.7760696411
---
header: 
  seq: 113861
  stamp: 
    secs: 1561863714
    nsecs:  58845028
  frame_id: "ti_mmwave"
point_id: 6
x: 1.208984375
y: -0.041015625
z: -0.498046875
range: 1.39446306229
velocity: 0.0
doppler_bin: 8
bearing: -1.94305348396
intensity: 29.2531204224
---
header: 
  seq: 113862
  stamp: 
    secs: 1561863714
    nsecs:  58854947
  frame_id: "ti_mmwave"
point_id: 7
x: 1.234375
y: -0.04296875
z: -0.54296875
range: 1.43804001808
velocity: 0.0
doppler_bin: 8
bearing: -1.99366819859
intensity: 28.2994670868
---
header: 
  seq: 113863
  stamp: 
    secs: 1561863714
    nsecs:  58863373
  frame_id: "ti_mmwave"
point_id: 8
x: 1.26171875
y: 0.04296875
z: -0.583984375
range: 1.48161697388
velocity: 0.0
doppler_bin: 8
bearing: 1.9504956007
intensity: 27.201593399
---
header: 
  seq: 113864
  stamp: 
    secs: 1561863714
    nsecs:  58870933
  frame_id: "ti_mmwave"
point_id: 9
x: 1.380859375
y: 0.044921875
z: -0.373046875
range: 1.52519392967
velocity: 0.0
doppler_bin: 8
bearing: 1.86327898502
intensity: 27.0926990509
---
header: 
  seq: 113865
  stamp: 
    secs: 1561863714
    nsecs:  58878994
  frame_id: "ti_mmwave"
point_id: 10
x: 1.458984375
y: 0.046875
z: -0.19140625
range: 1.56877088547
velocity: 0.0
doppler_bin: 8
bearing: 1.84019505978
intensity: 26.4443855286
---
header: 
  seq: 113866
  stamp: 
    secs: 1561863714
    nsecs:  58887977
