header: 
  seq: 140524
  stamp: 
    secs: 1561863758
    nsecs: 758726376
  frame_id: "ti_mmwave"
point_id: 0
x: 0.01171875
y: -0.0390625
z: -0.0078125
range: 0.0435769706964
velocity: 0.0
doppler_bin: 8
bearing: -73.3007583618
intensity: 30.86003685
---
header: 
  seq: 140525
  stamp: 
    secs: 1561863758
    nsecs: 758804669
  frame_id: "ti_mmwave"
point_id: 1
x: 0.017578125
y: -0.080078125
z: -0.009765625
range: 0.0871539413929
velocity: 0.0
doppler_bin: 8
bearing: -77.6192398071
intensity: 32.0655593872
---
header: 
  seq: 140526
  stamp: 
    secs: 1561863758
    nsecs: 758821787
  frame_id: "ti_mmwave"
point_id: 2
x: 0.041015625
y: -0.115234375
z: -0.009765625
range: 0.130730912089
velocity: 0.0
doppler_bin: 8
bearing: -70.4077224731
intensity: 30.3382568359
---
header: 
  seq: 140527
  stamp: 
    secs: 1561863758
    nsecs: 758834905
  frame_id: "ti_mmwave"
point_id: 3
x: 0.056640625
y: -0.154296875
z: 0.005859375
range: 0.174307882786
velocity: 0.0
doppler_bin: 8
bearing: -69.8423843384
intensity: 25.5630245209
---
header: 
  seq: 140528
  stamp: 
    secs: 1561863758
    nsecs: 758848072
  frame_id: "ti_mmwave"
point_id: 4
x: 0.107421875
y: -0.080078125
z: 1.26171875
range: 1.35088610649
velocity: 0.0
doppler_bin: 8
bearing: -36.7028541565
intensity: 23.2221927643
---
header: 
  seq: 140529
  stamp: 
    secs: 1561863758
    nsecs: 758860025
  frame_id: "ti_mmwave"
point_id: 5
x: 0.271484375
y: -0.041015625
z: -1.279296875
range: 1.39446306229
velocity: 0.0
doppler_bin: 8
bearing: -8.59122562408
intensity: 24.683473587
---
header: 
  seq: 140530
  stamp: 
    secs: 1561863758
    nsecs: 758878371
  frame_id: "ti_mmwave"
point_id: 6
x: 0.509765625
y: -0.04296875
z: -1.25
range: 1.43804001808
velocity: 0.0
doppler_bin: 8
bearing: -4.81814002991
intensity: 23.0535144806
---
header: 
  seq: 140531
  stamp: 
    secs: 1561863758
    nsecs: 758890772
  frame_id: "ti_mmwave"
point_id: 7
x: 0.55078125
y: -0.04296875
z: -1.275390625
range: 1.48161697388
velocity: 0.0
doppler_bin: 8
bearing: -4.46084880829
intensity: 21.7318630219
---
header: 
  seq: 140532
  stamp: 
    secs: 1561863758
    nsecs: 758969824
  frame_id: "ti_mmwave"
point_id: 8
x: 1.900390625
y: 0.490234375
z: 0.0234375
range: 2.09169459343
velocity: 0.0
doppler_bin: 8
bearing: 14.4649505615
intensity: 28.2801513672
---
header: 
  seq: 140533
  stamp: 
    secs: 1561863758
    nsecs: 758984022
  frame_id: "ti_mmwave"
point_id: 9
x: 1.94140625
y: 0.501953125
z: -0.005859375
range: 2.13527154922
velocity: 0.0
doppler_bin: 8
bearing: 14.4964399338
intensity: 29.9694919586
---
header: 
  seq: 140534
  stamp: 
    secs: 1561863758
    nsecs: 758995143
  frame_id: "ti_mmwave"
point_id: 10
x: 1.962890625
y: 0.576171875
z: -0.052734375
range: 2.17884850502
velocity: 0.0
doppler_bin: 8
bearing: 16.358669281
intensity: 29.1062431335
---
header: 
  seq: 140535
  stamp: 
    secs: 1561863758
    nsecs: 759006304
  frame_id: "ti_mmwave"
point_id: 11
x: 2.6171875
y: -0.17578125
z: 1.04296875
range: 3.00681090355
velocity: 0.0
doppler_bin: 8
bearing: -3.84245300293
intensity: 29.1960105896
---
header: 
  seq: 140536
  stamp: 
    secs: 1561863758
    nsecs: 759018508
  frame_id: "ti_mmwave"
point_id: 12
x: 2.693359375
y: -0.08984375
z: 0.966796875
range: 3.05038785934
velocity: 0.0
doppler_bin: 8
bearing: -1.91053581238
intensity: 32.3375740051
---
header: 
  seq: 140537
  stamp: 
    secs: 1561863758
    nsecs: 759031759
  frame_id: "ti_mmwave"
point_id: 13
x: 2.759765625
y: -0.08984375
z: 0.900390625
range: 3.09396481514
velocity: 0.0
doppler_bin: 8
bearing: -1.86459684372
intensity: 31.3703746796
---
header: 
  seq: 140538
  stamp: 
    secs: 1561863758
    nsecs: 759043930
  frame_id: "ti_mmwave"
point_id: 14
x: 4.404296875
y: -0.142578125
z: 1.25
range: 4.88062095642
velocity: 0.0
doppler_bin: 8
bearing: -1.85416030884
intensity: 31.4736709595
---
header: 
  seq: 140539
  stamp: 
    secs: 1561863758
    nsecs: 759054695
  frame_id: "ti_mmwave"
point_id: 15
x: 4.4375
y: -0.0
z: 1.29296875
range: 4.9241976738
velocity: 0.0
doppler_bin: 8
bearing: -0.0
intensity: 31.332195282
---
header: 
  seq: 140540
  stamp: 
    secs: 1561863758
    nsecs: 759065035
  frame_id: "ti_mmwave"
point_id: 16
x: 4.7421875
y: -0.298828125
z: -0.572265625
range: 5.09850549698
velocity: 0.0
doppler_bin: 8
bearing: -3.60571622849
intensity: 33.31224823
---
header: 
  seq: 140541
  stamp: 
    secs: 1561863758
    nsecs: 759075215
  frame_id: "ti_mmwave"
point_id: 17
x: 4.77734375
y: -0.30078125
z: -0.62890625
range: 5.14208269119
velocity: 0.0
doppler_bin: 8
bearing: -3.60258316994
intensity: 33.9497680664
---
header: 
  seq: 140542
  stamp: 
    secs: 1561863758
    nsecs: 759086398
  frame_id: "ti_mmwave"
point_id: 18
x: 4.802734375
y: -0.15234375
z: -0.775390625
range: 5.18565940857
velocity: 0.0
doppler_bin: 8
bearing: -1.81682503223
intensity: 30.4727478027
---
header: 
  seq: 140543
  stamp: 
    secs: 1561863758
    nsecs: 759097128
  frame_id: "ti_mmwave"
point_id: 19
x: 4.822265625
y: -0.306640625
z: 0.869140625
range: 5.22923660278
velocity: 0.0
doppler_bin: 8
bearing: -3.638453722
intensity: 29.0036716461
---
header: 
  seq: 140544
  stamp: 
    secs: 1561863758
    nsecs: 759107071
  frame_id: "ti_mmwave"
point_id: 20
x: 4.890625
y: -0.30859375
z: 0.703125
range: 5.27281332016
velocity: 0.0
doppler_bin: 8
bearing: -3.61052203178
intensity: 31.119342804
---
header: 
  seq: 140545
  stamp: 
    secs: 1561863758
    nsecs: 759134196
  frame_id: "ti_mmwave"
point_id: 21
x: 4.951171875
y: -0.623046875
z: 0.064453125
range: 5.31639051437
velocity: 0.0
doppler_bin: 8
bearing: -7.17230129242
intensity: 29.8317508698
---
header: 
  seq: 140546
  stamp: 
    secs: 1561863758
    nsecs: 759153799
  frame_id: "ti_mmwave"
point_id: 22
x: 0.01171875
y: 0.03125
z: 0.0234375
range: 0.0435769706964
velocity: 0.0
doppler_bin: 8
bearing: 69.4439544678
intensity: 29.4694328308
---
header: 
  seq: 140547
  stamp: 
    secs: 1561863758
    nsecs: 759174787
  frame_id: "ti_mmwave"
point_id: 23
x: 0.041015625
y: -0.033203125
z: 0.0625
range: 0.0871539413929
velocity: 0.0
doppler_bin: 8
bearing: -38.9909973145
intensity: 30.1953163147
---
header: 
  seq: 140548
  stamp: 
    secs: 1561863758
    nsecs: 759205679
  frame_id: "ti_mmwave"
point_id: 24
x: 0.05078125
y: -0.04296875
z: 0.103515625
range: 0.130730912089
velocity: 0.0
doppler_bin: 8
bearing: -40.2363586426
intensity: 29.0741138458
---
header: 
  seq: 140549
  stamp: 
    secs: 1561863758
    nsecs: 818546793
  frame_id: "ti_mmwave"
point_id: 0
x: 0.01171875
y: -0.0390625
z: -0.0078125
range: 0.0435769706964
velocity: 0.0
doppler_bin: 8
bearing: -73.3007583618
intensity: 30.86003685
---
header: 
  seq: 140550
  stamp: 
    secs: 1561863758
    nsecs: 818619179
  frame_id: "ti_mmwave"
point_id: 1
x: 0.017578125
y: -0.080078125
z: -0.009765625
range: 0.0871539413929
velocity: 0.0
doppler_bin: 8
bearing: -77.6192398071
intensity: 32.0655593872
---
header: 
  seq: 140551
  stamp: 
    secs: 1561863758
    nsecs: 818630165
  frame_id: "ti_mmwave"
point_id: 2
x: 0.041015625
y: -0.115234375
z: -0.009765625
range: 0.130730912089
velocity: 0.0
doppler_bin: 8
bearing: -70.4077224731
intensity: 30.3302135468
---
header: 
  seq: 140552
  stamp: 
    secs: 1561863758
    nsecs: 818638351
  frame_id: "ti_mmwave"
point_id: 3
x: 0.056640625
y: -0.154296875
z: 0.005859375
range: 0.174307882786
velocity: 0.0
doppler_bin: 8
bearing: -69.8423843384
intensity: 25.550945282
---
header: 
  seq: 140553
  stamp: 
    secs: 1561863758
    nsecs: 818646530
  frame_id: "ti_mmwave"
point_id: 4
x: 0.1953125
y: -0.080078125
z: 1.25
range: 1.35088610649
velocity: 0.0
doppler_bin: 8
bearing: -22.2936286926
intensity: 23.2014636993
---
header: 
  seq: 140554
  stamp: 
    secs: 1561863758
    nsecs: 818656180
  frame_id: "ti_mmwave"
point_id: 5
x: 0.236328125
y: -0.041015625
z: -1.287109375
range: 1.39446306229
velocity: 0.0
doppler_bin: 8
bearing: -9.84582233429
intensity: 24.6686763763
---
header: 
  seq: 140555
  stamp: 
    secs: 1561863758
    nsecs: 818664228
  frame_id: "ti_mmwave"
point_id: 6
x: 0.501953125
y: -0.04296875
z: -1.251953125
range: 1.43804001808
velocity: 0.0
doppler_bin: 8
bearing: -4.89276885986
intensity: 23.0749607086
---
header: 
  seq: 140556
  stamp: 
    secs: 1561863758
    nsecs: 818672111
  frame_id: "ti_mmwave"
point_id: 7
x: 0.548828125
y: -0.04296875
z: -1.27734375
range: 1.48161697388
velocity: 0.0
doppler_bin: 8
bearing: -4.47665882111
intensity: 21.7897701263
---
header: 
  seq: 140557
  stamp: 
    secs: 1561863758
    nsecs: 818681739
  frame_id: "ti_mmwave"
point_id: 8
x: 1.896484375
y: 0.490234375
z: -0.1328125
range: 2.09169459343
velocity: 0.0
doppler_bin: 8
bearing: 14.4934921265
intensity: 27.4973640442
---
header: 
  seq: 140558
  stamp: 
    secs: 1561863758
    nsecs: 818690240
  frame_id: "ti_mmwave"
point_id: 9
x: 1.93359375
y: 0.501953125
z: -0.173828125
range: 2.13527154922
velocity: 0.0
doppler_bin: 8
bearing: 14.5525312424
intensity: 28.4323272705
---
header: 
  seq: 140559
  stamp: 
    secs: 1561863758
    nsecs: 818697918
  frame_id: "ti_mmwave"
point_id: 10
x: 2.6171875
y: -0.17578125
z: 1.041015625
range: 3.00681090355
velocity: 0.0
doppler_bin: 8
bearing: -3.84245300293
intensity: 29.1645393372
---
header: 
  seq: 140560
  stamp: 
    secs: 1561863758
    nsecs: 818707435
  frame_id: "ti_mmwave"
point_id: 11
x: 2.685546875
y: -0.08984375
z: 0.98828125
range: 3.05038785934
velocity: 0.0
doppler_bin: 8
bearing: -1.91608965397
intensity: 32.3350372314
---
header: 
  seq: 140561
  stamp: 
    secs: 1561863758
    nsecs: 818716085
  frame_id: "ti_mmwave"
point_id: 12
x: 2.748046875
y: -0.08984375
z: 0.93359375
range: 3.09396481514
velocity: 0.0
doppler_bin: 8
bearing: -1.8725425005
intensity: 31.3417701721
---
header: 
  seq: 140562
  stamp: 
    secs: 1561863758
    nsecs: 818724846
  frame_id: "ti_mmwave"
point_id: 13
x: 4.40625
y: -0.142578125
z: 1.244140625
range: 4.88062095642
velocity: 0.0
doppler_bin: 8
bearing: -1.85333895683
intensity: 31.47057724
---
header: 
  seq: 140563
  stamp: 
    secs: 1561863758
    nsecs: 818733278
  frame_id: "ti_mmwave"
point_id: 14
x: 4.439453125
y: -0.0
z: 1.28515625
range: 4.9241976738
velocity: 0.0
doppler_bin: 8
bearing: -0.0
intensity: 31.3608608246
---
header: 
  seq: 140564
  stamp: 
    secs: 1561863758
    nsecs: 818742927
  frame_id: "ti_mmwave"
point_id: 15
x: 4.736328125
y: -0.298828125
z: -0.61328125
range: 5.09850549698
velocity: 0.0
doppler_bin: 8
bearing: -3.61016488075
intensity: 33.4791526794
---
header: 
  seq: 140565
  stamp: 
    secs: 1561863758
    nsecs: 818751385
  frame_id: "ti_mmwave"
point_id: 16
x: 4.775390625
y: -0.30078125
z: -0.63671875
range: 5.14208269119
velocity: 0.0
doppler_bin: 8
bearing: -3.60405302048
intensity: 34.0790061951
---
header: 
  seq: 140566
  stamp: 
    secs: 1561863758
    nsecs: 818759527
  frame_id: "ti_mmwave"
point_id: 17
x: 4.80078125
y: -0.15234375
z: -0.79296875
range: 5.18565940857
velocity: 0.0
doppler_bin: 8
bearing: -1.81756365299
intensity: 30.7114524841
---
header: 
  seq: 140567
  stamp: 
    secs: 1561863758
    nsecs: 818768263
  frame_id: "ti_mmwave"
point_id: 18
x: 4.837890625
y: -0.306640625
z: 0.76953125
range: 5.22923660278
velocity: 0.0
doppler_bin: 8
bearing: -3.62673401833
intensity: 28.8761730194
---
header: 
  seq: 140568
  stamp: 
    secs: 1561863758
    nsecs: 818776239
  frame_id: "ti_mmwave"
point_id: 19
x: 4.888671875
y: -0.30859375
z: 0.7109375
range: 5.27281332016
velocity: 0.0
doppler_bin: 8
bearing: -3.61196112633
intensity: 31.1327476501
---
header: 
  seq: 140569
  stamp: 
    secs: 1561863758
    nsecs: 818795070
  frame_id: "ti_mmwave"
point_id: 20
x: 4.951171875
y: -0.623046875
z: 0.064453125
range: 5.31639051437
velocity: 0.0
doppler_bin: 8
bearing: -7.17230129242
intensity: 29.9299507141
---
header: 
  seq: 140570
  stamp: 
    secs: 1561863758
    nsecs: 818811673
  frame_id: "ti_mmwave"
point_id: 21
x: 0.01171875
y: 0.03125
z: 0.0234375
range: 0.0435769706964
velocity: 0.0
doppler_bin: 8
bearing: 69.4439544678
intensity: 29.4645233154
---
header: 
  seq: 140571
  stamp: 
    secs: 1561863758
    nsecs: 818830973
  frame_id: "ti_mmwave"
point_id: 22
x: 0.041015625
y: -0.033203125
z: 0.0625
range: 0.0871539413929
velocity: 0.0
doppler_bin: 8
bearing: -38.9909973145
intensity: 30.1994667053
---
header: 
  seq: 140572
  stamp: 
    secs: 1561863758
    nsecs: 818843797
  frame_id: "ti_mmwave"
point_id: 23
x: 0.05078125
y: -0.04296875
z: 0.103515625
range: 0.130730912089
velocity: 0.0
doppler_bin: 8
bearing: -40.2363586426
intensity: 29.0687351227
---
header: 
  seq: 140573
  stamp: 
    secs: 1561863758
    nsecs: 820109214
  frame_id: "ti_mmwave"
point_id: 0
x: 0.01171875
y: -0.0390625
z: -0.0078125
range: 0.0435769706964
velocity: 0.0
doppler_bin: 8
bearing: -73.3007583618
intensity: 30.86003685
---
header: 
  seq: 140574
  stamp: 
    secs: 1561863758
    nsecs: 820159649
  frame_id: "ti_mmwave"
point_id: 1
x: 0.017578125
y: -0.080078125
z: -0.009765625
range: 0.0871539413929
velocity: 0.0
doppler_bin: 8
bearing: -77.6192398071
intensity: 32.0628585815
---
header: 
  seq: 140575
  stamp: 
    secs: 1561863758
    nsecs: 820177067
  frame_id: "ti_mmwave"
point_id: 2
x: 0.041015625
y: -0.115234375
z: -0.009765625
range: 0.130730912089
velocity: 0.0
doppler_bin: 8
bearing: -70.4077224731
intensity: 30.3302135468
---
header: 
  seq: 140576
  stamp: 
    secs: 1561863758
    nsecs: 820192120
  frame_id: "ti_mmwave"
point_id: 3
x: 0.056640625
y: -0.154296875
z: 0.00390625
range: 0.174307882786
velocity: 0.0
doppler_bin: 8
bearing: -69.8423843384
intensity: 25.5630245209
---
header: 
  seq: 140577
  stamp: 
    secs: 1561863758
    nsecs: 820201611
  frame_id: "ti_mmwave"
point_id: 4
x: 0.16015625
y: -0.080078125
z: 1.255859375
range: 1.35088610649
velocity: 0.0
doppler_bin: 8
bearing: -26.5650501251
intensity: 23.1597042084
---
header: 
  seq: 140578
  stamp: 
    secs: 1561863758
    nsecs: 820211715
  frame_id: "ti_mmwave"
point_id: 5
x: 0.244140625
y: -0.041015625
z: -1.28515625
range: 1.39446306229
velocity: 0.0
doppler_bin: 8
bearing: -9.53663539886
intensity: 24.6686763763
---
header: 
  seq: 140579
  stamp: 
    secs: 1561863758
    nsecs: 820316940
  frame_id: "ti_mmwave"
point_id: 6
x: 0.50390625
y: -0.04296875
z: -1.251953125
range: 1.43804001808
velocity: 0.0
doppler_bin: 8
bearing: -4.87389659882
intensity: 23.0749607086
---
header: 
  seq: 140580
  stamp: 
    secs: 1561863758
    nsecs: 820346445
  frame_id: "ti_mmwave"
point_id: 7
x: 0.556640625
y: -0.04296875
z: -1.2734375
range: 1.48161697388
velocity: 0.0
doppler_bin: 8
bearing: -4.41407871246
intensity: 21.7897701263
---
header: 
  seq: 140581
  stamp: 
    secs: 1561863758
    nsecs: 820360013
  frame_id: "ti_mmwave"
point_id: 8
x: 1.900390625
y: 0.490234375
z: -0.080078125
range: 2.09169459343
velocity: 0.0
doppler_bin: 8
bearing: 14.4649505615
intensity: 27.1180725098
---
header: 
  seq: 140582
  stamp: 
    secs: 1561863758
    nsecs: 820375498
  frame_id: "ti_mmwave"
point_id: 9
x: 1.923828125
y: 0.564453125
z: -0.005859375
range: 2.13527154922
velocity: 0.0
doppler_bin: 8
bearing: 16.3517417908
intensity: 29.31457901
---
header: 
  seq: 140583
  stamp: 
    secs: 1561863758
    nsecs: 820387940
  frame_id: "ti_mmwave"
point_id: 10
x: 1.962890625
y: 0.576171875
z: 0.0546875
range: 2.17884850502
velocity: 0.0
doppler_bin: 8
bearing: 16.358669281
intensity: 29.2272548676
---
header: 
  seq: 140584
  stamp: 
    secs: 1561863758
    nsecs: 820400096
  frame_id: "ti_mmwave"
point_id: 11
x: 2.001953125
y: 0.5859375
z: -0.02734375
range: 2.22242546082
velocity: 0.0
doppler_bin: 8
bearing: 16.3138523102
intensity: 27.7158756256
---
header: 
  seq: 140585
  stamp: 
    secs: 1561863758
    nsecs: 820412352
  frame_id: "ti_mmwave"
point_id: 12
x: 2.62109375
y: -0.17578125
z: 1.033203125
range: 3.00681090355
velocity: 0.0
doppler_bin: 8
bearing: -3.83674383163
intensity: 29.127532959
---
header: 
  seq: 140586
  stamp: 
    secs: 1561863758
    nsecs: 820425698
  frame_id: "ti_mmwave"
point_id: 13
x: 2.689453125
y: -0.08984375
z: 0.9765625
range: 3.05038785934
velocity: 0.0
doppler_bin: 8
bearing: -1.91330885887
intensity: 32.2916984558
---
header: 
  seq: 140587
  stamp: 
    secs: 1561863758
    nsecs: 820437290
  frame_id: "ti_mmwave"
point_id: 14
x: 2.748046875
y: -0.08984375
z: 0.935546875
range: 3.09396481514
velocity: 0.0
doppler_bin: 8
bearing: -1.8725425005
intensity: 31.306552887
---
header: 
  seq: 140588
  stamp: 
    secs: 1561863758
    nsecs: 820514848
  frame_id: "ti_mmwave"
point_id: 15
x: 4.412109375
y: -0.142578125
z: 1.224609375
range: 4.88062095642
velocity: 0.0
doppler_bin: 8
bearing: -1.85087943077
intensity: 31.455072403
---
header: 
  seq: 140589
  stamp: 
    secs: 1561863758
    nsecs: 820530634
  frame_id: "ti_mmwave"
point_id: 16
x: 4.44140625
y: -0.0
z: 1.283203125
range: 4.9241976738
velocity: 0.0
doppler_bin: 8
bearing: -0.0
intensity: 31.2872219086
---
header: 
  seq: 140590
  stamp: 
    secs: 1561863758
    nsecs: 820540965
  frame_id: "ti_mmwave"
point_id: 17
x: 4.73828125
y: -0.298828125
z: -0.59765625
range: 5.09850549698
velocity: 0.0
doppler_bin: 8
bearing: -3.60868048668
intensity: 33.4044418335
---
header: 
  seq: 140591
  stamp: 
    secs: 1561863758
    nsecs: 820548710
  frame_id: "ti_mmwave"
point_id: 18
x: 4.77734375
y: -0.30078125
z: -0.623046875
range: 5.14208269119
velocity: 0.0
doppler_bin: 8
bearing: -3.60258316994
intensity: 34.0414924622
---
header: 
  seq: 140592
  stamp: 
    secs: 1561863758
    nsecs: 820556403
  frame_id: "ti_mmwave"
point_id: 19
x: 4.80078125
y: -0.15234375
z: -0.79296875
range: 5.18565940857
velocity: 0.0
doppler_bin: 8
bearing: -1.81756365299
intensity: 30.7261753082
---
header: 
  seq: 140593
  stamp: 
    secs: 1561863758
    nsecs: 820564013
  frame_id: "ti_mmwave"
point_id: 20
x: 4.87109375
y: -0.30859375
z: 0.8203125
range: 5.27281332016
velocity: 0.0
doppler_bin: 8
bearing: -3.62496066093
intensity: 31.0448703766
---
header: 
  seq: 140594
  stamp: 
    secs: 1561863758
    nsecs: 820571832
  frame_id: "ti_mmwave"
point_id: 21
x: 4.943359375
y: -0.623046875
z: 0.275390625
range: 5.31639051437
velocity: 0.0
doppler_bin: 8
bearing: -7.18351840973
intensity: 29.8452739716
---
header: 
  seq: 140595
  stamp: 
    secs: 1561863758
    nsecs: 820579710
  frame_id: "ti_mmwave"
point_id: 22
x: 0.01171875
y: 0.03125
z: 0.0234375
range: 0.0435769706964
velocity: 0.0
doppler_bin: 8
bearing: 69.4439544678
intensity: 29.4743366241
---
header: 
  seq: 140596
  stamp: 
    secs: 1561863758
    nsecs: 820587945
  frame_id: "ti_mmwave"
point_id: 23
x: 0.041015625
y: -0.033203125
z: 0.0625
range: 0.0871539413929
velocity: 0.0
doppler_bin: 8
bearing: -38.9909973145
intensity: 30.1994667053
---
header: 
  seq: 140597
  stamp: 
    secs: 1561863758
    nsecs: 820595076
  frame_id: "ti_mmwave"
point_id: 24
x: 0.05078125
y: -0.04296875
z: 0.103515625
range: 0.130730912089
velocity: 0.0
doppler_bin: 8
bearing: -40.2363586426
intensity: 29.0687351227
---
header: 
  seq: 140598
  stamp: 
    secs: 1561863758
    nsecs: 878603781
  frame_id: "ti_mmwave"
point_id: 0
x: 0.01171875
y: -0.0390625
z: -0.0078125
range: 0.0435769706964
velocity: 0.0
doppler_bin: 8
bearing: -73.3007583618
intensity: 30.8493366241
---
header: 
  seq: 140599
  stamp: 
    secs: 1561863758
    nsecs: 878682112
  frame_id: "ti_mmwave"
point_id: 1
x: 0.017578125
y: -0.080078125
z: -0.009765625
range: 0.0871539413929
velocity: 0.0
doppler_bin: 8
bearing: -77.6192398071
intensity: 32.0601577759
---
header: 
  seq: 140600
  stamp: 
    secs: 1561863758
    nsecs: 878699561
  frame_id: "ti_mmwave"
point_id: 2
x: 0.029296875
y: -0.119140625
z: -0.005859375
range: 0.130730912089
velocity: 0.0
doppler_bin: 8
bearing: -76.1849746704
intensity: 30.3261871338
---
header: 
  seq: 140601
  stamp: 
    secs: 1561863758
    nsecs: 878711132
  frame_id: "ti_mmwave"
point_id: 3
x: 0.056640625
y: -0.154296875
z: 0.00390625
range: 0.174307882786
velocity: 0.0
doppler_bin: 8
bearing: -69.8423843384
intensity: 25.550945282
---
header: 
  seq: 140602
  stamp: 
    secs: 1561863758
    nsecs: 878723999
  frame_id: "ti_mmwave"
point_id: 4
x: 0.169921875
y: -0.080078125
z: 1.25390625
range: 1.35088610649
velocity: 0.0
doppler_bin: 8
bearing: -25.232831955
intensity: 23.2221927643
---
header: 
  seq: 140603
  stamp: 
    secs: 1561863758
    nsecs: 878739745
  frame_id: "ti_mmwave"
point_id: 5
x: 0.240234375
y: -0.041015625
z: -1.287109375
range: 1.39446306229
velocity: 0.0
doppler_bin: 8
bearing: -9.68878650665
intensity: 24.6982192993
---
header: 
  seq: 140604
  stamp: 
    secs: 1561863758
    nsecs: 878750007
  frame_id: "ti_mmwave"
point_id: 6
x: 0.486328125
y: -0.04296875
z: -1.2578125
range: 1.43804001808
velocity: 0.0
doppler_bin: 8
bearing: -5.04916620255
intensity: 23.1175384521
---
header: 
  seq: 140605
  stamp: 
    secs: 1561863758
    nsecs: 878761038
  frame_id: "ti_mmwave"
point_id: 7
x: 0.53125
y: -0.04296875
z: -1.28515625
range: 1.48161697388
velocity: 0.0
doppler_bin: 8
bearing: -4.6241517067
intensity: 21.7609119415
---
header: 
  seq: 140606
  stamp: 
    secs: 1561863758
    nsecs: 878773733
  frame_id: "ti_mmwave"
point_id: 8
x: 1.900390625
y: 0.626953125
z: -0.1015625
range: 2.13527154922
velocity: 0.0
doppler_bin: 8
bearing: 18.2581100464
intensity: 27.2916469574
---
header: 
  seq: 140607
  stamp: 
    secs: 1561863758
    nsecs: 878784608
  frame_id: "ti_mmwave"
point_id: 9
x: 1.9609375
y: 0.576171875
z: -0.09765625
range: 2.17884850502
velocity: 0.0
doppler_bin: 8
bearing: 16.3740901947
intensity: 27.1933135986
---
header: 
  seq: 140608
  stamp: 
    secs: 1561863758
    nsecs: 878864330
  frame_id: "ti_mmwave"
point_id: 10
x: 2.62109375
y: -0.17578125
z: 1.033203125
range: 3.00681090355
velocity: 0.0
doppler_bin: 8
bearing: -3.83674383163
intensity: 29.1539974213
---
header: 
  seq: 140609
  stamp: 
    secs: 1561863758
    nsecs: 878881136
  frame_id: "ti_mmwave"
point_id: 11
x: 2.693359375
y: -0.08984375
z: 0.966796875
range: 3.05038785934
velocity: 0.0
doppler_bin: 8
bearing: -1.91053581238
intensity: 32.2993774414
---
header: 
  seq: 140610
  stamp: 
    secs: 1561863758
    nsecs: 878895993
  frame_id: "ti_mmwave"
point_id: 12
x: 2.76171875
y: -0.08984375
z: 0.896484375
range: 3.09396481514
velocity: 0.0
doppler_bin: 8
bearing: -1.86327898502
intensity: 31.2904510498
---
header: 
  seq: 140611
  stamp: 
    secs: 1561863758
    nsecs: 878906977
  frame_id: "ti_mmwave"
point_id: 13
x: 4.412109375
y: -0.142578125
z: 1.22265625
range: 4.88062095642
velocity: 0.0
doppler_bin: 8
bearing: -1.85087943077
intensity: 31.47057724
---
header: 
  seq: 140612
  stamp: 
    secs: 1561863758
    nsecs: 878918012
  frame_id: "ti_mmwave"
point_id: 14
x: 4.44140625
y: -0.0
z: 1.28515625
range: 4.9241976738
velocity: 0.0
doppler_bin: 8
bearing: -0.0
intensity: 31.2936763763
---
header: 
  seq: 140613
  stamp: 
    secs: 1561863758
    nsecs: 878929808
  frame_id: "ti_mmwave"
point_id: 15
x: 4.73828125
y: -0.298828125
z: -0.603515625
range: 5.09850549698
velocity: 0.0
doppler_bin: 8
bearing: -3.60868048668
intensity: 33.3805770874
---
header: 
  seq: 140614
  stamp: 
    secs: 1561863758
    nsecs: 878980424
  frame_id: "ti_mmwave"
point_id: 16
x: 4.775390625
y: -0.30078125
z: -0.63671875
range: 5.14208269119
velocity: 0.0
doppler_bin: 8
bearing: -3.60405302048
intensity: 34.00365448
---
header: 
  seq: 140615
  stamp: 
    secs: 1561863758
    nsecs: 878992762
  frame_id: "ti_mmwave"
point_id: 17
x: 4.8046875
y: -0.15234375
z: -0.767578125
range: 5.18565940857
velocity: 0.0
doppler_bin: 8
bearing: -1.81608688831
intensity: 30.6145248413
---
header: 
  seq: 140616
  stamp: 
    secs: 1561863758
    nsecs: 879060462
  frame_id: "ti_mmwave"
point_id: 18
x: 4.884765625
y: -0.30859375
z: 0.740234375
range: 5.27281332016
velocity: 0.0
doppler_bin: 8
bearing: -3.6148416996
intensity: 31.2287101746
---
header: 
  seq: 140617
  stamp: 
    secs: 1561863758
    nsecs: 879076700
  frame_id: "ti_mmwave"
point_id: 19
x: 4.951171875
y: -0.623046875
z: 0.05859375
range: 5.31639051437
velocity: 0.0
doppler_bin: 8
bearing: -7.17230129242
intensity: 29.9299507141
---
header: 
  seq: 140618
  stamp: 
    secs: 1561863758
    nsecs: 879088546
  frame_id: "ti_mmwave"
point_id: 20
x: 0.01171875
y: 0.03125
z: 0.0234375
range: 0.0435769706964
velocity: 0.0
doppler_bin: 8
bearing: 69.4439544678
intensity: 29.4694328308
---
header: 
  seq: 140619
  stamp: 
    secs: 1561863758
    nsecs: 879098700
  frame_id: "ti_mmwave"
point_id: 21
x: 0.041015625
y: -0.033203125
z: 0.0625
range: 0.0871539413929
velocity: 0.0
doppler_bin: 8
bearing: -38.9909973145
intensity: 30.1953163147
---
header: 
  seq: 140620
  stamp: 
    secs: 1561863758
    nsecs: 879109774
  frame_id: "ti_mmwave"
point_id: 22
x: 0.05078125
y: -0.04296875
z: 0.103515625
range: 0.130730912089
velocity: 0.0
doppler_bin: 8
bearing: -40.2363586426
intensity: 29.0579586029
---
header: 
  seq: 140621
  stamp: 
    secs: 1561863758
    nsecs: 880209493
  frame_id: "ti_mmwave"
point_id: 0
x: 0.01171875
y: -0.0390625
z: -0.0078125
range: 0.0435769706964
velocity: 0.0
doppler_bin: 8
bearing: -73.3007583618
intensity: 30.8635978699
---
header: 
  seq: 140622
  stamp: 
    secs: 1561863758
    nsecs: 880259466
  frame_id: "ti_mmwave"
point_id: 1
x: 0.017578125
y: -0.080078125
z: -0.009765625
range: 0.0871539413929
velocity: 0.0
doppler_bin: 8
bearing: -77.6192398071
intensity: 32.0682601929
---
header: 
  seq: 140623
  stamp: 
    secs: 1561863758
    nsecs: 880278391
  frame_id: "ti_mmwave"
point_id: 2
x: 0.041015625
y: -0.115234375
z: -0.009765625
range: 0.130730912089
velocity: 0.0
doppler_bin: 8
bearing: -70.4077224731
intensity: 30.3342380524
---
header: 
  seq: 140624
  stamp: 
    secs: 1561863758
    nsecs: 880290636
  frame_id: "ti_mmwave"
point_id: 3
x: 0.056640625
y: -0.154296875
z: 0.005859375
range: 0.174307882786
velocity: 0.0
doppler_bin: 8
bearing: -69.8423843384
intensity: 25.5750713348
---
header: 
  seq: 140625
  stamp: 
    secs: 1561863758
    nsecs: 880347908
  frame_id: "ti_mmwave"
point_id: 4
x: 0.107421875
y: -0.080078125
z: 1.26171875
range: 1.35088610649
velocity: 0.0
doppler_bin: 8
bearing: -36.7028541565
intensity: 23.1806335449
---
header: 
  seq: 140626
  stamp: 
    secs: 1561863758
    nsecs: 880360700
  frame_id: "ti_mmwave"
point_id: 5
x: 0.2578125
y: -0.041015625
z: -1.283203125
range: 1.39446306229
velocity: 0.0
doppler_bin: 8
bearing: -9.03948307037
intensity: 24.6538276672
---
header: 
  seq: 140627
  stamp: 
    secs: 1561863758
    nsecs: 880372457
  frame_id: "ti_mmwave"
point_id: 6
x: 0.509765625
y: -0.04296875
z: -1.25
range: 1.43804001808
velocity: 0.0
doppler_bin: 8
bearing: -4.81814002991
intensity: 23.031961441
---
header: 
  seq: 140628
  stamp: 
    secs: 1561863758
    nsecs: 880383579
  frame_id: "ti_mmwave"
point_id: 7
x: 0.564453125
y: -0.04296875
z: -1.271484375
range: 1.48161697388
velocity: 0.0
doppler_bin: 8
bearing: -4.35321998596
intensity: 21.7318630219
---
header: 
  seq: 140629
  stamp: 
    secs: 1561863758
    nsecs: 880394882
  frame_id: "ti_mmwave"
point_id: 8
x: 1.923828125
y: 0.564453125
z: -0.029296875
range: 2.13527154922
velocity: 0.0
doppler_bin: 8
bearing: 16.3517417908
intensity: 28.2672252655
---
header: 
  seq: 140630
  stamp: 
    secs: 1561863758
    nsecs: 880409207
  frame_id: "ti_mmwave"
point_id: 9
x: 1.962890625
y: 0.576171875
z: -0.001953125
range: 2.17884850502
velocity: 0.0
doppler_bin: 8
bearing: 16.358669281
intensity: 27.7451705933
---
header: 
  seq: 140631
  stamp: 
    secs: 1561863758
    nsecs: 880421457
  frame_id: "ti_mmwave"
point_id: 10
x: 2.611328125
y: -0.17578125
z: 1.05859375
range: 3.00681090355
velocity: 0.0
doppler_bin: 8
bearing: -3.85104894638
intensity: 29.1539974213
---
header: 
  seq: 140632
  stamp: 
    secs: 1561863758
    nsecs: 880434266
  frame_id: "ti_mmwave"
point_id: 11
x: 2.685546875
y: -0.08984375
z: 0.98828125
range: 3.05038785934
velocity: 0.0
doppler_bin: 8
bearing: -1.91608965397
intensity: 32.3325004578
---
header: 
  seq: 140633
  stamp: 
    secs: 1561863758
    nsecs: 880448935
  frame_id: "ti_mmwave"
point_id: 12
x: 2.72265625
y: -0.181640625
z: 0.994140625
range: 3.09396481514
velocity: 0.0
doppler_bin: 8
bearing: -3.8168027401
intensity: 31.3608608246
---
header: 
  seq: 140634
  stamp: 
    secs: 1561863758
    nsecs: 880494500
  frame_id: "ti_mmwave"
point_id: 13
x: 4.416015625
y: -0.142578125
z: 1.212890625
range: 4.88062095642
velocity: 0.0
doppler_bin: 8
bearing: -1.84924340248
intensity: 31.4736709595
---
header: 
  seq: 140635
  stamp: 
    secs: 1561863758
    nsecs: 880510150
  frame_id: "ti_mmwave"
point_id: 14
x: 4.44921875
y: -0.14453125
z: 1.24609375
range: 4.9241976738
velocity: 0.0
doppler_bin: 8
bearing: -1.86057829857
intensity: 31.3545074463
---
header: 
  seq: 140636
  stamp: 
    secs: 1561863758
    nsecs: 880523740
  frame_id: "ti_mmwave"
point_id: 15
x: 4.734375
y: -0.298828125
z: -0.63671875
range: 5.09850549698
velocity: 0.0
doppler_bin: 8
bearing: -3.61165046692
intensity: 33.4693946838
---
header: 
  seq: 140637
  stamp: 
    secs: 1561863758
    nsecs: 880535966
  frame_id: "ti_mmwave"
point_id: 16
x: 4.775390625
y: -0.30078125
z: -0.634765625
range: 5.14208269119
velocity: 0.0
doppler_bin: 8
bearing: -3.60405302048
intensity: 34.0363502502
---
header: 
  seq: 140638
  stamp: 
    secs: 1561863758
    nsecs: 880548049
  frame_id: "ti_mmwave"
point_id: 17
x: 4.80859375
y: -0.15234375
z: -0.73828125
range: 5.18565940857
velocity: 0.0
doppler_bin: 8
bearing: -1.81461262703
intensity: 30.7077655792
---
header: 
  seq: 140639
  stamp: 
    secs: 1561863758
    nsecs: 880560158
  frame_id: "ti_mmwave"
point_id: 18
x: 4.884765625
y: -0.30859375
z: 0.734375
range: 5.27281332016
velocity: 0.0
doppler_bin: 8
bearing: -3.6148416996
intensity: 31.1025295258
---
header: 
  seq: 140640
  stamp: 
    secs: 1561863758
    nsecs: 880572992
  frame_id: "ti_mmwave"
point_id: 19
x: 4.951171875
y: -0.623046875
z: 0.09375
range: 5.31639051437
velocity: 0.0
doppler_bin: 8
bearing: -7.17230129242
intensity: 29.7543182373
---
header: 
  seq: 140641
  stamp: 
    secs: 1561863758
    nsecs: 880586007
  frame_id: "ti_mmwave"
point_id: 20
x: 0.013671875
y: 0.03125
z: 0.0234375
range: 0.0435769706964
velocity: 0.0
doppler_bin: 8
bearing: 66.3706207275
intensity: 29.4645233154
---
header: 
  seq: 140642
  stamp: 
    secs: 1561863758
    nsecs: 880597537
  frame_id: "ti_mmwave"
point_id: 21
x: 0.041015625
y: -0.033203125
z: 0.0625
range: 0.0871539413929
velocity: 0.0
doppler_bin: 8
bearing: -38.9909973145
intensity: 30.1994667053
---
header: 
  seq: 140643
  stamp: 
    secs: 1561863758
    nsecs: 880608868
  frame_id: "ti_mmwave"
point_id: 22
x: 0.05078125
y: -0.04296875
z: 0.103515625
range: 0.130730912089
velocity: 0.0
doppler_bin: 8
bearing: -40.2363586426
intensity: 29.0741138458
---
header: 
  seq: 140644
  stamp: 
    secs: 1561863758
    nsecs: 938588009
  frame_id: "ti_mmwave"
point_id: 0
x: 0.01171875
y: -0.0390625
z: -0.0078125
range: 0.0435769706964
velocity: 0.0
doppler_bin: 8
bearing: -73.3007583618
intensity: 30.8635978699
---
header: 
  seq: 140645
  stamp: 
    secs: 1561863758
    nsecs: 938666150
  frame_id: "ti_mmwave"
point_id: 1
x: 0.017578125
y: -0.080078125
z: -0.009765625
range: 0.0871539413929
velocity: 0.0
doppler_bin: 8
bearing: -77.6192398071
intensity: 32.0655593872
---
header: 
  seq: 140646
  stamp: 
    secs: 1561863758
    nsecs: 938684964
  frame_id: "ti_mmwave"
point_id: 2
x: 0.041015625
y: -0.115234375
z: -0.009765625
range: 0.130730912089
velocity: 0.0
doppler_bin: 8
bearing: -70.4077224731
intensity: 30.3342380524
---
header: 
  seq: 140647
  stamp: 
    secs: 1561863758
    nsecs: 938698122
  frame_id: "ti_mmwave"
point_id: 3
x: 0.056640625
y: -0.154296875
z: 0.005859375
range: 0.174307882786
velocity: 0.0
doppler_bin: 8
bearing: -69.8423843384
intensity: 25.5630245209
---
header: 
  seq: 140648
  stamp: 
    secs: 1561863758
    nsecs: 938710673
  frame_id: "ti_mmwave"
point_id: 4
x: 0.1875
y: -0.080078125
z: 1.251953125
range: 1.35088610649
velocity: 0.0
doppler_bin: 8
bearing: -23.1265201569
intensity: 23.2428245544
---
header: 
  seq: 140649
  stamp: 
    secs: 1561863758
    nsecs: 938789524
  frame_id: "ti_mmwave"
point_id: 5
x: 0.248046875
y: -0.041015625
z: -1.28515625
range: 1.39446306229
velocity: 0.0
doppler_bin: 8
bearing: -9.38914775848
intensity: 24.6982192993
---
header: 
  seq: 140650
  stamp: 
    secs: 1561863758
    nsecs: 938804872
  frame_id: "ti_mmwave"
point_id: 6
x: 0.5078125
y: -0.04296875
z: -1.25
range: 1.43804001808
velocity: 0.0
doppler_bin: 8
bearing: -4.83658361435
intensity: 23.0963020325
---
header: 
  seq: 140651
  stamp: 
    secs: 1561863758
    nsecs: 938815732
  frame_id: "ti_mmwave"
point_id: 7
x: 0.54296875
y: -0.04296875
z: -1.279296875
range: 1.48161697388
velocity: 0.0
doppler_bin: 8
bearing: -4.52476835251
intensity: 21.7897701263
---
header: 
  seq: 140652
  stamp: 
    secs: 1561863758
    nsecs: 938825893
  frame_id: "ti_mmwave"
point_id: 8
x: 2.62109375
y: -0.17578125
z: 1.03515625
range: 3.00681090355
velocity: 0.0
doppler_bin: 8
bearing: -3.83674383163
intensity: 29.1487178802
---
header: 
  seq: 140653
  stamp: 
    secs: 1561863758
    nsecs: 938836160
  frame_id: "ti_mmwave"
point_id: 9
x: 2.693359375
y: -0.08984375
z: 0.970703125
range: 3.05038785934
velocity: 0.0
doppler_bin: 8
bearing: -1.91053581238
intensity: 32.3197898865
---
header: 
  seq: 140654
  stamp: 
    secs: 1561863758
    nsecs: 938847904
  frame_id: "ti_mmwave"
point_id: 10
x: 2.751953125
y: -0.08984375
z: 0.92578125
range: 3.09396481514
velocity: 0.0
doppler_bin: 8
bearing: -1.86988639832
intensity: 31.3576850891
---
header: 
  seq: 140655
  stamp: 
    secs: 1561863758
    nsecs: 938859191
  frame_id: "ti_mmwave"
point_id: 11
x: 4.41015625
y: -0.142578125
z: 1.23046875
range: 4.88062095642
velocity: 0.0
doppler_bin: 8
bearing: -1.85169863701
intensity: 31.4767627716
---
header: 
  seq: 140656
  stamp: 
    secs: 1561863758
    nsecs: 938870568
  frame_id: "ti_mmwave"
point_id: 12
x: 4.439453125
y: -0.14453125
z: 1.279296875
range: 4.9241976738
velocity: 0.0
doppler_bin: 8
bearing: -1.86466813087
intensity: 31.3385810852
---
header: 
  seq: 140657
  stamp: 
    secs: 1561863758
    nsecs: 938882965
  frame_id: "ti_mmwave"
point_id: 13
x: 4.744140625
y: -0.298828125
z: -0.564453125
range: 5.09850549698
velocity: 0.0
doppler_bin: 8
bearing: -3.60423564911
intensity: 33.4399909973
---
header: 
  seq: 140658
  stamp: 
    secs: 1561863758
    nsecs: 938894210
  frame_id: "ti_mmwave"
point_id: 14
x: 4.77734375
y: -0.30078125
z: -0.623046875
range: 5.14208269119
velocity: 0.0
doppler_bin: 8
bearing: -3.60258316994
intensity: 34.0551719666
---
header: 
  seq: 140659
  stamp: 
    secs: 1561863758
    nsecs: 938904475
  frame_id: "ti_mmwave"
point_id: 15
x: 4.802734375
y: -0.15234375
z: -0.7734375
range: 5.18565940857
velocity: 0.0
doppler_bin: 8
bearing: -1.81682503223
intensity: 30.7298469543
---
header: 
  seq: 140660
  stamp: 
    secs: 1561863758
    nsecs: 938915988
  frame_id: "ti_mmwave"
point_id: 16
x: 4.8828125
y: -0.30859375
z: 0.748046875
range: 5.27281332016
velocity: 0.0
doppler_bin: 8
bearing: -3.61628341675
intensity: 31.1527767181
---
header: 
  seq: 140661
  stamp: 
    secs: 1561863758
    nsecs: 938928719
  frame_id: "ti_mmwave"
point_id: 17
x: 4.951171875
y: -0.623046875
z: 0.107421875
range: 5.31639051437
velocity: 0.0
doppler_bin: 8
bearing: -7.17230129242
intensity: 29.8989448547
---
header: 
  seq: 140662
  stamp: 
    secs: 1561863758
    nsecs: 938938873
  frame_id: "ti_mmwave"
point_id: 18
x: 0.01171875
y: 0.03125
z: 0.0234375
range: 0.0435769706964
velocity: 0.0
doppler_bin: 8
bearing: 69.4439544678
intensity: 29.4596061707
---
header: 
  seq: 140663
  stamp: 
    secs: 1561863758
    nsecs: 939005452
  frame_id: "ti_mmwave"
point_id: 19
x: 0.041015625
y: -0.033203125
z: 0.0625
range: 0.0871539413929
velocity: 0.0
doppler_bin: 8
bearing: -38.9909973145
intensity: 30.1994667053
---
header: 
  seq: 140664
  stamp: 
    secs: 1561863758
    nsecs: 939024897
  frame_id: "ti_mmwave"
point_id: 20
x: 0.05078125
y: -0.04296875
z: 0.103515625
range: 0.130730912089
velocity: 0.0
doppler_bin: 8
bearing: -40.2363586426
intensity: 29.0741138458
---
header: 
  seq: 140665
  stamp: 
    secs: 1561863758
    nsecs: 940349937
  frame_id: "ti_mmwave"
point_id: 0
x: 0.01171875
y: -0.0390625
z: -0.0078125
range: 0.0435769706964
velocity: 0.0
doppler_bin: 8
bearing: -73.3007583618
intensity: 30.8529052734
---
header: 
  seq: 140666
  stamp: 
    secs: 1561863758
    nsecs: 940407191
  frame_id: "ti_mmwave"
point_id: 1
x: 0.017578125
y: -0.080078125
z: -0.009765625
range: 0.0871539413929
velocity: 0.0
doppler_bin: 8
bearing: -77.6192398071
intensity: 32.0628585815
---
header: 
  seq: 140667
  stamp: 
    secs: 1561863758
    nsecs: 940417559
  frame_id: "ti_mmwave"
point_id: 2
x: 0.041015625
y: -0.115234375
z: -0.009765625
range: 0.130730912089
velocity: 0.0
doppler_bin: 8
bearing: -70.4077224731
intensity: 30.3342380524
---
header: 
  seq: 140668
  stamp: 
    secs: 1561863758
    nsecs: 940425851
  frame_id: "ti_mmwave"
point_id: 3
x: 0.056640625
y: -0.154296875
z: 0.00390625
range: 0.174307882786
velocity: 0.0
doppler_bin: 8
bearing: -69.8423843384
intensity: 25.5630245209
---
header: 
  seq: 140669
  stamp: 
    secs: 1561863758
    nsecs: 940434779
  frame_id: "ti_mmwave"
point_id: 4
x: 0.10546875
y: -0.080078125
z: 1.26171875
range: 1.35088610649
velocity: 0.0
doppler_bin: 8
bearing: -37.2079238892
intensity: 23.1806335449
---
header: 
  seq: 140670
  stamp: 
    secs: 1561863758
    nsecs: 940525715
  frame_id: "ti_mmwave"
point_id: 5
x: 0.27734375
y: -0.041015625
z: -1.279296875
range: 1.39446306229
velocity: 0.0
doppler_bin: 8
bearing: -8.41234493256
intensity: 24.6389293671
---
header: 
  seq: 140671
  stamp: 
    secs: 1561863758
    nsecs: 940548779
  frame_id: "ti_mmwave"
point_id: 6
x: 0.515625
y: -0.04296875
z: -1.248046875
range: 1.43804001808
velocity: 0.0
doppler_bin: 8
bearing: -4.76364183426
intensity: 23.0102996826
---
header: 
  seq: 140672
  stamp: 
    secs: 1561863758
    nsecs: 940561388
  frame_id: "ti_mmwave"
point_id: 7
x: 0.55078125
y: -0.04296875
z: -1.275390625
range: 1.48161697388
velocity: 0.0
doppler_bin: 8
bearing: -4.46084880829
intensity: 21.6731739044
---
header: 
  seq: 140673
  stamp: 
    secs: 1561863758
    nsecs: 940573855
  frame_id: "ti_mmwave"
point_id: 8
x: 1.87890625
y: 0.552734375
z: -0.150390625
range: 2.09169459343
velocity: 0.0
doppler_bin: 8
bearing: 16.3927650452
intensity: 27.3479976654
---
header: 
  seq: 140674
  stamp: 
    secs: 1561863758
    nsecs: 940620823
  frame_id: "ti_mmwave"
point_id: 9
x: 1.931640625
y: 0.501953125
z: -0.1796875
range: 2.13527154922
velocity: 0.0
doppler_bin: 8
bearing: 14.5666179657
intensity: 28.4198474884
---
header: 
  seq: 140675
  stamp: 
    secs: 1561863758
    nsecs: 940634792
  frame_id: "ti_mmwave"
point_id: 10
x: 2.619140625
y: -0.17578125
z: 1.0390625
range: 3.00681090355
velocity: 0.0
doppler_bin: 8
bearing: -3.83959650993
intensity: 29.1592712402
---
header: 
  seq: 140676
  stamp: 
    secs: 1561863758
    nsecs: 940646748
  frame_id: "ti_mmwave"
point_id: 11
x: 2.697265625
y: -0.08984375
z: 0.958984375
range: 3.05038785934
velocity: 0.0
doppler_bin: 8
bearing: -1.90777087212
intensity: 32.3325004578
---
header: 
  seq: 140677
  stamp: 
    secs: 1561863758
    nsecs: 940659001
  frame_id: "ti_mmwave"
point_id: 12
x: 2.76171875
y: -0.08984375
z: 0.892578125
range: 3.09396481514
velocity: 0.0
doppler_bin: 8
bearing: -1.86327898502
intensity: 31.3608608246
---
header: 
  seq: 140678
  stamp: 
    secs: 1561863758
    nsecs: 940670577
  frame_id: "ti_mmwave"
point_id: 13
x: 4.412109375
y: -0.142578125
z: 1.228515625
range: 4.88062095642
velocity: 0.0
doppler_bin: 8
bearing: -1.85087943077
intensity: 31.4581775665
---
header: 
  seq: 140679
  stamp: 
    secs: 1561863758
    nsecs: 940681392
  frame_id: "ti_mmwave"
point_id: 14
x: 4.44140625
y: -0.14453125
z: 1.275390625
range: 4.9241976738
velocity: 0.0
doppler_bin: 8
bearing: -1.86384868622
intensity: 31.3481445312
---
header: 
  seq: 140680
  stamp: 
    secs: 1561863758
    nsecs: 940689255
  frame_id: "ti_mmwave"
point_id: 15
x: 4.7421875
y: -0.298828125
z: -0.572265625
range: 5.09850549698
velocity: 0.0
doppler_bin: 8
bearing: -3.60571622849
intensity: 33.3645973206
---
header: 
  seq: 140681
  stamp: 
    secs: 1561863758
    nsecs: 940716090
  frame_id: "ti_mmwave"
point_id: 16
x: 4.77734375
y: -0.30078125
z: -0.623046875
range: 5.14208269119
velocity: 0.0
doppler_bin: 8
bearing: -3.60258316994
intensity: 34.0001945496
---
header: 
  seq: 140682
  stamp: 
    secs: 1561863758
    nsecs: 940740290
  frame_id: "ti_mmwave"
point_id: 17
x: 4.810546875
y: -0.15234375
z: -0.734375
range: 5.18565940857
velocity: 0.0
doppler_bin: 8
bearing: -1.81387650967
intensity: 30.6520614624
---
header: 
  seq: 140683
  stamp: 
    secs: 1561863758
    nsecs: 940757685
  frame_id: "ti_mmwave"
point_id: 18
x: 4.818359375
y: -0.306640625
z: 0.8828125
range: 5.22923660278
velocity: 0.0
doppler_bin: 8
bearing: -3.64139580727
intensity: 29.0794849396
---
header: 
  seq: 140684
  stamp: 
    secs: 1561863758
    nsecs: 940919336
  frame_id: "ti_mmwave"
point_id: 19
x: 4.875
y: -0.30859375
z: 0.796875
range: 5.27281332016
velocity: 0.0
doppler_bin: 8
bearing: -3.62206339836
intensity: 31.1991539001
---
header: 
  seq: 140685
  stamp: 
    secs: 1561863758
    nsecs: 940958603
  frame_id: "ti_mmwave"
point_id: 20
x: 4.94921875
y: -0.623046875
z: 0.1640625
range: 5.31639051437
velocity: 0.0
doppler_bin: 8
bearing: -7.17510271072
intensity: 29.9166908264
---
header: 
  seq: 140686
  stamp: 
    secs: 1561863758
    nsecs: 940984665
  frame_id: "ti_mmwave"
point_id: 21
x: 0.01171875
y: 0.03125
z: 0.0234375
range: 0.0435769706964
velocity: 0.0
doppler_bin: 8
bearing: 69.4439544678
intensity: 29.4645233154
---
header: 
  seq: 140687
  stamp: 
    secs: 1561863758
    nsecs: 941009180
  frame_id: "ti_mmwave"
point_id: 22
x: 0.041015625
y: -0.033203125
z: 0.0625
range: 0.0871539413929
velocity: 0.0
doppler_bin: 8
bearing: -38.9909973145
intensity: 30.1953163147
---
header: 
  seq: 140688
  stamp: 
    secs: 1561863758
    nsecs: 941023895
  frame_id: "ti_mmwave"
point_id: 23
x: 0.05078125
y: -0.04296875
z: 0.103515625
range: 0.130730912089
velocity: 0.0
doppler_bin: 8
bearing: -40.2363586426
intensity: 29.0687351227
---
header: 
  seq: 140689
  stamp: 
    secs: 1561863758
    nsecs: 941039672
  frame_id: "ti_mmwave"
point_id: 25
x: 1.890625
y: 0.626953125
z: -0.21875
range: 2.13527154922
velocity: 0.0
doppler_bin: 8
bearing: 18.346118927
intensity: 28.4135951996
---
header: 
  seq: 140690
  stamp: 
    secs: 1561863758
    nsecs: 998810345
  frame_id: "ti_mmwave"
point_id: 0
x: 0.01171875
y: -0.0390625
z: -0.0078125
range: 0.0435769706964
velocity: 0.0
doppler_bin: 8
bearing: -73.3007583618
intensity: 30.8493366241
---
header: 
  seq: 140691
  stamp: 
    secs: 1561863758
    nsecs: 998900332
  frame_id: "ti_mmwave"
point_id: 1
x: 0.017578125
y: -0.080078125
z: -0.009765625
range: 0.0871539413929
velocity: 0.0
doppler_bin: 8
bearing: -77.6192398071
intensity: 32.0628585815
---
header: 
  seq: 140692
  stamp: 
    secs: 1561863758
    nsecs: 998912685
  frame_id: "ti_mmwave"
point_id: 2
x: 0.041015625
y: -0.115234375
z: -0.009765625
range: 0.130730912089
velocity: 0.0
doppler_bin: 8
bearing: -70.4077224731
intensity: 30.3302135468
---
header: 
  seq: 140693
  stamp: 
    secs: 1561863758
    nsecs: 998921065
  frame_id: "ti_mmwave"
point_id: 3
x: 0.056640625
y: -0.154296875
z: 0.005859375
range: 0.174307882786
velocity: 0.0
doppler_bin: 8
bearing: -69.8423843384
intensity: 25.550945282
---
header: 
  seq: 140694
  stamp: 
    secs: 1561863758
    nsecs: 998931981
  frame_id: "ti_mmwave"
point_id: 4
x: 0.205078125
y: -0.080078125
z: 1.248046875
range: 1.35088610649
velocity: 0.0
doppler_bin: 8
bearing: -21.3294620514
intensity: 23.1806335449
---
header: 
  seq: 140695
  stamp: 
    secs: 1561863758
    nsecs: 998940465
  frame_id: "ti_mmwave"
point_id: 5
x: 0.224609375
y: -0.041015625
z: -1.2890625
range: 1.39446306229
velocity: 0.0
doppler_bin: 8
bearing: -10.3486843109
intensity: 24.6686763763
---
header: 
  seq: 140696
  stamp: 
    secs: 1561863758
    nsecs: 998948994
  frame_id: "ti_mmwave"
point_id: 6
x: 0.486328125
y: -0.04296875
z: -1.2578125
range: 1.43804001808
velocity: 0.0
doppler_bin: 8
bearing: -5.04916620255
intensity: 23.0749607086
---
header: 
  seq: 140697
  stamp: 
    secs: 1561863758
    nsecs: 998959190
  frame_id: "ti_mmwave"
point_id: 7
x: 0.529296875
y: -0.04296875
z: -1.28515625
range: 1.48161697388
velocity: 0.0
doppler_bin: 8
bearing: -4.64113998413
intensity: 21.7897701263
---
header: 
  seq: 140698
  stamp: 
    secs: 1561863758
    nsecs: 998967524
  frame_id: "ti_mmwave"
point_id: 8
x: 1.89453125
y: 0.490234375
z: -0.166015625
range: 2.09169459343
velocity: 0.0
doppler_bin: 8
bearing: 14.5078029633
intensity: 26.7669353485
---
header: 
  seq: 140699
  stamp: 
    secs: 1561863758
    nsecs: 998975595
  frame_id: "ti_mmwave"
point_id: 9
x: 1.921875
y: 0.564453125
z: -0.07421875
range: 2.13527154922
velocity: 0.0
doppler_bin: 8
bearing: 16.3674716949
intensity: 28.864906311
---
header: 
  seq: 140700
  stamp: 
    secs: 1561863758
    nsecs: 998995929
  frame_id: "ti_mmwave"
point_id: 10
x: 1.962890625
y: 0.576171875
z: 0.017578125
range: 2.17884850502
velocity: 0.0
doppler_bin: 8
bearing: 16.358669281
intensity: 28.6746749878
---
header: 
  seq: 140701
  stamp: 
    secs: 1561863758
    nsecs: 999003852
  frame_id: "ti_mmwave"
point_id: 11
x: 2.60546875
y: -0.17578125
z: 1.0703125
range: 3.00681090355
velocity: 0.0
doppler_bin: 8
bearing: -3.85968351364
intensity: 29.1907806396
---
header: 
  seq: 140702
  stamp: 
    secs: 1561863758
    nsecs: 999117269
  frame_id: "ti_mmwave"
point_id: 12
x: 2.685546875
y: -0.08984375
z: 0.990234375
range: 3.05038785934
velocity: 0.0
doppler_bin: 8
bearing: -1.91608965397
intensity: 32.327419281
---
header: 
  seq: 140703
  stamp: 
    secs: 1561863758
    nsecs: 999128619
  frame_id: "ti_mmwave"
point_id: 13
x: 2.744140625
y: -0.08984375
z: 0.9453125
range: 3.09396481514
velocity: 0.0
doppler_bin: 8
bearing: -1.87520623207
intensity: 31.3861846924
---
header: 
  seq: 140704
  stamp: 
    secs: 1561863758
    nsecs: 999137821
  frame_id: "ti_mmwave"
point_id: 14
x: 4.408203125
y: -0.142578125
z: 1.236328125
range: 4.88062095642
velocity: 0.0
doppler_bin: 8
bearing: -1.85251843929
intensity: 31.4612808228
---
header: 
  seq: 140705
  stamp: 
    secs: 1561863758
    nsecs: 999145702
  frame_id: "ti_mmwave"
point_id: 15
x: 4.439453125
y: -0.14453125
z: 1.27734375
range: 4.9241976738
velocity: 0.0
doppler_bin: 8
bearing: -1.86466813087
intensity: 31.332195282
---
header: 
  seq: 140706
  stamp: 
    secs: 1561863758
    nsecs: 999153545
  frame_id: "ti_mmwave"
point_id: 16
x: 4.7421875
y: -0.298828125
z: -0.580078125
range: 5.09850549698
velocity: 0.0
doppler_bin: 8
bearing: -3.60571622849
intensity: 33.3585891724
---
header: 
  seq: 140707
  stamp: 
    secs: 1561863758
    nsecs: 999161494
  frame_id: "ti_mmwave"
point_id: 17
x: 4.779296875
y: -0.30078125
z: -0.60546875
range: 5.14208269119
velocity: 0.0
doppler_bin: 8
bearing: -3.60111522675
intensity: 33.9602508545
---
header: 
  seq: 140708
  stamp: 
    secs: 1561863758
    nsecs: 999169185
  frame_id: "ti_mmwave"
point_id: 18
x: 4.81640625
y: -0.15234375
z: -0.6953125
range: 5.18565940857
velocity: 0.0
doppler_bin: 8
bearing: -1.81167113781
intensity: 30.6107540131
---
header: 
  seq: 140709
  stamp: 
    secs: 1561863758
    nsecs: 999176803
  frame_id: "ti_mmwave"
point_id: 19
x: 4.880859375
y: -0.30859375
z: 0.765625
range: 5.27281332016
velocity: 0.0
doppler_bin: 8
bearing: -3.61772704124
intensity: 31.1991539001
---
header: 
  seq: 140710
  stamp: 
    secs: 1561863758
    nsecs: 999185607
  frame_id: "ti_mmwave"
point_id: 20
x: 4.951171875
y: -0.623046875
z: 0.109375
range: 5.31639051437
velocity: 0.0
doppler_bin: 8
bearing: -7.17230129242
intensity: 30.0086765289
---
header: 
  seq: 140711
  stamp: 
    secs: 1561863758
    nsecs: 999194935
  frame_id: "ti_mmwave"
point_id: 21
x: 0.01171875
y: 0.03125
z: 0.0234375
range: 0.0435769706964
velocity: 0.0
doppler_bin: 8
bearing: 69.4439544678
intensity: 29.4645233154
---
header: 
  seq: 140712
  stamp: 
    secs: 1561863758
    nsecs: 999203012
  frame_id: "ti_mmwave"
point_id: 22
x: 0.041015625
y: -0.033203125
z: 0.0625
range: 0.0871539413929
velocity: 0.0
doppler_bin: 8
bearing: -38.9909973145
intensity: 30.1911621094
---
header: 
  seq: 140713
  stamp: 
    secs: 1561863758
    nsecs: 999210835
  frame_id: "ti_mmwave"
point_id: 23
x: 0.05078125
y: -0.04296875
z: 0.103515625
range: 0.130730912089
velocity: 0.0
doppler_bin: 8
bearing: -40.2363586426
intensity: 29.0633506775
---
header: 
  seq: 140714
  stamp: 
    secs: 1561863759
    nsecs:    368370
  frame_id: "ti_mmwave"
point_id: 0
x: 0.01171875
y: -0.0390625
z: -0.0078125
range: 0.0435769706964
velocity: 0.0
doppler_bin: 8
bearing: -73.3007583618
intensity: 30.8493366241
---
header: 
  seq: 140715
  stamp: 
    secs: 1561863759
    nsecs:    443800
  frame_id: "ti_mmwave"
point_id: 1
x: 0.017578125
y: -0.080078125
z: -0.009765625
range: 0.0871539413929
velocity: 0.0
doppler_bin: 8
bearing: -77.6192398071
intensity: 32.0601577759
---
header: 
  seq: 140716
  stamp: 
    secs: 1561863759
    nsecs:    463845
  frame_id: "ti_mmwave"
point_id: 2
x: 0.041015625
y: -0.115234375
z: -0.009765625
range: 0.130730912089
velocity: 0.0
doppler_bin: 8
bearing: -70.4077224731
intensity: 30.3302135468
---
header: 
  seq: 140717
  stamp: 
    secs: 1561863759
    nsecs:    477550
  frame_id: "ti_mmwave"
point_id: 3
x: 0.056640625
y: -0.154296875
z: 0.005859375
range: 0.174307882786
velocity: 0.0
doppler_bin: 8
bearing: -69.8423843384
intensity: 25.5630245209
---
header: 
  seq: 140718
  stamp: 
    secs: 1561863759
    nsecs:    491023
  frame_id: "ti_mmwave"
point_id: 4
x: 0.18359375
y: -0.080078125
z: 1.251953125
range: 1.35088610649
velocity: 0.0
doppler_bin: 8
bearing: -23.5653953552
intensity: 23.2014636993
---
header: 
  seq: 140719
  stamp: 
    secs: 1561863759
    nsecs:    504090
  frame_id: "ti_mmwave"
point_id: 5
x: 0.236328125
y: -0.041015625
z: -1.287109375
range: 1.39446306229
velocity: 0.0
doppler_bin: 8
bearing: -9.84582233429
intensity: 24.6538276672
---
header: 
  seq: 140720
  stamp: 
    secs: 1561863759
    nsecs:    517306
  frame_id: "ti_mmwave"
point_id: 6
x: 0.494140625
y: -0.04296875
z: -1.255859375
range: 1.43804001808
velocity: 0.0
doppler_bin: 8
bearing: -4.96974086761
intensity: 23.0535144806
---
header: 
  seq: 140721
  stamp: 
    secs: 1561863759
    nsecs:    530399
  frame_id: "ti_mmwave"
point_id: 7
x: 0.54296875
y: -0.04296875
z: -1.279296875
range: 1.48161697388
velocity: 0.0
doppler_bin: 8
bearing: -4.52476835251
intensity: 21.7897701263
---
header: 
  seq: 140722
  stamp: 
    secs: 1561863759
    nsecs:    545096
  frame_id: "ti_mmwave"
point_id: 8
x: 1.921875
y: 0.564453125
z: -0.08984375
range: 2.13527154922
velocity: 0.0
doppler_bin: 8
bearing: 16.3674716949
intensity: 26.9460525513
---
header: 
  seq: 140723
  stamp: 
    secs: 1561863759
    nsecs:    559329
  frame_id: "ti_mmwave"
point_id: 9
x: 2.609375
y: -0.17578125
z: 1.0625
range: 3.00681090355
velocity: 0.0
doppler_bin: 8
bearing: -3.85392260551
intensity: 29.1169013977
---
header: 
  seq: 140724
  stamp: 
    secs: 1561863759
    nsecs:    573535
  frame_id: "ti_mmwave"
point_id: 10
x: 2.69140625
y: -0.08984375
z: 0.97265625
range: 3.05038785934
velocity: 0.0
doppler_bin: 8
bearing: -1.91192126274
intensity: 32.3044891357
---
header: 
  seq: 140725
  stamp: 
    secs: 1561863759
    nsecs:    586536
  frame_id: "ti_mmwave"
point_id: 11
x: 2.763671875
y: -0.08984375
z: 0.890625
range: 3.09396481514
velocity: 0.0
doppler_bin: 8
bearing: -1.8619633913
intensity: 31.3353881836
---
header: 
  seq: 140726
  stamp: 
    secs: 1561863759
    nsecs:    599416
  frame_id: "ti_mmwave"
point_id: 12
x: 4.412109375
y: -0.142578125
z: 1.22265625
range: 4.88062095642
velocity: 0.0
doppler_bin: 8
bearing: -1.85087943077
intensity: 31.4612808228
---
header: 
  seq: 140727
  stamp: 
    secs: 1561863759
    nsecs:    612296
  frame_id: "ti_mmwave"
point_id: 13
x: 4.439453125
y: -0.14453125
z: 1.28125
range: 4.9241976738
velocity: 0.0
doppler_bin: 8
bearing: -1.86466813087
intensity: 31.319393158
---
header: 
  seq: 140728
  stamp: 
    secs: 1561863759
    nsecs:    625238
  frame_id: "ti_mmwave"
point_id: 14
x: 4.736328125
y: -0.298828125
z: -0.61328125
range: 5.09850549698
velocity: 0.0
doppler_bin: 8
bearing: -3.61016488075
intensity: 33.4321174622
---
header: 
  seq: 140729
  stamp: 
    secs: 1561863759
    nsecs:    638452
  frame_id: "ti_mmwave"
point_id: 15
x: 4.77734375
y: -0.30078125
z: -0.626953125
range: 5.14208269119
velocity: 0.0
doppler_bin: 8
bearing: -3.60258316994
intensity: 34.0346374512
---
header: 
  seq: 140730
  stamp: 
    secs: 1561863759
    nsecs:    652838
  frame_id: "ti_mmwave"
point_id: 16
x: 4.806640625
y: -0.15234375
z: -0.759765625
range: 5.18565940857
velocity: 0.0
doppler_bin: 8
bearing: -1.81534969807
intensity: 30.7627620697
---
header: 
  seq: 140731
  stamp: 
    secs: 1561863759
    nsecs:    665212
  frame_id: "ti_mmwave"
point_id: 17
x: 4.8828125
y: -0.30859375
z: 0.74609375
range: 5.27281332016
velocity: 0.0
doppler_bin: 8
bearing: -3.61628341675
intensity: 31.1527767181
---
header: 
  seq: 140732
  stamp: 
    secs: 1561863759
    nsecs:    679632
  frame_id: "ti_mmwave"
point_id: 18
x: 4.94921875
y: -0.623046875
z: 0.1484375
range: 5.31639051437
velocity: 0.0
doppler_bin: 8
bearing: -7.17510271072
intensity: 29.9651165009
---
header: 
  seq: 140733
  stamp: 
    secs: 1561863759
    nsecs:    692933
  frame_id: "ti_mmwave"
point_id: 19
x: 0.01171875
y: 0.03125
z: 0.0234375
range: 0.0435769706964
velocity: 0.0
doppler_bin: 8
bearing: 69.4439544678
intensity: 29.4596061707
---
header: 
  seq: 140734
  stamp: 
    secs: 1561863759
    nsecs:    706191
  frame_id: "ti_mmwave"
point_id: 20
x: 0.041015625
y: -0.033203125
z: 0.0625
range: 0.0871539413929
velocity: 0.0
doppler_bin: 8
bearing: -38.9909973145
intensity: 30.1994667053
---
header: 
  seq: 140735
  stamp: 
    secs: 1561863759
    nsecs:    719264
  frame_id: "ti_mmwave"
point_id: 21
x: 0.05078125
y: -0.04296875
z: 0.103515625
range: 0.130730912089
velocity: 0.0
doppler_bin: 8
bearing: -40.2363586426
intensity: 29.0687351227
---
header: 
  seq: 140736
  stamp: 
    secs: 1561863759
    nsecs:  58849292
  frame_id: "ti_mmwave"
point_id: 0
x: 0.01171875
y: -0.0390625
z: -0.0078125
range: 0.0435769706964
velocity: 0.0
doppler_bin: 8
bearing: -73.3007583618
intensity: 30.8564720154
---
header: 
  seq: 140737
  stamp: 
    secs: 1561863759
    nsecs:  58929467
  frame_id: "ti_mmwave"
point_id: 1
x: 0.017578125
y: -0.080078125
z: -0.009765625
range: 0.0871539413929
velocity: 0.0
doppler_bin: 8
bearing: -77.6192398071
intensity: 32.0628585815
---
header: 
  seq: 140738
  stamp: 
    secs: 1561863759
    nsecs:  58940546
  frame_id: "ti_mmwave"
point_id: 2
x: 0.041015625
y: -0.115234375
z: -0.009765625
range: 0.130730912089
velocity: 0.0
doppler_bin: 8
bearing: -70.4077224731
intensity: 30.3302135468
---
header: 
  seq: 140739
  stamp: 
    secs: 1561863759
    nsecs:  58949161
  frame_id: "ti_mmwave"
point_id: 3
x: 0.056640625
y: -0.154296875
z: 0.00390625
range: 0.174307882786
velocity: 0.0
doppler_bin: 8
bearing: -69.8423843384
intensity: 25.5630245209
---
header: 
  seq: 140740
  stamp: 
    secs: 1561863759
    nsecs:  58963404
  frame_id: "ti_mmwave"
point_id: 4
x: 0.140625
y: -0.080078125
z: 1.2578125
range: 1.35088610649
velocity: 0.0
doppler_bin: 8
bearing: -29.6591091156
intensity: 23.2014636993
---
header: 
  seq: 140741
  stamp: 
    secs: 1561863759
    nsecs:  58972092
  frame_id: "ti_mmwave"
point_id: 5
x: 0.248046875
y: -0.041015625
z: -1.28515625
range: 1.39446306229
velocity: 0.0
doppler_bin: 8
bearing: -9.38914775848
intensity: 24.6686763763
---
header: 
  seq: 140742
  stamp: 
    secs: 1561863759
    nsecs:  58980907
  frame_id: "ti_mmwave"
point_id: 6
x: 0.494140625
y: -0.04296875
z: -1.255859375
range: 1.43804001808
velocity: 0.0
doppler_bin: 8
bearing: -4.96974086761
intensity: 23.031961441
---
header: 
  seq: 140743
  stamp: 
    secs: 1561863759
    nsecs:  58989555
  frame_id: "ti_mmwave"
point_id: 7
x: 0.54296875
y: -0.04296875
z: -1.279296875
range: 1.48161697388
velocity: 0.0
doppler_bin: 8
bearing: -4.52476835251
intensity: 21.7026176453
---
header: 
  seq: 140744
  stamp: 
    secs: 1561863759
    nsecs:  58997867
  frame_id: "ti_mmwave"
point_id: 8
x: 2.615234375
y: -0.17578125
z: 1.046875
range: 3.00681090355
velocity: 0.0
doppler_bin: 8
bearing: -3.84531402588
intensity: 29.1855449677
---
header: 
  seq: 140745
  stamp: 
    secs: 1561863759
    nsecs:  59006332
  frame_id: "ti_mmwave"
point_id: 9
x: 2.69140625
y: -0.08984375
z: 0.970703125
range: 3.05038785934
velocity: 0.0
doppler_bin: 8
bearing: -1.91192126274
intensity: 32.3248786926
---
header: 
  seq: 140746
  stamp: 
    secs: 1561863759
    nsecs:  59028775
  frame_id: "ti_mmwave"
point_id: 10
x: 2.75390625
y: -0.08984375
z: 0.919921875
range: 3.09396481514
velocity: 0.0
doppler_bin: 8
bearing: -1.86856126785
intensity: 31.319393158
---
header: 
  seq: 140747
  stamp: 
    secs: 1561863759
    nsecs:  59042538
  frame_id: "ti_mmwave"
point_id: 11
x: 4.40625
y: -0.142578125
z: 1.248046875
range: 4.88062095642
velocity: 0.0
doppler_bin: 8
bearing: -1.85333895683
intensity: 31.4113616943
---
header: 
  seq: 140748
  stamp: 
    secs: 1561863759
    nsecs:  59232787
  frame_id: "ti_mmwave"
point_id: 12
x: 4.42578125
y: -0.14453125
z: 1.326171875
range: 4.9241976738
velocity: 0.0
doppler_bin: 8
bearing: -1.87042427063
intensity: 31.2319812775
---
header: 
  seq: 140749
  stamp: 
    secs: 1561863759
    nsecs:  59253350
  frame_id: "ti_mmwave"
point_id: 13
x: 4.73828125
y: -0.298828125
z: -0.603515625
range: 5.09850549698
velocity: 0.0
doppler_bin: 8
bearing: -3.60868048668
intensity: 33.3545799255
---
header: 
  seq: 140750
  stamp: 
    secs: 1561863759
    nsecs:  59262517
  frame_id: "ti_mmwave"
point_id: 14
x: 4.775390625
y: -0.30078125
z: -0.634765625
range: 5.14208269119
velocity: 0.0
doppler_bin: 8
bearing: -3.60405302048
intensity: 33.9794006348
---
header: 
  seq: 140751
  stamp: 
    secs: 1561863759
    nsecs:  59270954
  frame_id: "ti_mmwave"
point_id: 15
x: 4.80859375
y: -0.15234375
z: -0.748046875
range: 5.18565940857
velocity: 0.0
doppler_bin: 8
bearing: -1.81461262703
intensity: 30.6107540131
---
header: 
  seq: 140752
  stamp: 
    secs: 1561863759
    nsecs:  59279597
  frame_id: "ti_mmwave"
point_id: 16
x: 4.880859375
y: -0.30859375
z: 0.765625
range: 5.27281332016
velocity: 0.0
doppler_bin: 8
bearing: -3.61772704124
intensity: 31.209028244
---
header: 
  seq: 140753
  stamp: 
    secs: 1561863759
    nsecs:  59287483
  frame_id: "ti_mmwave"
point_id: 17
x: 4.94921875
y: -0.623046875
z: 0.119140625
range: 5.31639051437
velocity: 0.0
doppler_bin: 8
bearing: -7.17510271072
intensity: 29.9211139679
---
header: 
  seq: 140754
  stamp: 
    secs: 1561863759
    nsecs:  59298047
  frame_id: "ti_mmwave"
point_id: 18
x: 0.01171875
y: 0.03125
z: 0.0234375
range: 0.0435769706964
velocity: 0.0
doppler_bin: 8
bearing: 69.4439544678
intensity: 29.4645233154
---
header: 
  seq: 140755
  stamp: 
    secs: 1561863759
    nsecs:  59306927
  frame_id: "ti_mmwave"
point_id: 19
x: 0.041015625
y: -0.033203125
z: 0.0625
range: 0.0871539413929
velocity: 0.0
doppler_bin: 8
bearing: -38.9909973145
intensity: 30.1953163147
---
header: 
  seq: 140756
  stamp: 
    secs: 1561863759
    nsecs:  59318198
