header: 
  seq: 100971
  stamp: 
    secs: 1561863691
    nsecs: 918859886
  frame_id: "ti_mmwave"
point_id: 0
x: 0.01171875
y: -0.0390625
z: -0.0078125
range: 0.0435769706964
velocity: 0.0
doppler_bin: 8
bearing: -73.3007583618
intensity: 30.9307136536
---
header: 
  seq: 100972
  stamp: 
    secs: 1561863691
    nsecs: 918956917
  frame_id: "ti_mmwave"
point_id: 1
x: 0.017578125
y: -0.080078125
z: -0.009765625
range: 0.0871539413929
velocity: 0.0
doppler_bin: 8
bearing: -77.6192398071
intensity: 32.1272010803
---
header: 
  seq: 100973
  stamp: 
    secs: 1561863691
    nsecs: 918973020
  frame_id: "ti_mmwave"
point_id: 2
x: 0.041015625
y: -0.115234375
z: -0.009765625
range: 0.130730912089
velocity: 0.0
doppler_bin: 8
bearing: -70.4077224731
intensity: 30.3981056213
---
header: 
  seq: 100974
  stamp: 
    secs: 1561863691
    nsecs: 918987454
  frame_id: "ti_mmwave"
point_id: 3
x: 0.056640625
y: -0.154296875
z: 0.00390625
range: 0.174307882786
velocity: 0.0
doppler_bin: 8
bearing: -69.8423843384
intensity: 25.6229286194
---
header: 
  seq: 100975
  stamp: 
    secs: 1561863691
    nsecs: 919001231
  frame_id: "ti_mmwave"
point_id: 4
x: 0.15625
y: -0.080078125
z: 1.255859375
range: 1.35088610649
velocity: 0.0
doppler_bin: 8
bearing: -27.1351394653
intensity: 23.2633590698
---
header: 
  seq: 100976
  stamp: 
    secs: 1561863691
    nsecs: 919016158
  frame_id: "ti_mmwave"
point_id: 5
x: 0.271484375
y: -0.041015625
z: -1.279296875
range: 1.39446306229
velocity: 0.0
doppler_bin: 8
bearing: -8.59122562408
intensity: 24.7129173279
---
header: 
  seq: 100977
  stamp: 
    secs: 1561863691
    nsecs: 919030296
  frame_id: "ti_mmwave"
point_id: 6
x: 0.513671875
y: -0.04296875
z: -1.248046875
range: 1.43804001808
velocity: 0.0
doppler_bin: 8
bearing: -4.78167009354
intensity: 23.0749607086
---
header: 
  seq: 100978
  stamp: 
    secs: 1561863691
    nsecs: 919044472
  frame_id: "ti_mmwave"
point_id: 7
x: 0.57421875
y: -0.04296875
z: -1.265625
range: 1.48161697388
velocity: 0.0
doppler_bin: 8
bearing: -4.27946329117
intensity: 21.7609119415
---
header: 
  seq: 100979
  stamp: 
    secs: 1561863691
    nsecs: 919060312
  frame_id: "ti_mmwave"
point_id: 8
x: 2.24609375
y: -0.0
z: -0.623046875
range: 2.48388743401
velocity: 0.0
doppler_bin: 8
bearing: -0.0
intensity: 26.5896492004
---
header: 
  seq: 100980
  stamp: 
    secs: 1561863691
    nsecs: 919077599
  frame_id: "ti_mmwave"
point_id: 9
x: 2.345703125
y: -0.07421875
z: -0.3515625
range: 2.5274643898
velocity: 0.0
doppler_bin: 8
bearing: -1.81225085258
intensity: 27.9795970917
---
header: 
  seq: 100981
  stamp: 
    secs: 1561863691
    nsecs: 919158296
  frame_id: "ti_mmwave"
point_id: 10
x: 2.408203125
y: -0.150390625
z: -0.05859375
range: 2.5710413456
velocity: 0.0
doppler_bin: 8
bearing: -3.57344150543
intensity: 27.7158756256
---
header: 
  seq: 100982
  stamp: 
    secs: 1561863691
    nsecs: 919173753
  frame_id: "ti_mmwave"
point_id: 11
x: 2.625
y: -0.17578125
z: 1.025390625
range: 3.00681090355
velocity: 0.0
doppler_bin: 8
bearing: -3.83105134964
intensity: 29.1855449677
---
header: 
  seq: 100983
  stamp: 
    secs: 1561863691
    nsecs: 919187527
  frame_id: "ti_mmwave"
point_id: 12
x: 2.6953125
y: -0.08984375
z: 0.962890625
range: 3.05038785934
velocity: 0.0
doppler_bin: 8
bearing: -1.90915250778
intensity: 32.3804626465
---
header: 
  seq: 100984
  stamp: 
    secs: 1561863691
    nsecs: 919203516
  frame_id: "ti_mmwave"
point_id: 13
x: 2.759765625
y: -0.08984375
z: 0.900390625
range: 3.09396481514
velocity: 0.0
doppler_bin: 8
bearing: -1.86459684372
intensity: 31.4082221985
---
header: 
  seq: 100985
  stamp: 
    secs: 1561863691
    nsecs: 919217046
  frame_id: "ti_mmwave"
point_id: 14
x: 4.3984375
y: -0.142578125
z: 1.115234375
range: 4.83704376221
velocity: 0.0
doppler_bin: 8
bearing: -1.8566287756
intensity: 28.2020149231
---
header: 
  seq: 100986
  stamp: 
    secs: 1561863691
    nsecs: 919232740
  frame_id: "ti_mmwave"
point_id: 15
x: 4.40234375
y: -0.142578125
z: 1.26171875
range: 4.88062095642
velocity: 0.0
doppler_bin: 8
bearing: -1.85498249531
intensity: 31.427022934
---
header: 
  seq: 100987
  stamp: 
    secs: 1561863691
    nsecs: 919246621
  frame_id: "ti_mmwave"
point_id: 16
x: 4.44140625
y: -0.14453125
z: 1.275390625
range: 4.9241976738
velocity: 0.0
doppler_bin: 8
bearing: -1.86384868622
intensity: 31.1427726746
---
header: 
  seq: 100988
  stamp: 
    secs: 1561863691
    nsecs: 919260964
  frame_id: "ti_mmwave"
point_id: 17
x: 4.80859375
y: -0.154296875
z: 0.974609375
range: 5.22923660278
velocity: 0.0
doppler_bin: 8
bearing: -1.8378610611
intensity: 29.8497714996
---
header: 
  seq: 100989
  stamp: 
    secs: 1561863691
    nsecs: 919276902
  frame_id: "ti_mmwave"
point_id: 18
x: 4.87890625
y: -0.30859375
z: 0.775390625
range: 5.27281332016
velocity: 0.0
doppler_bin: 8
bearing: -3.61917114258
intensity: 31.1859531403
---
header: 
  seq: 100990
  stamp: 
    secs: 1561863691
    nsecs: 919290625
  frame_id: "ti_mmwave"
point_id: 19
x: 4.947265625
y: -0.623046875
z: 0.197265625
range: 5.31639051437
velocity: 0.0
doppler_bin: 8
bearing: -7.17790555954
intensity: 29.5472488403
---
header: 
  seq: 100991
  stamp: 
    secs: 1561863691
    nsecs: 919306183
  frame_id: "ti_mmwave"
point_id: 20
x: 0.013671875
y: 0.03125
z: 0.0234375
range: 0.0435769706964
velocity: 0.0
doppler_bin: 8
bearing: 66.3706207275
intensity: 29.5133743286
---
header: 
  seq: 100992
  stamp: 
    secs: 1561863691
    nsecs: 919326750
  frame_id: "ti_mmwave"
point_id: 21
x: 0.041015625
y: -0.033203125
z: 0.0625
range: 0.0871539413929
velocity: 0.0
doppler_bin: 8
bearing: -38.9909973145
intensity: 30.2448558807
---
header: 
  seq: 100993
  stamp: 
    secs: 1561863691
    nsecs: 919388604
  frame_id: "ti_mmwave"
point_id: 22
x: 0.05078125
y: -0.04296875
z: 0.103515625
range: 0.130730912089
velocity: 0.0
doppler_bin: 8
bearing: -40.2363586426
intensity: 29.122220993
---
header: 
  seq: 100994
  stamp: 
    secs: 1561863691
    nsecs: 920246382
  frame_id: "ti_mmwave"
point_id: 0
x: 0.01171875
y: -0.0390625
z: -0.0078125
range: 0.0435769706964
velocity: 0.0
doppler_bin: 8
bearing: -73.3007583618
intensity: 30.9236965179
---
header: 
  seq: 100995
  stamp: 
    secs: 1561863691
    nsecs: 920300141
  frame_id: "ti_mmwave"
point_id: 1
x: 0.017578125
y: -0.080078125
z: -0.009765625
range: 0.0871539413929
velocity: 0.0
doppler_bin: 8
bearing: -77.6192398071
intensity: 32.1272010803
---
header: 
  seq: 100996
  stamp: 
    secs: 1561863691
    nsecs: 920317391
  frame_id: "ti_mmwave"
point_id: 2
x: 0.041015625
y: -0.115234375
z: -0.009765625
range: 0.130730912089
velocity: 0.0
doppler_bin: 8
bearing: -70.4077224731
intensity: 30.4020671844
---
header: 
  seq: 100997
  stamp: 
    secs: 1561863691
    nsecs: 920332882
  frame_id: "ti_mmwave"
point_id: 3
x: 0.056640625
y: -0.154296875
z: 0.00390625
range: 0.174307882786
velocity: 0.0
doppler_bin: 8
bearing: -69.8423843384
intensity: 25.6229286194
---
header: 
  seq: 100998
  stamp: 
    secs: 1561863691
    nsecs: 920404299
  frame_id: "ti_mmwave"
point_id: 4
x: 0.14453125
y: -0.080078125
z: 1.2578125
range: 1.35088610649
velocity: 0.0
doppler_bin: 8
bearing: -28.9888248444
intensity: 23.2221927643
---
header: 
  seq: 100999
  stamp: 
    secs: 1561863691
    nsecs: 920419236
  frame_id: "ti_mmwave"
point_id: 5
x: 0.267578125
y: -0.041015625
z: -1.28125
range: 1.39446306229
velocity: 0.0
doppler_bin: 8
bearing: -8.71473312378
intensity: 24.7129173279
---
header: 
  seq: 101000
  stamp: 
    secs: 1561863691
    nsecs: 920456628
  frame_id: "ti_mmwave"
point_id: 6
x: 0.509765625
y: -0.04296875
z: -1.25
range: 1.43804001808
velocity: 0.0
doppler_bin: 8
bearing: -4.81814002991
intensity: 23.0749607086
---
header: 
  seq: 101001
  stamp: 
    secs: 1561863691
    nsecs: 920479895
  frame_id: "ti_mmwave"
point_id: 7
x: 0.556640625
y: -0.04296875
z: -1.2734375
range: 1.48161697388
velocity: 0.0
doppler_bin: 8
bearing: -4.41407871246
intensity: 21.7609119415
---
header: 
  seq: 101002
  stamp: 
    secs: 1561863691
    nsecs: 920548871
  frame_id: "ti_mmwave"
point_id: 8
x: 2.283203125
y: -0.072265625
z: -0.46875
range: 2.48388743401
velocity: 0.0
doppler_bin: 8
bearing: -1.81286263466
intensity: 28.4880466461
---
header: 
  seq: 101003
  stamp: 
    secs: 1561863691
    nsecs: 920567455
  frame_id: "ti_mmwave"
point_id: 9
x: 2.337890625
y: -0.07421875
z: -0.3984375
range: 2.5274643898
velocity: 0.0
doppler_bin: 8
bearing: -1.81830310822
intensity: 28.5125827789
---
header: 
  seq: 101004
  stamp: 
    secs: 1561863691
    nsecs: 920581360
  frame_id: "ti_mmwave"
point_id: 10
x: 2.60546875
y: -0.17578125
z: 1.0703125
range: 3.00681090355
velocity: 0.0
doppler_bin: 8
bearing: -3.85968351364
intensity: 29.2685680389
---
header: 
  seq: 101005
  stamp: 
    secs: 1561863691
    nsecs: 920593817
  frame_id: "ti_mmwave"
point_id: 11
x: 2.685546875
y: -0.08984375
z: 0.98828125
range: 3.05038785934
velocity: 0.0
doppler_bin: 8
bearing: -1.91608965397
intensity: 32.3904914856
---
header: 
  seq: 101006
  stamp: 
    secs: 1561863691
    nsecs: 920601728
  frame_id: "ti_mmwave"
point_id: 12
x: 2.74609375
y: -0.08984375
z: 0.939453125
range: 3.09396481514
velocity: 0.0
doppler_bin: 8
bearing: -1.8738732338
intensity: 31.4144973755
---
header: 
  seq: 101007
  stamp: 
    secs: 1561863691
    nsecs: 920691741
  frame_id: "ti_mmwave"
point_id: 13
x: 4.388671875
y: -0.142578125
z: 1.154296875
range: 4.83704376221
velocity: 0.0
doppler_bin: 8
bearing: -1.86075723171
intensity: 28.1224460602
---
header: 
  seq: 101008
  stamp: 
    secs: 1561863691
    nsecs: 920721674
  frame_id: "ti_mmwave"
point_id: 14
x: 4.39453125
y: -0.142578125
z: 1.291015625
range: 4.88062095642
velocity: 0.0
doppler_bin: 8
bearing: -1.8582777977
intensity: 31.344959259
---
header: 
  seq: 101009
  stamp: 
    secs: 1561863691
    nsecs: 920759486
  frame_id: "ti_mmwave"
point_id: 15
x: 4.427734375
y: -0.14453125
z: 1.322265625
range: 4.9241976738
velocity: 0.0
doppler_bin: 8
bearing: -1.86959993839
intensity: 31.00715065
---
header: 
  seq: 101010
  stamp: 
    secs: 1561863691
    nsecs: 920815959
  frame_id: "ti_mmwave"
point_id: 16
x: 4.88671875
y: -0.30859375
z: 0.71875
range: 5.27281332016
velocity: 0.0
doppler_bin: 8
bearing: -3.61340069771
intensity: 30.4727478027
---
header: 
  seq: 101011
  stamp: 
    secs: 1561863691
    nsecs: 920830299
  frame_id: "ti_mmwave"
point_id: 17
x: 4.951171875
y: -0.623046875
z: 0.056640625
range: 5.31639051437
velocity: 0.0
doppler_bin: 8
bearing: -7.17230129242
intensity: 28.9431610107
---
header: 
  seq: 101012
  stamp: 
    secs: 1561863691
    nsecs: 920845356
  frame_id: "ti_mmwave"
point_id: 18
x: 0.01171875
y: 0.03125
z: 0.0234375
range: 0.0435769706964
velocity: 0.0
doppler_bin: 8
bearing: 69.4439544678
intensity: 29.5182304382
---
header: 
  seq: 101013
  stamp: 
    secs: 1561863691
    nsecs: 920859020
  frame_id: "ti_mmwave"
point_id: 19
x: 0.0390625
y: -0.033203125
z: 0.0625
range: 0.0871539413929
velocity: 0.0
doppler_bin: 8
bearing: -40.3645362854
intensity: 30.2448558807
---
header: 
  seq: 101014
  stamp: 
    secs: 1561863691
    nsecs: 920901254
  frame_id: "ti_mmwave"
point_id: 20
x: 0.05078125
y: -0.04296875
z: 0.103515625
range: 0.130730912089
velocity: 0.0
doppler_bin: 8
bearing: -40.2363586426
intensity: 29.127532959
---
header: 
  seq: 101015
  stamp: 
    secs: 1561863691
    nsecs: 978634173
  frame_id: "ti_mmwave"
point_id: 0
x: 0.01171875
y: -0.0390625
z: -0.0078125
range: 0.0435769706964
velocity: 0.0
doppler_bin: 8
bearing: -73.3007583618
intensity: 30.9201850891
---
header: 
  seq: 101016
  stamp: 
    secs: 1561863691
    nsecs: 978704294
  frame_id: "ti_mmwave"
point_id: 1
x: 0.017578125
y: -0.080078125
z: -0.009765625
range: 0.0871539413929
velocity: 0.0
doppler_bin: 8
bearing: -77.6192398071
intensity: 32.1245384216
---
header: 
  seq: 101017
  stamp: 
    secs: 1561863691
    nsecs: 978720138
  frame_id: "ti_mmwave"
point_id: 2
x: 0.041015625
y: -0.115234375
z: -0.009765625
range: 0.130730912089
velocity: 0.0
doppler_bin: 8
bearing: -70.4077224731
intensity: 30.3981056213
---
header: 
  seq: 101018
  stamp: 
    secs: 1561863691
    nsecs: 978732705
  frame_id: "ti_mmwave"
point_id: 3
x: 0.056640625
y: -0.154296875
z: 0.00390625
range: 0.174307882786
velocity: 0.0
doppler_bin: 8
bearing: -69.8423843384
intensity: 25.5990657806
---
header: 
  seq: 101019
  stamp: 
    secs: 1561863691
    nsecs: 978751110
  frame_id: "ti_mmwave"
point_id: 4
x: 0.12890625
y: -0.080078125
z: 1.259765625
range: 1.35088610649
velocity: 0.0
doppler_bin: 8
bearing: -31.8490524292
intensity: 23.2428245544
---
header: 
  seq: 101020
  stamp: 
    secs: 1561863691
    nsecs: 978771947
  frame_id: "ti_mmwave"
point_id: 5
x: 0.259765625
y: -0.041015625
z: -1.28125
range: 1.39446306229
velocity: 0.0
doppler_bin: 8
bearing: -8.9726266861
intensity: 24.7421627045
---
header: 
  seq: 101021
  stamp: 
    secs: 1561863691
    nsecs: 978788215
  frame_id: "ti_mmwave"
point_id: 6
x: 0.498046875
y: -0.04296875
z: -1.25390625
range: 1.43804001808
velocity: 0.0
doppler_bin: 8
bearing: -4.93095541
intensity: 23.138671875
---
header: 
  seq: 101022
  stamp: 
    secs: 1561863691
    nsecs: 978860546
  frame_id: "ti_mmwave"
point_id: 7
x: 0.5390625
y: -0.04296875
z: -1.28125
range: 1.48161697388
velocity: 0.0
doppler_bin: 8
bearing: -4.55741930008
intensity: 21.8184356689
---
header: 
  seq: 101023
  stamp: 
    secs: 1561863691
    nsecs: 978875057
  frame_id: "ti_mmwave"
point_id: 8
x: 2.310546875
y: -0.072265625
z: -0.306640625
range: 2.48388743401
velocity: 0.0
doppler_bin: 8
bearing: -1.79142260551
intensity: 26.9722938538
---
header: 
  seq: 101024
  stamp: 
    secs: 1561863691
    nsecs: 978886100
  frame_id: "ti_mmwave"
point_id: 9
x: 2.353515625
y: -0.07421875
z: -0.294921875
range: 2.5274643898
velocity: 0.0
doppler_bin: 8
bearing: -1.80623948574
intensity: 27.8746051788
---
header: 
  seq: 101025
  stamp: 
    secs: 1561863691
    nsecs: 978897629
  frame_id: "ti_mmwave"
point_id: 10
x: 2.412109375
y: -0.0
z: -0.048828125
range: 2.5710413456
velocity: 0.0
doppler_bin: 8
bearing: -0.0
intensity: 26.8033542633
---
header: 
  seq: 101026
  stamp: 
    secs: 1561863691
    nsecs: 978908951
  frame_id: "ti_mmwave"
point_id: 11
x: 2.69921875
y: -0.08984375
z: 0.951171875
range: 3.05038785934
velocity: 0.0
doppler_bin: 8
bearing: -1.90639162064
intensity: 32.3299598694
---
header: 
  seq: 101027
  stamp: 
    secs: 1561863691
    nsecs: 978919492
  frame_id: "ti_mmwave"
point_id: 12
x: 2.771484375
y: -0.08984375
z: 0.86328125
range: 3.09396481514
velocity: 0.0
doppler_bin: 8
bearing: -1.85671842098
intensity: 31.3353881836
---
header: 
  seq: 101028
  stamp: 
    secs: 1561863691
    nsecs: 978931735
  frame_id: "ti_mmwave"
point_id: 13
x: 4.396484375
y: -0.142578125
z: 1.12890625
range: 4.83704376221
velocity: 0.0
doppler_bin: 8
bearing: -1.85745286942
intensity: 28.1090431213
---
header: 
  seq: 101029
  stamp: 
    secs: 1561863691
    nsecs: 978942471
  frame_id: "ti_mmwave"
point_id: 14
x: 4.3984375
y: -0.142578125
z: 1.271484375
range: 4.88062095642
velocity: 0.0
doppler_bin: 8
bearing: -1.8566287756
intensity: 31.3545074463
---
header: 
  seq: 101030
  stamp: 
    secs: 1561863691
    nsecs: 978954931
  frame_id: "ti_mmwave"
point_id: 15
x: 4.43359375
y: -0.14453125
z: 1.296875
range: 4.9241976738
velocity: 0.0
doppler_bin: 8
bearing: -1.86713063717
intensity: 31.0140342712
---
header: 
  seq: 101031
  stamp: 
    secs: 1561863691
    nsecs: 978969094
  frame_id: "ti_mmwave"
point_id: 16
x: 4.8203125
y: -0.154296875
z: 0.916015625
range: 5.22923660278
velocity: 0.0
doppler_bin: 8
bearing: -1.83339607716
intensity: 29.9387683868
---
header: 
  seq: 101032
  stamp: 
    secs: 1561863691
    nsecs: 978980401
  frame_id: "ti_mmwave"
point_id: 17
x: 4.880859375
y: -0.154296875
z: 0.810546875
range: 5.27281332016
velocity: 0.0
doppler_bin: 8
bearing: -1.81066823006
intensity: 31.1294002533
---
header: 
  seq: 101033
  stamp: 
    secs: 1561863691
    nsecs: 979042450
  frame_id: "ti_mmwave"
point_id: 18
x: 4.94921875
y: -0.623046875
z: 0.171875
range: 5.31639051437
velocity: 0.0
doppler_bin: 8
bearing: -7.17510271072
intensity: 29.6331558228
---
header: 
  seq: 101034
  stamp: 
    secs: 1561863691
    nsecs: 979059806
  frame_id: "ti_mmwave"
point_id: 19
x: 0.01171875
y: 0.03125
z: 0.0234375
range: 0.0435769706964
velocity: 0.0
doppler_bin: 8
bearing: 69.4439544678
intensity: 29.5182304382
---
header: 
  seq: 101035
  stamp: 
    secs: 1561863691
    nsecs: 979072700
  frame_id: "ti_mmwave"
point_id: 20
x: 0.041015625
y: -0.033203125
z: 0.0625
range: 0.0871539413929
velocity: 0.0
doppler_bin: 8
bearing: -38.9909973145
intensity: 30.2448558807
---
header: 
  seq: 101036
  stamp: 
    secs: 1561863691
    nsecs: 979084459
  frame_id: "ti_mmwave"
point_id: 21
x: 0.05078125
y: -0.04296875
z: 0.103515625
range: 0.130730912089
velocity: 0.0
doppler_bin: 8
bearing: -40.2363586426
intensity: 29.127532959
---
header: 
  seq: 101037
  stamp: 
    secs: 1561863691
    nsecs: 980104593
  frame_id: "ti_mmwave"
point_id: 0
x: 0.01171875
y: -0.0390625
z: -0.0078125
range: 0.0435769706964
velocity: 0.0
doppler_bin: 8
bearing: -73.3007583618
intensity: 30.9272060394
---
header: 
  seq: 101038
  stamp: 
    secs: 1561863691
    nsecs: 980165872
  frame_id: "ti_mmwave"
point_id: 1
x: 0.017578125
y: -0.080078125
z: -0.009765625
range: 0.0871539413929
velocity: 0.0
doppler_bin: 8
bearing: -77.6192398071
intensity: 32.1245384216
---
header: 
  seq: 101039
  stamp: 
    secs: 1561863691
    nsecs: 980177442
  frame_id: "ti_mmwave"
point_id: 2
x: 0.041015625
y: -0.115234375
z: -0.009765625
range: 0.130730912089
velocity: 0.0
doppler_bin: 8
bearing: -70.4077224731
intensity: 30.3981056213
---
header: 
  seq: 101040
  stamp: 
    secs: 1561863691
    nsecs: 980185949
  frame_id: "ti_mmwave"
point_id: 3
x: 0.056640625
y: -0.154296875
z: 0.00390625
range: 0.174307882786
velocity: 0.0
doppler_bin: 8
bearing: -69.8423843384
intensity: 25.6110134125
---
header: 
  seq: 101041
  stamp: 
    secs: 1561863691
    nsecs: 980194574
  frame_id: "ti_mmwave"
point_id: 4
x: 0.15234375
y: -0.080078125
z: 1.255859375
range: 1.35088610649
velocity: 0.0
doppler_bin: 8
bearing: -27.7282581329
intensity: 23.2428245544
---
header: 
  seq: 101042
  stamp: 
    secs: 1561863691
    nsecs: 980202781
  frame_id: "ti_mmwave"
point_id: 5
x: 0.271484375
y: -0.041015625
z: -1.279296875
range: 1.39446306229
velocity: 0.0
doppler_bin: 8
bearing: -8.59122562408
intensity: 24.7567119598
---
header: 
  seq: 101043
  stamp: 
    secs: 1561863691
    nsecs: 980216432
  frame_id: "ti_mmwave"
point_id: 6
x: 0.5234375
y: -0.04296875
z: -1.244140625
range: 1.43804001808
velocity: 0.0
doppler_bin: 8
bearing: -4.69286251068
intensity: 23.1175384521
---
header: 
  seq: 101044
  stamp: 
    secs: 1561863691
    nsecs: 980224294
  frame_id: "ti_mmwave"
point_id: 7
x: 0.578125
y: -0.04296875
z: -1.263671875
range: 1.48161697388
velocity: 0.0
doppler_bin: 8
bearing: -4.25065469742
intensity: 21.7318630219
---
header: 
  seq: 101045
  stamp: 
    secs: 1561863691
    nsecs: 980286234
  frame_id: "ti_mmwave"
point_id: 8
x: 2.283203125
y: -0.146484375
z: -0.455078125
range: 2.48388743401
velocity: 0.0
doppler_bin: 8
bearing: -3.67091679573
intensity: 27.2509460449
---
header: 
  seq: 101046
  stamp: 
    secs: 1561863691
    nsecs: 980297909
  frame_id: "ti_mmwave"
point_id: 9
x: 2.330078125
y: -0.07421875
z: -0.44140625
range: 2.5274643898
velocity: 0.0
doppler_bin: 8
bearing: -1.82439541817
intensity: 28.4073314667
---
header: 
  seq: 101047
  stamp: 
    secs: 1561863691
    nsecs: 980305360
  frame_id: "ti_mmwave"
point_id: 10
x: 2.388671875
y: -0.076171875
z: -0.33984375
range: 2.5710413456
velocity: 0.0
doppler_bin: 8
bearing: -1.82647454739
intensity: 27.2916469574
---
header: 
  seq: 101048
  stamp: 
    secs: 1561863691
    nsecs: 980312824
  frame_id: "ti_mmwave"
point_id: 11
x: 2.611328125
y: -0.17578125
z: 1.05859375
range: 3.00681090355
velocity: 0.0
doppler_bin: 8
bearing: -3.85104894638
intensity: 29.2634239197
---
header: 
  seq: 101049
  stamp: 
    secs: 1561863691
    nsecs: 980320409
  frame_id: "ti_mmwave"
point_id: 12
x: 2.6875
y: -0.08984375
z: 0.986328125
range: 3.05038785934
velocity: 0.0
doppler_bin: 8
bearing: -1.91469812393
intensity: 32.4477157593
---
header: 
  seq: 101050
  stamp: 
    secs: 1561863691
    nsecs: 980328038
  frame_id: "ti_mmwave"
point_id: 13
x: 2.73828125
y: -0.08984375
z: 0.9609375
range: 3.09396481514
velocity: 0.0
doppler_bin: 8
bearing: -1.87921595573
intensity: 31.6790771484
---
header: 
  seq: 101051
  stamp: 
    secs: 1561863691
    nsecs: 980337548
  frame_id: "ti_mmwave"
point_id: 14
x: 4.41015625
y: -0.142578125
z: 1.07421875
range: 4.83704376221
velocity: 0.0
doppler_bin: 8
bearing: -1.85169863701
intensity: 28.0888595581
---
header: 
  seq: 101052
  stamp: 
    secs: 1561863691
    nsecs: 980350877
  frame_id: "ti_mmwave"
point_id: 15
x: 4.41796875
y: -0.142578125
z: 1.201171875
range: 4.88062095642
velocity: 0.0
doppler_bin: 8
bearing: -1.84842634201
intensity: 31.4207649231
---
header: 
  seq: 101053
  stamp: 
    secs: 1561863691
    nsecs: 980363492
  frame_id: "ti_mmwave"
point_id: 16
x: 4.455078125
y: -0.14453125
z: 1.2265625
range: 4.9241976738
velocity: 0.0
doppler_bin: 8
bearing: -1.85813295841
intensity: 31.0380363464
---
header: 
  seq: 101054
  stamp: 
    secs: 1561863691
    nsecs: 980377889
  frame_id: "ti_mmwave"
point_id: 17
x: 4.81640625
y: -0.154296875
z: 0.931640625
range: 5.22923660278
velocity: 0.0
doppler_bin: 8
bearing: -1.83488214016
intensity: 30.1661548615
---
header: 
  seq: 101055
  stamp: 
    secs: 1561863691
    nsecs: 980400785
  frame_id: "ti_mmwave"
point_id: 18
x: 4.890625
y: -0.30859375
z: 0.701171875
range: 5.27281332016
velocity: 0.0
doppler_bin: 8
bearing: -3.61052203178
intensity: 31.4921913147
---
header: 
  seq: 101056
  stamp: 
    secs: 1561863691
    nsecs: 980415205
  frame_id: "ti_mmwave"
point_id: 19
x: 4.951171875
y: -0.623046875
z: 0.099609375
range: 5.31639051437
velocity: 0.0
doppler_bin: 8
bearing: -7.17230129242
intensity: 30.2077541351
---
header: 
  seq: 101057
  stamp: 
    secs: 1561863691
    nsecs: 980526855
  frame_id: "ti_mmwave"
point_id: 20
x: 0.01171875
y: 0.03125
z: 0.0234375
range: 0.0435769706964
velocity: 0.0
doppler_bin: 8
bearing: 69.4439544678
intensity: 29.5182304382
---
header: 
  seq: 101058
  stamp: 
    secs: 1561863691
    nsecs: 980554402
  frame_id: "ti_mmwave"
point_id: 21
x: 0.041015625
y: -0.033203125
z: 0.0625
range: 0.0871539413929
velocity: 0.0
doppler_bin: 8
bearing: -38.9909973145
intensity: 30.2407493591
---
header: 
  seq: 101059
  stamp: 
    secs: 1561863691
    nsecs: 980569105
  frame_id: "ti_mmwave"
point_id: 22
x: 0.05078125
y: -0.04296875
z: 0.103515625
range: 0.130730912089
velocity: 0.0
doppler_bin: 8
bearing: -40.2363586426
intensity: 29.122220993
---
header: 
  seq: 101060
  stamp: 
    secs: 1561863692
    nsecs:  38692770
  frame_id: "ti_mmwave"
point_id: 0
x: 0.01171875
y: -0.0390625
z: -0.0078125
range: 0.0435769706964
velocity: 0.0
doppler_bin: 8
bearing: -73.3007583618
intensity: 30.9201850891
---
header: 
  seq: 101061
  stamp: 
    secs: 1561863692
    nsecs:  38764798
  frame_id: "ti_mmwave"
point_id: 1
x: 0.017578125
y: -0.080078125
z: -0.009765625
range: 0.0871539413929
velocity: 0.0
doppler_bin: 8
bearing: -77.6192398071
intensity: 32.1245384216
---
header: 
  seq: 101062
  stamp: 
    secs: 1561863692
    nsecs:  38776087
  frame_id: "ti_mmwave"
point_id: 2
x: 0.041015625
y: -0.115234375
z: -0.009765625
range: 0.130730912089
velocity: 0.0
doppler_bin: 8
bearing: -70.4077224731
intensity: 30.4020671844
---
header: 
  seq: 101063
  stamp: 
    secs: 1561863692
    nsecs:  38784723
  frame_id: "ti_mmwave"
point_id: 3
x: 0.056640625
y: -0.154296875
z: 0.00390625
range: 0.174307882786
velocity: 0.0
doppler_bin: 8
bearing: -69.8423843384
intensity: 25.6348114014
---
header: 
  seq: 101064
  stamp: 
    secs: 1561863692
    nsecs:  38795002
  frame_id: "ti_mmwave"
point_id: 4
x: 0.146484375
y: -0.080078125
z: 1.2578125
range: 1.35088610649
velocity: 0.0
doppler_bin: 8
bearing: -28.6639575958
intensity: 23.2633590698
---
header: 
  seq: 101065
  stamp: 
    secs: 1561863692
    nsecs:  38803556
  frame_id: "ti_mmwave"
point_id: 5
x: 0.267578125
y: -0.041015625
z: -1.28125
range: 1.39446306229
velocity: 0.0
doppler_bin: 8
bearing: -8.71473312378
intensity: 24.7567119598
---
header: 
  seq: 101066
  stamp: 
    secs: 1561863692
    nsecs:  38811951
  frame_id: "ti_mmwave"
point_id: 6
x: 0.517578125
y: -0.04296875
z: -1.24609375
range: 1.43804001808
velocity: 0.0
doppler_bin: 8
bearing: -4.74574804306
intensity: 23.138671875
---
header: 
  seq: 101067
  stamp: 
    secs: 1561863692
    nsecs:  38820270
  frame_id: "ti_mmwave"
point_id: 7
x: 0.564453125
y: -0.04296875
z: -1.26953125
range: 1.48161697388
velocity: 0.0
doppler_bin: 8
bearing: -4.35321998596
intensity: 21.7609119415
---
header: 
  seq: 101068
  stamp: 
    secs: 1561863692
    nsecs:  38830473
  frame_id: "ti_mmwave"
point_id: 8
x: 2.33984375
y: -0.07421875
z: -0.380859375
range: 2.5274643898
velocity: 0.0
doppler_bin: 8
bearing: -1.81678617001
intensity: 25.7054290771
---
header: 
  seq: 101069
  stamp: 
    secs: 1561863692
    nsecs:  38842049
  frame_id: "ti_mmwave"
point_id: 9
x: 2.60546875
y: -0.17578125
z: 1.068359375
range: 3.00681090355
velocity: 0.0
doppler_bin: 8
bearing: -3.85968351364
intensity: 29.1645393372
---
header: 
  seq: 101070
  stamp: 
    secs: 1561863692
    nsecs:  39014456
  frame_id: "ti_mmwave"
point_id: 10
x: 2.6875
y: -0.08984375
z: 0.982421875
range: 3.05038785934
velocity: 0.0
doppler_bin: 8
bearing: -1.91469812393
intensity: 32.3477020264
---
header: 
  seq: 101071
  stamp: 
    secs: 1561863692
    nsecs:  39037955
  frame_id: "ti_mmwave"
point_id: 11
x: 2.76171875
y: -0.08984375
z: 0.89453125
range: 3.09396481514
velocity: 0.0
doppler_bin: 8
bearing: -1.86327898502
intensity: 31.3353881836
---
header: 
  seq: 101072
  stamp: 
    secs: 1561863692
    nsecs:  39050729
  frame_id: "ti_mmwave"
point_id: 12
x: 4.408203125
y: -0.142578125
z: 1.078125
range: 4.83704376221
velocity: 0.0
doppler_bin: 8
bearing: -1.85251843929
intensity: 28.1888542175
---
header: 
  seq: 101073
  stamp: 
    secs: 1561863692
    nsecs:  39059919
  frame_id: "ti_mmwave"
point_id: 13
x: 4.41796875
y: -0.142578125
z: 1.205078125
range: 4.88062095642
velocity: 0.0
doppler_bin: 8
bearing: -1.84842634201
intensity: 31.4952697754
---
header: 
  seq: 101074
  stamp: 
    secs: 1561863692
    nsecs:  39072366
  frame_id: "ti_mmwave"
point_id: 14
x: 4.44921875
y: -0.14453125
z: 1.24609375
range: 4.9241976738
velocity: 0.0
doppler_bin: 8
bearing: -1.86057829857
intensity: 31.0720996857
---
header: 
  seq: 101075
  stamp: 
    secs: 1561863692
    nsecs:  39130441
  frame_id: "ti_mmwave"
point_id: 15
x: 4.8828125
y: -0.46484375
z: 0.66796875
range: 5.27281332016
velocity: 0.0
doppler_bin: 8
bearing: -5.43816900253
intensity: 30.99335289
---
header: 
  seq: 101076
  stamp: 
    secs: 1561863692
    nsecs:  39141965
  frame_id: "ti_mmwave"
point_id: 16
x: 4.951171875
y: -0.623046875
z: 0.052734375
range: 5.31639051437
velocity: 0.0
doppler_bin: 8
bearing: -7.17230129242
intensity: 29.8227119446
---
header: 
  seq: 101077
  stamp: 
    secs: 1561863692
    nsecs:  39151493
  frame_id: "ti_mmwave"
point_id: 17
x: 0.01171875
y: 0.03125
z: 0.0234375
range: 0.0435769706964
velocity: 0.0
doppler_bin: 8
bearing: 69.4439544678
intensity: 29.5133743286
---
header: 
  seq: 101078
  stamp: 
    secs: 1561863692
    nsecs:  39163574
  frame_id: "ti_mmwave"
point_id: 18
x: 0.0390625
y: -0.033203125
z: 0.0625
range: 0.0871539413929
velocity: 0.0
doppler_bin: 8
bearing: -40.3645362854
intensity: 30.2448558807
---
header: 
  seq: 101079
  stamp: 
    secs: 1561863692
    nsecs:  39174872
  frame_id: "ti_mmwave"
point_id: 19
x: 0.05078125
y: -0.04296875
z: 0.103515625
range: 0.130730912089
velocity: 0.0
doppler_bin: 8
bearing: -40.2363586426
intensity: 29.127532959
---
header: 
  seq: 101080
  stamp: 
    secs: 1561863692
    nsecs:  39187580
  frame_id: "ti_mmwave"
point_id: 21
x: 4.880859375
y: -0.154296875
z: 0.802734375
range: 5.27281332016
velocity: 0.0
doppler_bin: 8
bearing: -1.81066823006
intensity: 30.9551811218
---
header: 
  seq: 101081
  stamp: 
    secs: 1561863692
    nsecs:  40123283
  frame_id: "ti_mmwave"
point_id: 0
x: 0.01171875
y: -0.0390625
z: -0.0078125
range: 0.0435769706964
velocity: 0.0
doppler_bin: 8
bearing: -73.3007583618
intensity: 30.9166698456
---
header: 
  seq: 101082
  stamp: 
    secs: 1561863692
    nsecs:  40165263
  frame_id: "ti_mmwave"
point_id: 1
x: 0.017578125
y: -0.080078125
z: -0.009765625
range: 0.0871539413929
velocity: 0.0
doppler_bin: 8
bearing: -77.6192398071
intensity: 32.1218757629
---
header: 
  seq: 101083
  stamp: 
    secs: 1561863692
    nsecs:  40175153
  frame_id: "ti_mmwave"
point_id: 2
x: 0.041015625
y: -0.115234375
z: -0.009765625
range: 0.130730912089
velocity: 0.0
doppler_bin: 8
bearing: -70.4077224731
intensity: 30.3981056213
---
header: 
  seq: 101084
  stamp: 
    secs: 1561863692
    nsecs:  40185028
  frame_id: "ti_mmwave"
point_id: 3
x: 0.056640625
y: -0.154296875
z: 0.00390625
range: 0.174307882786
velocity: 0.0
doppler_bin: 8
bearing: -69.8423843384
intensity: 25.6229286194
---
header: 
  seq: 101085
  stamp: 
    secs: 1561863692
    nsecs:  40194111
  frame_id: "ti_mmwave"
point_id: 4
x: 0.173828125
y: -0.080078125
z: 1.25390625
range: 1.35088610649
velocity: 0.0
doppler_bin: 8
bearing: -24.7343044281
intensity: 23.2428245544
---
header: 
  seq: 101086
  stamp: 
    secs: 1561863692
    nsecs:  40202497
  frame_id: "ti_mmwave"
point_id: 5
x: 0.236328125
y: -0.041015625
z: -1.287109375
range: 1.39446306229
velocity: 0.0
doppler_bin: 8
bearing: -9.84582233429
intensity: 24.727563858
---
header: 
  seq: 101087
  stamp: 
    secs: 1561863692
    nsecs:  40210804
  frame_id: "ti_mmwave"
point_id: 6
x: 0.494140625
y: -0.04296875
z: -1.255859375
range: 1.43804001808
velocity: 0.0
doppler_bin: 8
bearing: -4.96974086761
intensity: 23.0963020325
---
header: 
  seq: 101088
  stamp: 
    secs: 1561863692
    nsecs:  40220228
  frame_id: "ti_mmwave"
point_id: 7
x: 0.55859375
y: -0.04296875
z: -1.2734375
range: 1.48161697388
velocity: 0.0
doppler_bin: 8
bearing: -4.39870548248
intensity: 21.7609119415
---
header: 
  seq: 101089
  stamp: 
    secs: 1561863692
    nsecs:  40284055
  frame_id: "ti_mmwave"
point_id: 8
x: 2.28125
y: -0.072265625
z: -0.4765625
range: 2.48388743401
velocity: 0.0
doppler_bin: 8
bearing: -1.81441354752
intensity: 26.3447723389
---
header: 
  seq: 101090
  stamp: 
    secs: 1561863692
    nsecs:  40293502
  frame_id: "ti_mmwave"
point_id: 9
x: 2.34765625
y: -0.07421875
z: -0.330078125
range: 2.5274643898
velocity: 0.0
doppler_bin: 8
bearing: -1.81074416637
intensity: 28.4010601044
---
header: 
  seq: 101091
  stamp: 
    secs: 1561863692
    nsecs:  40301198
  frame_id: "ti_mmwave"
point_id: 10
x: 2.390625
y: -0.076171875
z: -0.322265625
range: 2.5710413456
velocity: 0.0
doppler_bin: 8
bearing: -1.82498347759
intensity: 27.283536911
---
header: 
  seq: 101092
  stamp: 
    secs: 1561863692
    nsecs:  40310266
  frame_id: "ti_mmwave"
point_id: 11
x: 2.6171875
y: -0.17578125
z: 1.041015625
range: 3.00681090355
velocity: 0.0
doppler_bin: 8
bearing: -3.84245300293
intensity: 29.3043956757
---
header: 
  seq: 101093
  stamp: 
    secs: 1561863692
    nsecs:  40317800
  frame_id: "ti_mmwave"
point_id: 12
x: 2.697265625
y: -0.08984375
z: 0.958984375
range: 3.05038785934
velocity: 0.0
doppler_bin: 8
bearing: -1.90777087212
intensity: 32.4254150391
---
header: 
  seq: 101094
  stamp: 
    secs: 1561863692
    nsecs:  40325373
  frame_id: "ti_mmwave"
point_id: 13
x: 2.76953125
y: -0.08984375
z: 0.87109375
range: 3.09396481514
velocity: 0.0
doppler_bin: 8
bearing: -1.85802662373
intensity: 31.430147171
---
header: 
  seq: 101095
  stamp: 
    secs: 1561863692
    nsecs:  40334115
  frame_id: "ti_mmwave"
point_id: 14
x: 4.40234375
y: -0.142578125
z: 1.103515625
range: 4.83704376221
velocity: 0.0
doppler_bin: 8
bearing: -1.85498249531
intensity: 28.2347431183
---
header: 
  seq: 101096
  stamp: 
    secs: 1561863692
    nsecs:  40341502
  frame_id: "ti_mmwave"
point_id: 15
x: 4.408203125
y: -0.142578125
z: 1.240234375
range: 4.88062095642
velocity: 0.0
doppler_bin: 8
bearing: -1.85251843929
intensity: 31.4519634247
---
header: 
  seq: 101097
  stamp: 
    secs: 1561863692
    nsecs:  40349179
  frame_id: "ti_mmwave"
point_id: 16
x: 4.431640625
y: -0.14453125
z: 1.3046875
range: 4.9241976738
velocity: 0.0
doppler_bin: 8
bearing: -1.86795306206
intensity: 30.962146759
---
header: 
  seq: 101098
  stamp: 
    secs: 1561863692
    nsecs:  40357727
  frame_id: "ti_mmwave"
point_id: 17
x: 4.87890625
y: -0.154296875
z: 0.822265625
range: 5.27281332016
velocity: 0.0
doppler_bin: 8
bearing: -1.81139242649
intensity: 30.7664051056
---
header: 
  seq: 101099
  stamp: 
    secs: 1561863692
    nsecs:  40366438
  frame_id: "ti_mmwave"
point_id: 18
x: 4.951171875
y: -0.623046875
z: 0.05078125
range: 5.31639051437
velocity: 0.0
doppler_bin: 8
bearing: -7.17230129242
intensity: 29.4448261261
---
header: 
  seq: 101100
  stamp: 
    secs: 1561863692
    nsecs:  40375157
  frame_id: "ti_mmwave"
point_id: 19
x: 0.01171875
y: 0.03125
z: 0.0234375
range: 0.0435769706964
velocity: 0.0
doppler_bin: 8
bearing: 69.4439544678
intensity: 29.5182304382
---
header: 
  seq: 101101
  stamp: 
    secs: 1561863692
    nsecs:  40382962
  frame_id: "ti_mmwave"
point_id: 20
x: 0.0390625
y: -0.033203125
z: 0.0625
range: 0.0871539413929
velocity: 0.0
doppler_bin: 8
bearing: -40.3645362854
intensity: 30.2407493591
---
header: 
  seq: 101102
  stamp: 
    secs: 1561863692
    nsecs:  40392874
  frame_id: "ti_mmwave"
point_id: 21
x: 0.05078125
y: -0.04296875
z: 0.103515625
range: 0.130730912089
velocity: 0.0
doppler_bin: 8
bearing: -40.2363586426
intensity: 29.127532959
---
header: 
  seq: 101103
  stamp: 
    secs: 1561863692
    nsecs:  98664662
  frame_id: "ti_mmwave"
point_id: 0
x: 0.01171875
y: -0.0390625
z: -0.0078125
range: 0.0435769706964
velocity: 0.0
doppler_bin: 8
bearing: -73.3007583618
intensity: 30.9272060394
---
header: 
  seq: 101104
  stamp: 
    secs: 1561863692
    nsecs:  98740813
  frame_id: "ti_mmwave"
point_id: 1
x: 0.017578125
y: -0.080078125
z: -0.009765625
range: 0.0871539413929
velocity: 0.0
doppler_bin: 8
bearing: -77.6192398071
intensity: 32.1245384216
---
header: 
  seq: 101105
  stamp: 
    secs: 1561863692
    nsecs:  98751854
  frame_id: "ti_mmwave"
point_id: 2
x: 0.041015625
y: -0.115234375
z: -0.009765625
range: 0.130730912089
velocity: 0.0
doppler_bin: 8
bearing: -70.4077224731
intensity: 30.3981056213
---
header: 
  seq: 101106
  stamp: 
    secs: 1561863692
    nsecs:  98759830
  frame_id: "ti_mmwave"
point_id: 3
x: 0.056640625
y: -0.154296875
z: 0.005859375
range: 0.174307882786
velocity: 0.0
doppler_bin: 8
bearing: -69.8423843384
intensity: 25.6229286194
---
header: 
  seq: 101107
  stamp: 
    secs: 1561863692
    nsecs:  98768234
  frame_id: "ti_mmwave"
point_id: 4
x: 0.15625
y: -0.080078125
z: 1.255859375
range: 1.35088610649
velocity: 0.0
doppler_bin: 8
bearing: -27.1351394653
intensity: 23.2633590698
---
header: 
  seq: 101108
  stamp: 
    secs: 1561863692
    nsecs:  98776247
  frame_id: "ti_mmwave"
point_id: 5
x: 0.267578125
y: -0.041015625
z: -1.28125
range: 1.39446306229
velocity: 0.0
doppler_bin: 8
bearing: -8.71473312378
intensity: 24.7421627045
---
header: 
  seq: 101109
  stamp: 
    secs: 1561863692
    nsecs:  98784135
  frame_id: "ti_mmwave"
point_id: 6
x: 0.51953125
y: -0.04296875
z: -1.24609375
range: 1.43804001808
velocity: 0.0
doppler_bin: 8
bearing: -4.72798776627
intensity: 23.1175384521
---
header: 
  seq: 101110
  stamp: 
    secs: 1561863692
    nsecs:  98792420
  frame_id: "ti_mmwave"
point_id: 7
x: 0.57421875
y: -0.04296875
z: -1.265625
range: 1.48161697388
velocity: 0.0
doppler_bin: 8
bearing: -4.27946329117
intensity: 21.7897701263
---
header: 
  seq: 101111
  stamp: 
    secs: 1561863692
    nsecs:  98802102
  frame_id: "ti_mmwave"
point_id: 8
x: 2.609375
y: -0.17578125
z: 1.0625
range: 3.00681090355
velocity: 0.0
doppler_bin: 8
bearing: -3.85392260551
intensity: 29.2890777588
---
header: 
  seq: 101112
  stamp: 
    secs: 1561863692
    nsecs:  98811371
  frame_id: "ti_mmwave"
point_id: 9
x: 2.6796875
y: -0.08984375
z: 1.005859375
range: 3.05038785934
velocity: 0.0
doppler_bin: 8
bearing: -1.92027628422
intensity: 32.4154663086
---
header: 
  seq: 101113
  stamp: 
    secs: 1561863692
    nsecs:  98819307
  frame_id: "ti_mmwave"
point_id: 10
x: 2.7421875
y: -0.08984375
z: 0.951171875
range: 3.09396481514
velocity: 0.0
doppler_bin: 8
bearing: -1.87654089928
intensity: 31.4612808228
---
header: 
  seq: 101114
  stamp: 
    secs: 1561863692
    nsecs:  98979359
  frame_id: "ti_mmwave"
point_id: 11
x: 4.412109375
y: -0.142578125
z: 1.064453125
range: 4.83704376221
velocity: 0.0
doppler_bin: 8
bearing: -1.85087943077
intensity: 28.2736930847
---
header: 
  seq: 101115
  stamp: 
    secs: 1561863692
    nsecs:  98998121
  frame_id: "ti_mmwave"
point_id: 12
x: 4.416015625
y: -0.142578125
z: 1.212890625
range: 4.88062095642
velocity: 0.0
doppler_bin: 8
bearing: -1.84924340248
intensity: 31.4829406738
---
header: 
  seq: 101116
  stamp: 
    secs: 1561863692
    nsecs:  99006894
  frame_id: "ti_mmwave"
point_id: 13
x: 4.44140625
y: -0.14453125
z: 1.26953125
range: 4.9241976738
velocity: 0.0
doppler_bin: 8
bearing: -1.86384868622
intensity: 31.0140342712
---
header: 
  seq: 101117
  stamp: 
    secs: 1561863692
    nsecs:  99015063
  frame_id: "ti_mmwave"
point_id: 14
x: 4.8828125
y: -0.154296875
z: 0.79296875
range: 5.27281332016
velocity: 0.0
doppler_bin: 8
bearing: -1.80994415283
intensity: 30.8206691742
---
header: 
  seq: 101118
  stamp: 
    secs: 1561863692
    nsecs:  99025156
  frame_id: "ti_mmwave"
point_id: 15
x: 4.951171875
y: -0.623046875
z: 0.025390625
range: 5.31639051437
velocity: 0.0
doppler_bin: 8
bearing: -7.17230129242
intensity: 29.5182304382
---
header: 
  seq: 101119
  stamp: 
    secs: 1561863692
    nsecs:  99033217
  frame_id: "ti_mmwave"
point_id: 16
x: 0.01171875
y: 0.03125
z: 0.0234375
range: 0.0435769706964
velocity: 0.0
doppler_bin: 8
bearing: 69.4439544678
intensity: 29.5182304382
---
header: 
  seq: 101120
  stamp: 
    secs: 1561863692
    nsecs:  99043184
  frame_id: "ti_mmwave"
point_id: 17
x: 0.041015625
y: -0.033203125
z: 0.0625
range: 0.0871539413929
velocity: 0.0
doppler_bin: 8
bearing: -38.9909973145
intensity: 30.2448558807
---
header: 
  seq: 101121
  stamp: 
    secs: 1561863692
    nsecs:  99051266
  frame_id: "ti_mmwave"
point_id: 18
x: 0.05078125
y: -0.04296875
z: 0.103515625
range: 0.130730912089
velocity: 0.0
doppler_bin: 8
bearing: -40.2363586426
intensity: 29.127532959
---
header: 
  seq: 101122
  stamp: 
    secs: 1561863692
    nsecs:  99060987
  frame_id: "ti_mmwave"
point_id: 20
x: 4.884765625
y: -0.46484375
z: 0.64453125
range: 5.27281332016
velocity: 0.0
doppler_bin: 8
bearing: -5.43600749969
intensity: 30.7990455627
---
header: 
  seq: 101123
  stamp: 
    secs: 1561863692
    nsecs:  99840695
  frame_id: "ti_mmwave"
point_id: 0
x: 0.01171875
y: -0.0390625
z: -0.0078125
range: 0.0435769706964
velocity: 0.0
doppler_bin: 8
bearing: -73.3007583618
intensity: 30.9236965179
---
header: 
  seq: 101124
  stamp: 
    secs: 1561863692
    nsecs:  99903768
  frame_id: "ti_mmwave"
point_id: 1
x: 0.017578125
y: -0.080078125
z: -0.009765625
range: 0.0871539413929
velocity: 0.0
doppler_bin: 8
bearing: -77.6192398071
intensity: 32.1245384216
---
header: 
  seq: 101125
  stamp: 
    secs: 1561863692
    nsecs:  99919727
  frame_id: "ti_mmwave"
point_id: 2
x: 0.041015625
y: -0.115234375
z: -0.009765625
range: 0.130730912089
velocity: 0.0
doppler_bin: 8
bearing: -70.4077224731
intensity: 30.3981056213
---
header: 
  seq: 101126
  stamp: 
    secs: 1561863692
    nsecs:  99928941
  frame_id: "ti_mmwave"
point_id: 3
x: 0.056640625
y: -0.154296875
z: 0.00390625
range: 0.174307882786
velocity: 0.0
doppler_bin: 8
bearing: -69.8423843384
intensity: 25.6229286194
---
header: 
  seq: 101127
  stamp: 
    secs: 1561863692
    nsecs:  99970996
  frame_id: "ti_mmwave"
point_id: 4
x: 0.177734375
y: -0.080078125
z: 1.25390625
range: 1.35088610649
velocity: 0.0
doppler_bin: 8
bearing: -24.2539196014
intensity: 23.2221927643
---
header: 
  seq: 101128
  stamp: 
    secs: 1561863692
    nsecs: 100053497
  frame_id: "ti_mmwave"
point_id: 5
x: 0.2421875
y: -0.041015625
z: -1.28515625
range: 1.39446306229
velocity: 0.0
doppler_bin: 8
bearing: -9.61211490631
intensity: 24.7129173279
---
header: 
  seq: 101129
  stamp: 
    secs: 1561863692
    nsecs: 100071384
  frame_id: "ti_mmwave"
point_id: 6
x: 0.494140625
y: -0.04296875
z: -1.255859375
range: 1.43804001808
velocity: 0.0
doppler_bin: 8
bearing: -4.96974086761
intensity: 23.0749607086
---
header: 
  seq: 101130
  stamp: 
    secs: 1561863692
    nsecs: 100083430
  frame_id: "ti_mmwave"
point_id: 7
x: 0.529296875
y: -0.04296875
z: -1.28515625
range: 1.48161697388
velocity: 0.0
doppler_bin: 8
bearing: -4.64113998413
intensity: 21.7318630219
---
header: 
  seq: 101131
  stamp: 
    secs: 1561863692
    nsecs: 100096626
  frame_id: "ti_mmwave"
point_id: 8
x: 2.623046875
y: -0.17578125
z: 1.02734375
range: 3.00681090355
velocity: 0.0
doppler_bin: 8
bearing: -3.83389568329
intensity: 29.339931488
---
header: 
  seq: 101132
  stamp: 
    secs: 1561863692
    nsecs: 100108644
  frame_id: "ti_mmwave"
point_id: 9
x: 2.693359375
y: -0.08984375
z: 0.96484375
range: 3.05038785934
velocity: 0.0
doppler_bin: 8
bearing: -1.91053581238
intensity: 32.4328613281
---
header: 
  seq: 101133
  stamp: 
    secs: 1561863692
    nsecs: 100122320
  frame_id: "ti_mmwave"
point_id: 10
x: 2.755859375
y: -0.08984375
z: 0.91015625
range: 3.09396481514
velocity: 0.0
doppler_bin: 8
bearing: -1.86723792553
intensity: 31.4829406738
---
header: 
  seq: 101134
  stamp: 
    secs: 1561863692
    nsecs: 100150367
  frame_id: "ti_mmwave"
point_id: 11
x: 4.3984375
y: -0.142578125
z: 1.1171875
range: 4.83704376221
velocity: 0.0
doppler_bin: 8
bearing: -1.8566287756
intensity: 28.2736930847
---
header: 
  seq: 101135
  stamp: 
    secs: 1561863692
    nsecs: 100170586
  frame_id: "ti_mmwave"
point_id: 12
x: 4.41015625
y: -0.142578125
z: 1.234375
range: 4.88062095642
velocity: 0.0
doppler_bin: 8
bearing: -1.85169863701
intensity: 31.4860267639
---
header: 
  seq: 101136
  stamp: 
    secs: 1561863692
    nsecs: 100231435
  frame_id: "ti_mmwave"
point_id: 13
x: 4.443359375
y: -0.14453125
z: 1.263671875
range: 4.9241976738
velocity: 0.0
doppler_bin: 8
bearing: -1.86303019524
intensity: 31.0890312195
---
header: 
  seq: 101137
  stamp: 
    secs: 1561863692
    nsecs: 100246037
  frame_id: "ti_mmwave"
point_id: 14
x: 4.880859375
y: -0.46484375
z: 0.68359375
range: 5.27281332016
velocity: 0.0
doppler_bin: 8
bearing: -5.44033241272
intensity: 30.9447116852
---
header: 
  seq: 101138
  stamp: 
    secs: 1561863692
    nsecs: 100257467
  frame_id: "ti_mmwave"
point_id: 15
x: 4.951171875
y: -0.623046875
z: 0.076171875
range: 5.31639051437
velocity: 0.0
doppler_bin: 8
bearing: -7.17230129242
intensity: 29.637878418
---
header: 
  seq: 101139
  stamp: 
    secs: 1561863692
    nsecs: 100269162
  frame_id: "ti_mmwave"
point_id: 16
x: 0.01171875
y: 0.03125
z: 0.0234375
range: 0.0435769706964
velocity: 0.0
doppler_bin: 8
bearing: 69.4439544678
intensity: 29.5182304382
---
header: 
  seq: 101140
  stamp: 
    secs: 1561863692
    nsecs: 100282110
  frame_id: "ti_mmwave"
point_id: 17
x: 0.041015625
y: -0.033203125
z: 0.0625
range: 0.0871539413929
velocity: 0.0
doppler_bin: 8
bearing: -38.9909973145
intensity: 30.2407493591
---
header: 
  seq: 101141
  stamp: 
    secs: 1561863692
    nsecs: 100293670
  frame_id: "ti_mmwave"
point_id: 18
x: 0.05078125
y: -0.04296875
z: 0.103515625
range: 0.130730912089
velocity: 0.0
doppler_bin: 8
bearing: -40.2363586426
intensity: 29.122220993
---
header: 
  seq: 101142
  stamp: 
    secs: 1561863692
    nsecs: 158700907
  frame_id: "ti_mmwave"
point_id: 0
x: 0.01171875
y: -0.0390625
z: -0.0078125
range: 0.0435769706964
velocity: 0.0
doppler_bin: 8
bearing: -73.3007583618
intensity: 30.9201850891
---
header: 
  seq: 101143
  stamp: 
    secs: 1561863692
    nsecs: 158771164
  frame_id: "ti_mmwave"
point_id: 1
x: 0.017578125
y: -0.080078125
z: -0.009765625
range: 0.0871539413929
velocity: 0.0
doppler_bin: 8
bearing: -77.6192398071
intensity: 32.1245384216
---
header: 
  seq: 101144
  stamp: 
    secs: 1561863692
    nsecs: 158788232
  frame_id: "ti_mmwave"
point_id: 2
x: 0.041015625
y: -0.115234375
z: -0.009765625
range: 0.130730912089
velocity: 0.0
doppler_bin: 8
bearing: -70.4077224731
intensity: 30.4020671844
---
header: 
  seq: 101145
  stamp: 
    secs: 1561863692
    nsecs: 158801405
  frame_id: "ti_mmwave"
point_id: 3
x: 0.056640625
y: -0.154296875
z: 0.005859375
range: 0.174307882786
velocity: 0.0
doppler_bin: 8
bearing: -69.8423843384
intensity: 25.6348114014
---
header: 
  seq: 101146
  stamp: 
    secs: 1561863692
    nsecs: 158821801
  frame_id: "ti_mmwave"
point_id: 4
x: 0.1640625
y: -0.080078125
z: 1.255859375
range: 1.35088610649
velocity: 0.0
doppler_bin: 8
bearing: -26.0167827606
intensity: 23.2014636993
---
header: 
  seq: 101147
  stamp: 
    secs: 1561863692
    nsecs: 158839740
  frame_id: "ti_mmwave"
point_id: 5
x: 0.25
y: -0.041015625
z: -1.28515625
range: 1.39446306229
velocity: 0.0
doppler_bin: 8
bearing: -9.31708621979
intensity: 24.7129173279
---
header: 
  seq: 101148
  stamp: 
    secs: 1561863692
    nsecs: 158909847
  frame_id: "ti_mmwave"
point_id: 6
x: 0.498046875
y: -0.04296875
z: -1.25390625
range: 1.43804001808
velocity: 0.0
doppler_bin: 8
bearing: -4.93095541
intensity: 23.0963020325
---
header: 
  seq: 101149
  stamp: 
    secs: 1561863692
    nsecs: 158960185
  frame_id: "ti_mmwave"
point_id: 7
x: 0.5625
y: -0.04296875
z: -1.271484375
range: 1.48161697388
velocity: 0.0
doppler_bin: 8
bearing: -4.36827754974
intensity: 21.7318630219
---
header: 
  seq: 101150
  stamp: 
    secs: 1561863692
    nsecs: 158970629
  frame_id: "ti_mmwave"
point_id: 8
x: 2.302734375
y: -0.072265625
z: -0.36328125
range: 2.48388743401
velocity: 0.0
doppler_bin: 8
bearing: -1.79749643803
intensity: 28.6213130951
---
header: 
  seq: 101151
  stamp: 
    secs: 1561863692
    nsecs: 158981019
  frame_id: "ti_mmwave"
point_id: 9
x: 2.361328125
y: -0.07421875
z: -0.21875
range: 2.5274643898
velocity: 0.0
doppler_bin: 8
bearing: -1.80026710033
intensity: 28.8874092102
---
header: 
  seq: 101152
  stamp: 
    secs: 1561863692
    nsecs: 158993296
  frame_id: "ti_mmwave"
point_id: 10
x: 2.412109375
y: -0.076171875
z: -0.01171875
range: 2.5710413456
velocity: 0.0
doppler_bin: 8
bearing: -1.80873930454
intensity: 27.3078231812
---
header: 
  seq: 101153
  stamp: 
    secs: 1561863692
    nsecs: 159004997
  frame_id: "ti_mmwave"
point_id: 11
x: 2.689453125
y: -0.08984375
z: 0.9765625
range: 3.05038785934
velocity: 0.0
doppler_bin: 8
bearing: -1.91330885887
intensity: 32.4303817749
---
header: 
  seq: 101154
  stamp: 
    secs: 1561863692
    nsecs: 159015574
  frame_id: "ti_mmwave"
point_id: 12
x: 2.751953125
y: -0.08984375
z: 0.92578125
range: 3.09396481514
velocity: 0.0
doppler_bin: 8
bearing: -1.86988639832
intensity: 31.5926628113
---
header: 
  seq: 101155
  stamp: 
    secs: 1561863692
    nsecs: 159027138
  frame_id: "ti_mmwave"
point_id: 13
x: 4.396484375
y: -0.142578125
z: 1.125
range: 4.83704376221
velocity: 0.0
doppler_bin: 8
bearing: -1.85745286942
intensity: 28.1424751282
---
header: 
  seq: 101156
  stamp: 
    secs: 1561863692
    nsecs: 159037519
  frame_id: "ti_mmwave"
point_id: 14
x: 4.404296875
y: -0.142578125
z: 1.25390625
range: 4.88062095642
velocity: 0.0
doppler_bin: 8
bearing: -1.85416030884
intensity: 31.389339447
---
header: 
  seq: 101157
  stamp: 
    secs: 1561863692
    nsecs: 159050483
  frame_id: "ti_mmwave"
point_id: 15
x: 4.443359375
y: -0.14453125
z: 1.265625
range: 4.9241976738
velocity: 0.0
doppler_bin: 8
bearing: -1.86303019524
intensity: 31.020904541
---
header: 
  seq: 101158
  stamp: 
    secs: 1561863692
    nsecs: 159062831
  frame_id: "ti_mmwave"
point_id: 16
x: 4.8203125
y: -0.154296875
z: 0.91796875
range: 5.22923660278
velocity: 0.0
doppler_bin: 8
bearing: -1.83339607716
intensity: 30.1745071411
---
header: 
  seq: 101159
  stamp: 
    secs: 1561863692
    nsecs: 159075618
  frame_id: "ti_mmwave"
point_id: 17
x: 4.8828125
y: -0.46484375
z: 0.662109375
range: 5.27281332016
velocity: 0.0
doppler_bin: 8
bearing: -5.43816900253
intensity: 31.3481445312
---
header: 
  seq: 101160
  stamp: 
    secs: 1561863692
    nsecs: 159133478
  frame_id: "ti_mmwave"
point_id: 18
x: 4.951171875
y: -0.623046875
z: 0.08984375
range: 5.31639051437
velocity: 0.0
doppler_bin: 8
bearing: -7.17230129242
intensity: 30.0259799957
---
header: 
  seq: 101161
  stamp: 
    secs: 1561863692
    nsecs: 159152876
  frame_id: "ti_mmwave"
point_id: 20
x: 0.0390625
y: -0.033203125
z: 0.0625
range: 0.0871539413929
velocity: 0.0
doppler_bin: 8
bearing: -40.3645362854
intensity: 30.2407493591
---
header: 
  seq: 101162
  stamp: 
    secs: 1561863692
    nsecs: 159165018
  frame_id: "ti_mmwave"
point_id: 21
x: 0.05078125
y: -0.04296875
z: 0.103515625
range: 0.130730912089
velocity: 0.0
doppler_bin: 8
bearing: -40.2363586426
intensity: 29.1328392029
---
header: 
  seq: 101163
  stamp: 
    secs: 1561863692
    nsecs: 218764024
  frame_id: "ti_mmwave"
point_id: 0
x: 0.01171875
y: -0.0390625
z: -0.0078125
range: 0.0435769706964
velocity: 0.0
doppler_bin: 8
bearing: -73.3007583618
intensity: 30.9201850891
---
header: 
  seq: 101164
  stamp: 
    secs: 1561863692
    nsecs: 218852487
  frame_id: "ti_mmwave"
point_id: 1
x: 0.017578125
y: -0.080078125
z: -0.009765625
range: 0.0871539413929
velocity: 0.0
doppler_bin: 8
bearing: -77.6192398071
intensity: 32.1245384216
---
header: 
  seq: 101165
  stamp: 
    secs: 1561863692
    nsecs: 218869370
  frame_id: "ti_mmwave"
point_id: 2
x: 0.041015625
y: -0.115234375
z: -0.009765625
range: 0.130730912089
velocity: 0.0
doppler_bin: 8
bearing: -70.4077224731
intensity: 30.3981056213
---
header: 
  seq: 101166
  stamp: 
    secs: 1561863692
    nsecs: 218883103
  frame_id: "ti_mmwave"
point_id: 3
x: 0.056640625
y: -0.154296875
z: 0.005859375
range: 0.174307882786
velocity: 0.0
doppler_bin: 8
bearing: -69.8423843384
intensity: 25.6229286194
---
header: 
  seq: 101167
  stamp: 
    secs: 1561863692
    nsecs: 218896330
  frame_id: "ti_mmwave"
point_id: 4
x: 0.138671875
y: -0.080078125
z: 1.2578125
range: 1.35088610649
velocity: 0.0
doppler_bin: 8
bearing: -30.0049190521
intensity: 23.2221927643
---
header: 
  seq: 101168
  stamp: 
    secs: 1561863692
    nsecs: 218909733
  frame_id: "ti_mmwave"
point_id: 5
x: 0.267578125
y: -0.041015625
z: -1.28125
range: 1.39446306229
velocity: 0.0
doppler_bin: 8
bearing: -8.71473312378
intensity: 24.7129173279
---
header: 
  seq: 101169
  stamp: 
    secs: 1561863692
    nsecs: 218924946
  frame_id: "ti_mmwave"
point_id: 6
x: 0.515625
y: -0.04296875
z: -1.24609375
range: 1.43804001808
velocity: 0.0
doppler_bin: 8
bearing: -4.76364183426
intensity: 23.0749607086
---
header: 
  seq: 101170
  stamp: 
    secs: 1561863692
    nsecs: 218938019
  frame_id: "ti_mmwave"
point_id: 7
x: 0.556640625
y: -0.04296875
z: -1.2734375
range: 1.48161697388
velocity: 0.0
doppler_bin: 8
bearing: -4.41407871246
intensity: 21.7318630219
---
header: 
  seq: 101171
  stamp: 
    secs: 1561863692
    nsecs: 218954062
  frame_id: "ti_mmwave"
point_id: 8
x: 2.31640625
y: -0.146484375
z: -0.216796875
range: 2.48388743401
velocity: 0.0
doppler_bin: 8
bearing: -3.61843919754
intensity: 27.0671787262
---
header: 
  seq: 101172
  stamp: 
    secs: 1561863692
    nsecs: 219046233
  frame_id: "ti_mmwave"
point_id: 9
x: 2.34375
y: -0.1484375
z: -0.337890625
range: 2.5274643898
velocity: 0.0
doppler_bin: 8
bearing: -3.6238925457
intensity: 26.9284687042
---
header: 
  seq: 101173
  stamp: 
    secs: 1561863692
    nsecs: 219062875
  frame_id: "ti_mmwave"
point_id: 10
x: 2.619140625
y: -0.17578125
z: 1.0390625
range: 3.00681090355
velocity: 0.0
doppler_bin: 8
bearing: -3.83959650993
intensity: 29.1487178802
---
header: 
  seq: 101174
  stamp: 
    secs: 1561863692
    nsecs: 219076343
  frame_id: "ti_mmwave"
point_id: 11
x: 2.697265625
y: -0.08984375
z: 0.95703125
range: 3.05038785934
velocity: 0.0
doppler_bin: 8
bearing: -1.90777087212
intensity: 32.3426399231
---
header: 
  seq: 101175
  stamp: 
    secs: 1561863692
    nsecs: 219089019
  frame_id: "ti_mmwave"
point_id: 12
x: 2.767578125
y: -0.08984375
z: 0.875
range: 3.09396481514
velocity: 0.0
doppler_bin: 8
bearing: -1.85933709145
intensity: 31.3097667694
---
header: 
  seq: 101176
  stamp: 
    secs: 1561863692
    nsecs: 219102503
  frame_id: "ti_mmwave"
point_id: 13
x: 4.39453125
y: -0.142578125
z: 1.134765625
range: 4.83704376221
velocity: 0.0
doppler_bin: 8
bearing: -1.8582777977
intensity: 28.1624126434
---
header: 
  seq: 101177
  stamp: 
    secs: 1561863692
    nsecs: 219115863
  frame_id: "ti_mmwave"
point_id: 14
x: 4.40234375
y: -0.142578125
z: 1.26171875
range: 4.88062095642
velocity: 0.0
doppler_bin: 8
bearing: -1.85498249531
intensity: 31.4144973755
---
header: 
  seq: 101178
  stamp: 
    secs: 1561863692
    nsecs: 219129991
  frame_id: "ti_mmwave"
point_id: 15
x: 4.4296875
y: -0.14453125
z: 1.3125
range: 4.9241976738
velocity: 0.0
doppler_bin: 8
bearing: -1.86877608299
intensity: 30.979511261
---
header: 
  seq: 101179
  stamp: 
    secs: 1561863692
    nsecs: 219144912
  frame_id: "ti_mmwave"
point_id: 16
x: 4.818359375
y: -0.154296875
z: 0.923828125
range: 5.22923660278
velocity: 0.0
doppler_bin: 8
bearing: -1.83413887024
intensity: 29.8091201782
---
header: 
  seq: 101180
  stamp: 
    secs: 1561863692
    nsecs: 219159474
  frame_id: "ti_mmwave"
point_id: 17
x: 4.8828125
y: -0.46484375
z: 0.669921875
range: 5.27281332016
velocity: 0.0
doppler_bin: 8
bearing: -5.43816900253
intensity: 30.9829750061
---
header: 
  seq: 101181
  stamp: 
    secs: 1561863692
    nsecs: 219177286
  frame_id: "ti_mmwave"
point_id: 18
x: 4.951171875
y: -0.623046875
z: 0.10546875
range: 5.31639051437
velocity: 0.0
doppler_bin: 8
bearing: -7.17230129242
intensity: 29.7589111328
---
header: 
  seq: 101182
  stamp: 
    secs: 1561863692
    nsecs: 219238662
  frame_id: "ti_mmwave"
point_id: 19
x: 0.01171875
y: 0.03125
z: 0.0234375
range: 0.0435769706964
velocity: 0.0
doppler_bin: 8
bearing: 69.4439544678
intensity: 29.5133743286
---
header: 
  seq: 101183
  stamp: 
    secs: 1561863692
    nsecs: 219255374
  frame_id: "ti_mmwave"
point_id: 20
x: 0.0390625
y: -0.033203125
z: 0.0625
range: 0.0871539413929
velocity: 0.0
doppler_bin: 8
bearing: -40.3645362854
intensity: 30.2407493591
---
header: 
  seq: 101184
  stamp: 
    secs: 1561863692
    nsecs: 219270516
  frame_id: "ti_mmwave"
point_id: 21
x: 0.05078125
y: -0.04296875
z: 0.103515625
range: 0.130730912089
velocity: 0.0
doppler_bin: 8
bearing: -40.2363586426
intensity: 29.122220993
---
header: 
  seq: 101185
  stamp: 
    secs: 1561863692
    nsecs: 219286446
  frame_id: "ti_mmwave"
point_id: 23
x: 4.88671875
y: -0.154296875
z: 0.77734375
range: 5.27281332016
velocity: 0.0
doppler_bin: 8
bearing: -1.80849850178
intensity: 30.9656238556
---
header: 
  seq: 101186
  stamp: 
    secs: 1561863692
    nsecs: 220308958
  frame_id: "ti_mmwave"
point_id: 0
x: 0.01171875
y: -0.0390625
z: -0.0078125
range: 0.0435769706964
velocity: 0.0
doppler_bin: 8
bearing: -73.3007583618
intensity: 30.9201850891
---
header: 
  seq: 101187
  stamp: 
    secs: 1561863692
    nsecs: 220389382
  frame_id: "ti_mmwave"
point_id: 1
x: 0.017578125
y: -0.080078125
z: -0.009765625
range: 0.0871539413929
velocity: 0.0
doppler_bin: 8
bearing: -77.6192398071
intensity: 32.1245384216
---
header: 
  seq: 101188
  stamp: 
    secs: 1561863692
    nsecs: 220408033
  frame_id: "ti_mmwave"
point_id: 2
x: 0.041015625
y: -0.115234375
z: -0.009765625
range: 0.130730912089
velocity: 0.0
doppler_bin: 8
bearing: -70.4077224731
intensity: 30.3981056213
---
header: 
  seq: 101189
  stamp: 
    secs: 1561863692
    nsecs: 220423052
  frame_id: "ti_mmwave"
point_id: 3
x: 0.056640625
y: -0.154296875
z: 0.00390625
range: 0.174307882786
velocity: 0.0
doppler_bin: 8
bearing: -69.8423843384
intensity: 25.6110134125
---
header: 
  seq: 101190
  stamp: 
    secs: 1561863692
    nsecs: 220484645
  frame_id: "ti_mmwave"
point_id: 4
x: 0.0859375
y: -0.080078125
z: 1.26171875
range: 1.35088610649
velocity: 0.0
doppler_bin: 8
bearing: -42.9786338806
intensity: 23.2633590698
---
header: 
  seq: 101191
  stamp: 
    secs: 1561863692
    nsecs: 220499302
  frame_id: "ti_mmwave"
point_id: 5
x: 0.28125
y: -0.041015625
z: -1.27734375
range: 1.39446306229
velocity: 0.0
doppler_bin: 8
bearing: -8.29714488983
intensity: 24.727563858
---
header: 
  seq: 101192
  stamp: 
    secs: 1561863692
    nsecs: 220512895
  frame_id: "ti_mmwave"
point_id: 6
x: 0.5234375
y: -0.04296875
z: -1.244140625
range: 1.43804001808
velocity: 0.0
doppler_bin: 8
bearing: -4.69286251068
intensity: 23.0963020325
---
header: 
  seq: 101193
  stamp: 
    secs: 1561863692
    nsecs: 220525438
  frame_id: "ti_mmwave"
point_id: 7
x: 0.568359375
y: -0.04296875
z: -1.26953125
range: 1.48161697388
velocity: 0.0
doppler_bin: 8
bearing: -4.32341527939
intensity: 21.7318630219
---
header: 
  seq: 101194
  stamp: 
    secs: 1561863692
    nsecs: 220538312
  frame_id: "ti_mmwave"
point_id: 8
x: 2.283203125
y: -0.142578125
z: -0.115234375
range: 2.44031047821
velocity: 0.0
doppler_bin: 8
bearing: -3.57328295708
intensity: 26.2324924469
---
header: 
  seq: 101195
  stamp: 
    secs: 1561863692
    nsecs: 220555682
  frame_id: "ti_mmwave"
point_id: 9
x: 2.3203125
y: -0.146484375
z: -0.173828125
range: 2.48388743401
velocity: 0.0
doppler_bin: 8
bearing: -3.61236357689
intensity: 28.6153450012
---
header: 
  seq: 101196
  stamp: 
    secs: 1561863692
    nsecs: 220582947
  frame_id: "ti_mmwave"
point_id: 10
x: 2.37109375
y: -0.07421875
z: -0.0703125
range: 2.5274643898
velocity: 0.0
doppler_bin: 8
bearing: -1.79285740852
intensity: 27.032913208
---
header: 
  seq: 101197
  stamp: 
    secs: 1561863692
    nsecs: 220631238
  frame_id: "ti_mmwave"
point_id: 11
x: 2.61328125
y: -0.17578125
z: 1.052734375
range: 3.00681090355
velocity: 0.0
doppler_bin: 8
bearing: -3.84817934036
intensity: 29.4250411987
---
header: 
  seq: 101198
  stamp: 
    secs: 1561863692
    nsecs: 220646738
  frame_id: "ti_mmwave"
point_id: 12
x: 2.69921875
y: -0.08984375
z: 0.953125
range: 3.05038785934
velocity: 0.0
doppler_bin: 8
bearing: -1.90639162064
intensity: 32.4204406738
---
header: 
  seq: 101199
  stamp: 
    secs: 1561863692
    nsecs: 220661859
  frame_id: "ti_mmwave"
point_id: 13
x: 2.783203125
y: -0.08984375
z: 0.826171875
range: 3.09396481514
velocity: 0.0
doppler_bin: 8
bearing: -1.84890592098
intensity: 31.3545074463
---
header: 
  seq: 101200
  stamp: 
    secs: 1561863692
    nsecs: 220677295
  frame_id: "ti_mmwave"
point_id: 14
x: 4.3984375
y: -0.142578125
z: 1.123046875
range: 4.83704376221
velocity: 0.0
doppler_bin: 8
bearing: -1.8566287756
intensity: 28.1157493591
---
header: 
  seq: 101201
  stamp: 
    secs: 1561863692
    nsecs: 220703056
  frame_id: "ti_mmwave"
point_id: 15
x: 4.396484375
y: -0.142578125
z: 1.28125
range: 4.88062095642
velocity: 0.0
doppler_bin: 8
bearing: -1.85745286942
intensity: 31.3576850891
---
header: 
  seq: 101202
  stamp: 
    secs: 1561863692
    nsecs: 220760937
  frame_id: "ti_mmwave"
point_id: 16
x: 4.41796875
y: -0.14453125
z: 1.349609375
range: 4.9241976738
velocity: 0.0
doppler_bin: 8
bearing: -1.87372946739
intensity: 30.8813610077
---
header: 
  seq: 101203
  stamp: 
    secs: 1561863692
    nsecs: 220779337
