header: 
  seq: 372214
  stamp: 
    secs: 1561866686
    nsecs: 786937235
  frame_id: "ti_mmwave"
point_id: 0
x: 0.01171875
y: -0.0390625
z: -0.0078125
range: 0.0435769706964
velocity: 0.0
doppler_bin: 8
bearing: -73.3007583618
intensity: 30.6557979584
---
header: 
  seq: 372215
  stamp: 
    secs: 1561866686
    nsecs: 786986637
  frame_id: "ti_mmwave"
point_id: 1
x: 0.017578125
y: -0.080078125
z: -0.0078125
range: 0.0871539413929
velocity: 0.0
doppler_bin: 8
bearing: -77.6192398071
intensity: 31.9228858948
---
header: 
  seq: 372216
  stamp: 
    secs: 1561866686
    nsecs: 786993820
  frame_id: "ti_mmwave"
point_id: 2
x: 0.029296875
y: -0.119140625
z: -0.005859375
range: 0.130730912089
velocity: 0.0
doppler_bin: 8
bearing: -76.1849746704
intensity: 30.1535968781
---
header: 
  seq: 372217
  stamp: 
    secs: 1561866686
    nsecs: 786999845
  frame_id: "ti_mmwave"
point_id: 3
x: 0.056640625
y: -0.154296875
z: 0.0078125
range: 0.174307882786
velocity: 0.0
doppler_bin: 8
bearing: -69.8423843384
intensity: 25.4777469635
---
header: 
  seq: 372218
  stamp: 
    secs: 1561866686
    nsecs: 787005955
  frame_id: "ti_mmwave"
point_id: 4
x: 0.1015625
y: -0.080078125
z: 1.26171875
range: 1.35088610649
velocity: 0.0
doppler_bin: 8
bearing: -38.2544212341
intensity: 23.138671875
---
header: 
  seq: 372219
  stamp: 
    secs: 1561866686
    nsecs: 787012580
  frame_id: "ti_mmwave"
point_id: 6
x: 0.419921875
y: -0.083984375
z: -1.279296875
range: 1.43804001808
velocity: 0.0
doppler_bin: 8
bearing: -11.3099327087
intensity: 23.0749607086
---
header: 
  seq: 372220
  stamp: 
    secs: 1561866686
    nsecs: 787020568
  frame_id: "ti_mmwave"
point_id: 7
x: 0.5703125
y: -0.04296875
z: -1.267578125
range: 1.48161697388
velocity: 0.0
doppler_bin: 8
bearing: -4.30866527557
intensity: 21.7026176453
---
header: 
  seq: 372221
  stamp: 
    secs: 1561866686
    nsecs: 787025915
  frame_id: "ti_mmwave"
point_id: 8
x: 1.787109375
y: -0.0
z: -0.22265625
range: 1.91738677025
velocity: 0.0
doppler_bin: 8
bearing: -0.0
intensity: 29.8227119446
---
header: 
  seq: 372222
  stamp: 
    secs: 1561866686
    nsecs: 787031360
  frame_id: "ti_mmwave"
point_id: 9
x: 1.826171875
y: -0.0
z: -0.234375
range: 1.96096372604
velocity: 0.0
doppler_bin: 8
bearing: -0.0
intensity: 30.0216598511
---
header: 
  seq: 372223
  stamp: 
    secs: 1561866686
    nsecs: 787036702
  frame_id: "ti_mmwave"
point_id: 10
x: 1.875
y: -0.0
z: -0.154296875
range: 2.00454068184
velocity: 0.0
doppler_bin: 8
bearing: -0.0
intensity: 25.7634143829
---
header: 
  seq: 372224
  stamp: 
    secs: 1561866686
    nsecs: 787041770
  frame_id: "ti_mmwave"
point_id: 11
x: 2.6015625
y: -0.17578125
z: 1.08203125
range: 3.00681090355
velocity: 0.0
doppler_bin: 8
bearing: -3.86546111107
intensity: 28.9652614594
---
header: 
  seq: 372225
  stamp: 
    secs: 1561866686
    nsecs: 787047651
  frame_id: "ti_mmwave"
point_id: 12
x: 2.65625
y: -0.1796875
z: 1.056640625
range: 3.05038785934
velocity: 0.0
doppler_bin: 8
bearing: -3.86999511719
intensity: 32.1616592407
---
header: 
  seq: 372226
  stamp: 
    secs: 1561866686
    nsecs: 787053115
  frame_id: "ti_mmwave"
point_id: 13
x: 2.75390625
y: -0.08984375
z: 0.91796875
range: 3.09396481514
velocity: 0.0
doppler_bin: 8
bearing: -1.86856126785
intensity: 31.172712326
---
header: 
  seq: 372227
  stamp: 
    secs: 1561866686
    nsecs: 787060667
  frame_id: "ti_mmwave"
point_id: 15
x: 0.041015625
y: -0.033203125
z: 0.0625
range: 0.0871539413929
velocity: 0.0
doppler_bin: 8
bearing: -38.9909973145
intensity: 30.1072387695
---
header: 
  seq: 372228
  stamp: 
    secs: 1561866686
    nsecs: 787084623
  frame_id: "ti_mmwave"
point_id: 16
x: 0.044921875
y: -0.046875
z: 0.103515625
range: 0.130730912089
velocity: 0.0
doppler_bin: 8
bearing: -46.218875885
intensity: 29.0145835876
---
header: 
  seq: 372229
  stamp: 
    secs: 1561866686
    nsecs: 787598314
  frame_id: "ti_mmwave"
point_id: 0
x: 0.01171875
y: -0.0390625
z: -0.0078125
range: 0.0435769706964
velocity: 0.0
doppler_bin: 8
bearing: -73.3007583618
intensity: 30.6520614624
---
header: 
  seq: 372230
  stamp: 
    secs: 1561866686
    nsecs: 787639856
  frame_id: "ti_mmwave"
point_id: 1
x: 0.017578125
y: -0.080078125
z: -0.0078125
range: 0.0871539413929
velocity: 0.0
doppler_bin: 8
bearing: -77.6192398071
intensity: 31.9200954437
---
header: 
  seq: 372231
  stamp: 
    secs: 1561866686
    nsecs: 787651437
  frame_id: "ti_mmwave"
point_id: 2
x: 0.029296875
y: -0.119140625
z: -0.005859375
range: 0.130730912089
velocity: 0.0
doppler_bin: 8
bearing: -76.1849746704
intensity: 30.1494026184
---
header: 
  seq: 372232
  stamp: 
    secs: 1561866686
    nsecs: 787660693
  frame_id: "ti_mmwave"
point_id: 3
x: 0.056640625
y: -0.154296875
z: 0.005859375
range: 0.174307882786
velocity: 0.0
doppler_bin: 8
bearing: -69.8423843384
intensity: 25.4654273987
---
header: 
  seq: 372233
  stamp: 
    secs: 1561866686
    nsecs: 787670456
  frame_id: "ti_mmwave"
point_id: 4
x: 0.125
y: -0.080078125
z: 1.259765625
range: 1.35088610649
velocity: 0.0
doppler_bin: 8
bearing: -32.6446380615
intensity: 23.1597042084
---
header: 
  seq: 372234
  stamp: 
    secs: 1561866686
    nsecs: 787680799
  frame_id: "ti_mmwave"
point_id: 6
x: 0.42578125
y: -0.083984375
z: -1.27734375
range: 1.43804001808
velocity: 0.0
doppler_bin: 8
bearing: -11.1582231522
intensity: 23.0963020325
---
header: 
  seq: 372235
  stamp: 
    secs: 1561866686
    nsecs: 787690226
  frame_id: "ti_mmwave"
point_id: 7
x: 0.560546875
y: -0.04296875
z: -1.271484375
range: 1.48161697388
velocity: 0.0
doppler_bin: 8
bearing: -4.38343858719
intensity: 21.7026176453
---
header: 
  seq: 372236
  stamp: 
    secs: 1561866686
    nsecs: 787699995
  frame_id: "ti_mmwave"
point_id: 8
x: 1.7890625
y: -0.0
z: -0.189453125
range: 1.91738677025
velocity: 0.0
doppler_bin: 8
bearing: -0.0
intensity: 28.2151355743
---
header: 
  seq: 372237
  stamp: 
    secs: 1561866686
    nsecs: 787707462
  frame_id: "ti_mmwave"
point_id: 9
x: 1.830078125
y: -0.0
z: -0.189453125
range: 1.96096372604
velocity: 0.0
doppler_bin: 8
bearing: -0.0
intensity: 28.7098884583
---
header: 
  seq: 372238
  stamp: 
    secs: 1561866686
    nsecs: 787715583
  frame_id: "ti_mmwave"
point_id: 10
x: 2.623046875
y: -0.17578125
z: 1.029296875
range: 3.00681090355
velocity: 0.0
doppler_bin: 8
bearing: -3.83389568329
intensity: 28.9376182556
---
header: 
  seq: 372239
  stamp: 
    secs: 1561866686
    nsecs: 787724601
  frame_id: "ti_mmwave"
point_id: 11
x: 2.662109375
y: -0.1796875
z: 1.0390625
range: 3.05038785934
velocity: 0.0
doppler_bin: 8
bearing: -3.86150240898
intensity: 32.1616592407
---
header: 
  seq: 372240
  stamp: 
    secs: 1561866686
    nsecs: 787735218
  frame_id: "ti_mmwave"
point_id: 12
x: 2.759765625
y: -0.08984375
z: 0.8984375
range: 3.09396481514
velocity: 0.0
doppler_bin: 8
bearing: -1.86459684372
intensity: 31.0619087219
---
header: 
  seq: 372241
  stamp: 
    secs: 1561866686
    nsecs: 787746175
  frame_id: "ti_mmwave"
point_id: 14
x: 0.041015625
y: -0.033203125
z: 0.0625
range: 0.0871539413929
velocity: 0.0
doppler_bin: 8
bearing: -38.9909973145
intensity: 30.1114730835
---
header: 
  seq: 372242
  stamp: 
    secs: 1561866686
    nsecs: 787766070
  frame_id: "ti_mmwave"
point_id: 15
x: 0.044921875
y: -0.046875
z: 0.103515625
range: 0.130730912089
velocity: 0.0
doppler_bin: 8
bearing: -46.218875885
intensity: 29.020029068
---
header: 
  seq: 372243
  stamp: 
    secs: 1561866686
    nsecs: 846878157
  frame_id: "ti_mmwave"
point_id: 0
x: 0.01171875
y: -0.0390625
z: -0.0078125
range: 0.0435769706964
velocity: 0.0
doppler_bin: 8
bearing: -73.3007583618
intensity: 30.6557979584
---
header: 
  seq: 372244
  stamp: 
    secs: 1561866686
    nsecs: 846954607
  frame_id: "ti_mmwave"
point_id: 1
x: 0.017578125
y: -0.080078125
z: -0.0078125
range: 0.0871539413929
velocity: 0.0
doppler_bin: 8
bearing: -77.6192398071
intensity: 31.9200954437
---
header: 
  seq: 372245
  stamp: 
    secs: 1561866686
    nsecs: 846965782
  frame_id: "ti_mmwave"
point_id: 2
x: 0.029296875
y: -0.119140625
z: -0.005859375
range: 0.130730912089
velocity: 0.0
doppler_bin: 8
bearing: -76.1849746704
intensity: 30.1494026184
---
header: 
  seq: 372246
  stamp: 
    secs: 1561866686
    nsecs: 846977081
  frame_id: "ti_mmwave"
point_id: 3
x: 0.056640625
y: -0.154296875
z: 0.005859375
range: 0.174307882786
velocity: 0.0
doppler_bin: 8
bearing: -69.8423843384
intensity: 25.4654273987
---
header: 
  seq: 372247
  stamp: 
    secs: 1561866686
    nsecs: 846985536
  frame_id: "ti_mmwave"
point_id: 4
x: 0.1484375
y: -0.080078125
z: 1.255859375
range: 1.35088610649
velocity: 0.0
doppler_bin: 8
bearing: -28.3456954956
intensity: 23.138671875
---
header: 
  seq: 372248
  stamp: 
    secs: 1561866686
    nsecs: 846995780
  frame_id: "ti_mmwave"
point_id: 6
x: 0.431640625
y: -0.083984375
z: -1.275390625
range: 1.43804001808
velocity: 0.0
doppler_bin: 8
bearing: -11.0104799271
intensity: 23.0749607086
---
header: 
  seq: 372249
  stamp: 
    secs: 1561866686
    nsecs: 847004174
  frame_id: "ti_mmwave"
point_id: 7
x: 0.578125
y: -0.04296875
z: -1.263671875
range: 1.48161697388
velocity: 0.0
doppler_bin: 8
bearing: -4.25065469742
intensity: 21.7026176453
---
header: 
  seq: 372250
  stamp: 
    secs: 1561866686
    nsecs: 847012203
  frame_id: "ti_mmwave"
point_id: 8
x: 1.791015625
y: -0.0
z: -0.177734375
range: 1.91738677025
velocity: 0.0
doppler_bin: 8
bearing: -0.0
intensity: 30.1199302673
---
header: 
  seq: 372251
  stamp: 
    secs: 1561866686
    nsecs: 847020782
  frame_id: "ti_mmwave"
point_id: 9
x: 1.826171875
y: 0.056640625
z: -0.224609375
range: 1.96096372604
velocity: 0.0
doppler_bin: 8
bearing: 1.77651870251
intensity: 31.7172641754
---
header: 
  seq: 372252
  stamp: 
    secs: 1561866686
    nsecs: 847040254
  frame_id: "ti_mmwave"
point_id: 10
x: 1.86328125
y: 0.1171875
z: -0.234375
range: 2.00454068184
velocity: 0.0
doppler_bin: 8
bearing: 3.59876823425
intensity: 30.8098697662
---
header: 
  seq: 372253
  stamp: 
    secs: 1561866686
    nsecs: 847058620
  frame_id: "ti_mmwave"
point_id: 11
x: 1.9140625
y: 0.12109375
z: -0.146484375
range: 2.04811763763
velocity: 0.0
doppler_bin: 8
bearing: 3.6200106144
intensity: 28.182258606
---
header: 
  seq: 372254
  stamp: 
    secs: 1561866686
    nsecs: 847117467
  frame_id: "ti_mmwave"
point_id: 12
x: 2.611328125
y: -0.17578125
z: 1.05859375
range: 3.00681090355
velocity: 0.0
doppler_bin: 8
bearing: -3.85104894638
intensity: 29.0091304779
---
header: 
  seq: 372255
  stamp: 
    secs: 1561866686
    nsecs: 847133565
  frame_id: "ti_mmwave"
point_id: 13
x: 2.65234375
y: -0.1796875
z: 1.064453125
range: 3.05038785934
velocity: 0.0
doppler_bin: 8
bearing: -3.87567687035
intensity: 32.1879806519
---
header: 
  seq: 372256
  stamp: 
    secs: 1561866686
    nsecs: 847145403
  frame_id: "ti_mmwave"
point_id: 14
x: 2.744140625
y: -0.08984375
z: 0.94921875
range: 3.09396481514
velocity: 0.0
doppler_bin: 8
bearing: -1.87520623207
intensity: 31.119342804
---
header: 
  seq: 372257
  stamp: 
    secs: 1561866686
    nsecs: 847160324
  frame_id: "ti_mmwave"
point_id: 16
x: 0.041015625
y: -0.033203125
z: 0.0625
range: 0.0871539413929
velocity: 0.0
doppler_bin: 8
bearing: -38.9909973145
intensity: 30.1114730835
---
header: 
  seq: 372258
  stamp: 
    secs: 1561866686
    nsecs: 847169351
  frame_id: "ti_mmwave"
point_id: 17
x: 0.044921875
y: -0.046875
z: 0.103515625
range: 0.130730912089
velocity: 0.0
doppler_bin: 8
bearing: -46.218875885
intensity: 29.020029068
---
header: 
  seq: 372259
  stamp: 
    secs: 1561866686
    nsecs: 848155071
  frame_id: "ti_mmwave"
point_id: 0
x: 0.01171875
y: -0.0390625
z: -0.0078125
range: 0.0435769706964
velocity: 0.0
doppler_bin: 8
bearing: -73.3007583618
intensity: 30.6557979584
---
header: 
  seq: 372260
  stamp: 
    secs: 1561866686
    nsecs: 848215127
  frame_id: "ti_mmwave"
point_id: 1
x: 0.017578125
y: -0.080078125
z: -0.0078125
range: 0.0871539413929
velocity: 0.0
doppler_bin: 8
bearing: -77.6192398071
intensity: 31.9228858948
---
header: 
  seq: 372261
  stamp: 
    secs: 1561866686
    nsecs: 848233574
  frame_id: "ti_mmwave"
point_id: 2
x: 0.029296875
y: -0.119140625
z: -0.005859375
range: 0.130730912089
velocity: 0.0
doppler_bin: 8
bearing: -76.1849746704
intensity: 30.1494026184
---
header: 
  seq: 372262
  stamp: 
    secs: 1561866686
    nsecs: 848248949
  frame_id: "ti_mmwave"
point_id: 3
x: 0.056640625
y: -0.154296875
z: 0.005859375
range: 0.174307882786
velocity: 0.0
doppler_bin: 8
bearing: -69.8423843384
intensity: 25.4777469635
---
header: 
  seq: 372263
  stamp: 
    secs: 1561866686
    nsecs: 848340390
  frame_id: "ti_mmwave"
point_id: 4
x: 0.162109375
y: -0.080078125
z: 1.255859375
range: 1.35088610649
velocity: 0.0
doppler_bin: 8
bearing: -26.2882633209
intensity: 23.138671875
---
header: 
  seq: 372264
  stamp: 
    secs: 1561866686
    nsecs: 848363418
  frame_id: "ti_mmwave"
point_id: 6
x: 0.423828125
y: -0.083984375
z: -1.279296875
range: 1.43804001808
velocity: 0.0
doppler_bin: 8
bearing: -11.2083444595
intensity: 23.0963020325
---
header: 
  seq: 372265
  stamp: 
    secs: 1561866686
    nsecs: 848371752
  frame_id: "ti_mmwave"
point_id: 7
x: 0.578125
y: -0.04296875
z: -1.263671875
range: 1.48161697388
velocity: 0.0
doppler_bin: 8
bearing: -4.25065469742
intensity: 21.7026176453
---
header: 
  seq: 372266
  stamp: 
    secs: 1561866686
    nsecs: 848379824
  frame_id: "ti_mmwave"
point_id: 8
x: 1.794921875
y: 0.11328125
z: -0.068359375
range: 1.91738677025
velocity: 0.0
doppler_bin: 8
bearing: 3.61126613617
intensity: 27.481880188
---
header: 
  seq: 372267
  stamp: 
    secs: 1561866686
    nsecs: 848399979
  frame_id: "ti_mmwave"
point_id: 9
x: 1.837890625
y: 0.056640625
z: -0.103515625
range: 1.96096372604
velocity: 0.0
doppler_bin: 8
bearing: 1.76519858837
intensity: 31.1527767181
---
header: 
  seq: 372268
  stamp: 
    secs: 1561866686
    nsecs: 848416392
  frame_id: "ti_mmwave"
point_id: 10
x: 1.87109375
y: 0.05859375
z: -0.1953125
range: 2.00454068184
velocity: 0.0
doppler_bin: 8
bearing: 1.7936450243
intensity: 31.4457416534
---
header: 
  seq: 372269
  stamp: 
    secs: 1561866686
    nsecs: 848430466
  frame_id: "ti_mmwave"
point_id: 11
x: 1.888671875
y: 0.060546875
z: -0.357421875
range: 2.04811763763
velocity: 0.0
doppler_bin: 8
bearing: 1.83615422249
intensity: 29.1487178802
---
header: 
  seq: 372270
  stamp: 
    secs: 1561866686
    nsecs: 848444888
  frame_id: "ti_mmwave"
point_id: 12
x: 2.6171875
y: -0.17578125
z: 1.04296875
range: 3.00681090355
velocity: 0.0
doppler_bin: 8
bearing: -3.84245300293
intensity: 28.9597473145
---
header: 
  seq: 372271
  stamp: 
    secs: 1561866686
    nsecs: 848459897
  frame_id: "ti_mmwave"
point_id: 13
x: 2.666015625
y: -0.1796875
z: 1.029296875
range: 3.05038785934
velocity: 0.0
doppler_bin: 8
bearing: -3.85586214066
intensity: 32.1245384216
---
header: 
  seq: 372272
  stamp: 
    secs: 1561866686
    nsecs: 848477383
  frame_id: "ti_mmwave"
point_id: 14
x: 2.765625
y: -0.08984375
z: 0.8828125
range: 3.09396481514
velocity: 0.0
doppler_bin: 8
bearing: -1.8606492281
intensity: 31.0311927795
---
header: 
  seq: 372273
  stamp: 
    secs: 1561866686
    nsecs: 848572057
  frame_id: "ti_mmwave"
point_id: 16
x: 0.041015625
y: -0.033203125
z: 0.0625
range: 0.0871539413929
velocity: 0.0
doppler_bin: 8
bearing: -38.9909973145
intensity: 30.1072387695
---
header: 
  seq: 372274
  stamp: 
    secs: 1561866686
    nsecs: 848588252
  frame_id: "ti_mmwave"
point_id: 17
x: 0.044921875
y: -0.046875
z: 0.103515625
range: 0.130730912089
velocity: 0.0
doppler_bin: 8
bearing: -46.218875885
intensity: 29.0145835876
---
header: 
  seq: 372275
  stamp: 
    secs: 1561866686
    nsecs: 907188496
  frame_id: "ti_mmwave"
point_id: 0
x: 0.01171875
y: -0.0390625
z: -0.0078125
range: 0.0435769706964
velocity: 0.0
doppler_bin: 8
bearing: -73.3007583618
intensity: 30.6520614624
---
header: 
  seq: 372276
  stamp: 
    secs: 1561866686
    nsecs: 907267217
  frame_id: "ti_mmwave"
point_id: 1
x: 0.017578125
y: -0.080078125
z: -0.0078125
range: 0.0871539413929
velocity: 0.0
doppler_bin: 8
bearing: -77.6192398071
intensity: 31.9228858948
---
header: 
  seq: 372277
  stamp: 
    secs: 1561866686
    nsecs: 907278209
  frame_id: "ti_mmwave"
point_id: 2
x: 0.029296875
y: -0.119140625
z: -0.005859375
range: 0.130730912089
velocity: 0.0
doppler_bin: 8
bearing: -76.1849746704
intensity: 30.1535968781
---
header: 
  seq: 372278
  stamp: 
    secs: 1561866686
    nsecs: 907286455
  frame_id: "ti_mmwave"
point_id: 3
x: 0.056640625
y: -0.154296875
z: 0.0078125
range: 0.174307882786
velocity: 0.0
doppler_bin: 8
bearing: -69.8423843384
intensity: 25.4777469635
---
header: 
  seq: 372279
  stamp: 
    secs: 1561866686
    nsecs: 907297292
  frame_id: "ti_mmwave"
point_id: 4
x: 0.15625
y: -0.080078125
z: 1.255859375
range: 1.35088610649
velocity: 0.0
doppler_bin: 8
bearing: -27.1351394653
intensity: 23.1175384521
---
header: 
  seq: 372280
  stamp: 
    secs: 1561866686
    nsecs: 907305663
  frame_id: "ti_mmwave"
point_id: 5
x: 0.05859375
y: -0.08203125
z: 1.3046875
range: 1.39446306229
velocity: 0.0
doppler_bin: 8
bearing: -54.4623222351
intensity: 24.6239795685
---
header: 
  seq: 372281
  stamp: 
    secs: 1561866686
    nsecs: 907313621
  frame_id: "ti_mmwave"
point_id: 6
x: 0.419921875
y: -0.083984375
z: -1.279296875
range: 1.43804001808
velocity: 0.0
doppler_bin: 8
bearing: -11.3099327087
intensity: 23.0749607086
---
header: 
  seq: 372282
  stamp: 
    secs: 1561866686
    nsecs: 907321518
  frame_id: "ti_mmwave"
point_id: 7
x: 1.794921875
y: -0.0
z: -0.13671875
range: 1.91738677025
velocity: 0.0
doppler_bin: 8
bearing: -0.0
intensity: 27.5127906799
---
header: 
  seq: 372283
  stamp: 
    secs: 1561866686
    nsecs: 907329413
  frame_id: "ti_mmwave"
point_id: 8
x: 1.83984375
y: -0.0
z: -0.03515625
range: 1.96096372604
velocity: 0.0
doppler_bin: 8
bearing: -0.0
intensity: 30.1072387695
---
header: 
  seq: 372284
  stamp: 
    secs: 1561866686
    nsecs: 907338549
  frame_id: "ti_mmwave"
point_id: 9
x: 2.609375
y: -0.17578125
z: 1.05859375
range: 3.00681090355
velocity: 0.0
doppler_bin: 8
bearing: -3.85392260551
intensity: 28.9431610107
---
header: 
  seq: 372285
  stamp: 
    secs: 1561866686
    nsecs: 907347343
  frame_id: "ti_mmwave"
point_id: 10
x: 2.662109375
y: -0.1796875
z: 1.041015625
range: 3.05038785934
velocity: 0.0
doppler_bin: 8
bearing: -3.86150240898
intensity: 32.1906051636
---
header: 
  seq: 372286
  stamp: 
    secs: 1561866686
    nsecs: 907356501
  frame_id: "ti_mmwave"
point_id: 11
x: 2.76171875
y: -0.08984375
z: 0.89453125
range: 3.09396481514
velocity: 0.0
doppler_bin: 8
bearing: -1.86327898502
intensity: 31.1527767181
---
header: 
  seq: 372287
  stamp: 
    secs: 1561866686
    nsecs: 907364994
  frame_id: "ti_mmwave"
point_id: 12
x: 1.880859375
y: 0.05859375
z: 0.04296875
range: 2.00454068184
velocity: -0.614668667316
doppler_bin: 7
bearing: 1.78433823586
intensity: 29.4890174866
---
header: 
  seq: 372288
  stamp: 
    secs: 1561866686
    nsecs: 907373121
  frame_id: "ti_mmwave"
point_id: 13
x: 1.904296875
y: 0.060546875
z: 0.255859375
range: 2.04811763763
velocity: -0.614668667316
doppler_bin: 7
bearing: 1.82109856606
intensity: 27.6042251587
---
header: 
  seq: 372289
  stamp: 
    secs: 1561866686
    nsecs: 907383364
  frame_id: "ti_mmwave"
point_id: 15
x: 0.041015625
y: -0.033203125
z: 0.0625
range: 0.0871539413929
velocity: 0.0
doppler_bin: 8
bearing: -38.9909973145
intensity: 30.1114730835
---
header: 
  seq: 372290
  stamp: 
    secs: 1561866686
    nsecs: 907391643
  frame_id: "ti_mmwave"
point_id: 16
x: 0.044921875
y: -0.046875
z: 0.103515625
range: 0.130730912089
velocity: 0.0
doppler_bin: 8
bearing: -46.218875885
intensity: 29.020029068
---
header: 
  seq: 372291
  stamp: 
    secs: 1561866686
    nsecs: 908526401
  frame_id: "ti_mmwave"
point_id: 0
x: 0.01171875
y: -0.0390625
z: -0.0078125
range: 0.0435769706964
velocity: 0.0
doppler_bin: 8
bearing: -73.3007583618
intensity: 30.6520614624
---
header: 
  seq: 372292
  stamp: 
    secs: 1561866686
    nsecs: 908597054
  frame_id: "ti_mmwave"
point_id: 1
x: 0.017578125
y: -0.080078125
z: -0.0078125
range: 0.0871539413929
velocity: 0.0
doppler_bin: 8
bearing: -77.6192398071
intensity: 31.9228858948
---
header: 
  seq: 372293
  stamp: 
    secs: 1561866686
    nsecs: 908622156
  frame_id: "ti_mmwave"
point_id: 2
x: 0.029296875
y: -0.119140625
z: -0.005859375
range: 0.130730912089
velocity: 0.0
doppler_bin: 8
bearing: -76.1849746704
intensity: 30.1494026184
---
header: 
  seq: 372294
  stamp: 
    secs: 1561866686
    nsecs: 908700411
  frame_id: "ti_mmwave"
point_id: 3
x: 0.056640625
y: -0.154296875
z: 0.005859375
range: 0.174307882786
velocity: 0.0
doppler_bin: 8
bearing: -69.8423843384
intensity: 25.4777469635
---
header: 
  seq: 372295
  stamp: 
    secs: 1561866686
    nsecs: 908718759
  frame_id: "ti_mmwave"
point_id: 4
x: 0.08984375
y: -0.080078125
z: 1.26171875
range: 1.35088610649
velocity: 0.0
doppler_bin: 8
bearing: -41.7107582092
intensity: 23.138671875
---
header: 
  seq: 372296
  stamp: 
    secs: 1561866686
    nsecs: 908733800
  frame_id: "ti_mmwave"
point_id: 6
x: 0.408203125
y: -0.083984375
z: -1.283203125
range: 1.43804001808
velocity: 0.0
doppler_bin: 8
bearing: -11.6258993149
intensity: 23.138671875
---
header: 
  seq: 372297
  stamp: 
    secs: 1561866686
    nsecs: 908749763
  frame_id: "ti_mmwave"
point_id: 7
x: 0.556640625
y: -0.04296875
z: -1.2734375
range: 1.48161697388
velocity: 0.0
doppler_bin: 8
bearing: -4.41407871246
intensity: 21.7609119415
---
header: 
  seq: 372298
  stamp: 
    secs: 1561866686
    nsecs: 908794008
  frame_id: "ti_mmwave"
point_id: 8
x: 2.60546875
y: -0.17578125
z: 1.072265625
range: 3.00681090355
velocity: 0.0
doppler_bin: 8
bearing: -3.85968351364
intensity: 29.1169013977
---
header: 
  seq: 372299
  stamp: 
    secs: 1561866686
    nsecs: 908813925
  frame_id: "ti_mmwave"
point_id: 9
x: 2.658203125
y: -0.1796875
z: 1.05078125
range: 3.05038785934
velocity: 0.0
doppler_bin: 8
bearing: -3.86716008186
intensity: 32.240146637
---
header: 
  seq: 372300
  stamp: 
    secs: 1561866686
    nsecs: 908839788
  frame_id: "ti_mmwave"
point_id: 10
x: 2.755859375
y: -0.08984375
z: 0.9140625
range: 3.09396481514
velocity: 0.0
doppler_bin: 8
bearing: -1.86723792553
intensity: 31.2024478912
---
header: 
  seq: 372301
  stamp: 
    secs: 1561866686
    nsecs: 908863903
  frame_id: "ti_mmwave"
point_id: 11
x: 4.427734375
y: -0.142578125
z: 1.166015625
range: 4.88062095642
velocity: 0.0
doppler_bin: 8
bearing: -1.84435260296
intensity: 29.0525608063
---
header: 
  seq: 372302
  stamp: 
    secs: 1561866686
    nsecs: 908885080
  frame_id: "ti_mmwave"
point_id: 12
x: 4.470703125
y: -0.14453125
z: 1.166015625
range: 4.9241976738
velocity: 0.0
doppler_bin: 8
bearing: -1.8516433239
intensity: 28.5003318787
---
header: 
  seq: 372303
  stamp: 
    secs: 1561866686
    nsecs: 908904934
  frame_id: "ti_mmwave"
point_id: 14
x: 0.041015625
y: -0.033203125
z: 0.0625
range: 0.0871539413929
velocity: 0.0
doppler_bin: 8
bearing: -38.9909973145
intensity: 30.1114730835
---
header: 
  seq: 372304
  stamp: 
    secs: 1561866686
    nsecs: 908969256
  frame_id: "ti_mmwave"
point_id: 15
x: 0.046875
y: -0.046875
z: 0.103515625
range: 0.130730912089
velocity: 0.0
doppler_bin: 8
bearing: -45.0
intensity: 29.020029068
---
header: 
  seq: 372305
  stamp: 
    secs: 1561866686
    nsecs: 966990790
  frame_id: "ti_mmwave"
point_id: 0
x: 0.01171875
y: -0.0390625
z: -0.0078125
range: 0.0435769706964
velocity: 0.0
doppler_bin: 8
bearing: -73.3007583618
intensity: 30.6520614624
---
header: 
  seq: 372306
  stamp: 
    secs: 1561866686
    nsecs: 967063007
  frame_id: "ti_mmwave"
point_id: 1
x: 0.017578125
y: -0.080078125
z: -0.0078125
range: 0.0871539413929
velocity: 0.0
doppler_bin: 8
bearing: -77.6192398071
intensity: 31.9228858948
---
header: 
  seq: 372307
  stamp: 
    secs: 1561866686
    nsecs: 967073460
  frame_id: "ti_mmwave"
point_id: 2
x: 0.029296875
y: -0.119140625
z: -0.005859375
range: 0.130730912089
velocity: 0.0
doppler_bin: 8
bearing: -76.1849746704
intensity: 30.1494026184
---
header: 
  seq: 372308
  stamp: 
    secs: 1561866686
    nsecs: 967084240
  frame_id: "ti_mmwave"
point_id: 3
x: 0.056640625
y: -0.154296875
z: 0.005859375
range: 0.174307882786
velocity: 0.0
doppler_bin: 8
bearing: -69.8423843384
intensity: 25.4654273987
---
header: 
  seq: 372309
  stamp: 
    secs: 1561866686
    nsecs: 967092972
  frame_id: "ti_mmwave"
point_id: 4
x: 0.142578125
y: -0.080078125
z: 1.2578125
range: 1.35088610649
velocity: 0.0
doppler_bin: 8
bearing: -29.3204746246
intensity: 23.1175384521
---
header: 
  seq: 372310
  stamp: 
    secs: 1561866686
    nsecs: 967103098
  frame_id: "ti_mmwave"
point_id: 6
x: 0.41015625
y: -0.083984375
z: -1.283203125
range: 1.43804001808
velocity: 0.0
doppler_bin: 8
bearing: -11.5720338821
intensity: 23.1175384521
---
header: 
  seq: 372311
  stamp: 
    secs: 1561866686
    nsecs: 967111832
  frame_id: "ti_mmwave"
point_id: 7
x: 0.560546875
y: -0.04296875
z: -1.271484375
range: 1.48161697388
velocity: 0.0
doppler_bin: 8
bearing: -4.38343858719
intensity: 21.7609119415
---
header: 
  seq: 372312
  stamp: 
    secs: 1561866686
    nsecs: 967121786
  frame_id: "ti_mmwave"
point_id: 8
x: 1.787109375
y: 0.056640625
z: -0.205078125
range: 1.91738677025
velocity: 0.0
doppler_bin: 8
bearing: 1.81532406807
intensity: 29.1169013977
---
header: 
  seq: 372313
  stamp: 
    secs: 1561866686
    nsecs: 967132305
  frame_id: "ti_mmwave"
point_id: 9
x: 1.830078125
y: 0.056640625
z: -0.197265625
range: 1.96096372604
velocity: 0.0
doppler_bin: 8
bearing: 1.77272939682
intensity: 30.9236965179
---
header: 
  seq: 372314
  stamp: 
    secs: 1561866686
    nsecs: 967144673
  frame_id: "ti_mmwave"
point_id: 10
x: 1.857421875
y: 0.05859375
z: -0.291015625
range: 2.00454068184
velocity: 0.0
doppler_bin: 8
bearing: 1.80683863163
intensity: 29.8944988251
---
header: 
  seq: 372315
  stamp: 
    secs: 1561866686
    nsecs: 967158835
  frame_id: "ti_mmwave"
point_id: 11
x: 1.853515625
y: 0.060546875
z: -0.5078125
range: 2.04811763763
velocity: 0.0
doppler_bin: 8
bearing: 1.87095654011
intensity: 26.9548168182
---
header: 
  seq: 372316
  stamp: 
    secs: 1561866686
    nsecs: 967168269
  frame_id: "ti_mmwave"
point_id: 12
x: 2.615234375
y: -0.17578125
z: 1.046875
range: 3.00681090355
velocity: 0.0
doppler_bin: 8
bearing: -3.84531402588
intensity: 28.9872512817
---
header: 
  seq: 372317
  stamp: 
    secs: 1561866686
    nsecs: 967176518
  frame_id: "ti_mmwave"
point_id: 13
x: 2.666015625
y: -0.1796875
z: 1.03125
range: 3.05038785934
velocity: 0.0
doppler_bin: 8
bearing: -3.85586214066
intensity: 32.2167510986
---
header: 
  seq: 372318
  stamp: 
    secs: 1561866686
    nsecs: 967185011
  frame_id: "ti_mmwave"
point_id: 14
x: 2.763671875
y: -0.08984375
z: 0.888671875
range: 3.09396481514
velocity: 0.0
doppler_bin: 8
bearing: -1.8619633913
intensity: 31.205739975
---
header: 
  seq: 372319
  stamp: 
    secs: 1561866686
    nsecs: 967197153
  frame_id: "ti_mmwave"
point_id: 16
x: 0.041015625
y: -0.033203125
z: 0.0625
range: 0.0871539413929
velocity: 0.0
doppler_bin: 8
bearing: -38.9909973145
intensity: 30.1072387695
---
header: 
  seq: 372320
  stamp: 
    secs: 1561866686
    nsecs: 967222903
  frame_id: "ti_mmwave"
point_id: 17
x: 0.044921875
y: -0.046875
z: 0.103515625
range: 0.130730912089
velocity: 0.0
doppler_bin: 8
bearing: -46.218875885
intensity: 29.0145835876
---
header: 
  seq: 372321
  stamp: 
    secs: 1561866686
    nsecs: 968208265
  frame_id: "ti_mmwave"
point_id: 0
x: 0.01171875
y: -0.0390625
z: -0.0078125
range: 0.0435769706964
velocity: 0.0
doppler_bin: 8
bearing: -73.3007583618
intensity: 30.6595306396
---
header: 
  seq: 372322
  stamp: 
    secs: 1561866686
    nsecs: 968265757
  frame_id: "ti_mmwave"
point_id: 1
x: 0.017578125
y: -0.080078125
z: -0.0078125
range: 0.0871539413929
velocity: 0.0
doppler_bin: 8
bearing: -77.6192398071
intensity: 31.9228858948
---
header: 
  seq: 372323
  stamp: 
    secs: 1561866686
    nsecs: 968284548
  frame_id: "ti_mmwave"
point_id: 2
x: 0.029296875
y: -0.119140625
z: -0.005859375
range: 0.130730912089
velocity: 0.0
doppler_bin: 8
bearing: -76.1849746704
intensity: 30.1494026184
---
header: 
  seq: 372324
  stamp: 
    secs: 1561866686
    nsecs: 968298783
  frame_id: "ti_mmwave"
point_id: 3
x: 0.056640625
y: -0.154296875
z: 0.005859375
range: 0.174307882786
velocity: 0.0
doppler_bin: 8
bearing: -69.8423843384
intensity: 25.4654273987
---
header: 
  seq: 372325
  stamp: 
    secs: 1561866686
    nsecs: 968314995
  frame_id: "ti_mmwave"
point_id: 4
x: 0.083984375
y: -0.080078125
z: 1.263671875
range: 1.35088610649
velocity: 0.0
doppler_bin: 8
bearing: -43.6360702515
intensity: 23.138671875
---
header: 
  seq: 372326
  stamp: 
    secs: 1561866686
    nsecs: 968329244
  frame_id: "ti_mmwave"
point_id: 5
x: 0.025390625
y: -0.08203125
z: -1.306640625
range: 1.39446306229
velocity: 0.0
doppler_bin: 8
bearing: -72.8014526367
intensity: 24.6239795685
---
header: 
  seq: 372327
  stamp: 
    secs: 1561866686
    nsecs: 968342048
  frame_id: "ti_mmwave"
point_id: 6
x: 0.41796875
y: -0.083984375
z: -1.28125
range: 1.43804001808
velocity: 0.0
doppler_bin: 8
bearing: -11.3614110947
intensity: 23.0535144806
---
header: 
  seq: 372328
  stamp: 
    secs: 1561866686
    nsecs: 968354608
  frame_id: "ti_mmwave"
point_id: 7
x: 0.548828125
y: -0.04296875
z: -1.27734375
range: 1.48161697388
velocity: 0.0
doppler_bin: 8
bearing: -4.47665882111
intensity: 21.6731739044
---
header: 
  seq: 372329
  stamp: 
    secs: 1561866686
    nsecs: 968370638
  frame_id: "ti_mmwave"
point_id: 8
x: 2.607421875
y: -0.17578125
z: 1.068359375
range: 3.00681090355
velocity: 0.0
doppler_bin: 8
bearing: -3.8568007946
intensity: 28.8986167908
---
header: 
  seq: 372330
  stamp: 
    secs: 1561866686
    nsecs: 968385006
  frame_id: "ti_mmwave"
point_id: 9
x: 2.65625
y: -0.1796875
z: 1.0546875
range: 3.05038785934
velocity: 0.0
doppler_bin: 8
bearing: -3.86999511719
intensity: 32.1112060547
---
header: 
  seq: 372331
  stamp: 
    secs: 1561866686
    nsecs: 968482287
  frame_id: "ti_mmwave"
point_id: 10
x: 2.748046875
y: -0.08984375
z: 0.935546875
range: 3.09396481514
velocity: 0.0
doppler_bin: 8
bearing: -1.8725425005
intensity: 31.0619087219
---
header: 
  seq: 372332
  stamp: 
    secs: 1561866686
    nsecs: 968506961
  frame_id: "ti_mmwave"
point_id: 11
x: 1.732421875
y: -0.0
z: -0.490234375
range: 1.91738677025
velocity: -0.614668667316
doppler_bin: 7
bearing: -0.0
intensity: 25.6348114014
---
header: 
  seq: 372333
  stamp: 
    secs: 1561866686
    nsecs: 968515894
  frame_id: "ti_mmwave"
point_id: 12
x: 1.7734375
y: -0.0
z: -0.490234375
range: 1.96096372604
velocity: -0.614668667316
doppler_bin: 7
bearing: -0.0
intensity: 26.9897003174
---
header: 
  seq: 372334
  stamp: 
    secs: 1561866686
    nsecs: 968523899
  frame_id: "ti_mmwave"
point_id: 13
x: 1.822265625
y: -0.0
z: -0.46875
range: 2.00454068184
velocity: -0.614668667316
doppler_bin: 7
bearing: -0.0
intensity: 27.8247261047
---
header: 
  seq: 372335
  stamp: 
    secs: 1561866686
    nsecs: 968531612
  frame_id: "ti_mmwave"
point_id: 14
x: 1.869140625
y: 0.060546875
z: -0.447265625
range: 2.04811763763
velocity: -0.614668667316
doppler_bin: 7
bearing: 1.85532736778
intensity: 26.3245735168
---
header: 
  seq: 372336
  stamp: 
    secs: 1561866686
    nsecs: 968541977
  frame_id: "ti_mmwave"
point_id: 16
x: 0.041015625
y: -0.033203125
z: 0.0625
range: 0.0871539413929
velocity: 0.0
doppler_bin: 8
bearing: -38.9909973145
intensity: 30.1114730835
---
header: 
  seq: 372337
  stamp: 
    secs: 1561866686
    nsecs: 968550950
  frame_id: "ti_mmwave"
point_id: 17
x: 0.046875
y: -0.046875
z: 0.103515625
range: 0.130730912089
velocity: 0.0
doppler_bin: 8
bearing: -45.0
intensity: 29.020029068
---
header: 
  seq: 372338
  stamp: 
    secs: 1561866687
    nsecs:  26841478
  frame_id: "ti_mmwave"
point_id: 0
x: 0.01171875
y: -0.0390625
z: -0.0078125
range: 0.0435769706964
velocity: 0.0
doppler_bin: 8
bearing: -73.3007583618
intensity: 30.6632595062
---
header: 
  seq: 372339
  stamp: 
    secs: 1561866687
    nsecs:  26915835
  frame_id: "ti_mmwave"
point_id: 1
x: 0.017578125
y: -0.080078125
z: -0.0078125
range: 0.0871539413929
velocity: 0.0
doppler_bin: 8
bearing: -77.6192398071
intensity: 31.9228858948
---
header: 
  seq: 372340
  stamp: 
    secs: 1561866687
    nsecs:  26929769
  frame_id: "ti_mmwave"
point_id: 2
x: 0.029296875
y: -0.119140625
z: -0.005859375
range: 0.130730912089
velocity: 0.0
doppler_bin: 8
bearing: -76.1849746704
intensity: 30.1494026184
---
header: 
  seq: 372341
  stamp: 
    secs: 1561866687
    nsecs:  26938675
  frame_id: "ti_mmwave"
point_id: 3
x: 0.056640625
y: -0.154296875
z: 0.005859375
range: 0.174307882786
velocity: 0.0
doppler_bin: 8
bearing: -69.8423843384
intensity: 25.4654273987
---
header: 
  seq: 372342
  stamp: 
    secs: 1561866687
    nsecs:  26948613
  frame_id: "ti_mmwave"
point_id: 4
x: 0.1484375
y: -0.080078125
z: 1.2578125
range: 1.35088610649
velocity: 0.0
doppler_bin: 8
bearing: -28.3456954956
intensity: 23.0749607086
---
header: 
  seq: 372343
  stamp: 
    secs: 1561866687
    nsecs:  26957537
  frame_id: "ti_mmwave"
point_id: 5
x: 0.048828125
y: -0.08203125
z: 1.3046875
range: 1.39446306229
velocity: 0.0
doppler_bin: 8
bearing: -59.2372817993
intensity: 24.6089782715
---
header: 
  seq: 372344
  stamp: 
    secs: 1561866687
    nsecs:  26966102
  frame_id: "ti_mmwave"
point_id: 6
x: 0.3984375
y: -0.083984375
z: -1.287109375
range: 1.43804001808
velocity: 0.0
doppler_bin: 8
bearing: -11.9028120041
intensity: 23.0535144806
---
header: 
  seq: 372345
  stamp: 
    secs: 1561866687
    nsecs:  26978675
  frame_id: "ti_mmwave"
point_id: 7
x: 0.5625
y: -0.04296875
z: -1.271484375
range: 1.48161697388
velocity: 0.0
doppler_bin: 8
bearing: -4.36827754974
intensity: 21.6731739044
---
header: 
  seq: 372346
  stamp: 
    secs: 1561866687
    nsecs:  27150180
  frame_id: "ti_mmwave"
point_id: 8
x: 1.796875
y: 0.056640625
z: -0.08203125
range: 1.91738677025
velocity: 0.0
doppler_bin: 8
bearing: 1.80546462536
intensity: 30.0987567902
---
header: 
  seq: 372347
  stamp: 
    secs: 1561866687
    nsecs:  27170925
  frame_id: "ti_mmwave"
point_id: 9
x: 1.837890625
y: 0.056640625
z: -0.095703125
range: 1.96096372604
velocity: 0.0
doppler_bin: 8
bearing: 1.76519858837
intensity: 31.6524429321
---
header: 
  seq: 372348
  stamp: 
    secs: 1561866687
    nsecs:  27224274
  frame_id: "ti_mmwave"
point_id: 10
x: 1.873046875
y: 0.05859375
z: -0.166015625
range: 2.00454068184
velocity: 0.0
doppler_bin: 8
bearing: 1.79177570343
intensity: 30.3941402435
---
header: 
  seq: 372349
  stamp: 
    secs: 1561866687
    nsecs:  27234013
  frame_id: "ti_mmwave"
point_id: 11
x: 2.62109375
y: -0.17578125
z: 1.033203125
range: 3.00681090355
velocity: 0.0
doppler_bin: 8
bearing: -3.83674383163
intensity: 28.9376182556
---
header: 
  seq: 372350
  stamp: 
    secs: 1561866687
    nsecs:  27241993
  frame_id: "ti_mmwave"
point_id: 12
x: 2.662109375
y: -0.1796875
z: 1.0390625
range: 3.05038785934
velocity: 0.0
doppler_bin: 8
bearing: -3.86150240898
intensity: 32.1510848999
---
header: 
  seq: 372351
  stamp: 
    secs: 1561866687
    nsecs:  27250233
  frame_id: "ti_mmwave"
point_id: 13
x: 2.75390625
y: -0.08984375
z: 0.919921875
range: 3.09396481514
velocity: 0.0
doppler_bin: 8
bearing: -1.86856126785
intensity: 31.1226978302
---
header: 
  seq: 372352
  stamp: 
    secs: 1561866687
    nsecs:  27260617
  frame_id: "ti_mmwave"
point_id: 14
x: 1.86328125
y: -0.0
z: -0.474609375
range: 2.04811763763
velocity: -0.614668667316
doppler_bin: 7
bearing: -0.0
intensity: 26.170003891
---
header: 
  seq: 372353
  stamp: 
    secs: 1561866687
    nsecs:  27292451
  frame_id: "ti_mmwave"
point_id: 16
x: 0.041015625
y: -0.033203125
z: 0.0625
range: 0.0871539413929
velocity: 0.0
doppler_bin: 8
bearing: -38.9909973145
intensity: 30.1114730835
---
header: 
  seq: 372354
  stamp: 
    secs: 1561866687
    nsecs:  27314473
  frame_id: "ti_mmwave"
point_id: 17
x: 0.044921875
y: -0.046875
z: 0.103515625
range: 0.130730912089
velocity: 0.0
doppler_bin: 8
bearing: -46.218875885
intensity: 29.020029068
---
header: 
  seq: 372355
  stamp: 
    secs: 1561866687
    nsecs:  86826876
  frame_id: "ti_mmwave"
point_id: 0
x: 0.01171875
y: -0.0390625
z: -0.0078125
range: 0.0435769706964
velocity: 0.0
doppler_bin: 8
bearing: -73.3007583618
intensity: 30.6632595062
---
header: 
  seq: 372356
  stamp: 
    secs: 1561866687
    nsecs:  86940509
  frame_id: "ti_mmwave"
point_id: 1
x: 0.017578125
y: -0.080078125
z: -0.0078125
range: 0.0871539413929
velocity: 0.0
doppler_bin: 8
bearing: -77.6192398071
intensity: 31.9228858948
---
header: 
  seq: 372357
  stamp: 
    secs: 1561866687
    nsecs:  86960358
  frame_id: "ti_mmwave"
point_id: 2
x: 0.029296875
y: -0.119140625
z: -0.005859375
range: 0.130730912089
velocity: 0.0
doppler_bin: 8
bearing: -76.1849746704
intensity: 30.1494026184
---
header: 
  seq: 372358
  stamp: 
    secs: 1561866687
    nsecs:  86975045
  frame_id: "ti_mmwave"
point_id: 3
x: 0.056640625
y: -0.154296875
z: 0.005859375
range: 0.174307882786
velocity: 0.0
doppler_bin: 8
bearing: -69.8423843384
intensity: 25.4654273987
---
header: 
  seq: 372359
  stamp: 
    secs: 1561866687
    nsecs:  86987192
  frame_id: "ti_mmwave"
point_id: 4
x: 0.13671875
y: -0.080078125
z: 1.2578125
range: 1.35088610649
velocity: 0.0
doppler_bin: 8
bearing: -30.3581142426
intensity: 23.1175384521
---
header: 
  seq: 372360
  stamp: 
    secs: 1561866687
    nsecs:  87002441
  frame_id: "ti_mmwave"
point_id: 6
x: 0.42578125
y: -0.083984375
z: -1.27734375
range: 1.43804001808
velocity: 0.0
doppler_bin: 8
bearing: -11.1582231522
intensity: 23.0963020325
---
header: 
  seq: 372361
  stamp: 
    secs: 1561866687
    nsecs:  87014930
  frame_id: "ti_mmwave"
point_id: 7
x: 0.5625
y: -0.04296875
z: -1.271484375
range: 1.48161697388
velocity: 0.0
doppler_bin: 8
bearing: -4.36827754974
intensity: 21.7318630219
---
header: 
  seq: 372362
  stamp: 
    secs: 1561866687
    nsecs:  87119323
  frame_id: "ti_mmwave"
point_id: 8
x: 1.81640625
y: -0.0
z: -0.294921875
range: 1.96096372604
velocity: 0.0
doppler_bin: 8
bearing: -0.0
intensity: 29.4497585297
---
header: 
  seq: 372363
  stamp: 
    secs: 1561866687
    nsecs:  87135680
  frame_id: "ti_mmwave"
point_id: 9
x: 1.84375
y: -0.0
z: -0.376953125
range: 2.00454068184
velocity: 0.0
doppler_bin: 8
bearing: -0.0
intensity: 29.9343624115
---
header: 
  seq: 372364
  stamp: 
    secs: 1561866687
    nsecs:  87149437
  frame_id: "ti_mmwave"
point_id: 10
x: 2.6171875
y: -0.17578125
z: 1.04296875
range: 3.00681090355
velocity: 0.0
doppler_bin: 8
bearing: -3.84245300293
intensity: 29.0091304779
---
header: 
  seq: 372365
  stamp: 
    secs: 1561866687
    nsecs:  87162860
  frame_id: "ti_mmwave"
point_id: 11
x: 2.6640625
y: -0.1796875
z: 1.03125
range: 3.05038785934
velocity: 0.0
doppler_bin: 8
bearing: -3.85868024826
intensity: 32.156375885
---
header: 
  seq: 372366
  stamp: 
    secs: 1561866687
    nsecs:  87196836
  frame_id: "ti_mmwave"
point_id: 12
x: 2.76171875
y: -0.08984375
z: 0.896484375
range: 3.09396481514
velocity: 0.0
doppler_bin: 8
bearing: -1.86327898502
intensity: 31.1494445801
---
header: 
  seq: 372367
  stamp: 
    secs: 1561866687
    nsecs:  87231655
  frame_id: "ti_mmwave"
point_id: 13
x: 0.009765625
y: 0.03125
z: 0.025390625
range: 0.0435769706964
velocity: 0.0
doppler_bin: 8
bearing: 72.6459732056
intensity: 29.31457901
---
header: 
  seq: 372368
  stamp: 
    secs: 1561866687
    nsecs:  87256305
  frame_id: "ti_mmwave"
point_id: 14
x: 0.041015625
y: -0.033203125
z: 0.0625
range: 0.0871539413929
velocity: 0.0
doppler_bin: 8
bearing: -38.9909973145
intensity: 30.1114730835
---
header: 
  seq: 372369
  stamp: 
    secs: 1561866687
    nsecs:  87272696
  frame_id: "ti_mmwave"
point_id: 15
x: 0.044921875
y: -0.046875
z: 0.103515625
range: 0.130730912089
velocity: 0.0
doppler_bin: 8
bearing: -46.218875885
intensity: 29.0254669189
---
header: 
  seq: 372370
  stamp: 
    secs: 1561866687
    nsecs:  87927442
  frame_id: "ti_mmwave"
point_id: 0
x: 0.01171875
y: -0.0390625
z: -0.0078125
range: 0.0435769706964
velocity: 0.0
doppler_bin: 8
bearing: -73.3007583618
intensity: 30.6632595062
---
header: 
  seq: 372371
  stamp: 
    secs: 1561866687
    nsecs:  88021805
  frame_id: "ti_mmwave"
point_id: 1
x: 0.017578125
y: -0.080078125
z: -0.0078125
range: 0.0871539413929
velocity: 0.0
doppler_bin: 8
bearing: -77.6192398071
intensity: 31.9228858948
---
header: 
  seq: 372372
  stamp: 
    secs: 1561866687
    nsecs:  88043630
  frame_id: "ti_mmwave"
point_id: 2
x: 0.029296875
y: -0.119140625
z: -0.005859375
range: 0.130730912089
velocity: 0.0
doppler_bin: 8
bearing: -76.1849746704
intensity: 30.1494026184
---
header: 
  seq: 372373
  stamp: 
    secs: 1561866687
    nsecs:  88057462
  frame_id: "ti_mmwave"
point_id: 3
x: 0.056640625
y: -0.154296875
z: 0.005859375
range: 0.174307882786
velocity: 0.0
doppler_bin: 8
bearing: -69.8423843384
intensity: 25.4654273987
---
header: 
  seq: 372374
  stamp: 
    secs: 1561866687
    nsecs:  88067248
  frame_id: "ti_mmwave"
point_id: 4
x: 0.0546875
y: -0.080078125
z: 1.263671875
range: 1.35088610649
velocity: 0.0
doppler_bin: 8
bearing: -55.6697845459
intensity: 23.138671875
---
header: 
  seq: 372375
  stamp: 
    secs: 1561866687
    nsecs:  88077514
  frame_id: "ti_mmwave"
point_id: 6
x: 0.41796875
y: -0.083984375
z: -1.28125
range: 1.43804001808
velocity: 0.0
doppler_bin: 8
bearing: -11.3614110947
intensity: 23.1175384521
---
header: 
  seq: 372376
  stamp: 
    secs: 1561866687
    nsecs:  88086007
  frame_id: "ti_mmwave"
point_id: 7
x: 0.55859375
y: -0.04296875
z: -1.2734375
range: 1.48161697388
velocity: 0.0
doppler_bin: 8
bearing: -4.39870548248
intensity: 21.7609119415
---
header: 
  seq: 372377
  stamp: 
    secs: 1561866687
    nsecs:  88095781
  frame_id: "ti_mmwave"
point_id: 8
x: 1.755859375
y: -0.0
z: -0.10546875
range: 1.87380969524
velocity: 0.0
doppler_bin: 8
bearing: -0.0
intensity: 31.5411949158
---
header: 
  seq: 372378
  stamp: 
    secs: 1561866687
    nsecs:  88111881
  frame_id: "ti_mmwave"
point_id: 9
x: 1.796875
y: 0.056640625
z: -0.10546875
range: 1.91738677025
velocity: 0.0
doppler_bin: 8
bearing: 1.80546462536
intensity: 32.5671768188
---
header: 
  seq: 372379
  stamp: 
    secs: 1561866687
    nsecs:  88123710
  frame_id: "ti_mmwave"
point_id: 10
x: 1.8359375
y: 0.115234375
z: -0.05859375
range: 1.96096372604
velocity: 0.0
doppler_bin: 8
bearing: 3.59151291847
intensity: 28.767950058
---
header: 
  seq: 372380
  stamp: 
    secs: 1561866687
    nsecs:  88137686
  frame_id: "ti_mmwave"
point_id: 11
x: 1.783203125
y: -0.1171875
z: -0.58984375
range: 2.00454068184
velocity: 0.0
doppler_bin: 8
bearing: -3.75992393494
intensity: 27.0156803131
---
header: 
  seq: 372381
  stamp: 
    secs: 1561866687
    nsecs:  88150561
  frame_id: "ti_mmwave"
point_id: 12
x: 1.919921875
y: -0.0
z: -0.115234375
range: 2.04811763763
velocity: 0.0
doppler_bin: 8
bearing: -0.0
intensity: 26.6558094025
---
header: 
  seq: 372382
  stamp: 
    secs: 1561866687
    nsecs:  88164268
  frame_id: "ti_mmwave"
point_id: 13
x: 2.611328125
y: -0.17578125
z: 1.056640625
range: 3.00681090355
velocity: 0.0
doppler_bin: 8
bearing: -3.85104894638
intensity: 28.9097957611
---
header: 
  seq: 372383
  stamp: 
    secs: 1561866687
    nsecs:  88177790
  frame_id: "ti_mmwave"
point_id: 14
x: 2.662109375
y: -0.1796875
z: 1.0390625
range: 3.05038785934
velocity: 0.0
doppler_bin: 8
bearing: -3.86150240898
intensity: 32.1722068787
---
header: 
  seq: 372384
  stamp: 
    secs: 1561866687
    nsecs:  88189776
  frame_id: "ti_mmwave"
point_id: 15
x: 2.76171875
y: -0.08984375
z: 0.892578125
range: 3.09396481514
velocity: 0.0
doppler_bin: 8
bearing: -1.86327898502
intensity: 31.1327476501
---
header: 
  seq: 372385
  stamp: 
    secs: 1561866687
    nsecs:  88202036
  frame_id: "ti_mmwave"
point_id: 17
x: 0.041015625
y: -0.033203125
z: 0.0625
range: 0.0871539413929
velocity: 0.0
doppler_bin: 8
bearing: -38.9909973145
intensity: 30.1157035828
---
header: 
  seq: 372386
  stamp: 
    secs: 1561866687
    nsecs:  88210464
  frame_id: "ti_mmwave"
point_id: 18
x: 0.044921875
y: -0.046875
z: 0.103515625
range: 0.130730912089
velocity: 0.0
doppler_bin: 8
bearing: -46.218875885
intensity: 29.020029068
---
header: 
  seq: 372387
  stamp: 
    secs: 1561866687
    nsecs: 146861207
  frame_id: "ti_mmwave"
point_id: 0
x: 0.01171875
y: -0.0390625
z: -0.0078125
range: 0.0435769706964
velocity: 0.0
doppler_bin: 8
bearing: -73.3007583618
intensity: 30.6595306396
---
header: 
  seq: 372388
  stamp: 
    secs: 1561866687
    nsecs: 146939574
  frame_id: "ti_mmwave"
point_id: 1
x: 0.017578125
y: -0.080078125
z: -0.0078125
range: 0.0871539413929
velocity: 0.0
doppler_bin: 8
bearing: -77.6192398071
intensity: 31.9228858948
---
header: 
  seq: 372389
  stamp: 
    secs: 1561866687
    nsecs: 146950739
  frame_id: "ti_mmwave"
point_id: 2
x: 0.029296875
y: -0.119140625
z: -0.005859375
range: 0.130730912089
velocity: 0.0
doppler_bin: 8
bearing: -76.1849746704
intensity: 30.1494026184
---
header: 
  seq: 372390
  stamp: 
    secs: 1561866687
    nsecs: 146959005
  frame_id: "ti_mmwave"
point_id: 3
x: 0.056640625
y: -0.154296875
z: 0.0078125
range: 0.174307882786
velocity: 0.0
doppler_bin: 8
bearing: -69.8423843384
intensity: 25.4777469635
---
header: 
  seq: 372391
  stamp: 
    secs: 1561866687
    nsecs: 146969594
  frame_id: "ti_mmwave"
point_id: 4
x: 0.140625
y: -0.080078125
z: 1.2578125
range: 1.35088610649
velocity: 0.0
doppler_bin: 8
bearing: -29.6591091156
intensity: 23.1175384521
---
header: 
  seq: 372392
  stamp: 
    secs: 1561866687
    nsecs: 146979807
  frame_id: "ti_mmwave"
point_id: 6
x: 0.419921875
y: -0.083984375
z: -1.279296875
range: 1.43804001808
velocity: 0.0
doppler_bin: 8
bearing: -11.3099327087
intensity: 23.0749607086
---
header: 
  seq: 372393
  stamp: 
    secs: 1561866687
    nsecs: 146987845
  frame_id: "ti_mmwave"
point_id: 7
x: 0.560546875
y: -0.04296875
z: -1.271484375
range: 1.48161697388
velocity: 0.0
doppler_bin: 8
bearing: -4.38343858719
intensity: 21.7026176453
---
header: 
  seq: 372394
  stamp: 
    secs: 1561866687
    nsecs: 146995970
  frame_id: "ti_mmwave"
point_id: 8
x: 1.796875
y: -0.0
z: -0.10546875
range: 1.91738677025
velocity: 0.0
doppler_bin: 8
bearing: -0.0
intensity: 27.8532981873
---
header: 
  seq: 372395
  stamp: 
    secs: 1561866687
    nsecs: 147004221
  frame_id: "ti_mmwave"
point_id: 9
x: 1.833984375
y: -0.0
z: -0.15234375
range: 1.96096372604
velocity: 0.0
doppler_bin: 8
bearing: -0.0
intensity: 27.7524623871
---
header: 
  seq: 372396
  stamp: 
    secs: 1561866687
    nsecs: 147013906
  frame_id: "ti_mmwave"
point_id: 10
x: 1.87890625
y: 0.05859375
z: -0.091796875
range: 2.00454068184
velocity: 0.0
doppler_bin: 8
bearing: 1.7861918211
intensity: 27.1349048615
---
header: 
  seq: 372397
  stamp: 
    secs: 1561866687
    nsecs: 147021707
  frame_id: "ti_mmwave"
point_id: 11
x: 2.625
y: -0.17578125
z: 1.0234375
range: 3.00681090355
velocity: 0.0
doppler_bin: 8
bearing: -3.83105134964
intensity: 29.1115760803
---
header: 
  seq: 372398
  stamp: 
    secs: 1561866687
    nsecs: 147031108
  frame_id: "ti_mmwave"
point_id: 12
x: 2.662109375
y: -0.1796875
z: 1.041015625
range: 3.05038785934
velocity: 0.0
doppler_bin: 8
bearing: -3.86150240898
intensity: 32.2427406311
---
header: 
  seq: 372399
  stamp: 
    secs: 1561866687
    nsecs: 147039436
  frame_id: "ti_mmwave"
point_id: 13
x: 2.751953125
y: -0.08984375
z: 0.921875
range: 3.09396481514
velocity: 0.0
doppler_bin: 8
bearing: -1.86988639832
intensity: 31.1427726746
---
header: 
  seq: 372400
  stamp: 
    secs: 1561866687
    nsecs: 147049275
  frame_id: "ti_mmwave"
point_id: 15
x: 0.041015625
y: -0.033203125
z: 0.0625
range: 0.0871539413929
velocity: 0.0
doppler_bin: 8
bearing: -38.9909973145
intensity: 30.1114730835
---
header: 
  seq: 372401
  stamp: 
    secs: 1561866687
    nsecs: 147057250
  frame_id: "ti_mmwave"
point_id: 16
x: 0.044921875
y: -0.046875
z: 0.103515625
range: 0.130730912089
velocity: 0.0
doppler_bin: 8
bearing: -46.218875885
intensity: 29.0145835876
---
header: 
  seq: 372402
  stamp: 
    secs: 1561866687
    nsecs: 147997583
  frame_id: "ti_mmwave"
point_id: 0
x: 0.01171875
y: -0.0390625
z: -0.0078125
range: 0.0435769706964
velocity: 0.0
doppler_bin: 8
bearing: -73.3007583618
intensity: 30.6520614624
---
header: 
  seq: 372403
  stamp: 
    secs: 1561866687
    nsecs: 148079610
  frame_id: "ti_mmwave"
point_id: 1
x: 0.017578125
y: -0.080078125
z: -0.0078125
range: 0.0871539413929
velocity: 0.0
doppler_bin: 8
bearing: -77.6192398071
intensity: 31.9228858948
---
header: 
  seq: 372404
  stamp: 
    secs: 1561866687
    nsecs: 148102311
  frame_id: "ti_mmwave"
point_id: 2
x: 0.029296875
y: -0.119140625
z: -0.005859375
range: 0.130730912089
velocity: 0.0
doppler_bin: 8
bearing: -76.1849746704
intensity: 30.1535968781
---
header: 
  seq: 372405
  stamp: 
    secs: 1561866687
    nsecs: 148119770
  frame_id: "ti_mmwave"
point_id: 3
x: 0.056640625
y: -0.154296875
z: 0.005859375
range: 0.174307882786
velocity: 0.0
doppler_bin: 8
bearing: -69.8423843384
intensity: 25.4777469635
---
header: 
  seq: 372406
  stamp: 
    secs: 1561866687
    nsecs: 148154917
  frame_id: "ti_mmwave"
point_id: 4
x: 0.029296875
y: -0.080078125
z: 1.265625
range: 1.35088610649
velocity: 0.0
doppler_bin: 8
bearing: -69.9047698975
intensity: 23.1597042084
---
header: 
  seq: 372407
  stamp: 
    secs: 1561866687
    nsecs: 148197058
  frame_id: "ti_mmwave"
point_id: 5
x: 0.09765625
y: -0.08203125
z: -1.302734375
range: 1.39446306229
velocity: 0.0
doppler_bin: 8
bearing: -40.0302581787
intensity: 24.6538276672
---
header: 
  seq: 372408
  stamp: 
    secs: 1561866687
    nsecs: 148300908
  frame_id: "ti_mmwave"
point_id: 6
x: 0.42578125
y: -0.083984375
z: -1.27734375
range: 1.43804001808
velocity: 0.0
doppler_bin: 8
bearing: -11.1582231522
intensity: 23.0749607086
---
header: 
  seq: 372409
  stamp: 
    secs: 1561866687
    nsecs: 148320578
  frame_id: "ti_mmwave"
point_id: 7
x: 0.548828125
y: -0.04296875
z: -1.27734375
range: 1.48161697388
velocity: 0.0
doppler_bin: 8
bearing: -4.47665882111
intensity: 21.7026176453
---
header: 
  seq: 372410
  stamp: 
    secs: 1561866687
    nsecs: 148334899
  frame_id: "ti_mmwave"
point_id: 8
x: 1.75390625
y: -0.0
z: -0.126953125
range: 1.87380969524
velocity: 0.0
doppler_bin: 8
bearing: -0.0
intensity: 29.9651165009
---
header: 
  seq: 372411
  stamp: 
    secs: 1561866687
    nsecs: 148349046
  frame_id: "ti_mmwave"
point_id: 9
x: 1.794921875
y: -0.0
z: -0.134765625
range: 1.91738677025
velocity: 0.0
doppler_bin: 8
bearing: -0.0
intensity: 31.9700469971
---
header: 
  seq: 372412
  stamp: 
    secs: 1561866687
    nsecs: 148361625
  frame_id: "ti_mmwave"
point_id: 10
x: 1.833984375
y: -0.0
z: -0.16796875
range: 1.96096372604
velocity: 0.0
doppler_bin: 8
bearing: -0.0
intensity: 31.1527767181
---
header: 
  seq: 372413
  stamp: 
    secs: 1561866687
    nsecs: 148373029
  frame_id: "ti_mmwave"
point_id: 11
x: 1.865234375
y: -0.0
z: -0.24609375
range: 2.00454068184
velocity: 0.0
doppler_bin: 8
bearing: -0.0
intensity: 28.0955963135
---
header: 
  seq: 372414
  stamp: 
    secs: 1561866687
    nsecs: 148384328
  frame_id: "ti_mmwave"
point_id: 12
x: 2.62890625
y: -0.17578125
z: 1.013671875
range: 3.00681090355
velocity: 0.0
doppler_bin: 8
bearing: -3.82537555695
intensity: 28.7737140656
---
header: 
  seq: 372415
  stamp: 
    secs: 1561866687
    nsecs: 148395982
  frame_id: "ti_mmwave"
point_id: 13
x: 2.662109375
y: -0.1796875
z: 1.0390625
range: 3.05038785934
velocity: 0.0
doppler_bin: 8
bearing: -3.86150240898
intensity: 32.0628585815
---
header: 
  seq: 372416
  stamp: 
    secs: 1561866687
    nsecs: 148492193
  frame_id: "ti_mmwave"
point_id: 14
x: 2.75390625
y: -0.08984375
z: 0.91796875
range: 3.09396481514
velocity: 0.0
doppler_bin: 8
bearing: -1.86856126785
intensity: 31.0002574921
---
header: 
  seq: 372417
  stamp: 
    secs: 1561866687
    nsecs: 148523752
  frame_id: "ti_mmwave"
point_id: 16
x: 0.041015625
y: -0.033203125
z: 0.0625
range: 0.0871539413929
velocity: 0.0
doppler_bin: 8
bearing: -38.9909973145
intensity: 30.1072387695
---
header: 
  seq: 372418
  stamp: 
    secs: 1561866687
    nsecs: 148541835
  frame_id: "ti_mmwave"
point_id: 17
x: 0.044921875
y: -0.046875
z: 0.103515625
range: 0.130730912089
velocity: 0.0
doppler_bin: 8
bearing: -46.218875885
intensity: 29.0145835876
---
header: 
  seq: 372419
  stamp: 
    secs: 1561866687
    nsecs: 206926518
  frame_id: "ti_mmwave"
point_id: 0
x: 0.01171875
y: -0.0390625
z: -0.0078125
range: 0.0435769706964
velocity: 0.0
doppler_bin: 8
bearing: -73.3007583618
intensity: 30.6632595062
---
header: 
  seq: 372420
  stamp: 
    secs: 1561866687
    nsecs: 207011199
  frame_id: "ti_mmwave"
point_id: 1
x: 0.017578125
y: -0.080078125
z: -0.0078125
range: 0.0871539413929
velocity: 0.0
doppler_bin: 8
bearing: -77.6192398071
intensity: 31.9228858948
---
header: 
  seq: 372421
  stamp: 
    secs: 1561866687
    nsecs: 207028900
  frame_id: "ti_mmwave"
point_id: 2
x: 0.029296875
y: -0.119140625
z: -0.005859375
range: 0.130730912089
velocity: 0.0
doppler_bin: 8
bearing: -76.1849746704
intensity: 30.1494026184
---
header: 
  seq: 372422
  stamp: 
    secs: 1561866687
    nsecs: 207040650
  frame_id: "ti_mmwave"
point_id: 3
x: 0.056640625
y: -0.154296875
z: 0.005859375
range: 0.174307882786
velocity: 0.0
doppler_bin: 8
bearing: -69.8423843384
intensity: 25.4654273987
---
header: 
  seq: 372423
  stamp: 
    secs: 1561866687
    nsecs: 207053067
  frame_id: "ti_mmwave"
point_id: 4
x: 0.0546875
y: -0.080078125
z: 1.263671875
range: 1.35088610649
velocity: 0.0
doppler_bin: 8
bearing: -55.6697845459
intensity: 23.138671875
---
header: 
  seq: 372424
  stamp: 
    secs: 1561866687
    nsecs: 207067120
  frame_id: "ti_mmwave"
point_id: 5
x: 0.095703125
y: -0.08203125
z: -1.302734375
range: 1.39446306229
velocity: 0.0
doppler_bin: 8
bearing: -40.6012954712
intensity: 24.6538276672
---
header: 
  seq: 372425
  stamp: 
    secs: 1561866687
    nsecs: 207078363
  frame_id: "ti_mmwave"
point_id: 6
x: 0.443359375
y: -0.083984375
z: -1.271484375
range: 1.43804001808
velocity: 0.0
doppler_bin: 8
bearing: -10.7262945175
intensity: 23.0749607086
---
header: 
  seq: 372426
  stamp: 
    secs: 1561866687
    nsecs: 207087011
  frame_id: "ti_mmwave"
point_id: 7
x: 1.833984375
y: -0.056640625
z: -0.14453125
range: 1.96096372604
velocity: 0.0
doppler_bin: 8
bearing: -1.76895594597
intensity: 28.0208930969
---
header: 
  seq: 372427
  stamp: 
    secs: 1561866687
    nsecs: 207110179
  frame_id: "ti_mmwave"
point_id: 8
x: 1.876953125
y: -0.05859375
z: -0.12109375
range: 2.00454068184
velocity: 0.0
doppler_bin: 8
bearing: -1.78804934025
intensity: 27.4973640442
---
header: 
  seq: 372428
  stamp: 
    secs: 1561866687
    nsecs: 207126996
  frame_id: "ti_mmwave"
point_id: 9
x: 2.607421875
y: -0.17578125
z: 1.068359375
range: 3.00681090355
velocity: 0.0
doppler_bin: 8
bearing: -3.8568007946
intensity: 28.9153747559
---
header: 
  seq: 372429
  stamp: 
    secs: 1561866687
    nsecs: 207140002
  frame_id: "ti_mmwave"
point_id: 10
x: 2.646484375
y: -0.1796875
z: 1.080078125
range: 3.05038785934
velocity: 0.0
doppler_bin: 8
bearing: -3.88423156738
intensity: 32.0384864807
---
header: 
  seq: 372430
  stamp: 
    secs: 1561866687
    nsecs: 207153739
  frame_id: "ti_mmwave"
point_id: 11
x: 2.744140625
y: -0.08984375
z: 0.94921875
range: 3.09396481514
velocity: 0.0
doppler_bin: 8
bearing: -1.87520623207
intensity: 30.9482040405
---
header: 
  seq: 372431
  stamp: 
    secs: 1561866687
    nsecs: 207168786
  frame_id: "ti_mmwave"
point_id: 12
x: 4.384765625
y: -0.142578125
z: 1.322265625
range: 4.88062095642
velocity: 0.0
doppler_bin: 8
bearing: -1.862413764
intensity: 28.1491317749
---
header: 
  seq: 372432
  stamp: 
    secs: 1561866687
    nsecs: 207181942
  frame_id: "ti_mmwave"
point_id: 13
x: 0.009765625
y: 0.03125
z: 0.025390625
range: 0.0435769706964
velocity: 0.0
doppler_bin: 8
bearing: 72.6459732056
intensity: 29.31457901
---
header: 
  seq: 372433
  stamp: 
    secs: 1561866687
    nsecs: 207189638
  frame_id: "ti_mmwave"
point_id: 14
x: 0.041015625
y: -0.033203125
z: 0.0625
range: 0.0871539413929
velocity: 0.0
doppler_bin: 8
bearing: -38.9909973145
intensity: 30.1072387695
---
header: 
  seq: 372434
  stamp: 
    secs: 1561866687
    nsecs: 207197131
  frame_id: "ti_mmwave"
point_id: 15
x: 0.046875
y: -0.046875
z: 0.103515625
range: 0.130730912089
velocity: 0.0
doppler_bin: 8
bearing: -45.0
intensity: 29.020029068
---
header: 
  seq: 372435
  stamp: 
    secs: 1561866687
    nsecs: 208020718
  frame_id: "ti_mmwave"
point_id: 0
x: 0.01171875
y: -0.0390625
z: -0.0078125
range: 0.0435769706964
velocity: 0.0
doppler_bin: 8
bearing: -73.3007583618
intensity: 30.6557979584
---
header: 
  seq: 372436
  stamp: 
    secs: 1561866687
    nsecs: 208085071
  frame_id: "ti_mmwave"
point_id: 1
x: 0.017578125
y: -0.080078125
z: -0.0078125
range: 0.0871539413929
velocity: 0.0
doppler_bin: 8
bearing: -77.6192398071
intensity: 31.9256744385
---
header: 
  seq: 372437
  stamp: 
    secs: 1561866687
    nsecs: 208104532
  frame_id: "ti_mmwave"
point_id: 2
x: 0.029296875
y: -0.119140625
z: -0.005859375
range: 0.130730912089
velocity: 0.0
doppler_bin: 8
bearing: -76.1849746704
intensity: 30.1535968781
---
header: 
  seq: 372438
  stamp: 
    secs: 1561866687
    nsecs: 208116371
  frame_id: "ti_mmwave"
point_id: 3
x: 0.056640625
y: -0.154296875
z: 0.0078125
range: 0.174307882786
velocity: 0.0
doppler_bin: 8
bearing: -69.8423843384
intensity: 25.4777469635
---
header: 
  seq: 372439
  stamp: 
    secs: 1561866687
    nsecs: 208187951
  frame_id: "ti_mmwave"
point_id: 4
x: 0.09375
y: -0.080078125
z: 1.26171875
range: 1.35088610649
velocity: 0.0
doppler_bin: 8
bearing: -40.5028457642
intensity: 23.1175384521
---
header: 
  seq: 372440
  stamp: 
    secs: 1561866687
    nsecs: 208202234
  frame_id: "ti_mmwave"
point_id: 5
x: 0.029296875
y: -0.08203125
z: -1.306640625
range: 1.39446306229
velocity: 0.0
doppler_bin: 8
bearing: -70.3461761475
intensity: 24.6389293671
---
header: 
  seq: 372441
  stamp: 
    secs: 1561866687
    nsecs: 208214364
  frame_id: "ti_mmwave"
point_id: 6
x: 0.408203125
y: -0.083984375
z: -1.283203125
range: 1.43804001808
velocity: 0.0
doppler_bin: 8
bearing: -11.6258993149
intensity: 23.0749607086
---
header: 
  seq: 372442
  stamp: 
    secs: 1561866687
    nsecs: 208225166
  frame_id: "ti_mmwave"
point_id: 7
x: 0.552734375
y: -0.04296875
z: -1.275390625
range: 1.48161697388
velocity: 0.0
doppler_bin: 8
bearing: -4.44514894485
intensity: 21.7026176453
---
header: 
  seq: 372443
  stamp: 
    secs: 1561866687
    nsecs: 208236552
  frame_id: "ti_mmwave"
point_id: 8
x: 1.77734375
y: -0.056640625
z: -0.2734375
range: 1.91738677025
velocity: 0.0
doppler_bin: 8
bearing: -1.82529187202
intensity: 28.9376182556
---
header: 
  seq: 372444
  stamp: 
    secs: 1561866687
    nsecs: 208250814
  frame_id: "ti_mmwave"
point_id: 9
x: 1.818359375
y: -0.056640625
z: -0.27734375
range: 1.96096372604
velocity: 0.0
doppler_bin: 8
bearing: -1.78414654732
intensity: 28.7966918945
---
header: 
  seq: 372445
  stamp: 
    secs: 1561866687
    nsecs: 208264909
  frame_id: "ti_mmwave"
point_id: 10
x: 1.865234375
y: -0.05859375
z: -0.24609375
range: 2.00454068184
velocity: 0.0
doppler_bin: 8
bearing: -1.79927563667
intensity: 27.5358314514
---
header: 
  seq: 372446
  stamp: 
    secs: 1561866687
    nsecs: 208288792
  frame_id: "ti_mmwave"
point_id: 11
x: 1.888671875
y: -0.0
z: 0.361328125
range: 2.04811763763
velocity: 0.0
doppler_bin: 8
bearing: -0.0
intensity: 27.5739593506
---
header: 
  seq: 372447
  stamp: 
    secs: 1561866687
    nsecs: 208307030
