header: 
  seq: 184519
  stamp: 
    secs: 1561866381
    nsecs: 687076389
  frame_id: "ti_mmwave"
point_id: 0
x: 0.01171875
y: -0.0390625
z: -0.0078125
range: 0.0435769706964
velocity: 0.0
doppler_bin: 8
bearing: -73.3007583618
intensity: 30.6483230591
---
header: 
  seq: 184520
  stamp: 
    secs: 1561866381
    nsecs: 687168345
  frame_id: "ti_mmwave"
point_id: 1
x: 0.017578125
y: -0.080078125
z: -0.0078125
range: 0.0871539413929
velocity: 0.0
doppler_bin: 8
bearing: -77.6192398071
intensity: 31.9089164734
---
header: 
  seq: 184521
  stamp: 
    secs: 1561866381
    nsecs: 687185165
  frame_id: "ti_mmwave"
point_id: 2
x: 0.029296875
y: -0.119140625
z: -0.005859375
range: 0.130730912089
velocity: 0.0
doppler_bin: 8
bearing: -76.1849746704
intensity: 30.141002655
---
header: 
  seq: 184522
  stamp: 
    secs: 1561866381
    nsecs: 687201839
  frame_id: "ti_mmwave"
point_id: 3
x: 0.056640625
y: -0.154296875
z: 0.005859375
range: 0.174307882786
velocity: 0.0
doppler_bin: 8
bearing: -69.8423843384
intensity: 25.4654273987
---
header: 
  seq: 184523
  stamp: 
    secs: 1561866381
    nsecs: 687215880
  frame_id: "ti_mmwave"
point_id: 4
x: 0.056640625
y: -0.080078125
z: 1.263671875
range: 1.35088610649
velocity: 0.0
doppler_bin: 8
bearing: -54.7275772095
intensity: 23.0963020325
---
header: 
  seq: 184524
  stamp: 
    secs: 1561866381
    nsecs: 687232811
  frame_id: "ti_mmwave"
point_id: 6
x: 0.4453125
y: -0.083984375
z: -1.271484375
range: 1.43804001808
velocity: 0.0
doppler_bin: 8
bearing: -10.6803331375
intensity: 23.031961441
---
header: 
  seq: 184525
  stamp: 
    secs: 1561866381
    nsecs: 687249212
  frame_id: "ti_mmwave"
point_id: 7
x: 0.57421875
y: -0.04296875
z: -1.265625
range: 1.48161697388
velocity: 0.0
doppler_bin: 8
bearing: -4.27946329117
intensity: 21.5836257935
---
header: 
  seq: 184526
  stamp: 
    secs: 1561866381
    nsecs: 687262996
  frame_id: "ti_mmwave"
point_id: 8
x: 1.833984375
y: -0.056640625
z: 0.142578125
range: 1.96096372604
velocity: 0.0
doppler_bin: 8
bearing: -1.76895594597
intensity: 28.4135951996
---
header: 
  seq: 184527
  stamp: 
    secs: 1561866381
    nsecs: 687288556
  frame_id: "ti_mmwave"
point_id: 9
x: 1.875
y: -0.1171875
z: 0.119140625
range: 2.00454068184
velocity: 0.0
doppler_bin: 8
bearing: -3.57633447647
intensity: 29.3196620941
---
header: 
  seq: 184528
  stamp: 
    secs: 1561866381
    nsecs: 687374979
  frame_id: "ti_mmwave"
point_id: 10
x: 1.912109375
y: -0.1796875
z: 0.080078125
range: 2.04811763763
velocity: 0.0
doppler_bin: 8
bearing: -5.36851549149
intensity: 26.532125473
---
header: 
  seq: 184529
  stamp: 
    secs: 1561866381
    nsecs: 687389847
  frame_id: "ti_mmwave"
point_id: 11
x: 2.619140625
y: -0.17578125
z: 1.0390625
range: 3.00681090355
velocity: 0.0
doppler_bin: 8
bearing: -3.83959650993
intensity: 29.127532959
---
header: 
  seq: 184530
  stamp: 
    secs: 1561866381
    nsecs: 687405845
  frame_id: "ti_mmwave"
point_id: 12
x: 2.66015625
y: -0.1796875
z: 1.046875
range: 3.05038785934
velocity: 0.0
doppler_bin: 8
bearing: -3.86432933807
intensity: 32.2608413696
---
header: 
  seq: 184531
  stamp: 
    secs: 1561866381
    nsecs: 687419026
  frame_id: "ti_mmwave"
point_id: 13
x: 2.75390625
y: -0.08984375
z: 0.916015625
range: 3.09396481514
velocity: 0.0
doppler_bin: 8
bearing: -1.86856126785
intensity: 31.2710475922
---
header: 
  seq: 184532
  stamp: 
    secs: 1561866381
    nsecs: 687434764
  frame_id: "ti_mmwave"
point_id: 14
x: 4.41015625
y: -0.142578125
z: 1.234375
range: 4.88062095642
velocity: 0.0
doppler_bin: 8
bearing: -1.85169863701
intensity: 29.0687351227
---
header: 
  seq: 184533
  stamp: 
    secs: 1561866381
    nsecs: 687447886
  frame_id: "ti_mmwave"
point_id: 15
x: 1.693359375
y: 0.052734375
z: -0.279296875
range: 1.83023273945
velocity: -0.614668667316
doppler_bin: 7
bearing: 1.78372108936
intensity: 27.4350967407
---
header: 
  seq: 184534
  stamp: 
    secs: 1561866381
    nsecs: 687461035
  frame_id: "ti_mmwave"
point_id: 16
x: 1.734375
y: 0.0546875
z: -0.287109375
range: 1.87380969524
velocity: -0.614668667316
doppler_bin: 7
bearing: 1.80602538586
intensity: 29.339931488
---
header: 
  seq: 184535
  stamp: 
    secs: 1561866381
    nsecs: 687474398
  frame_id: "ti_mmwave"
point_id: 17
x: 1.779296875
y: 0.056640625
z: -0.267578125
range: 1.91738677025
velocity: -0.614668667316
doppler_bin: 7
bearing: 1.82328927517
intensity: 28.0888595581
---
header: 
  seq: 184536
  stamp: 
    secs: 1561866381
    nsecs: 687487310
  frame_id: "ti_mmwave"
point_id: 18
x: 0.009765625
y: 0.03125
z: 0.025390625
range: 0.0435769706964
velocity: 0.0
doppler_bin: 8
bearing: 72.6459732056
intensity: 29.2992954254
---
header: 
  seq: 184537
  stamp: 
    secs: 1561866381
    nsecs: 687500915
  frame_id: "ti_mmwave"
point_id: 19
x: 0.041015625
y: -0.033203125
z: 0.0625
range: 0.0871539413929
velocity: 0.0
doppler_bin: 8
bearing: -38.9909973145
intensity: 30.0987567902
---
header: 
  seq: 184538
  stamp: 
    secs: 1561866381
    nsecs: 687516830
  frame_id: "ti_mmwave"
point_id: 20
x: 0.044921875
y: -0.046875
z: 0.103515625
range: 0.130730912089
velocity: 0.0
doppler_bin: 8
bearing: -46.218875885
intensity: 28.9982051849
---
header: 
  seq: 184539
  stamp: 
    secs: 1561866381
    nsecs: 688400847
  frame_id: "ti_mmwave"
point_id: 0
x: 0.01171875
y: -0.0390625
z: -0.0078125
range: 0.0435769706964
velocity: 0.0
doppler_bin: 8
bearing: -73.3007583618
intensity: 30.6408348083
---
header: 
  seq: 184540
  stamp: 
    secs: 1561866381
    nsecs: 688453332
  frame_id: "ti_mmwave"
point_id: 1
x: 0.017578125
y: -0.080078125
z: -0.0078125
range: 0.0871539413929
velocity: 0.0
doppler_bin: 8
bearing: -77.6192398071
intensity: 31.9033164978
---
header: 
  seq: 184541
  stamp: 
    secs: 1561866381
    nsecs: 688463791
  frame_id: "ti_mmwave"
point_id: 2
x: 0.029296875
y: -0.119140625
z: -0.005859375
range: 0.130730912089
velocity: 0.0
doppler_bin: 8
bearing: -76.1849746704
intensity: 30.1325874329
---
header: 
  seq: 184542
  stamp: 
    secs: 1561866381
    nsecs: 688472001
  frame_id: "ti_mmwave"
point_id: 3
x: 0.056640625
y: -0.154296875
z: 0.005859375
range: 0.174307882786
velocity: 0.0
doppler_bin: 8
bearing: -69.8423843384
intensity: 25.4654273987
---
header: 
  seq: 184543
  stamp: 
    secs: 1561866381
    nsecs: 688482810
  frame_id: "ti_mmwave"
point_id: 5
x: 0.029296875
y: -0.08203125
z: -1.306640625
range: 1.39446306229
velocity: 0.0
doppler_bin: 8
bearing: -70.3461761475
intensity: 24.6089782715
---
header: 
  seq: 184544
  stamp: 
    secs: 1561866381
    nsecs: 688491569
  frame_id: "ti_mmwave"
point_id: 6
x: 0.435546875
y: -0.083984375
z: -1.275390625
range: 1.43804001808
velocity: 0.0
doppler_bin: 8
bearing: -10.9141130447
intensity: 23.0535144806
---
header: 
  seq: 184545
  stamp: 
    secs: 1561866381
    nsecs: 688501833
  frame_id: "ti_mmwave"
point_id: 7
x: 0.5625
y: -0.04296875
z: -1.271484375
range: 1.48161697388
velocity: 0.0
doppler_bin: 8
bearing: -4.36827754974
intensity: 21.6731739044
---
header: 
  seq: 184546
  stamp: 
    secs: 1561866381
    nsecs: 688514238
  frame_id: "ti_mmwave"
point_id: 8
x: 1.71484375
y: 0.052734375
z: -0.08203125
range: 1.83023273945
velocity: 0.0
doppler_bin: 8
bearing: 1.76138806343
intensity: 30.0987567902
---
header: 
  seq: 184547
  stamp: 
    secs: 1561866381
    nsecs: 688659173
  frame_id: "ti_mmwave"
point_id: 9
x: 1.751953125
y: 0.0546875
z: -0.138671875
range: 1.87380969524
velocity: 0.0
doppler_bin: 8
bearing: 1.78791642189
intensity: 32.4797325134
---
header: 
  seq: 184548
  stamp: 
    secs: 1561866381
    nsecs: 688707420
  frame_id: "ti_mmwave"
point_id: 10
x: 1.78515625
y: 0.11328125
z: -0.19140625
range: 1.91738677025
velocity: 0.0
doppler_bin: 8
bearing: 3.63096880913
intensity: 32.0384864807
---
header: 
  seq: 184549
  stamp: 
    secs: 1561866381
    nsecs: 688717733
  frame_id: "ti_mmwave"
point_id: 11
x: 1.826171875
y: 0.115234375
z: -0.197265625
range: 1.96096372604
velocity: 0.0
doppler_bin: 8
bearing: 3.61066842079
intensity: 28.9982051849
---
header: 
  seq: 184550
  stamp: 
    secs: 1561866381
    nsecs: 688725961
  frame_id: "ti_mmwave"
point_id: 12
x: 2.66796875
y: -0.1796875
z: 1.025390625
range: 3.05038785934
velocity: 0.0
doppler_bin: 8
bearing: -3.85304760933
intensity: 32.1031837463
---
header: 
  seq: 184551
  stamp: 
    secs: 1561866381
    nsecs: 688731936
  frame_id: "ti_mmwave"
point_id: 13
x: 2.76171875
y: -0.08984375
z: 0.890625
range: 3.09396481514
velocity: 0.0
doppler_bin: 8
bearing: -1.86327898502
intensity: 31.0619087219
---
header: 
  seq: 184552
  stamp: 
    secs: 1561866381
    nsecs: 688880431
  frame_id: "ti_mmwave"
point_id: 14
x: 4.40625
y: -0.287109375
z: 1.220703125
range: 4.88062095642
velocity: 0.0
doppler_bin: 8
bearing: -3.72809815407
intensity: 29.8721923828
---
header: 
  seq: 184553
  stamp: 
    secs: 1561866381
    nsecs: 688928786
  frame_id: "ti_mmwave"
point_id: 15
x: 4.455078125
y: -0.14453125
z: 1.2265625
range: 4.9241976738
velocity: 0.0
doppler_bin: 8
bearing: -1.85813295841
intensity: 29.122220993
---
header: 
  seq: 184554
  stamp: 
    secs: 1561866381
    nsecs: 688941212
  frame_id: "ti_mmwave"
point_id: 16
x: 0.009765625
y: 0.03125
z: 0.025390625
range: 0.0435769706964
velocity: 0.0
doppler_bin: 8
bearing: 72.6459732056
intensity: 29.2941894531
---
header: 
  seq: 184555
  stamp: 
    secs: 1561866381
    nsecs: 688949870
  frame_id: "ti_mmwave"
point_id: 17
x: 0.041015625
y: -0.033203125
z: 0.0625
range: 0.0871539413929
velocity: 0.0
doppler_bin: 8
bearing: -38.9909973145
intensity: 30.0945091248
---
header: 
  seq: 184556
  stamp: 
    secs: 1561866381
    nsecs: 688955369
  frame_id: "ti_mmwave"
point_id: 18
x: 0.044921875
y: -0.046875
z: 0.103515625
range: 0.130730912089
velocity: 0.0
doppler_bin: 8
bearing: -46.218875885
intensity: 28.9982051849
---
header: 
  seq: 184557
  stamp: 
    secs: 1561866381
    nsecs: 747137408
  frame_id: "ti_mmwave"
point_id: 0
x: 0.01171875
y: -0.0390625
z: -0.0078125
range: 0.0435769706964
velocity: 0.0
doppler_bin: 8
bearing: -73.3007583618
intensity: 30.6370849609
---
header: 
  seq: 184558
  stamp: 
    secs: 1561866381
    nsecs: 747212332
  frame_id: "ti_mmwave"
point_id: 1
x: 0.017578125
y: -0.080078125
z: -0.0078125
range: 0.0871539413929
velocity: 0.0
doppler_bin: 8
bearing: -77.6192398071
intensity: 31.9061183929
---
header: 
  seq: 184559
  stamp: 
    secs: 1561866381
    nsecs: 747224065
  frame_id: "ti_mmwave"
point_id: 2
x: 0.029296875
y: -0.119140625
z: -0.005859375
range: 0.130730912089
velocity: 0.0
doppler_bin: 8
bearing: -76.1849746704
intensity: 30.1367969513
---
header: 
  seq: 184560
  stamp: 
    secs: 1561866381
    nsecs: 747233630
  frame_id: "ti_mmwave"
point_id: 3
x: 0.056640625
y: -0.154296875
z: 0.005859375
range: 0.174307882786
velocity: 0.0
doppler_bin: 8
bearing: -69.8423843384
intensity: 25.4530715942
---
header: 
  seq: 184561
  stamp: 
    secs: 1561866381
    nsecs: 747243025
  frame_id: "ti_mmwave"
point_id: 4
x: 0.111328125
y: -0.080078125
z: 1.259765625
range: 1.35088610649
velocity: 0.0
doppler_bin: 8
bearing: -35.7273979187
intensity: 23.1597042084
---
header: 
  seq: 184562
  stamp: 
    secs: 1561866381
    nsecs: 747255216
  frame_id: "ti_mmwave"
point_id: 6
x: 0.42578125
y: -0.083984375
z: -1.27734375
range: 1.43804001808
velocity: 0.0
doppler_bin: 8
bearing: -11.1582231522
intensity: 23.138671875
---
header: 
  seq: 184563
  stamp: 
    secs: 1561866381
    nsecs: 747264447
  frame_id: "ti_mmwave"
point_id: 7
x: 0.587890625
y: -0.04296875
z: -1.259765625
range: 1.48161697388
velocity: 0.0
doppler_bin: 8
bearing: -4.1802983284
intensity: 21.7318630219
---
header: 
  seq: 184564
  stamp: 
    secs: 1561866381
    nsecs: 747272815
  frame_id: "ti_mmwave"
point_id: 8
x: 1.712890625
y: 0.052734375
z: -0.119140625
range: 1.83023273945
velocity: 0.0
doppler_bin: 8
bearing: 1.76339519024
intensity: 30.0475120544
---
header: 
  seq: 184565
  stamp: 
    secs: 1561866381
    nsecs: 747283016
  frame_id: "ti_mmwave"
point_id: 9
x: 1.75
y: 0.109375
z: -0.1328125
range: 1.87380969524
velocity: 0.0
doppler_bin: 8
bearing: 3.57633447647
intensity: 31.8184356689
---
header: 
  seq: 184566
  stamp: 
    secs: 1561866381
    nsecs: 747293525
  frame_id: "ti_mmwave"
point_id: 10
x: 1.791015625
y: 0.11328125
z: -0.14453125
range: 1.91738677025
velocity: 0.0
doppler_bin: 8
bearing: 3.61912178993
intensity: 30.6145248413
---
header: 
  seq: 184567
  stamp: 
    secs: 1561866381
    nsecs: 747455137
  frame_id: "ti_mmwave"
point_id: 11
x: 2.626953125
y: -0.17578125
z: 1.015625
range: 3.00681090355
velocity: 0.0
doppler_bin: 8
bearing: -3.82821130753
intensity: 29.339931488
---
header: 
  seq: 184568
  stamp: 
    secs: 1561866381
    nsecs: 747474005
  frame_id: "ti_mmwave"
point_id: 12
x: 2.66015625
y: -0.1796875
z: 1.04296875
range: 3.05038785934
velocity: 0.0
doppler_bin: 8
bearing: -3.86432933807
intensity: 32.3248786926
---
header: 
  seq: 184569
  stamp: 
    secs: 1561866381
    nsecs: 747482411
  frame_id: "ti_mmwave"
point_id: 13
x: 2.748046875
y: -0.08984375
z: 0.93359375
range: 3.09396481514
velocity: 0.0
doppler_bin: 8
bearing: -1.8725425005
intensity: 31.2936763763
---
header: 
  seq: 184570
  stamp: 
    secs: 1561866381
    nsecs: 747492416
  frame_id: "ti_mmwave"
point_id: 14
x: 4.41015625
y: -0.287109375
z: 1.205078125
range: 4.88062095642
velocity: 0.0
doppler_bin: 8
bearing: -3.72480559349
intensity: 29.5133743286
---
header: 
  seq: 184571
  stamp: 
    secs: 1561866381
    nsecs: 747500536
  frame_id: "ti_mmwave"
point_id: 15
x: 4.44921875
y: -0.14453125
z: 1.2421875
range: 4.9241976738
velocity: 0.0
doppler_bin: 8
bearing: -1.86057829857
intensity: 28.656961441
---
header: 
  seq: 184572
  stamp: 
    secs: 1561866381
    nsecs: 747510637
  frame_id: "ti_mmwave"
point_id: 16
x: 0.009765625
y: 0.03125
z: 0.025390625
range: 0.0435769706964
velocity: 0.0
doppler_bin: 8
bearing: 72.6459732056
intensity: 29.2941894531
---
header: 
  seq: 184573
  stamp: 
    secs: 1561866381
    nsecs: 747519005
  frame_id: "ti_mmwave"
point_id: 17
x: 0.041015625
y: -0.033203125
z: 0.0625
range: 0.0871539413929
velocity: 0.0
doppler_bin: 8
bearing: -38.9909973145
intensity: 30.0945091248
---
header: 
  seq: 184574
  stamp: 
    secs: 1561866381
    nsecs: 747527020
  frame_id: "ti_mmwave"
point_id: 18
x: 0.044921875
y: -0.046875
z: 0.103515625
range: 0.130730912089
velocity: 0.0
doppler_bin: 8
bearing: -46.218875885
intensity: 28.9982051849
---
header: 
  seq: 184575
  stamp: 
    secs: 1561866381
    nsecs: 748633191
  frame_id: "ti_mmwave"
point_id: 0
x: 0.01171875
y: -0.0390625
z: -0.0078125
range: 0.0435769706964
velocity: 0.0
doppler_bin: 8
bearing: -73.3007583618
intensity: 30.6445808411
---
header: 
  seq: 184576
  stamp: 
    secs: 1561866381
    nsecs: 748691759
  frame_id: "ti_mmwave"
point_id: 1
x: 0.017578125
y: -0.080078125
z: -0.0078125
range: 0.0871539413929
velocity: 0.0
doppler_bin: 8
bearing: -77.6192398071
intensity: 31.9061183929
---
header: 
  seq: 184577
  stamp: 
    secs: 1561866381
    nsecs: 748709954
  frame_id: "ti_mmwave"
point_id: 2
x: 0.029296875
y: -0.119140625
z: -0.005859375
range: 0.130730912089
velocity: 0.0
doppler_bin: 8
bearing: -76.1849746704
intensity: 30.1367969513
---
header: 
  seq: 184578
  stamp: 
    secs: 1561866381
    nsecs: 748726906
  frame_id: "ti_mmwave"
point_id: 3
x: 0.056640625
y: -0.154296875
z: 0.005859375
range: 0.174307882786
velocity: 0.0
doppler_bin: 8
bearing: -69.8423843384
intensity: 25.4654273987
---
header: 
  seq: 184579
  stamp: 
    secs: 1561866381
    nsecs: 748741777
  frame_id: "ti_mmwave"
point_id: 4
x: 0.134765625
y: -0.080078125
z: 1.2578125
range: 1.35088610649
velocity: 0.0
doppler_bin: 8
bearing: -30.7189025879
intensity: 23.1597042084
---
header: 
  seq: 184580
  stamp: 
    secs: 1561866381
    nsecs: 748810149
  frame_id: "ti_mmwave"
point_id: 6
x: 0.419921875
y: -0.083984375
z: -1.279296875
range: 1.43804001808
velocity: 0.0
doppler_bin: 8
bearing: -11.3099327087
intensity: 23.0963020325
---
header: 
  seq: 184581
  stamp: 
    secs: 1561866381
    nsecs: 748824341
  frame_id: "ti_mmwave"
point_id: 7
x: 1.72265625
y: -0.0
z: -0.3515625
range: 1.87380969524
velocity: 0.0
doppler_bin: 8
bearing: -0.0
intensity: 30.4649524689
---
header: 
  seq: 184582
  stamp: 
    secs: 1561866381
    nsecs: 748838282
  frame_id: "ti_mmwave"
point_id: 8
x: 1.76171875
y: -0.0
z: -0.3671875
range: 1.91738677025
velocity: 0.0
doppler_bin: 8
bearing: -0.0
intensity: 31.1327476501
---
header: 
  seq: 184583
  stamp: 
    secs: 1561866381
    nsecs: 748847228
  frame_id: "ti_mmwave"
point_id: 9
x: 1.802734375
y: -0.0
z: -0.376953125
range: 1.96096372604
velocity: 0.0
doppler_bin: 8
bearing: -0.0
intensity: 28.1690387726
---
header: 
  seq: 184584
  stamp: 
    secs: 1561866381
    nsecs: 748855520
  frame_id: "ti_mmwave"
point_id: 10
x: 2.62890625
y: -0.17578125
z: 1.01171875
range: 3.00681090355
velocity: 0.0
doppler_bin: 8
bearing: -3.82537555695
intensity: 29.2272548676
---
header: 
  seq: 184585
  stamp: 
    secs: 1561866381
    nsecs: 748864669
  frame_id: "ti_mmwave"
point_id: 11
x: 2.666015625
y: -0.1796875
z: 1.03125
range: 3.05038785934
velocity: 0.0
doppler_bin: 8
bearing: -3.85586214066
intensity: 32.2608413696
---
header: 
  seq: 184586
  stamp: 
    secs: 1561866381
    nsecs: 748873900
  frame_id: "ti_mmwave"
point_id: 12
x: 2.755859375
y: -0.08984375
z: 0.9140625
range: 3.09396481514
velocity: 0.0
doppler_bin: 8
bearing: -1.86723792553
intensity: 31.2123146057
---
header: 
  seq: 184587
  stamp: 
    secs: 1561866381
    nsecs: 748881800
  frame_id: "ti_mmwave"
point_id: 13
x: 4.40234375
y: -0.287109375
z: 1.23828125
range: 4.88062095642
velocity: 0.0
doppler_bin: 8
bearing: -3.73139691353
intensity: 29.0848503113
---
header: 
  seq: 184588
  stamp: 
    secs: 1561866381
    nsecs: 748887489
  frame_id: "ti_mmwave"
point_id: 14
x: 0.009765625
y: 0.03125
z: 0.025390625
range: 0.0435769706964
velocity: 0.0
doppler_bin: 8
bearing: 72.6459732056
intensity: 29.2941894531
---
header: 
  seq: 184589
  stamp: 
    secs: 1561866381
    nsecs: 748899334
  frame_id: "ti_mmwave"
point_id: 15
x: 0.041015625
y: -0.033203125
z: 0.0625
range: 0.0871539413929
velocity: 0.0
doppler_bin: 8
bearing: -38.9909973145
intensity: 30.0987567902
---
header: 
  seq: 184590
  stamp: 
    secs: 1561866381
    nsecs: 748940292
  frame_id: "ti_mmwave"
point_id: 16
x: 0.044921875
y: -0.046875
z: 0.103515625
range: 0.130730912089
velocity: 0.0
doppler_bin: 8
bearing: -46.218875885
intensity: 28.9982051849
---
header: 
  seq: 184591
  stamp: 
    secs: 1561866381
    nsecs: 806967817
  frame_id: "ti_mmwave"
point_id: 0
x: 0.01171875
y: -0.0390625
z: -0.0078125
range: 0.0435769706964
velocity: 0.0
doppler_bin: 8
bearing: -73.3007583618
intensity: 30.6445808411
---
header: 
  seq: 184592
  stamp: 
    secs: 1561866381
    nsecs: 807038157
  frame_id: "ti_mmwave"
point_id: 1
x: 0.017578125
y: -0.080078125
z: -0.0078125
range: 0.0871539413929
velocity: 0.0
doppler_bin: 8
bearing: -77.6192398071
intensity: 31.9061183929
---
header: 
  seq: 184593
  stamp: 
    secs: 1561866381
    nsecs: 807049275
  frame_id: "ti_mmwave"
point_id: 2
x: 0.029296875
y: -0.119140625
z: -0.005859375
range: 0.130730912089
velocity: 0.0
doppler_bin: 8
bearing: -76.1849746704
intensity: 30.1325874329
---
header: 
  seq: 184594
  stamp: 
    secs: 1561866381
    nsecs: 807059888
  frame_id: "ti_mmwave"
point_id: 3
x: 0.056640625
y: -0.154296875
z: 0.005859375
range: 0.174307882786
velocity: 0.0
doppler_bin: 8
bearing: -69.8423843384
intensity: 25.4406795502
---
header: 
  seq: 184595
  stamp: 
    secs: 1561866381
    nsecs: 807068850
  frame_id: "ti_mmwave"
point_id: 4
x: 0.1015625
y: -0.080078125
z: 1.26171875
range: 1.35088610649
velocity: 0.0
doppler_bin: 8
bearing: -38.2544212341
intensity: 23.138671875
---
header: 
  seq: 184596
  stamp: 
    secs: 1561866381
    nsecs: 807079366
  frame_id: "ti_mmwave"
point_id: 6
x: 0.4453125
y: -0.083984375
z: -1.271484375
range: 1.43804001808
velocity: 0.0
doppler_bin: 8
bearing: -10.6803331375
intensity: 23.0749607086
---
header: 
  seq: 184597
  stamp: 
    secs: 1561866381
    nsecs: 807087609
  frame_id: "ti_mmwave"
point_id: 7
x: 1.7109375
y: -0.0
z: -0.154296875
range: 1.83023273945
velocity: 0.0
doppler_bin: 8
bearing: -0.0
intensity: 30.8206691742
---
header: 
  seq: 184598
  stamp: 
    secs: 1561866381
    nsecs: 807097721
  frame_id: "ti_mmwave"
point_id: 8
x: 1.75390625
y: -0.0
z: -0.140625
range: 1.87380969524
velocity: 0.0
doppler_bin: 8
bearing: -0.0
intensity: 32.1272010803
---
header: 
  seq: 184599
  stamp: 
    secs: 1561866381
    nsecs: 807105635
  frame_id: "ti_mmwave"
point_id: 9
x: 1.796875
y: -0.0
z: -0.08984375
range: 1.91738677025
velocity: 0.0
doppler_bin: 8
bearing: -0.0
intensity: 29.4250411987
---
header: 
  seq: 184600
  stamp: 
    secs: 1561866381
    nsecs: 807113775
  frame_id: "ti_mmwave"
point_id: 10
x: 2.603515625
y: -0.17578125
z: 1.07421875
range: 3.00681090355
velocity: 0.0
doppler_bin: 8
bearing: -3.86257004738
intensity: 29.0525608063
---
header: 
  seq: 184601
  stamp: 
    secs: 1561866381
    nsecs: 807122071
  frame_id: "ti_mmwave"
point_id: 11
x: 2.658203125
y: -0.1796875
z: 1.048828125
range: 3.05038785934
velocity: 0.0
doppler_bin: 8
bearing: -3.86716008186
intensity: 32.2685775757
---
header: 
  seq: 184602
  stamp: 
    secs: 1561866381
    nsecs: 807132533
  frame_id: "ti_mmwave"
point_id: 12
x: 2.734375
y: -0.181640625
z: 0.96484375
range: 3.09396481514
velocity: 0.0
doppler_bin: 8
bearing: -3.80049324036
intensity: 31.2613143921
---
header: 
  seq: 184603
  stamp: 
    secs: 1561866381
    nsecs: 807140741
  frame_id: "ti_mmwave"
point_id: 13
x: 0.009765625
y: 0.03125
z: 0.025390625
range: 0.0435769706964
velocity: 0.0
doppler_bin: 8
bearing: 72.6459732056
intensity: 29.2992954254
---
header: 
  seq: 184604
  stamp: 
    secs: 1561866381
    nsecs: 807149578
  frame_id: "ti_mmwave"
point_id: 14
x: 0.041015625
y: -0.033203125
z: 0.0625
range: 0.0871539413929
velocity: 0.0
doppler_bin: 8
bearing: -38.9909973145
intensity: 30.0945091248
---
header: 
  seq: 184605
  stamp: 
    secs: 1561866381
    nsecs: 807159822
  frame_id: "ti_mmwave"
point_id: 15
x: 0.044921875
y: -0.046875
z: 0.103515625
range: 0.130730912089
velocity: 0.0
doppler_bin: 8
bearing: -46.218875885
intensity: 28.9982051849
---
header: 
  seq: 184606
  stamp: 
    secs: 1561866381
    nsecs: 808031438
  frame_id: "ti_mmwave"
point_id: 0
x: 0.01171875
y: -0.0390625
z: -0.0078125
range: 0.0435769706964
velocity: 0.0
doppler_bin: 8
bearing: -73.3007583618
intensity: 30.6445808411
---
header: 
  seq: 184607
  stamp: 
    secs: 1561866381
    nsecs: 808099901
  frame_id: "ti_mmwave"
point_id: 1
x: 0.017578125
y: -0.080078125
z: -0.0078125
range: 0.0871539413929
velocity: 0.0
doppler_bin: 8
bearing: -77.6192398071
intensity: 31.9061183929
---
header: 
  seq: 184608
  stamp: 
    secs: 1561866381
    nsecs: 808119458
  frame_id: "ti_mmwave"
point_id: 2
x: 0.029296875
y: -0.119140625
z: -0.005859375
range: 0.130730912089
velocity: 0.0
doppler_bin: 8
bearing: -76.1849746704
intensity: 30.1325874329
---
header: 
  seq: 184609
  stamp: 
    secs: 1561866381
    nsecs: 808133750
  frame_id: "ti_mmwave"
point_id: 3
x: 0.056640625
y: -0.154296875
z: 0.005859375
range: 0.174307882786
velocity: 0.0
doppler_bin: 8
bearing: -69.8423843384
intensity: 25.4530715942
---
header: 
  seq: 184610
  stamp: 
    secs: 1561866381
    nsecs: 808150824
  frame_id: "ti_mmwave"
point_id: 4
x: 0.107421875
y: -0.080078125
z: 1.26171875
range: 1.35088610649
velocity: 0.0
doppler_bin: 8
bearing: -36.7028541565
intensity: 23.0963020325
---
header: 
  seq: 184611
  stamp: 
    secs: 1561866381
    nsecs: 808169830
  frame_id: "ti_mmwave"
point_id: 6
x: 0.423828125
y: -0.083984375
z: -1.279296875
range: 1.43804001808
velocity: 0.0
doppler_bin: 8
bearing: -11.2083444595
intensity: 23.0749607086
---
header: 
  seq: 184612
  stamp: 
    secs: 1561866381
    nsecs: 808183651
  frame_id: "ti_mmwave"
point_id: 7
x: 1.712890625
y: -0.0
z: -0.140625
range: 1.83023273945
velocity: 0.0
doppler_bin: 8
bearing: -0.0
intensity: 27.7887439728
---
header: 
  seq: 184613
  stamp: 
    secs: 1561866381
    nsecs: 808197688
  frame_id: "ti_mmwave"
point_id: 8
x: 1.74609375
y: 0.0546875
z: -0.197265625
range: 1.87380969524
velocity: 0.0
doppler_bin: 8
bearing: 1.79391229153
intensity: 28.7852172852
---
header: 
  seq: 184614
  stamp: 
    secs: 1561866381
    nsecs: 808212186
  frame_id: "ti_mmwave"
point_id: 9
x: 1.78125
y: 0.11328125
z: -0.2265625
range: 1.91738677025
velocity: 0.0
doppler_bin: 8
bearing: 3.63891005516
intensity: 27.4429302216
---
header: 
  seq: 184615
  stamp: 
    secs: 1561866381
    nsecs: 808227113
  frame_id: "ti_mmwave"
point_id: 10
x: 2.61328125
y: -0.17578125
z: 1.05078125
range: 3.00681090355
velocity: 0.0
doppler_bin: 8
bearing: -3.84817934036
intensity: 29.0794849396
---
header: 
  seq: 184616
  stamp: 
    secs: 1561866381
    nsecs: 808304135
  frame_id: "ti_mmwave"
point_id: 11
x: 2.65625
y: -0.1796875
z: 1.0546875
range: 3.05038785934
velocity: 0.0
doppler_bin: 8
bearing: -3.86999511719
intensity: 32.2323608398
---
header: 
  seq: 184617
  stamp: 
    secs: 1561866381
    nsecs: 808320089
  frame_id: "ti_mmwave"
point_id: 12
x: 2.75
y: -0.08984375
z: 0.931640625
range: 3.09396481514
velocity: 0.0
doppler_bin: 8
bearing: -1.87121355534
intensity: 31.1892566681
---
header: 
  seq: 184618
  stamp: 
    secs: 1561866381
    nsecs: 808337417
  frame_id: "ti_mmwave"
point_id: 13
x: 0.009765625
y: 0.03125
z: 0.025390625
range: 0.0435769706964
velocity: 0.0
doppler_bin: 8
bearing: 72.6459732056
intensity: 29.2941894531
---
header: 
  seq: 184619
  stamp: 
    secs: 1561866381
    nsecs: 808351192
  frame_id: "ti_mmwave"
point_id: 14
x: 0.041015625
y: -0.033203125
z: 0.0625
range: 0.0871539413929
velocity: 0.0
doppler_bin: 8
bearing: -38.9909973145
intensity: 30.0945091248
---
header: 
  seq: 184620
  stamp: 
    secs: 1561866381
    nsecs: 808364459
  frame_id: "ti_mmwave"
point_id: 15
x: 0.044921875
y: -0.046875
z: 0.103515625
range: 0.130730912089
velocity: 0.0
doppler_bin: 8
bearing: -46.218875885
intensity: 28.9927310944
---
header: 
  seq: 184621
  stamp: 
    secs: 1561866381
    nsecs: 867076353
  frame_id: "ti_mmwave"
point_id: 0
x: 0.01171875
y: -0.0390625
z: -0.0078125
range: 0.0435769706964
velocity: 0.0
doppler_bin: 8
bearing: -73.3007583618
intensity: 30.6445808411
---
header: 
  seq: 184622
  stamp: 
    secs: 1561866381
    nsecs: 867153844
  frame_id: "ti_mmwave"
point_id: 1
x: 0.017578125
y: -0.080078125
z: -0.0078125
range: 0.0871539413929
velocity: 0.0
doppler_bin: 8
bearing: -77.6192398071
intensity: 31.9061183929
---
header: 
  seq: 184623
  stamp: 
    secs: 1561866381
    nsecs: 867167856
  frame_id: "ti_mmwave"
point_id: 2
x: 0.029296875
y: -0.119140625
z: -0.005859375
range: 0.130730912089
velocity: 0.0
doppler_bin: 8
bearing: -76.1849746704
intensity: 30.1367969513
---
header: 
  seq: 184624
  stamp: 
    secs: 1561866381
    nsecs: 867179057
  frame_id: "ti_mmwave"
point_id: 3
x: 0.056640625
y: -0.154296875
z: 0.005859375
range: 0.174307882786
velocity: 0.0
doppler_bin: 8
bearing: -69.8423843384
intensity: 25.4530715942
---
header: 
  seq: 184625
  stamp: 
    secs: 1561866381
    nsecs: 867190232
  frame_id: "ti_mmwave"
point_id: 4
x: 0.078125
y: -0.080078125
z: 1.263671875
range: 1.35088610649
velocity: 0.0
doppler_bin: 8
bearing: -45.7073173523
intensity: 23.0749607086
---
header: 
  seq: 184626
  stamp: 
    secs: 1561866381
    nsecs: 867202455
  frame_id: "ti_mmwave"
point_id: 6
x: 0.4296875
y: -0.083984375
z: -1.27734375
range: 1.43804001808
velocity: 0.0
doppler_bin: 8
bearing: -11.0592975616
intensity: 23.0535144806
---
header: 
  seq: 184627
  stamp: 
    secs: 1561866381
    nsecs: 867213619
  frame_id: "ti_mmwave"
point_id: 7
x: 0.5625
y: -0.04296875
z: -1.271484375
range: 1.48161697388
velocity: 0.0
doppler_bin: 8
bearing: -4.36827754974
intensity: 21.6435279846
---
header: 
  seq: 184628
  stamp: 
    secs: 1561866381
    nsecs: 867366892
  frame_id: "ti_mmwave"
point_id: 8
x: 1.7109375
y: -0.0
z: -0.1640625
range: 1.83023273945
velocity: 0.0
doppler_bin: 8
bearing: -0.0
intensity: 26.180480957
---
header: 
  seq: 184629
  stamp: 
    secs: 1561866381
    nsecs: 867386335
  frame_id: "ti_mmwave"
point_id: 9
x: 1.755859375
y: 0.0546875
z: -0.076171875
range: 1.87380969524
velocity: 0.0
doppler_bin: 8
bearing: 1.78394150734
intensity: 28.7390155792
---
header: 
  seq: 184630
  stamp: 
    secs: 1561866381
    nsecs: 867394698
  frame_id: "ti_mmwave"
point_id: 10
x: 1.798828125
y: 0.056640625
z: -0.05078125
range: 1.91738677025
velocity: 0.0
doppler_bin: 8
bearing: 1.8035056591
intensity: 28.1424751282
---
header: 
  seq: 184631
  stamp: 
    secs: 1561866381
    nsecs: 867405766
  frame_id: "ti_mmwave"
point_id: 11
x: 2.609375
y: -0.17578125
z: 1.0625
range: 3.00681090355
velocity: 0.0
doppler_bin: 8
bearing: -3.85392260551
intensity: 28.9153747559
---
header: 
  seq: 184632
  stamp: 
    secs: 1561866381
    nsecs: 867461440
  frame_id: "ti_mmwave"
point_id: 12
x: 2.66015625
y: -0.1796875
z: 1.046875
range: 3.05038785934
velocity: 0.0
doppler_bin: 8
bearing: -3.86432933807
intensity: 32.2063102722
---
header: 
  seq: 184633
  stamp: 
    secs: 1561866381
    nsecs: 867471029
  frame_id: "ti_mmwave"
point_id: 13
x: 2.75390625
y: -0.08984375
z: 0.916015625
range: 3.09396481514
velocity: 0.0
doppler_bin: 8
bearing: -1.86856126785
intensity: 31.2742881775
---
header: 
  seq: 184634
  stamp: 
    secs: 1561866381
    nsecs: 867481876
  frame_id: "ti_mmwave"
point_id: 14
x: 0.009765625
y: 0.03125
z: 0.025390625
range: 0.0435769706964
velocity: 0.0
doppler_bin: 8
bearing: 72.6459732056
intensity: 29.2941894531
---
header: 
  seq: 184635
  stamp: 
    secs: 1561866381
    nsecs: 867490398
  frame_id: "ti_mmwave"
point_id: 15
x: 0.041015625
y: -0.033203125
z: 0.0625
range: 0.0871539413929
velocity: 0.0
doppler_bin: 8
bearing: -38.9909973145
intensity: 30.0945091248
---
header: 
  seq: 184636
  stamp: 
    secs: 1561866381
    nsecs: 867498365
  frame_id: "ti_mmwave"
point_id: 16
x: 0.046875
y: -0.046875
z: 0.103515625
range: 0.130730912089
velocity: 0.0
doppler_bin: 8
bearing: -45.0
intensity: 28.9982051849
---
header: 
  seq: 184637
  stamp: 
    secs: 1561866381
    nsecs: 868221183
  frame_id: "ti_mmwave"
point_id: 0
x: 0.01171875
y: -0.0390625
z: -0.0078125
range: 0.0435769706964
velocity: 0.0
doppler_bin: 8
bearing: -73.3007583618
intensity: 30.6445808411
---
header: 
  seq: 184638
  stamp: 
    secs: 1561866381
    nsecs: 868272620
  frame_id: "ti_mmwave"
point_id: 1
x: 0.017578125
y: -0.080078125
z: -0.0078125
range: 0.0871539413929
velocity: 0.0
doppler_bin: 8
bearing: -77.6192398071
intensity: 31.9033164978
---
header: 
  seq: 184639
  stamp: 
    secs: 1561866381
    nsecs: 868283771
  frame_id: "ti_mmwave"
point_id: 2
x: 0.029296875
y: -0.119140625
z: -0.005859375
range: 0.130730912089
velocity: 0.0
doppler_bin: 8
bearing: -76.1849746704
intensity: 30.1325874329
---
header: 
  seq: 184640
  stamp: 
    secs: 1561866381
    nsecs: 868292917
  frame_id: "ti_mmwave"
point_id: 3
x: 0.056640625
y: -0.154296875
z: 0.005859375
range: 0.174307882786
velocity: 0.0
doppler_bin: 8
bearing: -69.8423843384
intensity: 25.4406795502
---
header: 
  seq: 184641
  stamp: 
    secs: 1561866381
    nsecs: 868303126
  frame_id: "ti_mmwave"
point_id: 4
x: 0.09375
y: -0.080078125
z: 1.26171875
range: 1.35088610649
velocity: 0.0
doppler_bin: 8
bearing: -40.5028457642
intensity: 23.1175384521
---
header: 
  seq: 184642
  stamp: 
    secs: 1561866381
    nsecs: 868314702
  frame_id: "ti_mmwave"
point_id: 6
x: 0.4453125
y: -0.083984375
z: -1.271484375
range: 1.43804001808
velocity: 0.0
doppler_bin: 8
bearing: -10.6803331375
intensity: 23.0749607086
---
header: 
  seq: 184643
  stamp: 
    secs: 1561866381
    nsecs: 868380876
  frame_id: "ti_mmwave"
point_id: 7
x: 0.58203125
y: -0.04296875
z: -1.26171875
range: 1.48161697388
velocity: 0.0
doppler_bin: 8
bearing: -4.22222995758
intensity: 21.7318630219
---
header: 
  seq: 184644
  stamp: 
    secs: 1561866381
    nsecs: 868391892
  frame_id: "ti_mmwave"
point_id: 8
x: 1.75
y: 0.1640625
z: 0.076171875
range: 1.87380969524
velocity: 0.0
doppler_bin: 8
bearing: 5.35582494736
intensity: 29.1539974213
---
header: 
  seq: 184645
  stamp: 
    secs: 1561866381
    nsecs: 868399849
  frame_id: "ti_mmwave"
point_id: 9
x: 1.791015625
y: 0.16796875
z: -0.05078125
range: 1.91738677025
velocity: 0.0
doppler_bin: 8
bearing: 5.35776042938
intensity: 28.7506122589
---
header: 
  seq: 184646
  stamp: 
    secs: 1561866381
    nsecs: 868407415
  frame_id: "ti_mmwave"
point_id: 10
x: 2.609375
y: -0.17578125
z: 1.0625
range: 3.00681090355
velocity: 0.0
doppler_bin: 8
bearing: -3.85392260551
intensity: 29.0525608063
---
header: 
  seq: 184647
  stamp: 
    secs: 1561866381
    nsecs: 868415097
  frame_id: "ti_mmwave"
point_id: 11
x: 2.66015625
y: -0.1796875
z: 1.044921875
range: 3.05038785934
velocity: 0.0
doppler_bin: 8
bearing: -3.86432933807
intensity: 32.1642990112
---
header: 
  seq: 184648
  stamp: 
    secs: 1561866381
    nsecs: 868425262
  frame_id: "ti_mmwave"
point_id: 12
x: 2.755859375
y: -0.08984375
z: 0.912109375
range: 3.09396481514
velocity: 0.0
doppler_bin: 8
bearing: -1.86723792553
intensity: 31.095785141
---
header: 
  seq: 184649
  stamp: 
    secs: 1561866381
    nsecs: 868437036
  frame_id: "ti_mmwave"
point_id: 13
x: 0.009765625
y: 0.03125
z: 0.025390625
range: 0.0435769706964
velocity: 0.0
doppler_bin: 8
bearing: 72.6459732056
intensity: 29.2992954254
---
header: 
  seq: 184650
  stamp: 
    secs: 1561866381
    nsecs: 868451724
  frame_id: "ti_mmwave"
point_id: 14
x: 0.041015625
y: -0.033203125
z: 0.0625
range: 0.0871539413929
velocity: 0.0
doppler_bin: 8
bearing: -38.9909973145
intensity: 30.0945091248
---
header: 
  seq: 184651
  stamp: 
    secs: 1561866381
    nsecs: 868466652
  frame_id: "ti_mmwave"
point_id: 15
x: 0.046875
y: -0.046875
z: 0.103515625
range: 0.130730912089
velocity: 0.0
doppler_bin: 8
bearing: -45.0
intensity: 28.9982051849
---
header: 
  seq: 184652
  stamp: 
    secs: 1561866381
    nsecs: 927185225
  frame_id: "ti_mmwave"
point_id: 0
x: 0.01171875
y: -0.0390625
z: -0.0078125
range: 0.0435769706964
velocity: 0.0
doppler_bin: 8
bearing: -73.3007583618
intensity: 30.6483230591
---
header: 
  seq: 184653
  stamp: 
    secs: 1561866381
    nsecs: 927282851
  frame_id: "ti_mmwave"
point_id: 1
x: 0.017578125
y: -0.080078125
z: -0.0078125
range: 0.0871539413929
velocity: 0.0
doppler_bin: 8
bearing: -77.6192398071
intensity: 31.9061183929
---
header: 
  seq: 184654
  stamp: 
    secs: 1561866381
    nsecs: 927300267
  frame_id: "ti_mmwave"
point_id: 2
x: 0.029296875
y: -0.119140625
z: -0.005859375
range: 0.130730912089
velocity: 0.0
doppler_bin: 8
bearing: -76.1849746704
intensity: 30.1367969513
---
header: 
  seq: 184655
  stamp: 
    secs: 1561866381
    nsecs: 927316000
  frame_id: "ti_mmwave"
point_id: 3
x: 0.056640625
y: -0.154296875
z: 0.005859375
range: 0.174307882786
velocity: 0.0
doppler_bin: 8
bearing: -69.8423843384
intensity: 25.4406795502
---
header: 
  seq: 184656
  stamp: 
    secs: 1561866381
    nsecs: 927340910
  frame_id: "ti_mmwave"
point_id: 4
x: 0.076171875
y: -0.080078125
z: 1.263671875
range: 1.35088610649
velocity: 0.0
doppler_bin: 8
bearing: -46.4320983887
intensity: 23.1175384521
---
header: 
  seq: 184657
  stamp: 
    secs: 1561866381
    nsecs: 927423870
  frame_id: "ti_mmwave"
point_id: 6
x: 0.4453125
y: -0.083984375
z: -1.271484375
range: 1.43804001808
velocity: 0.0
doppler_bin: 8
bearing: -10.6803331375
intensity: 23.0749607086
---
header: 
  seq: 184658
  stamp: 
    secs: 1561866381
    nsecs: 927441579
  frame_id: "ti_mmwave"
point_id: 7
x: 0.59765625
y: -0.04296875
z: -1.255859375
range: 1.48161697388
velocity: 0.0
doppler_bin: 8
bearing: -4.11222887039
intensity: 21.6731739044
---
header: 
  seq: 184659
  stamp: 
    secs: 1561866381
    nsecs: 927454345
  frame_id: "ti_mmwave"
point_id: 8
x: 1.755859375
y: -0.109375
z: -0.02734375
range: 1.87380969524
velocity: 0.0
doppler_bin: 8
bearing: -3.56443095207
intensity: 29.5856380463
---
header: 
  seq: 184660
  stamp: 
    secs: 1561866381
    nsecs: 927467616
  frame_id: "ti_mmwave"
point_id: 9
x: 2.599609375
y: -0.17578125
z: 1.083984375
range: 3.00681090355
velocity: 0.0
doppler_bin: 8
bearing: -3.86835670471
intensity: 28.8930168152
---
header: 
  seq: 184661
  stamp: 
    secs: 1561866381
    nsecs: 927476829
  frame_id: "ti_mmwave"
point_id: 10
x: 2.654296875
y: -0.1796875
z: 1.05859375
range: 3.05038785934
velocity: 0.0
doppler_bin: 8
bearing: -3.87283420563
intensity: 32.1138763428
---
header: 
  seq: 184662
  stamp: 
    secs: 1561866381
    nsecs: 927500592
  frame_id: "ti_mmwave"
point_id: 11
x: 2.751953125
y: -0.08984375
z: 0.923828125
range: 3.09396481514
velocity: 0.0
doppler_bin: 8
bearing: -1.86988639832
intensity: 31.0653076172
---
header: 
  seq: 184663
  stamp: 
    secs: 1561866381
    nsecs: 927517487
  frame_id: "ti_mmwave"
point_id: 12
x: 1.798828125
y: -0.0
z: 0.041015625
range: 1.91738677025
velocity: -0.614668667316
doppler_bin: 7
bearing: -0.0
intensity: 30.7664051056
---
header: 
  seq: 184664
  stamp: 
    secs: 1561866381
    nsecs: 927581381
  frame_id: "ti_mmwave"
point_id: 13
x: 1.83984375
y: -0.0
z: 0.04296875
range: 1.96096372604
velocity: -0.614668667316
doppler_bin: 7
bearing: -0.0
intensity: 29.4890174866
---
header: 
  seq: 184665
  stamp: 
    secs: 1561866381
    nsecs: 927596600
  frame_id: "ti_mmwave"
point_id: 14
x: 0.009765625
y: 0.03125
z: 0.025390625
range: 0.0435769706964
velocity: 0.0
doppler_bin: 8
bearing: 72.6459732056
intensity: 29.2992954254
---
header: 
  seq: 184666
  stamp: 
    secs: 1561866381
    nsecs: 927613143
  frame_id: "ti_mmwave"
point_id: 15
x: 0.041015625
y: -0.033203125
z: 0.0625
range: 0.0871539413929
velocity: 0.0
doppler_bin: 8
bearing: -38.9909973145
intensity: 30.0902576447
---
header: 
  seq: 184667
  stamp: 
    secs: 1561866381
    nsecs: 927626893
  frame_id: "ti_mmwave"
point_id: 16
x: 0.044921875
y: -0.046875
z: 0.103515625
range: 0.130730912089
velocity: 0.0
doppler_bin: 8
bearing: -46.218875885
intensity: 28.9982051849
---
header: 
  seq: 184668
  stamp: 
    secs: 1561866381
    nsecs: 987044971
  frame_id: "ti_mmwave"
point_id: 0
x: 0.01171875
y: -0.0390625
z: -0.0078125
range: 0.0435769706964
velocity: 0.0
doppler_bin: 8
bearing: -73.3007583618
intensity: 30.6483230591
---
header: 
  seq: 184669
  stamp: 
    secs: 1561866381
    nsecs: 987119572
  frame_id: "ti_mmwave"
point_id: 1
x: 0.017578125
y: -0.080078125
z: -0.0078125
range: 0.0871539413929
velocity: 0.0
doppler_bin: 8
bearing: -77.6192398071
intensity: 31.9033164978
---
header: 
  seq: 184670
  stamp: 
    secs: 1561866381
    nsecs: 987137773
  frame_id: "ti_mmwave"
point_id: 2
x: 0.029296875
y: -0.119140625
z: -0.005859375
range: 0.130730912089
velocity: 0.0
doppler_bin: 8
bearing: -76.1849746704
intensity: 30.1325874329
---
header: 
  seq: 184671
  stamp: 
    secs: 1561866381
    nsecs: 987155361
  frame_id: "ti_mmwave"
point_id: 3
x: 0.056640625
y: -0.154296875
z: 0.005859375
range: 0.174307882786
velocity: 0.0
doppler_bin: 8
bearing: -69.8423843384
intensity: 25.4530715942
---
header: 
  seq: 184672
  stamp: 
    secs: 1561866381
    nsecs: 987166081
  frame_id: "ti_mmwave"
point_id: 4
x: 0.15234375
y: -0.080078125
z: 1.255859375
range: 1.35088610649
velocity: 0.0
doppler_bin: 8
bearing: -27.7282581329
intensity: 23.0963020325
---
header: 
  seq: 184673
  stamp: 
    secs: 1561866381
    nsecs: 987175284
  frame_id: "ti_mmwave"
point_id: 5
x: 0.046875
y: -0.08203125
z: 1.3046875
range: 1.39446306229
velocity: 0.0
doppler_bin: 8
bearing: -60.255115509
intensity: 24.6389293671
---
header: 
  seq: 184674
  stamp: 
    secs: 1561866381
    nsecs: 987185184
  frame_id: "ti_mmwave"
point_id: 6
x: 0.4140625
y: -0.083984375
z: -1.283203125
range: 1.43804001808
velocity: 0.0
doppler_bin: 8
bearing: -11.4657688141
intensity: 23.1175384521
---
header: 
  seq: 184675
  stamp: 
    secs: 1561866381
    nsecs: 987193834
  frame_id: "ti_mmwave"
point_id: 7
x: 0.564453125
y: -0.04296875
z: -1.26953125
range: 1.48161697388
velocity: 0.0
doppler_bin: 8
bearing: -4.35321998596
intensity: 21.7026176453
---
header: 
  seq: 184676
  stamp: 
    secs: 1561866381
    nsecs: 987201611
  frame_id: "ti_mmwave"
point_id: 8
x: 1.7109375
y: -0.052734375
z: -0.140625
range: 1.83023273945
velocity: 0.0
doppler_bin: 8
bearing: -1.765406847
intensity: 28.9597473145
---
header: 
  seq: 184677
  stamp: 
    secs: 1561866381
    nsecs: 987216660
  frame_id: "ti_mmwave"
point_id: 9
x: 1.7578125
y: -0.0
z: -0.0859375
range: 1.87380969524
velocity: 0.0
doppler_bin: 8
bearing: -0.0
intensity: 30.2242832184
---
header: 
  seq: 184678
  stamp: 
    secs: 1561866381
    nsecs: 987394282
  frame_id: "ti_mmwave"
point_id: 10
x: 1.798828125
y: -0.0
z: 0.021484375
range: 1.91738677025
velocity: 0.0
doppler_bin: 8
bearing: -0.0
intensity: 28.4323272705
---
header: 
  seq: 184679
  stamp: 
    secs: 1561866381
    nsecs: 987421965
  frame_id: "ti_mmwave"
point_id: 11
x: 2.654296875
y: -0.1796875
z: 1.05859375
range: 3.05038785934
velocity: 0.0
doppler_bin: 8
bearing: -3.87283420563
intensity: 32.1165428162
---
header: 
  seq: 184680
  stamp: 
    secs: 1561866381
    nsecs: 987434330
  frame_id: "ti_mmwave"
point_id: 12
x: 2.748046875
y: -0.08984375
z: 0.93359375
range: 3.09396481514
velocity: 0.0
doppler_bin: 8
bearing: -1.8725425005
intensity: 31.095785141
---
header: 
  seq: 184681
  stamp: 
    secs: 1561866381
    nsecs: 987446702
  frame_id: "ti_mmwave"
point_id: 13
x: 4.416015625
y: -0.287109375
z: 1.18359375
range: 4.88062095642
velocity: 0.0
doppler_bin: 8
bearing: -3.71987724304
intensity: 29.1434307098
---
header: 
  seq: 184682
  stamp: 
    secs: 1561866381
    nsecs: 987486114
  frame_id: "ti_mmwave"
point_id: 14
x: 0.009765625
y: 0.03125
z: 0.025390625
range: 0.0435769706964
velocity: 0.0
doppler_bin: 8
bearing: 72.6459732056
intensity: 29.3043956757
---
header: 
  seq: 184683
  stamp: 
    secs: 1561866381
    nsecs: 987513476
  frame_id: "ti_mmwave"
point_id: 15
x: 0.041015625
y: -0.033203125
z: 0.0625
range: 0.0871539413929
velocity: 0.0
doppler_bin: 8
bearing: -38.9909973145
intensity: 30.0902576447
---
header: 
  seq: 184684
  stamp: 
    secs: 1561866381
    nsecs: 987578155
  frame_id: "ti_mmwave"
point_id: 16
x: 0.044921875
y: -0.046875
z: 0.103515625
range: 0.130730912089
velocity: 0.0
doppler_bin: 8
bearing: -46.218875885
intensity: 28.9982051849
---
header: 
  seq: 184685
  stamp: 
    secs: 1561866381
    nsecs: 988405065
  frame_id: "ti_mmwave"
point_id: 0
x: 0.01171875
y: -0.0390625
z: -0.0078125
range: 0.0435769706964
velocity: 0.0
doppler_bin: 8
bearing: -73.3007583618
intensity: 30.6483230591
---
header: 
  seq: 184686
  stamp: 
    secs: 1561866381
    nsecs: 988480911
  frame_id: "ti_mmwave"
point_id: 1
x: 0.017578125
y: -0.080078125
z: -0.0078125
range: 0.0871539413929
velocity: 0.0
doppler_bin: 8
bearing: -77.6192398071
intensity: 31.9033164978
---
header: 
  seq: 184687
  stamp: 
    secs: 1561866381
    nsecs: 988498434
  frame_id: "ti_mmwave"
point_id: 2
x: 0.029296875
y: -0.119140625
z: -0.005859375
range: 0.130730912089
velocity: 0.0
doppler_bin: 8
bearing: -76.1849746704
intensity: 30.1367969513
---
header: 
  seq: 184688
  stamp: 
    secs: 1561866381
    nsecs: 988514522
  frame_id: "ti_mmwave"
point_id: 3
x: 0.056640625
y: -0.154296875
z: 0.005859375
range: 0.174307882786
velocity: 0.0
doppler_bin: 8
bearing: -69.8423843384
intensity: 25.4654273987
---
header: 
  seq: 184689
  stamp: 
    secs: 1561866381
    nsecs: 988580910
  frame_id: "ti_mmwave"
point_id: 4
x: 0.142578125
y: -0.080078125
z: 1.2578125
range: 1.35088610649
velocity: 0.0
doppler_bin: 8
bearing: -29.3204746246
intensity: 23.1175384521
---
header: 
  seq: 184690
  stamp: 
    secs: 1561866381
    nsecs: 988603839
  frame_id: "ti_mmwave"
point_id: 6
x: 0.4453125
y: -0.083984375
z: -1.271484375
range: 1.43804001808
velocity: 0.0
doppler_bin: 8
bearing: -10.6803331375
intensity: 23.0749607086
---
header: 
  seq: 184691
  stamp: 
    secs: 1561866381
    nsecs: 988617359
  frame_id: "ti_mmwave"
point_id: 7
x: 0.587890625
y: -0.04296875
z: -1.259765625
range: 1.48161697388
velocity: 0.0
doppler_bin: 8
bearing: -4.1802983284
intensity: 21.6435279846
---
header: 
  seq: 184692
  stamp: 
    secs: 1561866381
    nsecs: 988630702
  frame_id: "ti_mmwave"
point_id: 8
x: 1.693359375
y: -0.052734375
z: -0.28125
range: 1.83023273945
velocity: 0.0
doppler_bin: 8
bearing: -1.78372108936
intensity: 26.7669353485
---
header: 
  seq: 184693
  stamp: 
    secs: 1561866381
    nsecs: 988643357
  frame_id: "ti_mmwave"
point_id: 9
x: 1.751953125
y: -0.0
z: -0.162109375
range: 1.87380969524
velocity: 0.0
doppler_bin: 8
bearing: -0.0
intensity: 29.1960105896
---
header: 
  seq: 184694
  stamp: 
    secs: 1561866381
    nsecs: 988656668
  frame_id: "ti_mmwave"
point_id: 10
x: 1.798828125
y: -0.0
z: -0.068359375
range: 1.91738677025
velocity: 0.0
doppler_bin: 8
bearing: -0.0
intensity: 28.5973854065
---
header: 
  seq: 184695
  stamp: 
    secs: 1561866381
    nsecs: 988666280
  frame_id: "ti_mmwave"
point_id: 11
x: 2.6640625
y: -0.1796875
z: 1.033203125
range: 3.05038785934
velocity: 0.0
doppler_bin: 8
bearing: -3.85868024826
intensity: 32.2530937195
---
header: 
  seq: 184696
  stamp: 
    secs: 1561866381
    nsecs: 988720631
  frame_id: "ti_mmwave"
point_id: 12
x: 2.7578125
y: -0.08984375
z: 0.904296875
range: 3.09396481514
velocity: 0.0
doppler_bin: 8
bearing: -1.86591637135
intensity: 31.2319812775
---
header: 
  seq: 184697
  stamp: 
    secs: 1561866381
    nsecs: 988739293
  frame_id: "ti_mmwave"
point_id: 13
x: 4.41796875
y: -0.287109375
z: 1.181640625
range: 4.88062095642
velocity: 0.0
doppler_bin: 8
bearing: -3.71823716164
intensity: 29.3298072815
---
header: 
  seq: 184698
  stamp: 
    secs: 1561866381
    nsecs: 988755993
  frame_id: "ti_mmwave"
point_id: 14
x: 4.478515625
y: -0.14453125
z: 1.1328125
range: 4.9241976738
velocity: 0.0
doppler_bin: 8
bearing: -1.84841549397
intensity: 28.5973854065
---
header: 
  seq: 184699
  stamp: 
    secs: 1561866381
    nsecs: 988774048
  frame_id: "ti_mmwave"
point_id: 16
x: 0.041015625
y: -0.033203125
z: 0.0625
range: 0.0871539413929
velocity: 0.0
doppler_bin: 8
bearing: -38.9909973145
intensity: 30.0987567902
---
header: 
  seq: 184700
  stamp: 
    secs: 1561866381
    nsecs: 988788001
  frame_id: "ti_mmwave"
point_id: 17
x: 0.046875
y: -0.046875
z: 0.103515625
range: 0.130730912089
velocity: 0.0
doppler_bin: 8
bearing: -45.0
intensity: 29.0036716461
---
header: 
  seq: 184701
  stamp: 
    secs: 1561866382
    nsecs:  47392226
  frame_id: "ti_mmwave"
point_id: 0
x: 0.01171875
y: -0.0390625
z: -0.0078125
range: 0.0435769706964
velocity: 0.0
doppler_bin: 8
bearing: -73.3007583618
intensity: 30.6445808411
---
header: 
  seq: 184702
  stamp: 
    secs: 1561866382
    nsecs:  47490962
  frame_id: "ti_mmwave"
point_id: 1
x: 0.017578125
y: -0.080078125
z: -0.0078125
range: 0.0871539413929
velocity: 0.0
doppler_bin: 8
bearing: -77.6192398071
intensity: 31.9089164734
---
header: 
  seq: 184703
  stamp: 
    secs: 1561866382
    nsecs:  47511073
  frame_id: "ti_mmwave"
point_id: 2
x: 0.029296875
y: -0.119140625
z: -0.005859375
range: 0.130730912089
velocity: 0.0
doppler_bin: 8
bearing: -76.1849746704
intensity: 30.1367969513
---
header: 
  seq: 184704
  stamp: 
    secs: 1561866382
    nsecs:  47526775
  frame_id: "ti_mmwave"
point_id: 3
x: 0.056640625
y: -0.154296875
z: 0.0078125
range: 0.174307882786
velocity: 0.0
doppler_bin: 8
bearing: -69.8423843384
intensity: 25.4654273987
---
header: 
  seq: 184705
  stamp: 
    secs: 1561866382
    nsecs:  47541167
  frame_id: "ti_mmwave"
point_id: 4
x: 0.060546875
y: -0.080078125
z: 1.263671875
range: 1.35088610649
velocity: 0.0
doppler_bin: 8
bearing: -52.9071655273
intensity: 23.0749607086
---
header: 
  seq: 184706
  stamp: 
    secs: 1561866382
    nsecs:  47628097
  frame_id: "ti_mmwave"
point_id: 6
x: 0.419921875
y: -0.083984375
z: -1.279296875
range: 1.43804001808
velocity: 0.0
doppler_bin: 8
bearing: -11.3099327087
intensity: 23.0535144806
---
header: 
  seq: 184707
  stamp: 
    secs: 1561866382
    nsecs:  47645507
  frame_id: "ti_mmwave"
point_id: 7
x: 0.564453125
y: -0.04296875
z: -1.26953125
range: 1.48161697388
velocity: 0.0
doppler_bin: 8
bearing: -4.35321998596
intensity: 21.6435279846
---
header: 
  seq: 184708
  stamp: 
    secs: 1561866382
    nsecs:  47660094
  frame_id: "ti_mmwave"
point_id: 8
x: 1.669921875
y: -0.0
z: -0.158203125
range: 1.78665578365
velocity: 0.0
doppler_bin: 8
bearing: -0.0
intensity: 27.5127906799
---
header: 
  seq: 184709
  stamp: 
    secs: 1561866382
    nsecs:  47675379
  frame_id: "ti_mmwave"
point_id: 9
x: 1.712890625
y: -0.0
z: -0.12890625
range: 1.83023273945
velocity: 0.0
doppler_bin: 8
bearing: -0.0
intensity: 30.1535968781
---
header: 
  seq: 184710
  stamp: 
    secs: 1561866382
    nsecs:  47693553
  frame_id: "ti_mmwave"
point_id: 10
x: 1.755859375
y: 0.0546875
z: -0.0859375
range: 1.87380969524
velocity: 0.0
doppler_bin: 8
bearing: 1.78394150734
intensity: 30.7481651306
---
header: 
  seq: 184711
  stamp: 
    secs: 1561866382
    nsecs:  47707844
  frame_id: "ti_mmwave"
point_id: 11
x: 1.798828125
y: -0.0
z: -0.046875
range: 1.91738677025
velocity: 0.0
doppler_bin: 8
bearing: -0.0
intensity: 29.863237381
---
header: 
  seq: 184712
  stamp: 
    secs: 1561866382
    nsecs:  47725257
  frame_id: "ti_mmwave"
point_id: 12
x: 1.83984375
y: 0.056640625
z: -0.03125
range: 1.96096372604
velocity: 0.0
doppler_bin: 8
bearing: 1.76332592964
intensity: 27.0842094421
---
header: 
  seq: 184713
  stamp: 
    secs: 1561866382
    nsecs:  47787071
  frame_id: "ti_mmwave"
point_id: 13
x: 2.62890625
y: -0.17578125
z: 1.013671875
range: 3.00681090355
velocity: 0.0
doppler_bin: 8
bearing: -3.82537555695
intensity: 28.9542255402
---
header: 
  seq: 184714
  stamp: 
    secs: 1561866382
    nsecs:  47808171
  frame_id: "ti_mmwave"
point_id: 14
x: 2.662109375
y: -0.1796875
z: 1.041015625
range: 3.05038785934
velocity: 0.0
doppler_bin: 8
bearing: -3.86150240898
intensity: 32.1537322998
---
header: 
  seq: 184715
  stamp: 
    secs: 1561866382
    nsecs:  47825201
  frame_id: "ti_mmwave"
point_id: 15
x: 2.751953125
y: -0.08984375
z: 0.92578125
range: 3.09396481514
velocity: 0.0
doppler_bin: 8
bearing: -1.86988639832
intensity: 31.172712326
---
header: 
  seq: 184716
  stamp: 
    secs: 1561866382
    nsecs:  47841315
  frame_id: "ti_mmwave"
point_id: 16
x: 4.4296875
y: -0.142578125
z: 1.1640625
range: 4.88062095642
velocity: 0.0
doppler_bin: 8
bearing: -1.84353971481
intensity: 29.1697998047
---
header: 
  seq: 184717
  stamp: 
    secs: 1561866382
    nsecs:  47976404
  frame_id: "ti_mmwave"
point_id: 17
x: 0.009765625
y: 0.03125
z: 0.025390625
range: 0.0435769706964
velocity: 0.0
doppler_bin: 8
bearing: 72.6459732056
intensity: 29.2992954254
---
header: 
  seq: 184718
  stamp: 
    secs: 1561866382
    nsecs:  48002720
  frame_id: "ti_mmwave"
point_id: 18
x: 0.041015625
y: -0.033203125
z: 0.0625
range: 0.0871539413929
velocity: 0.0
doppler_bin: 8
bearing: -38.9909973145
intensity: 30.0945091248
---
header: 
  seq: 184719
  stamp: 
    secs: 1561866382
    nsecs:  48051352
  frame_id: "ti_mmwave"
point_id: 19
x: 0.046875
y: -0.046875
z: 0.103515625
range: 0.130730912089
velocity: 0.0
doppler_bin: 8
bearing: -45.0
intensity: 28.9982051849
---
header: 
  seq: 184720
  stamp: 
    secs: 1561866382
    nsecs:  48760738
  frame_id: "ti_mmwave"
point_id: 0
x: 0.01171875
y: -0.0390625
z: -0.0078125
range: 0.0435769706964
velocity: 0.0
doppler_bin: 8
bearing: -73.3007583618
intensity: 30.6408348083
---
header: 
  seq: 184721
  stamp: 
    secs: 1561866382
    nsecs:  48811816
  frame_id: "ti_mmwave"
point_id: 1
x: 0.017578125
y: -0.080078125
z: -0.0078125
range: 0.0871539413929
velocity: 0.0
doppler_bin: 8
bearing: -77.6192398071
intensity: 31.9061183929
---
header: 
  seq: 184722
  stamp: 
    secs: 1561866382
    nsecs:  48824034
  frame_id: "ti_mmwave"
point_id: 2
x: 0.029296875
y: -0.119140625
z: -0.005859375
range: 0.130730912089
velocity: 0.0
doppler_bin: 8
bearing: -76.1849746704
intensity: 30.1367969513
---
header: 
  seq: 184723
  stamp: 
    secs: 1561866382
    nsecs:  48834058
  frame_id: "ti_mmwave"
point_id: 3
x: 0.056640625
y: -0.154296875
z: 0.005859375
range: 0.174307882786
velocity: 0.0
doppler_bin: 8
bearing: -69.8423843384
intensity: 25.4406795502
---
header: 
  seq: 184724
  stamp: 
    secs: 1561866382
    nsecs:  48842982
  frame_id: "ti_mmwave"
point_id: 4
x: 0.080078125
y: -0.080078125
z: 1.263671875
range: 1.35088610649
velocity: 0.0
doppler_bin: 8
bearing: -45.0
intensity: 23.1175384521
---
header: 
  seq: 184725
  stamp: 
    secs: 1561866382
    nsecs:  48852815
  frame_id: "ti_mmwave"
point_id: 6
x: 0.431640625
y: -0.083984375
z: -1.275390625
range: 1.43804001808
velocity: 0.0
doppler_bin: 8
bearing: -11.0104799271
intensity: 23.0535144806
---
header: 
  seq: 184726
  stamp: 
    secs: 1561866382
    nsecs:  48860746
  frame_id: "ti_mmwave"
point_id: 7
x: 0.591796875
y: -0.04296875
z: -1.2578125
range: 1.48161697388
velocity: 0.0
doppler_bin: 8
bearing: -4.15280246735
intensity: 21.6136798859
---
header: 
  seq: 184727
  stamp: 
    secs: 1561866382
    nsecs:  48868674
  frame_id: "ti_mmwave"
point_id: 8
x: 2.619140625
y: -0.17578125
z: 1.037109375
range: 3.00681090355
velocity: 0.0
doppler_bin: 8
bearing: -3.83959650993
intensity: 29.0525608063
---
header: 
  seq: 184728
  stamp: 
    secs: 1561866382
    nsecs:  48876090
  frame_id: "ti_mmwave"
point_id: 9
x: 2.6640625
y: -0.1796875
z: 1.03125
range: 3.05038785934
velocity: 0.0
doppler_bin: 8
bearing: -3.85868024826
intensity: 32.2245635986
---
header: 
  seq: 184729
  stamp: 
    secs: 1561866382
    nsecs:  48883993
  frame_id: "ti_mmwave"
point_id: 10
x: 2.76171875
y: -0.08984375
z: 0.896484375
range: 3.09396481514
velocity: 0.0
doppler_bin: 8
bearing: -1.86327898502
intensity: 31.2155990601
---
header: 
  seq: 184730
  stamp: 
    secs: 1561866382
    nsecs:  48894507
  frame_id: "ti_mmwave"
point_id: 11
x: 4.4296875
y: -0.142578125
z: 1.158203125
range: 4.88062095642
velocity: 0.0
doppler_bin: 8
bearing: -1.84353971481
intensity: 29.8091201782
---
header: 
  seq: 184731
  stamp: 
    secs: 1561866382
    nsecs:  48902395
  frame_id: "ti_mmwave"
point_id: 12
x: 4.4609375
y: -0.14453125
z: 1.203125
range: 4.9241976738
velocity: 0.0
doppler_bin: 8
bearing: -1.85569405556
intensity: 28.9652614594
---
header: 
  seq: 184732
  stamp: 
    secs: 1561866382
    nsecs:  48910370
  frame_id: "ti_mmwave"
point_id: 13
x: 1.765625
y: -0.0
z: 0.345703125
range: 1.91738677025
velocity: 0.614668667316
doppler_bin: 9
bearing: -0.0
intensity: 26.5991611481
---
header: 
  seq: 184733
  stamp: 
    secs: 1561866382
    nsecs:  48919446
  frame_id: "ti_mmwave"
point_id: 14
x: 1.810546875
y: -0.0
z: 0.333984375
range: 1.96096372604
velocity: 0.614668667316
doppler_bin: 9
bearing: -0.0
intensity: 25.8546066284
---
header: 
  seq: 184734
  stamp: 
    secs: 1561866382
    nsecs:  48930158
  frame_id: "ti_mmwave"
point_id: 16
x: 0.041015625
y: -0.033203125
z: 0.0625
range: 0.0871539413929
velocity: 0.0
doppler_bin: 8
bearing: -38.9909973145
intensity: 30.0945091248
---
header: 
  seq: 184735
  stamp: 
    secs: 1561866382
    nsecs:  48991906
  frame_id: "ti_mmwave"
point_id: 17
x: 0.046875
y: -0.046875
z: 0.103515625
range: 0.130730912089
velocity: 0.0
doppler_bin: 8
bearing: -45.0
intensity: 28.9927310944
---
header: 
  seq: 184736
  stamp: 
    secs: 1561866382
    nsecs: 107185535
  frame_id: "ti_mmwave"
point_id: 0
x: 0.01171875
y: -0.0390625
z: -0.0078125
range: 0.0435769706964
velocity: 0.0
doppler_bin: 8
bearing: -73.3007583618
intensity: 30.6483230591
---
header: 
  seq: 184737
  stamp: 
    secs: 1561866382
    nsecs: 107262992
  frame_id: "ti_mmwave"
point_id: 1
x: 0.017578125
y: -0.080078125
z: -0.0078125
range: 0.0871539413929
velocity: 0.0
doppler_bin: 8
bearing: -77.6192398071
intensity: 31.9089164734
---
header: 
  seq: 184738
  stamp: 
    secs: 1561866382
    nsecs: 107276392
  frame_id: "ti_mmwave"
point_id: 2
x: 0.029296875
y: -0.119140625
z: -0.005859375
range: 0.130730912089
velocity: 0.0
doppler_bin: 8
bearing: -76.1849746704
intensity: 30.141002655
---
header: 
  seq: 184739
  stamp: 
    secs: 1561866382
    nsecs: 107285358
  frame_id: "ti_mmwave"
point_id: 3
x: 0.056640625
y: -0.154296875
z: 0.005859375
range: 0.174307882786
velocity: 0.0
doppler_bin: 8
bearing: -69.8423843384
intensity: 25.4530715942
---
header: 
  seq: 184740
  stamp: 
    secs: 1561866382
    nsecs: 107294480
  frame_id: "ti_mmwave"
point_id: 4
x: 0.15625
y: -0.080078125
z: 1.255859375
range: 1.35088610649
velocity: 0.0
doppler_bin: 8
bearing: -27.1351394653
intensity: 23.0963020325
---
header: 
  seq: 184741
  stamp: 
    secs: 1561866382
    nsecs: 107304290
  frame_id: "ti_mmwave"
point_id: 6
x: 0.4375
y: -0.083984375
z: -1.2734375
range: 1.43804001808
velocity: 0.0
doppler_bin: 8
bearing: -10.8665513992
intensity: 23.0535144806
---
header: 
  seq: 184742
  stamp: 
    secs: 1561866382
    nsecs: 107312733
  frame_id: "ti_mmwave"
point_id: 7
x: 0.59375
y: -0.04296875
z: -1.255859375
range: 1.48161697388
velocity: 0.0
doppler_bin: 8
bearing: -4.13918924332
intensity: 21.6731739044
---
header: 
  seq: 184743
  stamp: 
    secs: 1561866382
    nsecs: 107325164
  frame_id: "ti_mmwave"
point_id: 8
x: 1.67578125
y: -0.0
z: -0.078125
range: 1.78665578365
velocity: 0.0
doppler_bin: 8
bearing: -0.0
intensity: 29.1697998047
---
header: 
  seq: 184744
  stamp: 
    secs: 1561866382
    nsecs: 107334280
  frame_id: "ti_mmwave"
point_id: 9
x: 1.716796875
y: 0.052734375
z: 0.001953125
range: 1.83023273945
velocity: 0.0
doppler_bin: 8
bearing: 1.75938534737
intensity: 31.0037059784
---
header: 
  seq: 184745
  stamp: 
    secs: 1561866382
    nsecs: 107342844
  frame_id: "ti_mmwave"
point_id: 10
x: 1.75390625
y: 0.0546875
z: 0.134765625
range: 1.87380969524
velocity: 0.0
doppler_bin: 8
bearing: 1.78592669964
intensity: 29.4596061707
---
header: 
  seq: 184746
  stamp: 
    secs: 1561866382
    nsecs: 107352267
  frame_id: "ti_mmwave"
point_id: 11
x: 2.623046875
y: -0.17578125
z: 1.025390625
range: 3.00681090355
velocity: 0.0
doppler_bin: 8
bearing: -3.83389568329
intensity: 29.0955600739
---
header: 
  seq: 184747
  stamp: 
    secs: 1561866382
    nsecs: 107363346
  frame_id: "ti_mmwave"
point_id: 12
x: 2.66015625
y: -0.1796875
z: 1.044921875
range: 3.05038785934
velocity: 0.0
doppler_bin: 8
bearing: -3.86432933807
intensity: 32.2271652222
---
header: 
  seq: 184748
  stamp: 
    secs: 1561866382
    nsecs: 107510952
  frame_id: "ti_mmwave"
point_id: 13
x: 2.751953125
y: -0.08984375
z: 0.92578125
range: 3.09396481514
velocity: 0.0
doppler_bin: 8
bearing: -1.86988639832
intensity: 31.222158432
---
header: 
  seq: 184749
  stamp: 
    secs: 1561866382
    nsecs: 107530267
  frame_id: "ti_mmwave"
point_id: 14
x: 4.421875
y: -0.142578125
z: 1.189453125
range: 4.88062095642
velocity: 0.0
doppler_bin: 8
bearing: -1.84679484367
intensity: 29.6988162994
---
header: 
  seq: 184750
  stamp: 
    secs: 1561866382
    nsecs: 107540993
  frame_id: "ti_mmwave"
point_id: 15
x: 4.455078125
y: -0.14453125
z: 1.224609375
range: 4.9241976738
velocity: 0.0
doppler_bin: 8
bearing: -1.85813295841
intensity: 29.0955600739
---
header: 
  seq: 184751
  stamp: 
    secs: 1561866382
    nsecs: 107549176
  frame_id: "ti_mmwave"
point_id: 16
x: 4.90625
y: -0.46484375
z: 0.451171875
range: 5.27281332016
velocity: 0.0
doppler_bin: 8
bearing: -5.41234540939
intensity: 29.876663208
---
header: 
  seq: 184752
  stamp: 
    secs: 1561866382
    nsecs: 107554438
  frame_id: "ti_mmwave"
point_id: 17
x: 4.9296875
y: -0.779296875
z: -0.068359375
