header: 
  seq: 360739
  stamp: 
    secs: 1561866663
    nsecs: 926949837
  frame_id: "ti_mmwave"
point_id: 0
x: 0.01171875
y: -0.0390625
z: -0.0078125
range: 0.0435769706964
velocity: 0.0
doppler_bin: 8
bearing: -73.3007583618
intensity: 30.6669845581
---
header: 
  seq: 360740
  stamp: 
    secs: 1561866663
    nsecs: 927043435
  frame_id: "ti_mmwave"
point_id: 1
x: 0.017578125
y: -0.080078125
z: -0.0078125
range: 0.0871539413929
velocity: 0.0
doppler_bin: 8
bearing: -77.6192398071
intensity: 31.9284610748
---
header: 
  seq: 360741
  stamp: 
    secs: 1561866663
    nsecs: 927062875
  frame_id: "ti_mmwave"
point_id: 2
x: 0.029296875
y: -0.119140625
z: -0.005859375
range: 0.130730912089
velocity: 0.0
doppler_bin: 8
bearing: -76.1849746704
intensity: 30.157787323
---
header: 
  seq: 360742
  stamp: 
    secs: 1561866663
    nsecs: 927077496
  frame_id: "ti_mmwave"
point_id: 3
x: 0.056640625
y: -0.154296875
z: 0.005859375
range: 0.174307882786
velocity: 0.0
doppler_bin: 8
bearing: -69.8423843384
intensity: 25.4777469635
---
header: 
  seq: 360743
  stamp: 
    secs: 1561866663
    nsecs: 927094450
  frame_id: "ti_mmwave"
point_id: 4
x: 0.08203125
y: -0.080078125
z: 1.263671875
range: 1.35088610649
velocity: 0.0
doppler_bin: 8
bearing: -44.3097229004
intensity: 23.1806335449
---
header: 
  seq: 360744
  stamp: 
    secs: 1561866663
    nsecs: 927109216
  frame_id: "ti_mmwave"
point_id: 5
x: 0.109375
y: -0.08203125
z: -1.302734375
range: 1.39446306229
velocity: 0.0
doppler_bin: 8
bearing: -36.8698959351
intensity: 24.6538276672
---
header: 
  seq: 360745
  stamp: 
    secs: 1561866663
    nsecs: 927125604
  frame_id: "ti_mmwave"
point_id: 6
x: 0.455078125
y: -0.083984375
z: -1.267578125
range: 1.43804001808
velocity: 0.0
doppler_bin: 8
bearing: -10.4562511444
intensity: 23.0535144806
---
header: 
  seq: 360746
  stamp: 
    secs: 1561866663
    nsecs: 927139961
  frame_id: "ti_mmwave"
point_id: 7
x: 1.935546875
y: -0.060546875
z: -0.328125
range: 2.09169459343
velocity: 0.0
doppler_bin: 8
bearing: -1.79171574116
intensity: 27.8604125977
---
header: 
  seq: 360747
  stamp: 
    secs: 1561866663
    nsecs: 927229408
  frame_id: "ti_mmwave"
point_id: 8
x: 1.984375
y: -0.0625
z: -0.26953125
range: 2.13527154922
velocity: 0.0
doppler_bin: 8
bearing: -1.80399513245
intensity: 28.4260921478
---
header: 
  seq: 360748
  stamp: 
    secs: 1561866663
    nsecs: 927247979
  frame_id: "ti_mmwave"
point_id: 9
x: 2.03515625
y: -0.126953125
z: -0.162109375
range: 2.17884850502
velocity: 0.0
doppler_bin: 8
bearing: -3.56948781013
intensity: 29.8407707214
---
header: 
  seq: 360749
  stamp: 
    secs: 1561866663
    nsecs: 927263017
  frame_id: "ti_mmwave"
point_id: 10
x: 2.0859375
y: -0.064453125
z: 0.00390625
range: 2.22242546082
velocity: 0.0
doppler_bin: 8
bearing: -1.76981210709
intensity: 29.5712814331
---
header: 
  seq: 360750
  stamp: 
    secs: 1561866663
    nsecs: 927278877
  frame_id: "ti_mmwave"
point_id: 11
x: 2.623046875
y: -0.17578125
z: 1.02734375
range: 3.00681090355
velocity: 0.0
doppler_bin: 8
bearing: -3.83389568329
intensity: 29.0955600739
---
header: 
  seq: 360751
  stamp: 
    secs: 1561866663
    nsecs: 927293934
  frame_id: "ti_mmwave"
point_id: 12
x: 2.662109375
y: -0.1796875
z: 1.041015625
range: 3.05038785934
velocity: 0.0
doppler_bin: 8
bearing: -3.86150240898
intensity: 32.24792099
---
header: 
  seq: 360752
  stamp: 
    secs: 1561866663
    nsecs: 927309921
  frame_id: "ti_mmwave"
point_id: 13
x: 2.755859375
y: -0.08984375
z: 0.91015625
range: 3.09396481514
velocity: 0.0
doppler_bin: 8
bearing: -1.86723792553
intensity: 31.2645606995
---
header: 
  seq: 360753
  stamp: 
    secs: 1561866663
    nsecs: 927328557
  frame_id: "ti_mmwave"
point_id: 15
x: 0.041015625
y: -0.033203125
z: 0.0625
range: 0.0871539413929
velocity: 0.0
doppler_bin: 8
bearing: -38.9909973145
intensity: 30.1114730835
---
header: 
  seq: 360754
  stamp: 
    secs: 1561866663
    nsecs: 927345216
  frame_id: "ti_mmwave"
point_id: 16
x: 0.044921875
y: -0.046875
z: 0.103515625
range: 0.130730912089
velocity: 0.0
doppler_bin: 8
bearing: -46.218875885
intensity: 29.0254669189
---
header: 
  seq: 360755
  stamp: 
    secs: 1561866663
    nsecs: 987170760
  frame_id: "ti_mmwave"
point_id: 0
x: 0.01171875
y: -0.0390625
z: -0.0078125
range: 0.0435769706964
velocity: 0.0
doppler_bin: 8
bearing: -73.3007583618
intensity: 30.6632595062
---
header: 
  seq: 360756
  stamp: 
    secs: 1561866663
    nsecs: 987267080
  frame_id: "ti_mmwave"
point_id: 1
x: 0.017578125
y: -0.080078125
z: -0.0078125
range: 0.0871539413929
velocity: 0.0
doppler_bin: 8
bearing: -77.6192398071
intensity: 31.9284610748
---
header: 
  seq: 360757
  stamp: 
    secs: 1561866663
    nsecs: 987288393
  frame_id: "ti_mmwave"
point_id: 2
x: 0.029296875
y: -0.119140625
z: -0.005859375
range: 0.130730912089
velocity: 0.0
doppler_bin: 8
bearing: -76.1849746704
intensity: 30.157787323
---
header: 
  seq: 360758
  stamp: 
    secs: 1561866663
    nsecs: 987305563
  frame_id: "ti_mmwave"
point_id: 3
x: 0.056640625
y: -0.154296875
z: 0.0078125
range: 0.174307882786
velocity: 0.0
doppler_bin: 8
bearing: -69.8423843384
intensity: 25.490032196
---
header: 
  seq: 360759
  stamp: 
    secs: 1561866663
    nsecs: 987318830
  frame_id: "ti_mmwave"
point_id: 4
x: 0.111328125
y: -0.080078125
z: 1.259765625
range: 1.35088610649
velocity: 0.0
doppler_bin: 8
bearing: -35.7273979187
intensity: 23.1597042084
---
header: 
  seq: 360760
  stamp: 
    secs: 1561866663
    nsecs: 987336426
  frame_id: "ti_mmwave"
point_id: 6
x: 0.431640625
y: -0.083984375
z: -1.275390625
range: 1.43804001808
velocity: 0.0
doppler_bin: 8
bearing: -11.0104799271
intensity: 23.0749607086
---
header: 
  seq: 360761
  stamp: 
    secs: 1561866663
    nsecs: 987433539
  frame_id: "ti_mmwave"
point_id: 7
x: 0.568359375
y: -0.04296875
z: -1.267578125
range: 1.48161697388
velocity: 0.0
doppler_bin: 8
bearing: -4.32341527939
intensity: 21.6435279846
---
header: 
  seq: 360762
  stamp: 
    secs: 1561866663
    nsecs: 987445467
  frame_id: "ti_mmwave"
point_id: 8
x: 1.953125
y: -0.060546875
z: -0.197265625
range: 2.09169459343
velocity: 0.0
doppler_bin: 8
bearing: -1.77560055256
intensity: 30.5153846741
---
header: 
  seq: 360763
  stamp: 
    secs: 1561866663
    nsecs: 987453865
  frame_id: "ti_mmwave"
point_id: 9
x: 2.0
y: -0.0
z: -0.138671875
range: 2.13527154922
velocity: 0.0
doppler_bin: 8
bearing: -0.0
intensity: 30.1745071411
---
header: 
  seq: 360764
  stamp: 
    secs: 1561866663
    nsecs: 987463497
  frame_id: "ti_mmwave"
point_id: 10
x: 2.03515625
y: -0.0
z: 0.201171875
range: 2.17884850502
velocity: 0.0
doppler_bin: 8
bearing: -0.0
intensity: 28.1888542175
---
header: 
  seq: 360765
  stamp: 
    secs: 1561866663
    nsecs: 987472194
  frame_id: "ti_mmwave"
point_id: 11
x: 2.041015625
y: -0.064453125
z: 0.42578125
range: 2.22242546082
velocity: 0.0
doppler_bin: 8
bearing: -1.80873930454
intensity: 27.8958072662
---
header: 
  seq: 360766
  stamp: 
    secs: 1561866663
    nsecs: 987480119
  frame_id: "ti_mmwave"
point_id: 12
x: 2.640625
y: -0.17578125
z: 0.982421875
range: 3.00681090355
velocity: 0.0
doppler_bin: 8
bearing: -3.80844950676
intensity: 29.1539974213
---
header: 
  seq: 360767
  stamp: 
    secs: 1561866663
    nsecs: 987490376
  frame_id: "ti_mmwave"
point_id: 13
x: 2.669921875
y: -0.1796875
z: 1.017578125
range: 3.05038785934
velocity: 0.0
doppler_bin: 8
bearing: -3.85023736954
intensity: 32.2891349792
---
header: 
  seq: 360768
  stamp: 
    secs: 1561866663
    nsecs: 987499735
  frame_id: "ti_mmwave"
point_id: 14
x: 2.7578125
y: -0.08984375
z: 0.904296875
range: 3.09396481514
velocity: 0.0
doppler_bin: 8
bearing: -1.86591637135
intensity: 31.2936763763
---
header: 
  seq: 360769
  stamp: 
    secs: 1561866663
    nsecs: 987510245
  frame_id: "ti_mmwave"
point_id: 16
x: 0.041015625
y: -0.033203125
z: 0.0625
range: 0.0871539413929
velocity: 0.0
doppler_bin: 8
bearing: -38.9909973145
intensity: 30.1157035828
---
header: 
  seq: 360770
  stamp: 
    secs: 1561866663
    nsecs: 987518953
  frame_id: "ti_mmwave"
point_id: 17
x: 0.044921875
y: -0.046875
z: 0.103515625
range: 0.130730912089
velocity: 0.0
doppler_bin: 8
bearing: -46.218875885
intensity: 29.020029068
---
header: 
  seq: 360771
  stamp: 
    secs: 1561866663
    nsecs: 988670436
  frame_id: "ti_mmwave"
point_id: 0
x: 0.01171875
y: -0.0390625
z: -0.0078125
range: 0.0435769706964
velocity: 0.0
doppler_bin: 8
bearing: -73.3007583618
intensity: 30.6632595062
---
header: 
  seq: 360772
  stamp: 
    secs: 1561866663
    nsecs: 988729747
  frame_id: "ti_mmwave"
point_id: 1
x: 0.017578125
y: -0.080078125
z: -0.0078125
range: 0.0871539413929
velocity: 0.0
doppler_bin: 8
bearing: -77.6192398071
intensity: 31.9284610748
---
header: 
  seq: 360773
  stamp: 
    secs: 1561866663
    nsecs: 988741051
  frame_id: "ti_mmwave"
point_id: 2
x: 0.029296875
y: -0.119140625
z: -0.005859375
range: 0.130730912089
velocity: 0.0
doppler_bin: 8
bearing: -76.1849746704
intensity: 30.1535968781
---
header: 
  seq: 360774
  stamp: 
    secs: 1561866663
    nsecs: 988749352
  frame_id: "ti_mmwave"
point_id: 3
x: 0.056640625
y: -0.154296875
z: 0.005859375
range: 0.174307882786
velocity: 0.0
doppler_bin: 8
bearing: -69.8423843384
intensity: 25.4654273987
---
header: 
  seq: 360775
  stamp: 
    secs: 1561866663
    nsecs: 988758289
  frame_id: "ti_mmwave"
point_id: 4
x: 0.109375
y: -0.080078125
z: 1.26171875
range: 1.35088610649
velocity: 0.0
doppler_bin: 8
bearing: -36.2094573975
intensity: 23.138671875
---
header: 
  seq: 360776
  stamp: 
    secs: 1561866663
    nsecs: 988766840
  frame_id: "ti_mmwave"
point_id: 5
x: 0.013671875
y: -0.08203125
z: -1.306640625
range: 1.39446306229
velocity: 0.0
doppler_bin: 8
bearing: -80.5376739502
intensity: 24.6538276672
---
header: 
  seq: 360777
  stamp: 
    secs: 1561866663
    nsecs: 988775342
  frame_id: "ti_mmwave"
point_id: 6
x: 0.42578125
y: -0.083984375
z: -1.27734375
range: 1.43804001808
velocity: 0.0
doppler_bin: 8
bearing: -11.1582231522
intensity: 23.0535144806
---
header: 
  seq: 360778
  stamp: 
    secs: 1561866663
    nsecs: 988783634
  frame_id: "ti_mmwave"
point_id: 7
x: 0.552734375
y: -0.04296875
z: -1.275390625
range: 1.48161697388
velocity: 0.0
doppler_bin: 8
bearing: -4.44514894485
intensity: 21.6435279846
---
header: 
  seq: 360779
  stamp: 
    secs: 1561866663
    nsecs: 988795419
  frame_id: "ti_mmwave"
point_id: 8
x: 1.943359375
y: -0.060546875
z: -0.27734375
range: 2.09169459343
velocity: 0.0
doppler_bin: 8
bearing: -1.78451728821
intensity: 30.1619739532
---
header: 
  seq: 360780
  stamp: 
    secs: 1561866663
    nsecs: 988945898
  frame_id: "ti_mmwave"
point_id: 9
x: 1.978515625
y: -0.0625
z: -0.310546875
range: 2.13527154922
velocity: 0.0
doppler_bin: 8
bearing: -1.8093341589
intensity: 31.0720996857
---
header: 
  seq: 360781
  stamp: 
    secs: 1561866663
    nsecs: 988964727
  frame_id: "ti_mmwave"
point_id: 10
x: 2.001953125
y: -0.064453125
z: -0.4140625
range: 2.17884850502
velocity: 0.0
doppler_bin: 8
bearing: -1.84400761127
intensity: 29.0848503113
---
header: 
  seq: 360782
  stamp: 
    secs: 1561866663
    nsecs: 988972690
  frame_id: "ti_mmwave"
point_id: 11
x: 2.6171875
y: -0.17578125
z: 1.041015625
range: 3.00681090355
velocity: 0.0
doppler_bin: 8
bearing: -3.84245300293
intensity: 29.2220630646
---
header: 
  seq: 360783
  stamp: 
    secs: 1561866663
    nsecs: 988980824
  frame_id: "ti_mmwave"
point_id: 12
x: 2.654296875
y: -0.1796875
z: 1.060546875
range: 3.05038785934
velocity: 0.0
doppler_bin: 8
bearing: -3.87283420563
intensity: 32.2762947083
---
header: 
  seq: 360784
  stamp: 
    secs: 1561866663
    nsecs: 988988898
  frame_id: "ti_mmwave"
point_id: 13
x: 2.748046875
y: -0.08984375
z: 0.935546875
range: 3.09396481514
velocity: 0.0
doppler_bin: 8
bearing: -1.8725425005
intensity: 31.2417812347
---
header: 
  seq: 360785
  stamp: 
    secs: 1561866663
    nsecs: 988999107
  frame_id: "ti_mmwave"
point_id: 15
x: 0.041015625
y: -0.033203125
z: 0.0625
range: 0.0871539413929
velocity: 0.0
doppler_bin: 8
bearing: -38.9909973145
intensity: 30.1157035828
---
header: 
  seq: 360786
  stamp: 
    secs: 1561866663
    nsecs: 989006668
  frame_id: "ti_mmwave"
point_id: 16
x: 0.046875
y: -0.046875
z: 0.103515625
range: 0.130730912089
velocity: 0.0
doppler_bin: 8
bearing: -45.0
intensity: 29.0254669189
---
header: 
  seq: 360787
  stamp: 
    secs: 1561866664
    nsecs:  46977245
  frame_id: "ti_mmwave"
point_id: 0
x: 0.01171875
y: -0.0390625
z: -0.0078125
range: 0.0435769706964
velocity: 0.0
doppler_bin: 8
bearing: -73.3007583618
intensity: 30.6707077026
---
header: 
  seq: 360788
  stamp: 
    secs: 1561866664
    nsecs:  47062003
  frame_id: "ti_mmwave"
point_id: 1
x: 0.017578125
y: -0.080078125
z: -0.0078125
range: 0.0871539413929
velocity: 0.0
doppler_bin: 8
bearing: -77.6192398071
intensity: 31.9312458038
---
header: 
  seq: 360789
  stamp: 
    secs: 1561866664
    nsecs:  47078257
  frame_id: "ti_mmwave"
point_id: 2
x: 0.029296875
y: -0.119140625
z: -0.005859375
range: 0.130730912089
velocity: 0.0
doppler_bin: 8
bearing: -76.1849746704
intensity: 30.157787323
---
header: 
  seq: 360790
  stamp: 
    secs: 1561866664
    nsecs:  47092536
  frame_id: "ti_mmwave"
point_id: 3
x: 0.056640625
y: -0.154296875
z: 0.005859375
range: 0.174307882786
velocity: 0.0
doppler_bin: 8
bearing: -69.8423843384
intensity: 25.4777469635
---
header: 
  seq: 360791
  stamp: 
    secs: 1561866664
    nsecs:  47105722
  frame_id: "ti_mmwave"
point_id: 4
x: 0.103515625
y: -0.080078125
z: 1.26171875
range: 1.35088610649
velocity: 0.0
doppler_bin: 8
bearing: -37.7249946594
intensity: 23.138671875
---
header: 
  seq: 360792
  stamp: 
    secs: 1561866664
    nsecs:  47118459
  frame_id: "ti_mmwave"
point_id: 6
x: 0.42578125
y: -0.083984375
z: -1.27734375
range: 1.43804001808
velocity: 0.0
doppler_bin: 8
bearing: -11.1582231522
intensity: 23.0963020325
---
header: 
  seq: 360793
  stamp: 
    secs: 1561866664
    nsecs:  47129957
  frame_id: "ti_mmwave"
point_id: 7
x: 0.576171875
y: -0.04296875
z: -1.265625
range: 1.48161697388
velocity: 0.0
doppler_bin: 8
bearing: -4.2650103569
intensity: 21.6435279846
---
header: 
  seq: 360794
  stamp: 
    secs: 1561866664
    nsecs:  47309645
  frame_id: "ti_mmwave"
point_id: 8
x: 1.98828125
y: -0.0
z: -0.2578125
range: 2.13527154922
velocity: 0.0
doppler_bin: 8
bearing: -0.0
intensity: 26.9897003174
---
header: 
  seq: 360795
  stamp: 
    secs: 1561866664
    nsecs:  47332562
  frame_id: "ti_mmwave"
point_id: 9
x: 2.044921875
y: -0.0
z: 0.03515625
range: 2.17884850502
velocity: 0.0
doppler_bin: 8
bearing: -0.0
intensity: 28.0277366638
---
header: 
  seq: 360796
  stamp: 
    secs: 1561866664
    nsecs:  47343436
  frame_id: "ti_mmwave"
point_id: 10
x: 2.080078125
y: -0.0
z: 0.169921875
range: 2.22242546082
velocity: 0.0
doppler_bin: 8
bearing: -0.0
intensity: 28.1557769775
---
header: 
  seq: 360797
  stamp: 
    secs: 1561866664
    nsecs:  47352128
  frame_id: "ti_mmwave"
point_id: 11
x: 2.587890625
y: -0.17578125
z: 1.11328125
range: 3.00681090355
velocity: 0.0
doppler_bin: 8
bearing: -3.88582015038
intensity: 28.7215633392
---
header: 
  seq: 360798
  stamp: 
    secs: 1561866664
    nsecs:  47360454
  frame_id: "ti_mmwave"
point_id: 12
x: 2.65625
y: -0.1796875
z: 1.0546875
range: 3.05038785934
velocity: 0.0
doppler_bin: 8
bearing: -3.86999511719
intensity: 32.0897865295
---
header: 
  seq: 360799
  stamp: 
    secs: 1561866664
    nsecs:  47371495
  frame_id: "ti_mmwave"
point_id: 13
x: 2.76171875
y: -0.08984375
z: 0.890625
range: 3.09396481514
velocity: 0.0
doppler_bin: 8
bearing: -1.86327898502
intensity: 31.1826477051
---
header: 
  seq: 360800
  stamp: 
    secs: 1561866664
    nsecs:  47452238
  frame_id: "ti_mmwave"
point_id: 15
x: 0.041015625
y: -0.033203125
z: 0.0625
range: 0.0871539413929
velocity: 0.0
doppler_bin: 8
bearing: -38.9909973145
intensity: 30.1157035828
---
header: 
  seq: 360801
  stamp: 
    secs: 1561866664
    nsecs:  47463128
  frame_id: "ti_mmwave"
point_id: 16
x: 0.044921875
y: -0.046875
z: 0.103515625
range: 0.130730912089
velocity: 0.0
doppler_bin: 8
bearing: -46.218875885
intensity: 29.0254669189
---
header: 
  seq: 360802
  stamp: 
    secs: 1561866664
    nsecs:  48323182
  frame_id: "ti_mmwave"
point_id: 0
x: 0.01171875
y: -0.0390625
z: -0.0078125
range: 0.0435769706964
velocity: 0.0
doppler_bin: 8
bearing: -73.3007583618
intensity: 30.6707077026
---
header: 
  seq: 360803
  stamp: 
    secs: 1561866664
    nsecs:  48361061
  frame_id: "ti_mmwave"
point_id: 1
x: 0.017578125
y: -0.080078125
z: -0.0078125
range: 0.0871539413929
velocity: 0.0
doppler_bin: 8
bearing: -77.6192398071
intensity: 31.9284610748
---
header: 
  seq: 360804
  stamp: 
    secs: 1561866664
    nsecs:  48372704
  frame_id: "ti_mmwave"
point_id: 2
x: 0.029296875
y: -0.119140625
z: -0.005859375
range: 0.130730912089
velocity: 0.0
doppler_bin: 8
bearing: -76.1849746704
intensity: 30.1535968781
---
header: 
  seq: 360805
  stamp: 
    secs: 1561866664
    nsecs:  48383292
  frame_id: "ti_mmwave"
point_id: 3
x: 0.056640625
y: -0.154296875
z: 0.005859375
range: 0.174307882786
velocity: 0.0
doppler_bin: 8
bearing: -69.8423843384
intensity: 25.4654273987
---
header: 
  seq: 360806
  stamp: 
    secs: 1561866664
    nsecs:  48392674
  frame_id: "ti_mmwave"
point_id: 4
x: 0.125
y: -0.080078125
z: 1.259765625
range: 1.35088610649
velocity: 0.0
doppler_bin: 8
bearing: -32.6446380615
intensity: 23.1597042084
---
header: 
  seq: 360807
  stamp: 
    secs: 1561866664
    nsecs:  48402834
  frame_id: "ti_mmwave"
point_id: 6
x: 0.431640625
y: -0.083984375
z: -1.275390625
range: 1.43804001808
velocity: 0.0
doppler_bin: 8
bearing: -11.0104799271
intensity: 23.0749607086
---
header: 
  seq: 360808
  stamp: 
    secs: 1561866664
    nsecs:  48411071
  frame_id: "ti_mmwave"
point_id: 7
x: 0.564453125
y: -0.04296875
z: -1.26953125
range: 1.48161697388
velocity: 0.0
doppler_bin: 8
bearing: -4.35321998596
intensity: 21.6435279846
---
header: 
  seq: 360809
  stamp: 
    secs: 1561866664
    nsecs:  48582358
  frame_id: "ti_mmwave"
point_id: 8
x: 1.94921875
y: -0.060546875
z: -0.234375
range: 2.09169459343
velocity: 0.0
doppler_bin: 8
bearing: -1.77915656567
intensity: 27.8461723328
---
header: 
  seq: 360810
  stamp: 
    secs: 1561866664
    nsecs:  48613947
  frame_id: "ti_mmwave"
point_id: 9
x: 1.9921875
y: -0.0625
z: -0.220703125
range: 2.13527154922
velocity: 0.0
doppler_bin: 8
bearing: -1.79692542553
intensity: 30.0173377991
---
header: 
  seq: 360811
  stamp: 
    secs: 1561866664
    nsecs:  48647119
  frame_id: "ti_mmwave"
point_id: 10
x: 2.03515625
y: -0.0
z: -0.201171875
range: 2.17884850502
velocity: 0.0
doppler_bin: 8
bearing: -0.0
intensity: 29.5133743286
---
header: 
  seq: 360812
  stamp: 
    secs: 1561866664
    nsecs:  48666795
  frame_id: "ti_mmwave"
point_id: 11
x: 2.08203125
y: -0.064453125
z: -0.1015625
range: 2.22242546082
velocity: 0.0
doppler_bin: 8
bearing: -1.77313041687
intensity: 27.4507484436
---
header: 
  seq: 360813
  stamp: 
    secs: 1561866664
    nsecs:  48702277
  frame_id: "ti_mmwave"
point_id: 12
x: 2.546875
y: -0.17578125
z: 1.205078125
range: 3.00681090355
velocity: 0.0
doppler_bin: 8
bearing: -3.94820189476
intensity: 28.7909584045
---
header: 
  seq: 360814
  stamp: 
    secs: 1561866664
    nsecs:  48721250
  frame_id: "ti_mmwave"
point_id: 13
x: 2.64453125
y: -0.1796875
z: 1.08203125
range: 3.05038785934
velocity: 0.0
doppler_bin: 8
bearing: -3.88709139824
intensity: 32.0520439148
---
header: 
  seq: 360815
  stamp: 
    secs: 1561866664
    nsecs:  48738103
  frame_id: "ti_mmwave"
point_id: 14
x: 2.75390625
y: -0.08984375
z: 0.91796875
range: 3.09396481514
velocity: 0.0
doppler_bin: 8
bearing: -1.86856126785
intensity: 31.1260509491
---
header: 
  seq: 360816
  stamp: 
    secs: 1561866664
    nsecs:  48757265
  frame_id: "ti_mmwave"
point_id: 16
x: 0.041015625
y: -0.033203125
z: 0.0625
range: 0.0871539413929
velocity: 0.0
doppler_bin: 8
bearing: -38.9909973145
intensity: 30.1199302673
---
header: 
  seq: 360817
  stamp: 
    secs: 1561866664
    nsecs:  48771181
  frame_id: "ti_mmwave"
point_id: 17
x: 0.044921875
y: -0.046875
z: 0.103515625
range: 0.130730912089
velocity: 0.0
doppler_bin: 8
bearing: -46.218875885
intensity: 29.0254669189
---
header: 
  seq: 360818
  stamp: 
    secs: 1561866664
    nsecs: 107252621
  frame_id: "ti_mmwave"
point_id: 0
x: 0.01171875
y: -0.0390625
z: -0.0078125
range: 0.0435769706964
velocity: 0.0
doppler_bin: 8
bearing: -73.3007583618
intensity: 30.6669845581
---
header: 
  seq: 360819
  stamp: 
    secs: 1561866664
    nsecs: 107351326
  frame_id: "ti_mmwave"
point_id: 1
x: 0.017578125
y: -0.080078125
z: -0.0078125
range: 0.0871539413929
velocity: 0.0
doppler_bin: 8
bearing: -77.6192398071
intensity: 31.9284610748
---
header: 
  seq: 360820
  stamp: 
    secs: 1561866664
    nsecs: 107371496
  frame_id: "ti_mmwave"
point_id: 2
x: 0.029296875
y: -0.119140625
z: -0.005859375
range: 0.130730912089
velocity: 0.0
doppler_bin: 8
bearing: -76.1849746704
intensity: 30.157787323
---
header: 
  seq: 360821
  stamp: 
    secs: 1561866664
    nsecs: 107385327
  frame_id: "ti_mmwave"
point_id: 3
x: 0.056640625
y: -0.154296875
z: 0.005859375
range: 0.174307882786
velocity: 0.0
doppler_bin: 8
bearing: -69.8423843384
intensity: 25.4777469635
---
header: 
  seq: 360822
  stamp: 
    secs: 1561866664
    nsecs: 107401872
  frame_id: "ti_mmwave"
point_id: 4
x: 0.083984375
y: -0.080078125
z: 1.263671875
range: 1.35088610649
velocity: 0.0
doppler_bin: 8
bearing: -43.6360702515
intensity: 23.1806335449
---
header: 
  seq: 360823
  stamp: 
    secs: 1561866664
    nsecs: 107419026
  frame_id: "ti_mmwave"
point_id: 6
x: 0.431640625
y: -0.083984375
z: -1.275390625
range: 1.43804001808
velocity: 0.0
doppler_bin: 8
bearing: -11.0104799271
intensity: 23.0535144806
---
header: 
  seq: 360824
  stamp: 
    secs: 1561866664
    nsecs: 107433932
  frame_id: "ti_mmwave"
point_id: 7
x: 0.583984375
y: -0.04296875
z: -1.26171875
range: 1.48161697388
velocity: 0.0
doppler_bin: 8
bearing: -4.20815992355
intensity: 21.6435279846
---
header: 
  seq: 360825
  stamp: 
    secs: 1561866664
    nsecs: 107450913
  frame_id: "ti_mmwave"
point_id: 8
x: 1.978515625
y: -0.0625
z: -0.3203125
range: 2.13527154922
velocity: 0.0
doppler_bin: 8
bearing: -1.8093341589
intensity: 29.8317508698
---
header: 
  seq: 360826
  stamp: 
    secs: 1561866664
    nsecs: 107470212
  frame_id: "ti_mmwave"
point_id: 9
x: 2.0078125
y: -0.0
z: -0.388671875
range: 2.17884850502
velocity: 0.0
doppler_bin: 8
bearing: -0.0
intensity: 29.4398880005
---
header: 
  seq: 360827
  stamp: 
    secs: 1561866664
    nsecs: 107553129
  frame_id: "ti_mmwave"
point_id: 10
x: 2.068359375
y: -0.0
z: -0.26953125
range: 2.22242546082
velocity: 0.0
doppler_bin: 8
bearing: -0.0
intensity: 28.4010601044
---
header: 
  seq: 360828
  stamp: 
    secs: 1561866664
    nsecs: 107578009
  frame_id: "ti_mmwave"
point_id: 11
x: 2.58203125
y: -0.17578125
z: 1.12890625
range: 3.00681090355
velocity: 0.0
doppler_bin: 8
bearing: -3.89461112022
intensity: 28.9707698822
---
header: 
  seq: 360829
  stamp: 
    secs: 1561866664
    nsecs: 107595221
  frame_id: "ti_mmwave"
point_id: 12
x: 2.64453125
y: -0.1796875
z: 1.083984375
range: 3.05038785934
velocity: 0.0
doppler_bin: 8
bearing: -3.88709139824
intensity: 32.1457901001
---
header: 
  seq: 360830
  stamp: 
    secs: 1561866664
    nsecs: 107611522
  frame_id: "ti_mmwave"
point_id: 13
x: 2.75
y: -0.08984375
z: 0.931640625
range: 3.09396481514
velocity: 0.0
doppler_bin: 8
bearing: -1.87121355534
intensity: 31.1226978302
---
header: 
  seq: 360831
  stamp: 
    secs: 1561866664
    nsecs: 107631531
  frame_id: "ti_mmwave"
point_id: 15
x: 0.041015625
y: -0.033203125
z: 0.0625
range: 0.0871539413929
velocity: 0.0
doppler_bin: 8
bearing: -38.9909973145
intensity: 30.1199302673
---
header: 
  seq: 360832
  stamp: 
    secs: 1561866664
    nsecs: 107652244
  frame_id: "ti_mmwave"
point_id: 16
x: 0.046875
y: -0.046875
z: 0.103515625
range: 0.130730912089
velocity: 0.0
doppler_bin: 8
bearing: -45.0
intensity: 29.0254669189
---
header: 
  seq: 360833
  stamp: 
    secs: 1561866664
    nsecs: 108637226
  frame_id: "ti_mmwave"
point_id: 0
x: 0.01171875
y: -0.0390625
z: -0.0078125
range: 0.0435769706964
velocity: 0.0
doppler_bin: 8
bearing: -73.3007583618
intensity: 30.678144455
---
header: 
  seq: 360834
  stamp: 
    secs: 1561866664
    nsecs: 108706066
  frame_id: "ti_mmwave"
point_id: 1
x: 0.017578125
y: -0.080078125
z: -0.0078125
range: 0.0871539413929
velocity: 0.0
doppler_bin: 8
bearing: -77.6192398071
intensity: 31.9312458038
---
header: 
  seq: 360835
  stamp: 
    secs: 1561866664
    nsecs: 108726071
  frame_id: "ti_mmwave"
point_id: 2
x: 0.029296875
y: -0.119140625
z: -0.005859375
range: 0.130730912089
velocity: 0.0
doppler_bin: 8
bearing: -76.1849746704
intensity: 30.157787323
---
header: 
  seq: 360836
  stamp: 
    secs: 1561866664
    nsecs: 108771759
  frame_id: "ti_mmwave"
point_id: 3
x: 0.056640625
y: -0.154296875
z: 0.005859375
range: 0.174307882786
velocity: 0.0
doppler_bin: 8
bearing: -69.8423843384
intensity: 25.490032196
---
header: 
  seq: 360837
  stamp: 
    secs: 1561866664
    nsecs: 108785474
  frame_id: "ti_mmwave"
point_id: 4
x: 0.134765625
y: -0.080078125
z: 1.2578125
range: 1.35088610649
velocity: 0.0
doppler_bin: 8
bearing: -30.7189025879
intensity: 23.138671875
---
header: 
  seq: 360838
  stamp: 
    secs: 1561866664
    nsecs: 108803441
  frame_id: "ti_mmwave"
point_id: 6
x: 0.4375
y: -0.083984375
z: -1.2734375
range: 1.43804001808
velocity: 0.0
doppler_bin: 8
bearing: -10.8665513992
intensity: 23.0749607086
---
header: 
  seq: 360839
  stamp: 
    secs: 1561866664
    nsecs: 108815997
  frame_id: "ti_mmwave"
point_id: 7
x: 0.578125
y: -0.04296875
z: -1.263671875
range: 1.48161697388
velocity: 0.0
doppler_bin: 8
bearing: -4.25065469742
intensity: 21.6731739044
---
header: 
  seq: 360840
  stamp: 
    secs: 1561866664
    nsecs: 108827285
  frame_id: "ti_mmwave"
point_id: 8
x: 1.994140625
y: -0.0
z: -0.208984375
range: 2.13527154922
velocity: 0.0
doppler_bin: 8
bearing: -0.0
intensity: 29.6189556122
---
header: 
  seq: 360841
  stamp: 
    secs: 1561866664
    nsecs: 108897020
  frame_id: "ti_mmwave"
point_id: 9
x: 2.0390625
y: -0.0
z: -0.150390625
range: 2.17884850502
velocity: 0.0
doppler_bin: 8
bearing: -0.0
intensity: 30.3422718048
---
header: 
  seq: 360842
  stamp: 
    secs: 1561866664
    nsecs: 108908030
  frame_id: "ti_mmwave"
point_id: 10
x: 2.083984375
y: -0.0
z: -0.09765625
range: 2.22242546082
velocity: 0.0
doppler_bin: 8
bearing: -0.0
intensity: 27.9309158325
---
header: 
  seq: 360843
  stamp: 
    secs: 1561866664
    nsecs: 108917347
  frame_id: "ti_mmwave"
point_id: 11
x: 2.630859375
y: -0.17578125
z: 1.005859375
range: 3.00681090355
velocity: 0.0
doppler_bin: 8
bearing: -3.82254433632
intensity: 29.0525608063
---
header: 
  seq: 360844
  stamp: 
    secs: 1561866664
    nsecs: 108925389
  frame_id: "ti_mmwave"
point_id: 12
x: 2.650390625
y: -0.1796875
z: 1.068359375
range: 3.05038785934
velocity: 0.0
doppler_bin: 8
bearing: -3.87852454185
intensity: 32.1642990112
---
header: 
  seq: 360845
  stamp: 
    secs: 1561866664
    nsecs: 108935194
  frame_id: "ti_mmwave"
point_id: 13
x: 2.744140625
y: -0.08984375
z: 0.943359375
range: 3.09396481514
velocity: 0.0
doppler_bin: 8
bearing: -1.87520623207
intensity: 31.1159858704
---
header: 
  seq: 360846
  stamp: 
    secs: 1561866664
    nsecs: 108942929
  frame_id: "ti_mmwave"
point_id: 14
x: 4.408203125
y: -0.142578125
z: 1.2421875
range: 4.88062095642
velocity: 0.0
doppler_bin: 8
bearing: -1.85251843929
intensity: 29.5230808258
---
header: 
  seq: 360847
  stamp: 
    secs: 1561866664
    nsecs: 108950536
  frame_id: "ti_mmwave"
point_id: 15
x: 4.447265625
y: -0.14453125
z: 1.25390625
range: 4.9241976738
velocity: 0.0
doppler_bin: 8
bearing: -1.86139500141
intensity: 29.2272548676
---
header: 
  seq: 360848
  stamp: 
    secs: 1561866664
    nsecs: 108959812
  frame_id: "ti_mmwave"
point_id: 17
x: 0.041015625
y: -0.033203125
z: 0.0625
range: 0.0871539413929
velocity: 0.0
doppler_bin: 8
bearing: -38.9909973145
intensity: 30.1157035828
---
header: 
  seq: 360849
  stamp: 
    secs: 1561866664
    nsecs: 108965160
  frame_id: "ti_mmwave"
point_id: 18
x: 0.044921875
y: -0.046875
z: 0.103515625
range: 0.130730912089
velocity: 0.0
doppler_bin: 8
bearing: -46.218875885
intensity: 29.0254669189
---
header: 
  seq: 360850
  stamp: 
    secs: 1561866664
    nsecs: 166967828
  frame_id: "ti_mmwave"
point_id: 0
x: 0.01171875
y: -0.0390625
z: -0.0078125
range: 0.0435769706964
velocity: 0.0
doppler_bin: 8
bearing: -73.3007583618
intensity: 30.6669845581
---
header: 
  seq: 360851
  stamp: 
    secs: 1561866664
    nsecs: 167042163
  frame_id: "ti_mmwave"
point_id: 1
x: 0.017578125
y: -0.080078125
z: -0.0078125
range: 0.0871539413929
velocity: 0.0
doppler_bin: 8
bearing: -77.6192398071
intensity: 31.9256744385
---
header: 
  seq: 360852
  stamp: 
    secs: 1561866664
    nsecs: 167054094
  frame_id: "ti_mmwave"
point_id: 2
x: 0.029296875
y: -0.119140625
z: -0.005859375
range: 0.130730912089
velocity: 0.0
doppler_bin: 8
bearing: -76.1849746704
intensity: 30.1535968781
---
header: 
  seq: 360853
  stamp: 
    secs: 1561866664
    nsecs: 167062573
  frame_id: "ti_mmwave"
point_id: 3
x: 0.056640625
y: -0.154296875
z: 0.005859375
range: 0.174307882786
velocity: 0.0
doppler_bin: 8
bearing: -69.8423843384
intensity: 25.4654273987
---
header: 
  seq: 360854
  stamp: 
    secs: 1561866664
    nsecs: 167071853
  frame_id: "ti_mmwave"
point_id: 4
x: 0.099609375
y: -0.080078125
z: 1.26171875
range: 1.35088610649
velocity: 0.0
doppler_bin: 8
bearing: -38.7965545654
intensity: 23.1175384521
---
header: 
  seq: 360855
  stamp: 
    secs: 1561866664
    nsecs: 167083598
  frame_id: "ti_mmwave"
point_id: 5
x: 0.029296875
y: -0.08203125
z: -1.306640625
range: 1.39446306229
velocity: 0.0
doppler_bin: 8
bearing: -70.3461761475
intensity: 24.6389293671
---
header: 
  seq: 360856
  stamp: 
    secs: 1561866664
    nsecs: 167096568
  frame_id: "ti_mmwave"
point_id: 6
x: 0.435546875
y: -0.083984375
z: -1.275390625
range: 1.43804001808
velocity: 0.0
doppler_bin: 8
bearing: -10.9141130447
intensity: 23.0535144806
---
header: 
  seq: 360857
  stamp: 
    secs: 1561866664
    nsecs: 167111999
  frame_id: "ti_mmwave"
point_id: 7
x: 0.576171875
y: -0.04296875
z: -1.265625
range: 1.48161697388
velocity: 0.0
doppler_bin: 8
bearing: -4.2650103569
intensity: 21.6731739044
---
header: 
  seq: 360858
  stamp: 
    secs: 1561866664
    nsecs: 167120357
  frame_id: "ti_mmwave"
point_id: 8
x: 1.970703125
y: -0.0
z: -0.361328125
range: 2.13527154922
velocity: 0.0
doppler_bin: 8
bearing: -0.0
intensity: 29.1328392029
---
header: 
  seq: 360859
  stamp: 
    secs: 1561866664
    nsecs: 167128241
  frame_id: "ti_mmwave"
point_id: 9
x: 2.015625
y: -0.0
z: -0.349609375
range: 2.17884850502
velocity: 0.0
doppler_bin: 8
bearing: -0.0
intensity: 29.2220630646
---
header: 
  seq: 360860
  stamp: 
    secs: 1561866664
    nsecs: 167136452
  frame_id: "ti_mmwave"
point_id: 10
x: 2.5625
y: -0.17578125
z: 1.171875
range: 3.00681090355
velocity: 0.0
doppler_bin: 8
bearing: -3.92420315742
intensity: 29.0471553802
---
header: 
  seq: 360861
  stamp: 
    secs: 1561866664
    nsecs: 167144455
  frame_id: "ti_mmwave"
point_id: 11
x: 2.646484375
y: -0.1796875
z: 1.078125
range: 3.05038785934
velocity: 0.0
doppler_bin: 8
bearing: -3.88423156738
intensity: 32.263420105
---
header: 
  seq: 360862
  stamp: 
    secs: 1561866664
    nsecs: 167152656
  frame_id: "ti_mmwave"
point_id: 12
x: 2.75
y: -0.08984375
z: 0.927734375
range: 3.09396481514
velocity: 0.0
doppler_bin: 8
bearing: -1.87121355534
intensity: 31.2645606995
---
header: 
  seq: 360863
  stamp: 
    secs: 1561866664
    nsecs: 167160798
  frame_id: "ti_mmwave"
point_id: 13
x: 4.3828125
y: -0.283203125
z: 1.154296875
range: 4.83704376221
velocity: 0.0
doppler_bin: 8
bearing: -3.69712758064
intensity: 28.0071716309
---
header: 
  seq: 360864
  stamp: 
    secs: 1561866664
    nsecs: 167169973
  frame_id: "ti_mmwave"
point_id: 14
x: 4.400390625
y: -0.142578125
z: 1.265625
range: 4.88062095642
velocity: 0.0
doppler_bin: 8
bearing: -1.85580503941
intensity: 31.5014209747
---
header: 
  seq: 360865
  stamp: 
    secs: 1561866664
    nsecs: 167178938
  frame_id: "ti_mmwave"
point_id: 15
x: 4.4375
y: -0.14453125
z: 1.2890625
range: 4.9241976738
velocity: 0.0
doppler_bin: 8
bearing: -1.86548817158
intensity: 31.2678050995
---
header: 
  seq: 360866
  stamp: 
    secs: 1561866664
    nsecs: 167200686
  frame_id: "ti_mmwave"
point_id: 17
x: 0.041015625
y: -0.033203125
z: 0.0625
range: 0.0871539413929
velocity: 0.0
doppler_bin: 8
bearing: -38.9909973145
intensity: 30.1157035828
---
header: 
  seq: 360867
  stamp: 
    secs: 1561866664
    nsecs: 167218348
  frame_id: "ti_mmwave"
point_id: 18
x: 0.044921875
y: -0.046875
z: 0.103515625
range: 0.130730912089
velocity: 0.0
doppler_bin: 8
bearing: -46.218875885
intensity: 29.020029068
---
header: 
  seq: 360868
  stamp: 
    secs: 1561866664
    nsecs: 168311652
  frame_id: "ti_mmwave"
point_id: 0
x: 0.01171875
y: -0.0390625
z: -0.0078125
range: 0.0435769706964
velocity: 0.0
doppler_bin: 8
bearing: -73.3007583618
intensity: 30.6707077026
---
header: 
  seq: 360869
  stamp: 
    secs: 1561866664
    nsecs: 168373442
  frame_id: "ti_mmwave"
point_id: 1
x: 0.017578125
y: -0.080078125
z: -0.0078125
range: 0.0871539413929
velocity: 0.0
doppler_bin: 8
bearing: -77.6192398071
intensity: 31.9284610748
---
header: 
  seq: 360870
  stamp: 
    secs: 1561866664
    nsecs: 168391698
  frame_id: "ti_mmwave"
point_id: 2
x: 0.029296875
y: -0.119140625
z: -0.005859375
range: 0.130730912089
velocity: 0.0
doppler_bin: 8
bearing: -76.1849746704
intensity: 30.1535968781
---
header: 
  seq: 360871
  stamp: 
    secs: 1561866664
    nsecs: 168406119
  frame_id: "ti_mmwave"
point_id: 3
x: 0.056640625
y: -0.154296875
z: 0.005859375
range: 0.174307882786
velocity: 0.0
doppler_bin: 8
bearing: -69.8423843384
intensity: 25.4654273987
---
header: 
  seq: 360872
  stamp: 
    secs: 1561866664
    nsecs: 168431158
  frame_id: "ti_mmwave"
point_id: 4
x: 0.1015625
y: -0.080078125
z: 1.26171875
range: 1.35088610649
velocity: 0.0
doppler_bin: 8
bearing: -38.2544212341
intensity: 23.1175384521
---
header: 
  seq: 360873
  stamp: 
    secs: 1561866664
    nsecs: 168446289
  frame_id: "ti_mmwave"
point_id: 5
x: 0.05859375
y: -0.08203125
z: -1.3046875
range: 1.39446306229
velocity: 0.0
doppler_bin: 8
bearing: -54.4623222351
intensity: 24.6389293671
---
header: 
  seq: 360874
  stamp: 
    secs: 1561866664
    nsecs: 168551822
  frame_id: "ti_mmwave"
point_id: 6
x: 0.423828125
y: -0.083984375
z: -1.279296875
range: 1.43804001808
velocity: 0.0
doppler_bin: 8
bearing: -11.2083444595
intensity: 23.0535144806
---
header: 
  seq: 360875
  stamp: 
    secs: 1561866664
    nsecs: 168569782
  frame_id: "ti_mmwave"
point_id: 7
x: 0.5546875
y: -0.04296875
z: -1.275390625
range: 1.48161697388
velocity: 0.0
doppler_bin: 8
bearing: -4.42955970764
intensity: 21.6435279846
---
header: 
  seq: 360876
  stamp: 
    secs: 1561866664
    nsecs: 168582999
  frame_id: "ti_mmwave"
point_id: 8
x: 1.9921875
y: -0.0
z: -0.228515625
range: 2.13527154922
velocity: 0.0
doppler_bin: 8
bearing: -0.0
intensity: 27.3319721222
---
header: 
  seq: 360877
  stamp: 
    secs: 1561866664
    nsecs: 168640828
  frame_id: "ti_mmwave"
point_id: 9
x: 2.021484375
y: -0.0
z: -0.30859375
range: 2.17884850502
velocity: 0.0
doppler_bin: 8
bearing: -0.0
intensity: 28.2801513672
---
header: 
  seq: 360878
  stamp: 
    secs: 1561866664
    nsecs: 168654364
  frame_id: "ti_mmwave"
point_id: 10
x: 2.033203125
y: -0.0
z: -0.46484375
range: 2.22242546082
velocity: 0.0
doppler_bin: 8
bearing: -0.0
intensity: 27.7011528015
---
header: 
  seq: 360879
  stamp: 
    secs: 1561866664
    nsecs: 168666923
  frame_id: "ti_mmwave"
point_id: 11
x: 2.640625
y: -0.17578125
z: 0.978515625
range: 3.00681090355
velocity: 0.0
doppler_bin: 8
bearing: -3.80844950676
intensity: 29.0363254547
---
header: 
  seq: 360880
  stamp: 
    secs: 1561866664
    nsecs: 168675776
  frame_id: "ti_mmwave"
point_id: 12
x: 2.671875
y: -0.1796875
z: 1.015625
range: 3.05038785934
velocity: 0.0
doppler_bin: 8
bearing: -3.84743142128
intensity: 32.1879806519
---
header: 
  seq: 360881
  stamp: 
    secs: 1561866664
    nsecs: 168701093
  frame_id: "ti_mmwave"
point_id: 13
x: 2.759765625
y: -0.08984375
z: 0.90234375
range: 3.09396481514
velocity: 0.0
doppler_bin: 8
bearing: -1.86459684372
intensity: 31.1925582886
---
header: 
  seq: 360882
  stamp: 
    secs: 1561866664
    nsecs: 168716262
  frame_id: "ti_mmwave"
point_id: 14
x: 4.388671875
y: -0.283203125
z: 1.130859375
range: 4.83704376221
velocity: 0.0
doppler_bin: 8
bearing: -3.69220519066
intensity: 28.2542610168
---
header: 
  seq: 360883
  stamp: 
    secs: 1561866664
    nsecs: 168731848
  frame_id: "ti_mmwave"
point_id: 15
x: 4.41015625
y: -0.142578125
z: 1.234375
range: 4.88062095642
velocity: 0.0
doppler_bin: 8
bearing: -1.85169863701
intensity: 31.4176330566
---
header: 
  seq: 360884
  stamp: 
    secs: 1561866664
    nsecs: 168743720
  frame_id: "ti_mmwave"
point_id: 16
x: 4.439453125
y: -0.14453125
z: 1.28125
range: 4.9241976738
velocity: 0.0
doppler_bin: 8
bearing: -1.86466813087
intensity: 30.6929798126
---
header: 
  seq: 360885
  stamp: 
    secs: 1561866664
    nsecs: 168769181
  frame_id: "ti_mmwave"
point_id: 18
x: 0.041015625
y: -0.033203125
z: 0.0625
range: 0.0871539413929
velocity: 0.0
doppler_bin: 8
bearing: -38.9909973145
intensity: 30.1157035828
---
header: 
  seq: 360886
  stamp: 
    secs: 1561866664
    nsecs: 168841414
  frame_id: "ti_mmwave"
point_id: 19
x: 0.044921875
y: -0.046875
z: 0.103515625
range: 0.130730912089
velocity: 0.0
doppler_bin: 8
bearing: -46.218875885
intensity: 29.0254669189
---
header: 
  seq: 360887
  stamp: 
    secs: 1561866664
    nsecs: 226975967
  frame_id: "ti_mmwave"
point_id: 0
x: 0.01171875
y: -0.0390625
z: -0.0078125
range: 0.0435769706964
velocity: 0.0
doppler_bin: 8
bearing: -73.3007583618
intensity: 30.6707077026
---
header: 
  seq: 360888
  stamp: 
    secs: 1561866664
    nsecs: 227070247
  frame_id: "ti_mmwave"
point_id: 1
x: 0.017578125
y: -0.080078125
z: -0.0078125
range: 0.0871539413929
velocity: 0.0
doppler_bin: 8
bearing: -77.6192398071
intensity: 31.9284610748
---
header: 
  seq: 360889
  stamp: 
    secs: 1561866664
    nsecs: 227087516
  frame_id: "ti_mmwave"
point_id: 2
x: 0.029296875
y: -0.119140625
z: -0.005859375
range: 0.130730912089
velocity: 0.0
doppler_bin: 8
bearing: -76.1849746704
intensity: 30.1535968781
---
header: 
  seq: 360890
  stamp: 
    secs: 1561866664
    nsecs: 227101263
  frame_id: "ti_mmwave"
point_id: 3
x: 0.056640625
y: -0.154296875
z: 0.005859375
range: 0.174307882786
velocity: 0.0
doppler_bin: 8
bearing: -69.8423843384
intensity: 25.4777469635
---
header: 
  seq: 360891
  stamp: 
    secs: 1561866664
    nsecs: 227115478
  frame_id: "ti_mmwave"
point_id: 4
x: 0.0703125
y: -0.080078125
z: 1.263671875
range: 1.35088610649
velocity: 0.0
doppler_bin: 8
bearing: -48.7152862549
intensity: 23.1597042084
---
header: 
  seq: 360892
  stamp: 
    secs: 1561866664
    nsecs: 227148797
  frame_id: "ti_mmwave"
point_id: 5
x: 0.06640625
y: -0.08203125
z: -1.3046875
range: 1.39446306229
velocity: 0.0
doppler_bin: 8
bearing: -51.0090065002
intensity: 24.6538276672
---
header: 
  seq: 360893
  stamp: 
    secs: 1561866664
    nsecs: 227162900
  frame_id: "ti_mmwave"
point_id: 6
x: 0.44140625
y: -0.083984375
z: -1.2734375
range: 1.43804001808
velocity: 0.0
doppler_bin: 8
bearing: -10.7726478577
intensity: 23.0749607086
---
header: 
  seq: 360894
  stamp: 
    secs: 1561866664
    nsecs: 227176259
  frame_id: "ti_mmwave"
point_id: 7
x: 0.5703125
y: -0.04296875
z: -1.267578125
range: 1.48161697388
velocity: 0.0
doppler_bin: 8
bearing: -4.30866527557
intensity: 21.6731739044
---
header: 
  seq: 360895
  stamp: 
    secs: 1561866664
    nsecs: 227191274
  frame_id: "ti_mmwave"
point_id: 8
x: 2.626953125
y: -0.17578125
z: 1.015625
range: 3.00681090355
velocity: 0.0
doppler_bin: 8
bearing: -3.82821130753
intensity: 28.9652614594
---
header: 
  seq: 360896
  stamp: 
    secs: 1561866664
    nsecs: 227264959
  frame_id: "ti_mmwave"
point_id: 9
x: 2.666015625
y: -0.1796875
z: 1.03125
range: 3.05038785934
velocity: 0.0
doppler_bin: 8
bearing: -3.85586214066
intensity: 32.1404876709
---
header: 
  seq: 360897
  stamp: 
    secs: 1561866664
    nsecs: 227279228
  frame_id: "ti_mmwave"
point_id: 10
x: 2.759765625
y: -0.08984375
z: 0.900390625
range: 3.09396481514
velocity: 0.0
doppler_bin: 8
bearing: -1.86459684372
intensity: 31.1025295258
---
header: 
  seq: 360898
  stamp: 
    secs: 1561866664
    nsecs: 227292000
  frame_id: "ti_mmwave"
point_id: 11
x: 4.384765625
y: -0.283203125
z: 1.14453125
range: 4.83704376221
velocity: 0.0
doppler_bin: 8
bearing: -3.69548535347
intensity: 28.5003318787
---
header: 
  seq: 360899
  stamp: 
    secs: 1561866664
    nsecs: 227304792
  frame_id: "ti_mmwave"
point_id: 12
x: 4.412109375
y: -0.142578125
z: 1.2265625
range: 4.88062095642
velocity: 0.0
doppler_bin: 8
bearing: -1.85087943077
intensity: 31.6938056946
---
header: 
  seq: 360900
  stamp: 
    secs: 1561866664
    nsecs: 227317541
  frame_id: "ti_mmwave"
point_id: 13
x: 4.447265625
y: -0.14453125
z: 1.25390625
range: 4.9241976738
velocity: 0.0
doppler_bin: 8
bearing: -1.86139500141
intensity: 31.0140342712
---
header: 
  seq: 360901
  stamp: 
    secs: 1561866664
    nsecs: 227336532
  frame_id: "ti_mmwave"
point_id: 15
x: 0.041015625
y: -0.033203125
z: 0.0625
range: 0.0871539413929
velocity: 0.0
doppler_bin: 8
bearing: -38.9909973145
intensity: 30.1157035828
---
header: 
  seq: 360902
  stamp: 
    secs: 1561866664
    nsecs: 227352137
  frame_id: "ti_mmwave"
point_id: 16
x: 0.044921875
y: -0.046875
z: 0.103515625
range: 0.130730912089
velocity: 0.0
doppler_bin: 8
bearing: -46.218875885
intensity: 29.0254669189
---
header: 
  seq: 360903
  stamp: 
    secs: 1561866664
    nsecs: 286943810
  frame_id: "ti_mmwave"
point_id: 0
x: 0.01171875
y: -0.0390625
z: -0.0078125
range: 0.0435769706964
velocity: 0.0
doppler_bin: 8
bearing: -73.3007583618
intensity: 30.6669845581
---
header: 
  seq: 360904
  stamp: 
    secs: 1561866664
    nsecs: 287034943
  frame_id: "ti_mmwave"
point_id: 1
x: 0.017578125
y: -0.080078125
z: -0.0078125
range: 0.0871539413929
velocity: 0.0
doppler_bin: 8
bearing: -77.6192398071
intensity: 31.9284610748
---
header: 
  seq: 360905
  stamp: 
    secs: 1561866664
    nsecs: 287051572
  frame_id: "ti_mmwave"
point_id: 2
x: 0.029296875
y: -0.119140625
z: -0.005859375
range: 0.130730912089
velocity: 0.0
doppler_bin: 8
bearing: -76.1849746704
intensity: 30.1535968781
---
header: 
  seq: 360906
  stamp: 
    secs: 1561866664
    nsecs: 287067557
  frame_id: "ti_mmwave"
point_id: 3
x: 0.056640625
y: -0.154296875
z: 0.005859375
range: 0.174307882786
velocity: 0.0
doppler_bin: 8
bearing: -69.8423843384
intensity: 25.4777469635
---
header: 
  seq: 360907
  stamp: 
    secs: 1561866664
    nsecs: 287082380
  frame_id: "ti_mmwave"
point_id: 4
x: 0.1171875
y: -0.080078125
z: 1.259765625
range: 1.35088610649
velocity: 0.0
doppler_bin: 8
bearing: -34.3460998535
intensity: 23.1806335449
---
header: 
  seq: 360908
  stamp: 
    secs: 1561866664
    nsecs: 287112318
  frame_id: "ti_mmwave"
point_id: 5
x: 0.05859375
y: -0.08203125
z: -1.3046875
range: 1.39446306229
velocity: 0.0
doppler_bin: 8
bearing: -54.4623222351
intensity: 24.6686763763
---
header: 
  seq: 360909
  stamp: 
    secs: 1561866664
    nsecs: 287242436
  frame_id: "ti_mmwave"
point_id: 6
x: 0.44140625
y: -0.083984375
z: -1.2734375
range: 1.43804001808
velocity: 0.0
doppler_bin: 8
bearing: -10.7726478577
intensity: 23.0963020325
---
header: 
  seq: 360910
  stamp: 
    secs: 1561866664
    nsecs: 287263068
  frame_id: "ti_mmwave"
point_id: 7
x: 1.9765625
y: -0.0625
z: -0.328125
range: 2.13527154922
velocity: 0.0
doppler_bin: 8
bearing: -1.81112086773
intensity: 27.7887439728
---
header: 
  seq: 360911
  stamp: 
    secs: 1561866664
    nsecs: 287278068
  frame_id: "ti_mmwave"
point_id: 8
x: 2.0234375
y: -0.0
z: -0.302734375
range: 2.17884850502
velocity: 0.0
doppler_bin: 8
bearing: -0.0
intensity: 28.1690387726
---
header: 
  seq: 360912
  stamp: 
    secs: 1561866664
    nsecs: 287291261
  frame_id: "ti_mmwave"
point_id: 9
x: 2.625
y: -0.17578125
z: 1.0234375
range: 3.00681090355
velocity: 0.0
doppler_bin: 8
bearing: -3.83105134964
intensity: 29.1539974213
---
header: 
  seq: 360913
  stamp: 
    secs: 1561866664
    nsecs: 287304345
  frame_id: "ti_mmwave"
point_id: 10
x: 2.654296875
y: -0.1796875
z: 1.05859375
range: 3.05038785934
velocity: 0.0
doppler_bin: 8
bearing: -3.87283420563
intensity: 32.2271652222
---
header: 
  seq: 360914
  stamp: 
    secs: 1561866664
    nsecs: 287317386
  frame_id: "ti_mmwave"
point_id: 11
x: 2.74609375
y: -0.08984375
z: 0.94140625
range: 3.09396481514
velocity: 0.0
doppler_bin: 8
bearing: -1.8738732338
intensity: 31.205739975
---
header: 
  seq: 360915
  stamp: 
    secs: 1561866664
    nsecs: 287333955
  frame_id: "ti_mmwave"
point_id: 12
x: 4.41015625
y: -0.142578125
z: 1.232421875
range: 4.88062095642
velocity: 0.0
doppler_bin: 8
bearing: -1.85169863701
intensity: 31.1494445801
---
header: 
  seq: 360916
  stamp: 
    secs: 1561866664
    nsecs: 287343037
  frame_id: "ti_mmwave"
point_id: 13
x: 4.44140625
y: -0.14453125
z: 1.275390625
range: 4.9241976738
velocity: 0.0
doppler_bin: 8
bearing: -1.86384868622
intensity: 30.5153846741
---
header: 
  seq: 360917
  stamp: 
    secs: 1561866664
    nsecs: 287372090
  frame_id: "ti_mmwave"
point_id: 15
x: 0.041015625
y: -0.033203125
z: 0.0625
range: 0.0871539413929
velocity: 0.0
doppler_bin: 8
bearing: -38.9909973145
intensity: 30.1157035828
---
header: 
  seq: 360918
  stamp: 
    secs: 1561866664
    nsecs: 287394090
  frame_id: "ti_mmwave"
point_id: 16
x: 0.044921875
y: -0.046875
z: 0.103515625
range: 0.130730912089
velocity: 0.0
doppler_bin: 8
bearing: -46.218875885
intensity: 29.0254669189
---
header: 
  seq: 360919
  stamp: 
    secs: 1561866664
    nsecs: 288305555
  frame_id: "ti_mmwave"
point_id: 0
x: 0.01171875
y: -0.0390625
z: -0.0078125
range: 0.0435769706964
velocity: 0.0
doppler_bin: 8
bearing: -73.3007583618
intensity: 30.6744289398
---
header: 
  seq: 360920
  stamp: 
    secs: 1561866664
    nsecs: 288369613
  frame_id: "ti_mmwave"
point_id: 1
x: 0.017578125
y: -0.080078125
z: -0.0078125
range: 0.0871539413929
velocity: 0.0
doppler_bin: 8
bearing: -77.6192398071
intensity: 31.9312458038
---
header: 
  seq: 360921
  stamp: 
    secs: 1561866664
    nsecs: 288388890
  frame_id: "ti_mmwave"
point_id: 2
x: 0.029296875
y: -0.119140625
z: -0.005859375
range: 0.130730912089
velocity: 0.0
doppler_bin: 8
bearing: -76.1849746704
intensity: 30.157787323
---
header: 
  seq: 360922
  stamp: 
    secs: 1561866664
    nsecs: 288410651
  frame_id: "ti_mmwave"
point_id: 3
x: 0.056640625
y: -0.154296875
z: 0.005859375
range: 0.174307882786
velocity: 0.0
doppler_bin: 8
bearing: -69.8423843384
intensity: 25.490032196
---
header: 
  seq: 360923
  stamp: 
    secs: 1561866664
    nsecs: 288485585
  frame_id: "ti_mmwave"
point_id: 4
x: 0.095703125
y: -0.080078125
z: 1.26171875
range: 1.35088610649
velocity: 0.0
doppler_bin: 8
bearing: -39.9203910828
intensity: 23.1175384521
---
header: 
  seq: 360924
  stamp: 
    secs: 1561866664
    nsecs: 288501717
  frame_id: "ti_mmwave"
point_id: 5
x: 0.0625
y: -0.08203125
z: -1.3046875
range: 1.39446306229
velocity: 0.0
doppler_bin: 8
bearing: -52.6960487366
intensity: 24.6538276672
---
header: 
  seq: 360925
  stamp: 
    secs: 1561866664
    nsecs: 288515842
  frame_id: "ti_mmwave"
point_id: 6
x: 0.4453125
y: -0.083984375
z: -1.271484375
range: 1.43804001808
velocity: 0.0
doppler_bin: 8
bearing: -10.6803331375
intensity: 23.0749607086
---
header: 
  seq: 360926
  stamp: 
    secs: 1561866664
    nsecs: 288528329
  frame_id: "ti_mmwave"
point_id: 7
x: 1.9921875
y: -0.0
z: -0.21484375
range: 2.13527154922
velocity: 0.0
doppler_bin: 8
bearing: -0.0
intensity: 27.4193916321
---
header: 
  seq: 360927
  stamp: 
    secs: 1561866664
    nsecs: 288541351
  frame_id: "ti_mmwave"
point_id: 8
x: 2.03515625
y: -0.0
z: -0.2109375
range: 2.17884850502
velocity: 0.0
doppler_bin: 8
bearing: -0.0
intensity: 28.1624126434
---
header: 
  seq: 360928
  stamp: 
    secs: 1561866664
    nsecs: 288564811
  frame_id: "ti_mmwave"
point_id: 9
x: 2.06640625
y: -0.064453125
z: -0.27734375
range: 2.22242546082
velocity: 0.0
doppler_bin: 8
bearing: -1.7865293026
intensity: 26.9019603729
---
header: 
  seq: 360929
  stamp: 
    secs: 1561866664
    nsecs: 288623823
  frame_id: "ti_mmwave"
point_id: 10
x: 2.583984375
y: -0.17578125
z: 1.12109375
range: 3.00681090355
velocity: 0.0
doppler_bin: 8
bearing: -3.89167666435
intensity: 29.0363254547
---
header: 
  seq: 360930
  stamp: 
    secs: 1561866664
    nsecs: 288638776
  frame_id: "ti_mmwave"
point_id: 11
x: 2.6484375
y: -0.1796875
z: 1.072265625
range: 3.05038785934
velocity: 0.0
doppler_bin: 8
bearing: -3.88137626648
intensity: 32.1695709229
---
header: 
  seq: 360931
  stamp: 
    secs: 1561866664
    nsecs: 288652026
  frame_id: "ti_mmwave"
point_id: 12
x: 2.74609375
y: -0.08984375
z: 0.943359375
range: 3.09396481514
velocity: 0.0
doppler_bin: 8
bearing: -1.8738732338
intensity: 31.1561050415
---
header: 
  seq: 360932
  stamp: 
    secs: 1561866664
    nsecs: 288673663
  frame_id: "ti_mmwave"
point_id: 13
x: 4.388671875
y: -0.283203125
z: 1.130859375
range: 4.83704376221
velocity: 0.0
doppler_bin: 8
bearing: -3.69220519066
intensity: 28.1424751282
---
header: 
  seq: 360933
  stamp: 
    secs: 1561866664
    nsecs: 288731663
  frame_id: "ti_mmwave"
point_id: 14
x: 4.41015625
y: -0.142578125
z: 1.23046875
range: 4.88062095642
velocity: 0.0
doppler_bin: 8
bearing: -1.85169863701
intensity: 31.875207901
---
header: 
  seq: 360934
  stamp: 
    secs: 1561866664
    nsecs: 288746323
  frame_id: "ti_mmwave"
point_id: 15
x: 4.44921875
y: -0.14453125
z: 1.244140625
range: 4.9241976738
velocity: 0.0
doppler_bin: 8
bearing: -1.86057829857
intensity: 31.6879196167
---
header: 
  seq: 360935
  stamp: 
    secs: 1561866664
    nsecs: 288772961
  frame_id: "ti_mmwave"
point_id: 17
x: 0.041015625
y: -0.033203125
z: 0.0625
range: 0.0871539413929
velocity: 0.0
doppler_bin: 8
bearing: -38.9909973145
intensity: 30.1114730835
---
header: 
  seq: 360936
  stamp: 
    secs: 1561866664
    nsecs: 288816497
  frame_id: "ti_mmwave"
point_id: 18
x: 0.044921875
y: -0.046875
z: 0.103515625
range: 0.130730912089
velocity: 0.0
doppler_bin: 8
bearing: -46.218875885
intensity: 29.0254669189
---
header: 
  seq: 360937
  stamp: 
    secs: 1561866664
    nsecs: 347185733
  frame_id: "ti_mmwave"
point_id: 0
x: 0.01171875
y: -0.0390625
z: -0.0078125
range: 0.0435769706964
velocity: 0.0
doppler_bin: 8
bearing: -73.3007583618
intensity: 30.6557979584
---
header: 
  seq: 360938
  stamp: 
    secs: 1561866664
    nsecs: 347261173
  frame_id: "ti_mmwave"
point_id: 1
x: 0.017578125
y: -0.080078125
z: -0.0078125
range: 0.0871539413929
velocity: 0.0
doppler_bin: 8
bearing: -77.6192398071
intensity: 31.9256744385
---
header: 
  seq: 360939
  stamp: 
    secs: 1561866664
    nsecs: 347272429
  frame_id: "ti_mmwave"
point_id: 2
x: 0.029296875
y: -0.119140625
z: -0.005859375
range: 0.130730912089
velocity: 0.0
doppler_bin: 8
bearing: -76.1849746704
intensity: 30.1535968781
---
header: 
  seq: 360940
  stamp: 
    secs: 1561866664
    nsecs: 347281923
  frame_id: "ti_mmwave"
point_id: 3
x: 0.056640625
y: -0.154296875
z: 0.005859375
range: 0.174307882786
velocity: 0.0
doppler_bin: 8
bearing: -69.8423843384
intensity: 25.490032196
---
header: 
  seq: 360941
  stamp: 
    secs: 1561866664
    nsecs: 347294554
  frame_id: "ti_mmwave"
point_id: 4
x: 0.15234375
y: -0.080078125
z: 1.255859375
range: 1.35088610649
velocity: 0.0
doppler_bin: 8
bearing: -27.7282581329
intensity: 23.1597042084
---
header: 
  seq: 360942
  stamp: 
    secs: 1561866664
    nsecs: 347305120
  frame_id: "ti_mmwave"
point_id: 6
x: 0.431640625
y: -0.083984375
z: -1.275390625
range: 1.43804001808
velocity: 0.0
doppler_bin: 8
bearing: -11.0104799271
intensity: 23.0963020325
---
header: 
  seq: 360943
  stamp: 
    secs: 1561866664
    nsecs: 347313085
  frame_id: "ti_mmwave"
point_id: 7
x: 0.564453125
y: -0.04296875
z: -1.26953125
range: 1.48161697388
velocity: 0.0
doppler_bin: 8
bearing: -4.35321998596
intensity: 21.6731739044
---
header: 
  seq: 360944
  stamp: 
    secs: 1561866664
    nsecs: 347321037
  frame_id: "ti_mmwave"
point_id: 8
x: 2.60546875
y: -0.17578125
z: 1.0703125
range: 3.00681090355
velocity: 0.0
doppler_bin: 8
bearing: -3.85968351364
intensity: 28.8705444336
---
header: 
  seq: 360945
  stamp: 
    secs: 1561866664
    nsecs: 347329127
  frame_id: "ti_mmwave"
point_id: 9
x: 2.65625
y: -0.1796875
z: 1.052734375
range: 3.05038785934
velocity: 0.0
doppler_bin: 8
bearing: -3.86999511719
intensity: 32.0844154358
---
header: 
  seq: 360946
  stamp: 
    secs: 1561866664
    nsecs: 347336894
  frame_id: "ti_mmwave"
point_id: 10
x: 2.7578125
y: -0.08984375
z: 0.90625
range: 3.09396481514
velocity: 0.0
doppler_bin: 8
bearing: -1.86591637135
intensity: 31.0754909515
---
header: 
  seq: 360947
  stamp: 
    secs: 1561866664
    nsecs: 347345561
  frame_id: "ti_mmwave"
point_id: 11
x: 4.40234375
y: -0.142578125
z: 1.259765625
range: 4.88062095642
velocity: 0.0
doppler_bin: 8
bearing: -1.85498249531
intensity: 28.9652614594
---
header: 
  seq: 360948
  stamp: 
    secs: 1561866664
    nsecs: 347355146
  frame_id: "ti_mmwave"
point_id: 12
x: 4.44921875
y: -0.0
z: 1.25390625
range: 4.9241976738
velocity: 0.0
doppler_bin: 8
bearing: -0.0
intensity: 28.6272754669
---
header: 
  seq: 360949
  stamp: 
    secs: 1561866664
    nsecs: 347364835
  frame_id: "ti_mmwave"
point_id: 13
x: 0.009765625
y: 0.03125
z: 0.025390625
range: 0.0435769706964
velocity: 0.0
doppler_bin: 8
bearing: 72.6459732056
intensity: 29.31457901
---
header: 
  seq: 360950
  stamp: 
    secs: 1561866664
    nsecs: 347373874
  frame_id: "ti_mmwave"
point_id: 14
x: 0.041015625
y: -0.033203125
z: 0.0625
range: 0.0871539413929
velocity: 0.0
doppler_bin: 8
bearing: -38.9909973145
intensity: 30.1157035828
---
header: 
  seq: 360951
  stamp: 
    secs: 1561866664
    nsecs: 347382549
  frame_id: "ti_mmwave"
point_id: 15
x: 0.044921875
y: -0.046875
z: 0.103515625
range: 0.130730912089
velocity: 0.0
doppler_bin: 8
bearing: -46.218875885
intensity: 29.0254669189
---
header: 
  seq: 360952
  stamp: 
    secs: 1561866664
    nsecs: 348453328
  frame_id: "ti_mmwave"
point_id: 0
x: 0.01171875
y: -0.0390625
z: -0.0078125
range: 0.0435769706964
velocity: 0.0
doppler_bin: 8
bearing: -73.3007583618
intensity: 30.6632595062
---
header: 
  seq: 360953
  stamp: 
    secs: 1561866664
    nsecs: 348515345
  frame_id: "ti_mmwave"
point_id: 1
x: 0.017578125
y: -0.080078125
z: -0.0078125
range: 0.0871539413929
velocity: 0.0
doppler_bin: 8
bearing: -77.6192398071
intensity: 31.9312458038
---
header: 
  seq: 360954
  stamp: 
    secs: 1561866664
    nsecs: 348536251
  frame_id: "ti_mmwave"
point_id: 2
x: 0.029296875
y: -0.119140625
z: -0.005859375
range: 0.130730912089
velocity: 0.0
doppler_bin: 8
bearing: -76.1849746704
intensity: 30.157787323
---
header: 
  seq: 360955
  stamp: 
    secs: 1561866664
    nsecs: 348549127
  frame_id: "ti_mmwave"
point_id: 3
x: 0.056640625
y: -0.154296875
z: 0.0078125
range: 0.174307882786
velocity: 0.0
doppler_bin: 8
bearing: -69.8423843384
intensity: 25.4777469635
---
header: 
  seq: 360956
  stamp: 
    secs: 1561866664
    nsecs: 348563346
  frame_id: "ti_mmwave"
point_id: 4
x: 0.126953125
y: -0.080078125
z: 1.259765625
range: 1.35088610649
velocity: 0.0
doppler_bin: 8
bearing: -32.2424697876
intensity: 23.1175384521
---
header: 
  seq: 360957
  stamp: 
    secs: 1561866664
    nsecs: 348579704
  frame_id: "ti_mmwave"
point_id: 6
x: 0.419921875
y: -0.083984375
z: -1.279296875
range: 1.43804001808
velocity: 0.0
doppler_bin: 8
bearing: -11.3099327087
intensity: 23.0749607086
---
header: 
  seq: 360958
  stamp: 
    secs: 1561866664
    nsecs: 348593336
  frame_id: "ti_mmwave"
point_id: 7
x: 0.576171875
y: -0.04296875
z: -1.265625
range: 1.48161697388
velocity: 0.0
doppler_bin: 8
bearing: -4.2650103569
intensity: 21.6435279846
---
header: 
  seq: 360959
  stamp: 
    secs: 1561866664
    nsecs: 348610583
  frame_id: "ti_mmwave"
point_id: 8
x: 2.00390625
y: 0.0625
z: 0.009765625
range: 2.13527154922
velocity: 0.0
doppler_bin: 8
bearing: 1.78642380238
intensity: 27.9169063568
---
header: 
  seq: 360960
  stamp: 
    secs: 1561866664
    nsecs: 348694203
  frame_id: "ti_mmwave"
point_id: 9
x: 2.044921875
y: 0.064453125
z: 0.0234375
range: 2.17884850502
velocity: 0.0
doppler_bin: 8
bearing: 1.80528640747
intensity: 29.6189556122
---
header: 
  seq: 360961
  stamp: 
    secs: 1561866664
    nsecs: 348711354
  frame_id: "ti_mmwave"
point_id: 10
x: 2.0859375
y: -0.0
z: 0.041015625
range: 2.22242546082
velocity: 0.0
doppler_bin: 8
bearing: -0.0
intensity: 28.680562973
---
header: 
  seq: 360962
  stamp: 
    secs: 1561866664
    nsecs: 348724053
  frame_id: "ti_mmwave"
point_id: 11
x: 2.62890625
y: -0.17578125
z: 1.013671875
range: 3.00681090355
velocity: 0.0
doppler_bin: 8
bearing: -3.82537555695
intensity: 28.9872512817
---
header: 
  seq: 360963
  stamp: 
    secs: 1561866664
    nsecs: 348737286
  frame_id: "ti_mmwave"
point_id: 12
x: 2.6640625
y: -0.1796875
z: 1.033203125
range: 3.05038785934
velocity: 0.0
doppler_bin: 8
bearing: -3.85868024826
intensity: 32.1642990112
---
header: 
  seq: 360964
  stamp: 
    secs: 1561866664
    nsecs: 348748058
  frame_id: "ti_mmwave"
point_id: 13
x: 2.7578125
y: -0.08984375
z: 0.904296875
range: 3.09396481514
velocity: 0.0
doppler_bin: 8
bearing: -1.86591637135
intensity: 31.1892566681
---
header: 
  seq: 360965
  stamp: 
    secs: 1561866664
    nsecs: 348758308
  frame_id: "ti_mmwave"
point_id: 15
x: 0.041015625
y: -0.033203125
z: 0.0625
range: 0.0871539413929
velocity: 0.0
doppler_bin: 8
bearing: -38.9909973145
intensity: 30.1114730835
---
header: 
  seq: 360966
  stamp: 
    secs: 1561866664
    nsecs: 348766184
  frame_id: "ti_mmwave"
point_id: 16
x: 0.044921875
y: -0.046875
z: 0.103515625
range: 0.130730912089
velocity: 0.0
doppler_bin: 8
bearing: -46.218875885
intensity: 29.0254669189
---
header: 
  seq: 360967
  stamp: 
    secs: 1561866664
    nsecs: 407003715
  frame_id: "ti_mmwave"
point_id: 0
x: 0.01171875
y: -0.0390625
z: -0.0078125
range: 0.0435769706964
velocity: 0.0
doppler_bin: 8
bearing: -73.3007583618
intensity: 30.6632595062
---
header: 
  seq: 360968
  stamp: 
    secs: 1561866664
    nsecs: 407102815
  frame_id: "ti_mmwave"
point_id: 1
x: 0.017578125
y: -0.080078125
z: -0.0078125
range: 0.0871539413929
velocity: 0.0
doppler_bin: 8
bearing: -77.6192398071
intensity: 31.9284610748
---
header: 
  seq: 360969
  stamp: 
    secs: 1561866664
    nsecs: 407141513
  frame_id: "ti_mmwave"
point_id: 2
x: 0.029296875
y: -0.119140625
z: -0.005859375
range: 0.130730912089
velocity: 0.0
doppler_bin: 8
bearing: -76.1849746704
intensity: 30.157787323
---
header: 
  seq: 360970
  stamp: 
    secs: 1561866664
    nsecs: 407169893
  frame_id: "ti_mmwave"
point_id: 3
x: 0.056640625
y: -0.154296875
z: 0.0078125
range: 0.174307882786
velocity: 0.0
doppler_bin: 8
bearing: -69.8423843384
intensity: 25.4654273987
---
header: 
  seq: 360971
  stamp: 
    secs: 1561866664
    nsecs: 407251162
  frame_id: "ti_mmwave"
point_id: 4
x: 0.09765625
y: -0.080078125
z: 1.26171875
range: 1.35088610649
velocity: 0.0
doppler_bin: 8
bearing: -39.3517532349
intensity: 23.1806335449
---
header: 
  seq: 360972
  stamp: 
    secs: 1561866664
    nsecs: 407267439
  frame_id: "ti_mmwave"
point_id: 5
x: 0.072265625
y: -0.08203125
z: -1.3046875
range: 1.39446306229
