header: 
  seq: 172288
  stamp: 
    secs: 1561866357
    nsecs: 927192081
  frame_id: "ti_mmwave"
point_id: 0
x: 0.01171875
y: -0.0390625
z: -0.0078125
range: 0.0435769706964
velocity: 0.0
doppler_bin: 8
bearing: -73.3007583618
intensity: 30.6408348083
---
header: 
  seq: 172289
  stamp: 
    secs: 1561866357
    nsecs: 927273566
  frame_id: "ti_mmwave"
point_id: 1
x: 0.017578125
y: -0.080078125
z: -0.0078125
range: 0.0871539413929
velocity: 0.0
doppler_bin: 8
bearing: -77.6192398071
intensity: 31.9033164978
---
header: 
  seq: 172290
  stamp: 
    secs: 1561866357
    nsecs: 927292210
  frame_id: "ti_mmwave"
point_id: 2
x: 0.029296875
y: -0.119140625
z: -0.005859375
range: 0.130730912089
velocity: 0.0
doppler_bin: 8
bearing: -76.1849746704
intensity: 30.1325874329
---
header: 
  seq: 172291
  stamp: 
    secs: 1561866357
    nsecs: 927304826
  frame_id: "ti_mmwave"
point_id: 3
x: 0.056640625
y: -0.154296875
z: 0.005859375
range: 0.174307882786
velocity: 0.0
doppler_bin: 8
bearing: -69.8423843384
intensity: 25.4406795502
---
header: 
  seq: 172292
  stamp: 
    secs: 1561866357
    nsecs: 927325086
  frame_id: "ti_mmwave"
point_id: 4
x: 0.1171875
y: -0.080078125
z: 1.259765625
range: 1.35088610649
velocity: 0.0
doppler_bin: 8
bearing: -34.3460998535
intensity: 23.1175384521
---
header: 
  seq: 172293
  stamp: 
    secs: 1561866357
    nsecs: 927400066
  frame_id: "ti_mmwave"
point_id: 6
x: 0.4375
y: -0.083984375
z: -1.2734375
range: 1.43804001808
velocity: 0.0
doppler_bin: 8
bearing: -10.8665513992
intensity: 23.0535144806
---
header: 
  seq: 172294
  stamp: 
    secs: 1561866357
    nsecs: 927413342
  frame_id: "ti_mmwave"
point_id: 7
x: 0.546875
y: -0.04296875
z: -1.27734375
range: 1.48161697388
velocity: 0.0
doppler_bin: 8
bearing: -4.49258184433
intensity: 21.6435279846
---
header: 
  seq: 172295
  stamp: 
    secs: 1561866357
    nsecs: 927425617
  frame_id: "ti_mmwave"
point_id: 8
x: 1.486328125
y: -0.09375
z: -0.265625
range: 1.61234796047
velocity: 0.0
doppler_bin: 8
bearing: -3.60914444923
intensity: 25.5266819
---
header: 
  seq: 172296
  stamp: 
    secs: 1561866357
    nsecs: 927436480
  frame_id: "ti_mmwave"
point_id: 9
x: 1.541015625
y: -0.048828125
z: -0.205078125
range: 1.65592491627
velocity: 0.0
doppler_bin: 8
bearing: -1.81484830379
intensity: 28.9927310944
---
header: 
  seq: 172297
  stamp: 
    secs: 1561866357
    nsecs: 927448522
  frame_id: "ti_mmwave"
point_id: 10
x: 1.59375
y: -0.0
z: -0.07421875
range: 1.69950187206
velocity: 0.0
doppler_bin: 8
bearing: -0.0
intensity: 29.1539974213
---
header: 
  seq: 172298
  stamp: 
    secs: 1561866357
    nsecs: 927459179
  frame_id: "ti_mmwave"
point_id: 11
x: 2.615234375
y: -0.17578125
z: 1.046875
range: 3.00681090355
velocity: 0.0
doppler_bin: 8
bearing: -3.84531402588
intensity: 28.8138465881
---
header: 
  seq: 172299
  stamp: 
    secs: 1561866357
    nsecs: 927470479
  frame_id: "ti_mmwave"
point_id: 12
x: 2.662109375
y: -0.1796875
z: 1.041015625
range: 3.05038785934
velocity: 0.0
doppler_bin: 8
bearing: -3.86150240898
intensity: 32.2193565369
---
header: 
  seq: 172300
  stamp: 
    secs: 1561866357
    nsecs: 927481336
  frame_id: "ti_mmwave"
point_id: 13
x: 2.759765625
y: -0.08984375
z: 0.900390625
range: 3.09396481514
velocity: 0.0
doppler_bin: 8
bearing: -1.86459684372
intensity: 31.3161869049
---
header: 
  seq: 172301
  stamp: 
    secs: 1561866357
    nsecs: 927495475
  frame_id: "ti_mmwave"
point_id: 15
x: 0.041015625
y: -0.033203125
z: 0.0625
range: 0.0871539413929
velocity: 0.0
doppler_bin: 8
bearing: -38.9909973145
intensity: 30.0945091248
---
header: 
  seq: 172302
  stamp: 
    secs: 1561866357
    nsecs: 927507754
  frame_id: "ti_mmwave"
point_id: 16
x: 0.044921875
y: -0.046875
z: 0.103515625
range: 0.130730912089
velocity: 0.0
doppler_bin: 8
bearing: -46.218875885
intensity: 28.9982051849
---
header: 
  seq: 172303
  stamp: 
    secs: 1561866357
    nsecs: 987165920
  frame_id: "ti_mmwave"
point_id: 0
x: 0.01171875
y: -0.0390625
z: -0.0078125
range: 0.0435769706964
velocity: 0.0
doppler_bin: 8
bearing: -73.3007583618
intensity: 30.6445808411
---
header: 
  seq: 172304
  stamp: 
    secs: 1561866357
    nsecs: 987241148
  frame_id: "ti_mmwave"
point_id: 1
x: 0.017578125
y: -0.080078125
z: -0.0078125
range: 0.0871539413929
velocity: 0.0
doppler_bin: 8
bearing: -77.6192398071
intensity: 31.9061183929
---
header: 
  seq: 172305
  stamp: 
    secs: 1561866357
    nsecs: 987257095
  frame_id: "ti_mmwave"
point_id: 2
x: 0.029296875
y: -0.119140625
z: -0.005859375
range: 0.130730912089
velocity: 0.0
doppler_bin: 8
bearing: -76.1849746704
intensity: 30.1367969513
---
header: 
  seq: 172306
  stamp: 
    secs: 1561866357
    nsecs: 987272049
  frame_id: "ti_mmwave"
point_id: 3
x: 0.056640625
y: -0.154296875
z: 0.0078125
range: 0.174307882786
velocity: 0.0
doppler_bin: 8
bearing: -69.8423843384
intensity: 25.4406795502
---
header: 
  seq: 172307
  stamp: 
    secs: 1561866357
    nsecs: 987289725
  frame_id: "ti_mmwave"
point_id: 5
x: 0.09765625
y: -0.08203125
z: -1.302734375
range: 1.39446306229
velocity: 0.0
doppler_bin: 8
bearing: -40.0302581787
intensity: 24.6538276672
---
header: 
  seq: 172308
  stamp: 
    secs: 1561866357
    nsecs: 987358564
  frame_id: "ti_mmwave"
point_id: 6
x: 0.431640625
y: -0.083984375
z: -1.275390625
range: 1.43804001808
velocity: 0.0
doppler_bin: 8
bearing: -11.0104799271
intensity: 23.0963020325
---
header: 
  seq: 172309
  stamp: 
    secs: 1561866357
    nsecs: 987371674
  frame_id: "ti_mmwave"
point_id: 7
x: 0.55859375
y: -0.04296875
z: -1.2734375
range: 1.48161697388
velocity: 0.0
doppler_bin: 8
bearing: -4.39870548248
intensity: 21.7897701263
---
header: 
  seq: 172310
  stamp: 
    secs: 1561866357
    nsecs: 987385014
  frame_id: "ti_mmwave"
point_id: 8
x: 2.611328125
y: -0.17578125
z: 1.056640625
range: 3.00681090355
velocity: 0.0
doppler_bin: 8
bearing: -3.85104894638
intensity: 29.0633506775
---
header: 
  seq: 172311
  stamp: 
    secs: 1561866357
    nsecs: 987398367
  frame_id: "ti_mmwave"
point_id: 9
x: 2.658203125
y: -0.1796875
z: 1.048828125
range: 3.05038785934
velocity: 0.0
doppler_bin: 8
bearing: -3.86716008186
intensity: 32.2115325928
---
header: 
  seq: 172312
  stamp: 
    secs: 1561866357
    nsecs: 987409231
  frame_id: "ti_mmwave"
point_id: 10
x: 2.759765625
y: -0.08984375
z: 0.90234375
range: 3.09396481514
velocity: 0.0
doppler_bin: 8
bearing: -1.86459684372
intensity: 31.2645606995
---
header: 
  seq: 172313
  stamp: 
    secs: 1561866357
    nsecs: 987419523
  frame_id: "ti_mmwave"
point_id: 11
x: 1.630859375
y: -0.0
z: 0.125
range: 1.74307882786
velocity: -0.614668667316
doppler_bin: 7
bearing: -0.0
intensity: 26.9372692108
---
header: 
  seq: 172314
  stamp: 
    secs: 1561866357
    nsecs: 987430699
  frame_id: "ti_mmwave"
point_id: 12
x: 1.671875
y: 0.052734375
z: 0.126953125
range: 1.78665578365
velocity: -0.614668667316
doppler_bin: 7
bearing: 1.8066277504
intensity: 27.7815132141
---
header: 
  seq: 172315
  stamp: 
    secs: 1561866357
    nsecs: 987441958
  frame_id: "ti_mmwave"
point_id: 13
x: 0.009765625
y: 0.03125
z: 0.025390625
range: 0.0435769706964
velocity: 0.0
doppler_bin: 8
bearing: 72.6459732056
intensity: 29.3043956757
---
header: 
  seq: 172316
  stamp: 
    secs: 1561866357
    nsecs: 987453082
  frame_id: "ti_mmwave"
point_id: 14
x: 0.041015625
y: -0.033203125
z: 0.0625
range: 0.0871539413929
velocity: 0.0
doppler_bin: 8
bearing: -38.9909973145
intensity: 30.0945091248
---
header: 
  seq: 172317
  stamp: 
    secs: 1561866357
    nsecs: 987465675
  frame_id: "ti_mmwave"
point_id: 15
x: 0.044921875
y: -0.046875
z: 0.103515625
range: 0.130730912089
velocity: 0.0
doppler_bin: 8
bearing: -46.218875885
intensity: 28.9982051849
---
header: 
  seq: 172318
  stamp: 
    secs: 1561866357
    nsecs: 988566477
  frame_id: "ti_mmwave"
point_id: 0
x: 0.01171875
y: -0.0390625
z: -0.0078125
range: 0.0435769706964
velocity: 0.0
doppler_bin: 8
bearing: -73.3007583618
intensity: 30.6445808411
---
header: 
  seq: 172319
  stamp: 
    secs: 1561866357
    nsecs: 988622002
  frame_id: "ti_mmwave"
point_id: 1
x: 0.017578125
y: -0.080078125
z: -0.0078125
range: 0.0871539413929
velocity: 0.0
doppler_bin: 8
bearing: -77.6192398071
intensity: 31.9033164978
---
header: 
  seq: 172320
  stamp: 
    secs: 1561866357
    nsecs: 988637574
  frame_id: "ti_mmwave"
point_id: 2
x: 0.029296875
y: -0.119140625
z: -0.005859375
range: 0.130730912089
velocity: 0.0
doppler_bin: 8
bearing: -76.1849746704
intensity: 30.141002655
---
header: 
  seq: 172321
  stamp: 
    secs: 1561866357
    nsecs: 988650598
  frame_id: "ti_mmwave"
point_id: 3
x: 0.056640625
y: -0.154296875
z: 0.005859375
range: 0.174307882786
velocity: 0.0
doppler_bin: 8
bearing: -69.8423843384
intensity: 25.4654273987
---
header: 
  seq: 172322
  stamp: 
    secs: 1561866357
    nsecs: 988704962
  frame_id: "ti_mmwave"
point_id: 4
x: 0.142578125
y: -0.080078125
z: 1.2578125
range: 1.35088610649
velocity: 0.0
doppler_bin: 8
bearing: -29.3204746246
intensity: 23.0749607086
---
header: 
  seq: 172323
  stamp: 
    secs: 1561866357
    nsecs: 988719190
  frame_id: "ti_mmwave"
point_id: 5
x: 0.01171875
y: -0.08203125
z: 1.306640625
range: 1.39446306229
velocity: 0.0
doppler_bin: 8
bearing: -81.8698959351
intensity: 24.6089782715
---
header: 
  seq: 172324
  stamp: 
    secs: 1561866357
    nsecs: 988730839
  frame_id: "ti_mmwave"
point_id: 6
x: 0.4296875
y: -0.083984375
z: -1.27734375
range: 1.43804001808
velocity: 0.0
doppler_bin: 8
bearing: -11.0592975616
intensity: 23.0749607086
---
header: 
  seq: 172325
  stamp: 
    secs: 1561866357
    nsecs: 988742669
  frame_id: "ti_mmwave"
point_id: 7
x: 0.552734375
y: -0.04296875
z: -1.275390625
range: 1.48161697388
velocity: 0.0
doppler_bin: 8
bearing: -4.44514894485
intensity: 21.8184356689
---
header: 
  seq: 172326
  stamp: 
    secs: 1561866357
    nsecs: 988754694
  frame_id: "ti_mmwave"
point_id: 8
x: 1.552734375
y: -0.0
z: -0.087890625
range: 1.65592491627
velocity: 0.0
doppler_bin: 8
bearing: -0.0
intensity: 27.1767044067
---
header: 
  seq: 172327
  stamp: 
    secs: 1561866357
    nsecs: 988768699
  frame_id: "ti_mmwave"
point_id: 9
x: 1.59375
y: -0.0
z: -0.076171875
range: 1.69950187206
velocity: 0.0
doppler_bin: 8
bearing: -0.0
intensity: 28.3186969757
---
header: 
  seq: 172328
  stamp: 
    secs: 1561866357
    nsecs: 988781221
  frame_id: "ti_mmwave"
point_id: 10
x: 2.625
y: -0.17578125
z: 1.01953125
range: 3.00681090355
velocity: 0.0
doppler_bin: 8
bearing: -3.83105134964
intensity: 29.0741138458
---
header: 
  seq: 172329
  stamp: 
    secs: 1561866357
    nsecs: 988795181
  frame_id: "ti_mmwave"
point_id: 11
x: 2.669921875
y: -0.1796875
z: 1.021484375
range: 3.05038785934
velocity: 0.0
doppler_bin: 8
bearing: -3.85023736954
intensity: 32.2349586487
---
header: 
  seq: 172330
  stamp: 
    secs: 1561866357
    nsecs: 988809391
  frame_id: "ti_mmwave"
point_id: 12
x: 2.767578125
y: -0.08984375
z: 0.875
range: 3.09396481514
velocity: 0.0
doppler_bin: 8
bearing: -1.85933709145
intensity: 31.2904510498
---
header: 
  seq: 172331
  stamp: 
    secs: 1561866357
    nsecs: 988859701
  frame_id: "ti_mmwave"
point_id: 13
x: 1.6328125
y: -0.0
z: 0.09765625
range: 1.74307882786
velocity: -0.614668667316
doppler_bin: 7
bearing: -0.0
intensity: 26.9108142853
---
header: 
  seq: 172332
  stamp: 
    secs: 1561866357
    nsecs: 988875914
  frame_id: "ti_mmwave"
point_id: 14
x: 1.669921875
y: -0.0
z: 0.146484375
range: 1.78665578365
velocity: -0.614668667316
doppler_bin: 7
bearing: -0.0
intensity: 26.839471817
---
header: 
  seq: 172333
  stamp: 
    secs: 1561866357
    nsecs: 988893678
  frame_id: "ti_mmwave"
point_id: 16
x: 0.041015625
y: -0.033203125
z: 0.0625
range: 0.0871539413929
velocity: 0.0
doppler_bin: 8
bearing: -38.9909973145
intensity: 30.0902576447
---
header: 
  seq: 172334
  stamp: 
    secs: 1561866357
    nsecs: 988906328
  frame_id: "ti_mmwave"
point_id: 17
x: 0.044921875
y: -0.046875
z: 0.103515625
range: 0.130730912089
velocity: 0.0
doppler_bin: 8
bearing: -46.218875885
intensity: 28.9982051849
---
header: 
  seq: 172335
  stamp: 
    secs: 1561866358
    nsecs:  47179471
  frame_id: "ti_mmwave"
point_id: 0
x: 0.01171875
y: -0.0390625
z: -0.0078125
range: 0.0435769706964
velocity: 0.0
doppler_bin: 8
bearing: -73.3007583618
intensity: 30.6408348083
---
header: 
  seq: 172336
  stamp: 
    secs: 1561866358
    nsecs:  47261886
  frame_id: "ti_mmwave"
point_id: 1
x: 0.017578125
y: -0.080078125
z: -0.0078125
range: 0.0871539413929
velocity: 0.0
doppler_bin: 8
bearing: -77.6192398071
intensity: 31.9033164978
---
header: 
  seq: 172337
  stamp: 
    secs: 1561866358
    nsecs:  47279075
  frame_id: "ti_mmwave"
point_id: 2
x: 0.029296875
y: -0.119140625
z: -0.005859375
range: 0.130730912089
velocity: 0.0
doppler_bin: 8
bearing: -76.1849746704
intensity: 30.1325874329
---
header: 
  seq: 172338
  stamp: 
    secs: 1561866358
    nsecs:  47291820
  frame_id: "ti_mmwave"
point_id: 3
x: 0.056640625
y: -0.154296875
z: 0.005859375
range: 0.174307882786
velocity: 0.0
doppler_bin: 8
bearing: -69.8423843384
intensity: 25.4406795502
---
header: 
  seq: 172339
  stamp: 
    secs: 1561866358
    nsecs:  47314688
  frame_id: "ti_mmwave"
point_id: 4
x: 0.13671875
y: -0.080078125
z: 1.2578125
range: 1.35088610649
velocity: 0.0
doppler_bin: 8
bearing: -30.3581142426
intensity: 23.0749607086
---
header: 
  seq: 172340
  stamp: 
    secs: 1561866358
    nsecs:  47401350
  frame_id: "ti_mmwave"
point_id: 6
x: 0.4375
y: -0.083984375
z: -1.2734375
range: 1.43804001808
velocity: 0.0
doppler_bin: 8
bearing: -10.8665513992
intensity: 23.0535144806
---
header: 
  seq: 172341
  stamp: 
    secs: 1561866358
    nsecs:  47416875
  frame_id: "ti_mmwave"
point_id: 7
x: 0.609375
y: -0.04296875
z: -1.25
range: 1.48161697388
velocity: 0.0
doppler_bin: 8
bearing: -4.033411026
intensity: 21.7318630219
---
header: 
  seq: 172342
  stamp: 
    secs: 1561866358
    nsecs:  47429029
  frame_id: "ti_mmwave"
point_id: 8
x: 1.5390625
y: 0.048828125
z: -0.2109375
range: 1.65592491627
velocity: 0.0
doppler_bin: 8
bearing: 1.81714987755
intensity: 28.0685806274
---
header: 
  seq: 172343
  stamp: 
    secs: 1561866358
    nsecs:  47443068
  frame_id: "ti_mmwave"
point_id: 9
x: 1.58984375
y: 0.05078125
z: -0.1328125
range: 1.69950187206
velocity: 0.0
doppler_bin: 8
bearing: 1.82946419716
intensity: 31.3640346527
---
header: 
  seq: 172344
  stamp: 
    secs: 1561866358
    nsecs:  47454112
  frame_id: "ti_mmwave"
point_id: 10
x: 1.634765625
y: -0.0
z: -0.08984375
range: 1.74307882786
velocity: 0.0
doppler_bin: 8
bearing: -0.0
intensity: 31.176027298
---
header: 
  seq: 172345
  stamp: 
    secs: 1561866358
    nsecs:  47465525
  frame_id: "ti_mmwave"
point_id: 11
x: 1.67578125
y: 0.052734375
z: -0.029296875
range: 1.78665578365
velocity: 0.0
doppler_bin: 8
bearing: 1.80241930485
intensity: 27.5434837341
---
header: 
  seq: 172346
  stamp: 
    secs: 1561866358
    nsecs:  47478222
  frame_id: "ti_mmwave"
point_id: 12
x: 2.609375
y: -0.17578125
z: 1.060546875
range: 3.00681090355
velocity: 0.0
doppler_bin: 8
bearing: -3.85392260551
intensity: 29.0363254547
---
header: 
  seq: 172347
  stamp: 
    secs: 1561866358
    nsecs:  47489050
  frame_id: "ti_mmwave"
point_id: 13
x: 2.658203125
y: -0.1796875
z: 1.05078125
range: 3.05038785934
velocity: 0.0
doppler_bin: 8
bearing: -3.86716008186
intensity: 32.1695709229
---
header: 
  seq: 172348
  stamp: 
    secs: 1561866358
    nsecs:  47502068
  frame_id: "ti_mmwave"
point_id: 14
x: 2.75390625
y: -0.08984375
z: 0.91796875
range: 3.09396481514
velocity: 0.0
doppler_bin: 8
bearing: -1.86856126785
intensity: 31.1594314575
---
header: 
  seq: 172349
  stamp: 
    secs: 1561866358
    nsecs:  47515229
  frame_id: "ti_mmwave"
point_id: 15
x: 0.009765625
y: 0.03125
z: 0.025390625
range: 0.0435769706964
velocity: 0.0
doppler_bin: 8
bearing: 72.6459732056
intensity: 29.2992954254
---
header: 
  seq: 172350
  stamp: 
    secs: 1561866358
    nsecs:  47540195
  frame_id: "ti_mmwave"
point_id: 16
x: 0.041015625
y: -0.033203125
z: 0.0625
range: 0.0871539413929
velocity: 0.0
doppler_bin: 8
bearing: -38.9909973145
intensity: 30.0987567902
---
header: 
  seq: 172351
  stamp: 
    secs: 1561866358
    nsecs:  47608146
  frame_id: "ti_mmwave"
point_id: 17
x: 0.046875
y: -0.046875
z: 0.103515625
range: 0.130730912089
velocity: 0.0
doppler_bin: 8
bearing: -45.0
intensity: 28.9982051849
---
header: 
  seq: 172352
  stamp: 
    secs: 1561866358
    nsecs:  48426979
  frame_id: "ti_mmwave"
point_id: 0
x: 0.01171875
y: -0.0390625
z: -0.0078125
range: 0.0435769706964
velocity: 0.0
doppler_bin: 8
bearing: -73.3007583618
intensity: 30.6483230591
---
header: 
  seq: 172353
  stamp: 
    secs: 1561866358
    nsecs:  48491112
  frame_id: "ti_mmwave"
point_id: 1
x: 0.017578125
y: -0.080078125
z: -0.0078125
range: 0.0871539413929
velocity: 0.0
doppler_bin: 8
bearing: -77.6192398071
intensity: 31.9061183929
---
header: 
  seq: 172354
  stamp: 
    secs: 1561866358
    nsecs:  48509313
  frame_id: "ti_mmwave"
point_id: 2
x: 0.029296875
y: -0.119140625
z: -0.005859375
range: 0.130730912089
velocity: 0.0
doppler_bin: 8
bearing: -76.1849746704
intensity: 30.1367969513
---
header: 
  seq: 172355
  stamp: 
    secs: 1561866358
    nsecs:  48523034
  frame_id: "ti_mmwave"
point_id: 3
x: 0.056640625
y: -0.154296875
z: 0.005859375
range: 0.174307882786
velocity: 0.0
doppler_bin: 8
bearing: -69.8423843384
intensity: 25.4530715942
---
header: 
  seq: 172356
  stamp: 
    secs: 1561866358
    nsecs:  48537755
  frame_id: "ti_mmwave"
point_id: 4
x: 0.14453125
y: -0.080078125
z: 1.2578125
range: 1.35088610649
velocity: 0.0
doppler_bin: 8
bearing: -28.9888248444
intensity: 23.1175384521
---
header: 
  seq: 172357
  stamp: 
    secs: 1561866358
    nsecs:  48602869
  frame_id: "ti_mmwave"
point_id: 6
x: 0.43359375
y: -0.083984375
z: -1.275390625
range: 1.43804001808
velocity: 0.0
doppler_bin: 8
bearing: -10.9620876312
intensity: 23.0963020325
---
header: 
  seq: 172358
  stamp: 
    secs: 1561866358
    nsecs:  48612008
  frame_id: "ti_mmwave"
point_id: 7
x: 0.642578125
y: -0.04296875
z: -1.232421875
range: 1.48161697388
velocity: 0.0
doppler_bin: 8
bearing: -3.82563328743
intensity: 21.6731739044
---
header: 
  seq: 172359
  stamp: 
    secs: 1561866358
    nsecs:  48621013
  frame_id: "ti_mmwave"
point_id: 8
x: 1.5546875
y: -0.0
z: 0.00390625
range: 1.65592491627
velocity: 0.0
doppler_bin: 8
bearing: -0.0
intensity: 26.1384181976
---
header: 
  seq: 172360
  stamp: 
    secs: 1561866358
    nsecs:  48628817
  frame_id: "ti_mmwave"
point_id: 9
x: 1.59375
y: -0.0
z: 0.046875
range: 1.69950187206
velocity: 0.0
doppler_bin: 8
bearing: -0.0
intensity: 28.034570694
---
header: 
  seq: 172361
  stamp: 
    secs: 1561866358
    nsecs:  48636481
  frame_id: "ti_mmwave"
point_id: 10
x: 1.630859375
y: -0.0
z: 0.140625
range: 1.74307882786
velocity: 0.0
doppler_bin: 8
bearing: -0.0
intensity: 27.5815467834
---
header: 
  seq: 172362
  stamp: 
    secs: 1561866358
    nsecs:  48644158
  frame_id: "ti_mmwave"
point_id: 11
x: 2.625
y: -0.17578125
z: 1.025390625
range: 3.00681090355
velocity: 0.0
doppler_bin: 8
bearing: -3.83105134964
intensity: 29.020029068
---
header: 
  seq: 172363
  stamp: 
    secs: 1561866358
    nsecs:  48653175
  frame_id: "ti_mmwave"
point_id: 12
x: 2.662109375
y: -0.1796875
z: 1.0390625
range: 3.05038785934
velocity: 0.0
doppler_bin: 8
bearing: -3.86150240898
intensity: 32.1245384216
---
header: 
  seq: 172364
  stamp: 
    secs: 1561866358
    nsecs:  48660691
  frame_id: "ti_mmwave"
point_id: 13
x: 2.755859375
y: -0.08984375
z: 0.912109375
range: 3.09396481514
velocity: 0.0
doppler_bin: 8
bearing: -1.86723792553
intensity: 31.0687046051
---
header: 
  seq: 172365
  stamp: 
    secs: 1561866358
    nsecs:  48668286
  frame_id: "ti_mmwave"
point_id: 14
x: 0.009765625
y: 0.03125
z: 0.025390625
range: 0.0435769706964
velocity: 0.0
doppler_bin: 8
bearing: 72.6459732056
intensity: 29.2992954254
---
header: 
  seq: 172366
  stamp: 
    secs: 1561866358
    nsecs:  48676206
  frame_id: "ti_mmwave"
point_id: 15
x: 0.041015625
y: -0.033203125
z: 0.0625
range: 0.0871539413929
velocity: 0.0
doppler_bin: 8
bearing: -38.9909973145
intensity: 30.0987567902
---
header: 
  seq: 172367
  stamp: 
    secs: 1561866358
    nsecs:  48685202
  frame_id: "ti_mmwave"
point_id: 16
x: 0.046875
y: -0.046875
z: 0.103515625
range: 0.130730912089
velocity: 0.0
doppler_bin: 8
bearing: -45.0
intensity: 28.9982051849
---
header: 
  seq: 172368
  stamp: 
    secs: 1561866358
    nsecs:  48694891
  frame_id: "ti_mmwave"
point_id: 18
x: 0.41015625
y: 0.58203125
z: 1.380859375
range: 1.65592491627
velocity: 0.0
doppler_bin: 8
bearing: 54.8277244568
intensity: 24.7421627045
---
header: 
  seq: 172369
  stamp: 
    secs: 1561866358
    nsecs: 107324248
  frame_id: "ti_mmwave"
point_id: 0
x: 0.01171875
y: -0.0390625
z: -0.0078125
range: 0.0435769706964
velocity: 0.0
doppler_bin: 8
bearing: -73.3007583618
intensity: 30.6520614624
---
header: 
  seq: 172370
  stamp: 
    secs: 1561866358
    nsecs: 107400273
  frame_id: "ti_mmwave"
point_id: 1
x: 0.017578125
y: -0.080078125
z: -0.0078125
range: 0.0871539413929
velocity: 0.0
doppler_bin: 8
bearing: -77.6192398071
intensity: 31.9061183929
---
header: 
  seq: 172371
  stamp: 
    secs: 1561866358
    nsecs: 107411963
  frame_id: "ti_mmwave"
point_id: 2
x: 0.029296875
y: -0.119140625
z: -0.005859375
range: 0.130730912089
velocity: 0.0
doppler_bin: 8
bearing: -76.1849746704
intensity: 30.1367969513
---
header: 
  seq: 172372
  stamp: 
    secs: 1561866358
    nsecs: 107421017
  frame_id: "ti_mmwave"
point_id: 3
x: 0.056640625
y: -0.154296875
z: 0.005859375
range: 0.174307882786
velocity: 0.0
doppler_bin: 8
bearing: -69.8423843384
intensity: 25.4530715942
---
header: 
  seq: 172373
  stamp: 
    secs: 1561866358
    nsecs: 107429500
  frame_id: "ti_mmwave"
point_id: 4
x: 0.109375
y: -0.080078125
z: 1.26171875
range: 1.35088610649
velocity: 0.0
doppler_bin: 8
bearing: -36.2094573975
intensity: 23.0963020325
---
header: 
  seq: 172374
  stamp: 
    secs: 1561866358
    nsecs: 107440663
  frame_id: "ti_mmwave"
point_id: 6
x: 0.4375
y: -0.083984375
z: -1.2734375
range: 1.43804001808
velocity: 0.0
doppler_bin: 8
bearing: -10.8665513992
intensity: 23.0535144806
---
header: 
  seq: 172375
  stamp: 
    secs: 1561866358
    nsecs: 107451438
  frame_id: "ti_mmwave"
point_id: 7
x: 1.533203125
y: -0.0
z: -0.25390625
range: 1.65592491627
velocity: 0.0
doppler_bin: 8
bearing: -0.0
intensity: 28.5247993469
---
header: 
  seq: 172376
  stamp: 
    secs: 1561866358
    nsecs: 107461497
  frame_id: "ti_mmwave"
point_id: 8
x: 1.576171875
y: -0.0
z: -0.251953125
range: 1.69950187206
velocity: 0.0
doppler_bin: 8
bearing: -0.0
intensity: 31.0414562225
---
header: 
  seq: 172377
  stamp: 
    secs: 1561866358
    nsecs: 107470105
  frame_id: "ti_mmwave"
point_id: 9
x: 1.625
y: 0.05078125
z: -0.181640625
range: 1.74307882786
velocity: 0.0
doppler_bin: 8
bearing: 1.7899106741
intensity: 30.6370849609
---
header: 
  seq: 172378
  stamp: 
    secs: 1561866358
    nsecs: 107478315
  frame_id: "ti_mmwave"
point_id: 10
x: 1.67578125
y: 0.052734375
z: -0.06640625
range: 1.78665578365
velocity: 0.0
doppler_bin: 8
bearing: 1.80241930485
intensity: 28.1690387726
---
header: 
  seq: 172379
  stamp: 
    secs: 1561866358
    nsecs: 107490153
  frame_id: "ti_mmwave"
point_id: 11
x: 2.619140625
y: -0.17578125
z: 1.03515625
range: 3.00681090355
velocity: 0.0
doppler_bin: 8
bearing: -3.83959650993
intensity: 29.1115760803
---
header: 
  seq: 172380
  stamp: 
    secs: 1561866358
    nsecs: 107657913
  frame_id: "ti_mmwave"
point_id: 12
x: 2.65234375
y: -0.1796875
z: 1.06640625
range: 3.05038785934
velocity: 0.0
doppler_bin: 8
bearing: -3.87567687035
intensity: 32.1722068787
---
header: 
  seq: 172381
  stamp: 
    secs: 1561866358
    nsecs: 107677375
  frame_id: "ti_mmwave"
point_id: 13
x: 2.744140625
y: -0.08984375
z: 0.947265625
range: 3.09396481514
velocity: 0.0
doppler_bin: 8
bearing: -1.87520623207
intensity: 31.0788803101
---
header: 
  seq: 172382
  stamp: 
    secs: 1561866358
    nsecs: 107685326
  frame_id: "ti_mmwave"
point_id: 15
x: 0.041015625
y: -0.033203125
z: 0.0625
range: 0.0871539413929
velocity: 0.0
doppler_bin: 8
bearing: -38.9909973145
intensity: 30.0945091248
---
header: 
  seq: 172383
  stamp: 
    secs: 1561866358
    nsecs: 107725339
  frame_id: "ti_mmwave"
point_id: 16
x: 0.044921875
y: -0.046875
z: 0.103515625
range: 0.130730912089
velocity: 0.0
doppler_bin: 8
bearing: -46.218875885
intensity: 28.9927310944
---
header: 
  seq: 172384
  stamp: 
    secs: 1561866358
    nsecs: 108687997
  frame_id: "ti_mmwave"
point_id: 0
x: 0.01171875
y: -0.0390625
z: -0.0078125
range: 0.0435769706964
velocity: 0.0
doppler_bin: 8
bearing: -73.3007583618
intensity: 30.6483230591
---
header: 
  seq: 172385
  stamp: 
    secs: 1561866358
    nsecs: 108734297
  frame_id: "ti_mmwave"
point_id: 1
x: 0.017578125
y: -0.080078125
z: -0.0078125
range: 0.0871539413929
velocity: 0.0
doppler_bin: 8
bearing: -77.6192398071
intensity: 31.9061183929
---
header: 
  seq: 172386
  stamp: 
    secs: 1561866358
    nsecs: 108745028
  frame_id: "ti_mmwave"
point_id: 2
x: 0.029296875
y: -0.119140625
z: -0.005859375
range: 0.130730912089
velocity: 0.0
doppler_bin: 8
bearing: -76.1849746704
intensity: 30.141002655
---
header: 
  seq: 172387
  stamp: 
    secs: 1561866358
    nsecs: 108753755
  frame_id: "ti_mmwave"
point_id: 3
x: 0.056640625
y: -0.154296875
z: 0.005859375
range: 0.174307882786
velocity: 0.0
doppler_bin: 8
bearing: -69.8423843384
intensity: 25.4530715942
---
header: 
  seq: 172388
  stamp: 
    secs: 1561866358
    nsecs: 108762566
  frame_id: "ti_mmwave"
point_id: 4
x: 0.125
y: -0.080078125
z: 1.259765625
range: 1.35088610649
velocity: 0.0
doppler_bin: 8
bearing: -32.6446380615
intensity: 23.1175384521
---
header: 
  seq: 172389
  stamp: 
    secs: 1561866358
    nsecs: 108774187
  frame_id: "ti_mmwave"
point_id: 6
x: 0.470703125
y: -0.083984375
z: -1.263671875
range: 1.43804001808
velocity: 0.0
doppler_bin: 8
bearing: -10.116443634
intensity: 23.0535144806
---
header: 
  seq: 172390
  stamp: 
    secs: 1561866358
    nsecs: 108782852
  frame_id: "ti_mmwave"
point_id: 7
x: 0.494140625
y: -0.087890625
z: -1.296875
range: 1.48161697388
velocity: 0.0
doppler_bin: 8
bearing: -10.0854759216
intensity: 21.430147171
---
header: 
  seq: 172391
  stamp: 
    secs: 1561866358
    nsecs: 108792664
  frame_id: "ti_mmwave"
point_id: 8
x: 1.55078125
y: -0.048828125
z: -0.0859375
range: 1.65592491627
velocity: 0.0
doppler_bin: 8
bearing: -1.80342757702
intensity: 26.0959434509
---
header: 
  seq: 172392
  stamp: 
    secs: 1561866358
    nsecs: 108801034
  frame_id: "ti_mmwave"
point_id: 9
x: 1.59375
y: -0.0
z: -0.046875
range: 1.69950187206
velocity: 0.0
doppler_bin: 8
bearing: -0.0
intensity: 28.0955963135
---
header: 
  seq: 172393
  stamp: 
    secs: 1561866358
    nsecs: 108809057
  frame_id: "ti_mmwave"
point_id: 10
x: 1.63671875
y: -0.0
z: 0.02734375
range: 1.74307882786
velocity: 0.0
doppler_bin: 8
bearing: -0.0
intensity: 29.0848503113
---
header: 
  seq: 172394
  stamp: 
    secs: 1561866358
    nsecs: 108880484
  frame_id: "ti_mmwave"
point_id: 11
x: 1.67578125
y: 0.052734375
z: 0.03125
range: 1.78665578365
velocity: 0.0
doppler_bin: 8
bearing: 1.80241930485
intensity: 27.8532981873
---
header: 
  seq: 172395
  stamp: 
    secs: 1561866358
    nsecs: 108891152
  frame_id: "ti_mmwave"
point_id: 12
x: 2.623046875
y: -0.17578125
z: 1.02734375
range: 3.00681090355
velocity: 0.0
doppler_bin: 8
bearing: -3.83389568329
intensity: 29.0417442322
---
header: 
  seq: 172396
  stamp: 
    secs: 1561866358
    nsecs: 108901436
  frame_id: "ti_mmwave"
point_id: 13
x: 2.662109375
y: -0.1796875
z: 1.0390625
range: 3.05038785934
velocity: 0.0
doppler_bin: 8
bearing: -3.86150240898
intensity: 32.1906051636
---
header: 
  seq: 172397
  stamp: 
    secs: 1561866358
    nsecs: 108909921
  frame_id: "ti_mmwave"
point_id: 14
x: 2.751953125
y: -0.08984375
z: 0.923828125
range: 3.09396481514
velocity: 0.0
doppler_bin: 8
bearing: -1.86988639832
intensity: 31.1826477051
---
header: 
  seq: 172398
  stamp: 
    secs: 1561866358
    nsecs: 108919602
  frame_id: "ti_mmwave"
point_id: 16
x: 0.041015625
y: -0.033203125
z: 0.0625
range: 0.0871539413929
velocity: 0.0
doppler_bin: 8
bearing: -38.9909973145
intensity: 30.0945091248
---
header: 
  seq: 172399
  stamp: 
    secs: 1561866358
    nsecs: 108928290
  frame_id: "ti_mmwave"
point_id: 17
x: 0.044921875
y: -0.046875
z: 0.103515625
range: 0.130730912089
velocity: 0.0
doppler_bin: 8
bearing: -46.218875885
intensity: 28.9982051849
---
header: 
  seq: 172400
  stamp: 
    secs: 1561866358
    nsecs: 108938776
  frame_id: "ti_mmwave"
point_id: 20
x: 1.673828125
y: -0.052734375
z: 0.080078125
range: 1.78665578365
velocity: 0.0
doppler_bin: 8
bearing: -1.80452108383
intensity: 27.8103694916
---
header: 
  seq: 172401
  stamp: 
    secs: 1561866358
    nsecs: 167252527
  frame_id: "ti_mmwave"
point_id: 0
x: 0.01171875
y: -0.0390625
z: -0.0078125
range: 0.0435769706964
velocity: 0.0
doppler_bin: 8
bearing: -73.3007583618
intensity: 30.6408348083
---
header: 
  seq: 172402
  stamp: 
    secs: 1561866358
    nsecs: 167305982
  frame_id: "ti_mmwave"
point_id: 1
x: 0.017578125
y: -0.080078125
z: -0.0078125
range: 0.0871539413929
velocity: 0.0
doppler_bin: 8
bearing: -77.6192398071
intensity: 31.9033164978
---
header: 
  seq: 172403
  stamp: 
    secs: 1561866358
    nsecs: 167313234
  frame_id: "ti_mmwave"
point_id: 2
x: 0.029296875
y: -0.119140625
z: -0.005859375
range: 0.130730912089
velocity: 0.0
doppler_bin: 8
bearing: -76.1849746704
intensity: 30.1367969513
---
header: 
  seq: 172404
  stamp: 
    secs: 1561866358
    nsecs: 167318892
  frame_id: "ti_mmwave"
point_id: 3
x: 0.056640625
y: -0.154296875
z: 0.005859375
range: 0.174307882786
velocity: 0.0
doppler_bin: 8
bearing: -69.8423843384
intensity: 25.4530715942
---
header: 
  seq: 172405
  stamp: 
    secs: 1561866358
    nsecs: 167326972
  frame_id: "ti_mmwave"
point_id: 4
x: 0.09375
y: -0.080078125
z: 1.26171875
range: 1.35088610649
velocity: 0.0
doppler_bin: 8
bearing: -40.5028457642
intensity: 23.1175384521
---
header: 
  seq: 172406
  stamp: 
    secs: 1561866358
    nsecs: 167333742
  frame_id: "ti_mmwave"
point_id: 6
x: 0.4453125
y: -0.083984375
z: -1.271484375
range: 1.43804001808
velocity: 0.0
doppler_bin: 8
bearing: -10.6803331375
intensity: 23.0535144806
---
header: 
  seq: 172407
  stamp: 
    secs: 1561866358
    nsecs: 167340532
  frame_id: "ti_mmwave"
point_id: 7
x: 2.5859375
y: -0.17578125
z: 1.1171875
range: 3.00681090355
velocity: 0.0
doppler_bin: 8
bearing: -3.88874602318
intensity: 28.9320678711
---
header: 
  seq: 172408
  stamp: 
    secs: 1561866358
    nsecs: 167346234
  frame_id: "ti_mmwave"
point_id: 8
x: 2.646484375
y: -0.1796875
z: 1.078125
range: 3.05038785934
velocity: 0.0
doppler_bin: 8
bearing: -3.88423156738
intensity: 32.1378326416
---
header: 
  seq: 172409
  stamp: 
    secs: 1561866358
    nsecs: 167351987
  frame_id: "ti_mmwave"
point_id: 9
x: 2.748046875
y: -0.08984375
z: 0.9375
range: 3.09396481514
velocity: 0.0
doppler_bin: 8
bearing: -1.8725425005
intensity: 31.1627559662
---
header: 
  seq: 172410
  stamp: 
    secs: 1561866358
    nsecs: 167488815
  frame_id: "ti_mmwave"
point_id: 10
x: 1.583984375
y: -0.099609375
z: 0.171875
range: 1.69950187206
velocity: 0.614668667316
doppler_bin: 9
bearing: -3.59832549095
intensity: 25.3529415131
---
header: 
  seq: 172411
  stamp: 
    secs: 1561866358
    nsecs: 167501907
  frame_id: "ti_mmwave"
point_id: 11
x: 1.62890625
y: -0.0
z: 0.1640625
range: 1.74307882786
velocity: 0.614668667316
doppler_bin: 9
bearing: -0.0
intensity: 27.5281639099
---
header: 
  seq: 172412
  stamp: 
    secs: 1561866358
    nsecs: 167507503
  frame_id: "ti_mmwave"
point_id: 12
x: 1.666015625
y: -0.0
z: 0.197265625
range: 1.78665578365
velocity: 0.614668667316
doppler_bin: 9
bearing: -0.0
intensity: 27.0070381165
---
header: 
  seq: 172413
  stamp: 
    secs: 1561866358
    nsecs: 167512957
  frame_id: "ti_mmwave"
point_id: 13
x: 0.009765625
y: 0.03125
z: 0.025390625
range: 0.0435769706964
velocity: 0.0
doppler_bin: 8
bearing: 72.6459732056
intensity: 29.2992954254
---
header: 
  seq: 172414
  stamp: 
    secs: 1561866358
    nsecs: 167518466
  frame_id: "ti_mmwave"
point_id: 14
x: 0.041015625
y: -0.033203125
z: 0.0625
range: 0.0871539413929
velocity: 0.0
doppler_bin: 8
bearing: -38.9909973145
intensity: 30.0902576447
---
header: 
  seq: 172415
  stamp: 
    secs: 1561866358
    nsecs: 167523365
  frame_id: "ti_mmwave"
point_id: 15
x: 0.044921875
y: -0.046875
z: 0.103515625
range: 0.130730912089
velocity: 0.0
doppler_bin: 8
bearing: -46.218875885
intensity: 28.9982051849
---
header: 
  seq: 172416
  stamp: 
    secs: 1561866358
    nsecs: 168199881
  frame_id: "ti_mmwave"
point_id: 0
x: 0.01171875
y: -0.0390625
z: -0.0078125
range: 0.0435769706964
velocity: 0.0
doppler_bin: 8
bearing: -73.3007583618
intensity: 30.6483230591
---
header: 
  seq: 172417
  stamp: 
    secs: 1561866358
    nsecs: 168235521
  frame_id: "ti_mmwave"
point_id: 1
x: 0.017578125
y: -0.080078125
z: -0.0078125
range: 0.0871539413929
velocity: 0.0
doppler_bin: 8
bearing: -77.6192398071
intensity: 31.9061183929
---
header: 
  seq: 172418
  stamp: 
    secs: 1561866358
    nsecs: 168246438
  frame_id: "ti_mmwave"
point_id: 2
x: 0.029296875
y: -0.119140625
z: -0.005859375
range: 0.130730912089
velocity: 0.0
doppler_bin: 8
bearing: -76.1849746704
intensity: 30.141002655
---
header: 
  seq: 172419
  stamp: 
    secs: 1561866358
    nsecs: 168256678
  frame_id: "ti_mmwave"
point_id: 3
x: 0.056640625
y: -0.154296875
z: 0.005859375
range: 0.174307882786
velocity: 0.0
doppler_bin: 8
bearing: -69.8423843384
intensity: 25.4654273987
---
header: 
  seq: 172420
  stamp: 
    secs: 1561866358
    nsecs: 168288230
  frame_id: "ti_mmwave"
point_id: 4
x: 0.109375
y: -0.080078125
z: 1.26171875
range: 1.35088610649
velocity: 0.0
doppler_bin: 8
bearing: -36.2094573975
intensity: 23.0963020325
---
header: 
  seq: 172421
  stamp: 
    secs: 1561866358
    nsecs: 168296092
  frame_id: "ti_mmwave"
point_id: 5
x: 0.083984375
y: -0.08203125
z: 1.3046875
range: 1.39446306229
velocity: 0.0
doppler_bin: 8
bearing: -44.3259658813
intensity: 24.6239795685
---
header: 
  seq: 172422
  stamp: 
    secs: 1561866358
    nsecs: 168304758
  frame_id: "ti_mmwave"
point_id: 6
x: 0.388671875
y: -0.083984375
z: -1.2890625
range: 1.43804001808
velocity: 0.0
doppler_bin: 8
bearing: -12.1930341721
intensity: 23.031961441
---
header: 
  seq: 172423
  stamp: 
    secs: 1561866358
    nsecs: 168313162
  frame_id: "ti_mmwave"
point_id: 7
x: 1.505859375
y: -0.0
z: -0.150390625
range: 1.61234796047
velocity: 0.0
doppler_bin: 8
bearing: -0.0
intensity: 25.7863922119
---
header: 
  seq: 172424
  stamp: 
    secs: 1561866358
    nsecs: 168320943
  frame_id: "ti_mmwave"
point_id: 8
x: 1.548828125
y: 0.048828125
z: -0.119140625
range: 1.65592491627
velocity: 0.0
doppler_bin: 8
bearing: 1.80570006371
intensity: 28.9707698822
---
header: 
  seq: 172425
  stamp: 
    secs: 1561866358
    nsecs: 168329086
  frame_id: "ti_mmwave"
point_id: 9
x: 1.58984375
y: 0.099609375
z: -0.08984375
range: 1.69950187206
velocity: 0.0
doppler_bin: 8
bearing: 3.58509850502
intensity: 30.2242832184
---
header: 
  seq: 172426
  stamp: 
    secs: 1561866358
    nsecs: 168335144
  frame_id: "ti_mmwave"
point_id: 10
x: 1.634765625
y: 0.05078125
z: -0.046875
range: 1.74307882786
velocity: 0.0
doppler_bin: 8
bearing: 1.77922511101
intensity: 30.5037975311
---
header: 
  seq: 172427
  stamp: 
    secs: 1561866358
    nsecs: 168365812
  frame_id: "ti_mmwave"
point_id: 11
x: 1.677734375
y: -0.0
z: -0.0078125
range: 1.78665578365
velocity: 0.0
doppler_bin: 8
bearing: -0.0
intensity: 29.3701610565
---
header: 
  seq: 172428
  stamp: 
    secs: 1561866358
    nsecs: 168375646
  frame_id: "ti_mmwave"
point_id: 12
x: 2.615234375
y: -0.17578125
z: 1.048828125
range: 3.00681090355
velocity: 0.0
doppler_bin: 8
bearing: -3.84531402588
intensity: 29.1062431335
---
header: 
  seq: 172429
  stamp: 
    secs: 1561866358
    nsecs: 168384462
  frame_id: "ti_mmwave"
point_id: 13
x: 2.671875
y: -0.1796875
z: 1.01171875
range: 3.05038785934
velocity: 0.0
doppler_bin: 8
bearing: -3.84743142128
intensity: 32.3451728821
---
header: 
  seq: 172430
  stamp: 
    secs: 1561866358
    nsecs: 168392964
  frame_id: "ti_mmwave"
point_id: 14
x: 2.767578125
y: -0.08984375
z: 0.876953125
range: 3.09396481514
velocity: 0.0
doppler_bin: 8
bearing: -1.85933709145
intensity: 31.3608608246
---
header: 
  seq: 172431
  stamp: 
    secs: 1561866358
    nsecs: 168400600
  frame_id: "ti_mmwave"
point_id: 15
x: 1.685546875
y: -0.052734375
z: 0.328125
range: 1.83023273945
velocity: 0.614668667316
doppler_bin: 9
bearing: -1.79198312759
intensity: 26.1384181976
---
header: 
  seq: 172432
  stamp: 
    secs: 1561866358
    nsecs: 168407771
  frame_id: "ti_mmwave"
point_id: 16
x: 0.009765625
y: 0.03125
z: 0.025390625
range: 0.0435769706964
velocity: 0.0
doppler_bin: 8
bearing: 72.6459732056
intensity: 29.2941894531
---
header: 
  seq: 172433
  stamp: 
    secs: 1561866358
    nsecs: 168416424
  frame_id: "ti_mmwave"
point_id: 17
x: 0.041015625
y: -0.033203125
z: 0.0625
range: 0.0871539413929
velocity: 0.0
doppler_bin: 8
bearing: -38.9909973145
intensity: 30.0987567902
---
header: 
  seq: 172434
  stamp: 
    secs: 1561866358
    nsecs: 168424735
  frame_id: "ti_mmwave"
point_id: 18
x: 0.044921875
y: -0.046875
z: 0.103515625
range: 0.130730912089
velocity: 0.0
doppler_bin: 8
bearing: -46.218875885
intensity: 28.9982051849
---
header: 
  seq: 172435
  stamp: 
    secs: 1561866358
    nsecs: 227071384
  frame_id: "ti_mmwave"
point_id: 0
x: 0.01171875
y: -0.0390625
z: -0.0078125
range: 0.0435769706964
velocity: 0.0
doppler_bin: 8
bearing: -73.3007583618
intensity: 30.6520614624
---
header: 
  seq: 172436
  stamp: 
    secs: 1561866358
    nsecs: 227138438
  frame_id: "ti_mmwave"
point_id: 1
x: 0.017578125
y: -0.080078125
z: -0.0078125
range: 0.0871539413929
velocity: 0.0
doppler_bin: 8
bearing: -77.6192398071
intensity: 31.9089164734
---
header: 
  seq: 172437
  stamp: 
    secs: 1561866358
    nsecs: 227155281
  frame_id: "ti_mmwave"
point_id: 2
x: 0.029296875
y: -0.119140625
z: -0.005859375
range: 0.130730912089
velocity: 0.0
doppler_bin: 8
bearing: -76.1849746704
intensity: 30.141002655
---
header: 
  seq: 172438
  stamp: 
    secs: 1561866358
    nsecs: 227168474
  frame_id: "ti_mmwave"
point_id: 3
x: 0.056640625
y: -0.154296875
z: 0.005859375
range: 0.174307882786
velocity: 0.0
doppler_bin: 8
bearing: -69.8423843384
intensity: 25.4530715942
---
header: 
  seq: 172439
  stamp: 
    secs: 1561866358
    nsecs: 227184408
  frame_id: "ti_mmwave"
point_id: 4
x: 0.166015625
y: -0.080078125
z: 1.25390625
range: 1.35088610649
velocity: 0.0
doppler_bin: 8
bearing: -25.7504749298
intensity: 23.1597042084
---
header: 
  seq: 172440
  stamp: 
    secs: 1561866358
    nsecs: 227272800
  frame_id: "ti_mmwave"
point_id: 6
x: 0.427734375
y: -0.083984375
z: -1.27734375
range: 1.43804001808
velocity: 0.0
doppler_bin: 8
bearing: -11.1085424423
intensity: 23.0963020325
---
header: 
  seq: 172441
  stamp: 
    secs: 1561866358
    nsecs: 227286785
  frame_id: "ti_mmwave"
point_id: 7
x: 0.599609375
y: -0.04296875
z: -1.25390625
range: 1.48161697388
velocity: 0.0
doppler_bin: 8
bearing: -4.09887981415
intensity: 21.7609119415
---
header: 
  seq: 172442
  stamp: 
    secs: 1561866358
    nsecs: 227300579
  frame_id: "ti_mmwave"
point_id: 8
x: 1.5546875
y: -0.0
z: 0.046875
range: 1.65592491627
velocity: 0.0
doppler_bin: 8
bearing: -0.0
intensity: 28.767950058
---
header: 
  seq: 172443
  stamp: 
    secs: 1561866358
    nsecs: 227311890
  frame_id: "ti_mmwave"
point_id: 9
x: 1.591796875
y: 0.099609375
z: 0.041015625
range: 1.69950187206
velocity: 0.0
doppler_bin: 8
bearing: 3.58071136475
intensity: 30.2325248718
---
header: 
  seq: 172444
  stamp: 
    secs: 1561866358
    nsecs: 227323379
  frame_id: "ti_mmwave"
point_id: 10
x: 1.62890625
y: 0.154296875
z: 0.01171875
range: 1.74307882786
velocity: 0.0
doppler_bin: 8
bearing: 5.41115236282
intensity: 27.7305469513
---
header: 
  seq: 172445
  stamp: 
    secs: 1561866358
    nsecs: 227334993
  frame_id: "ti_mmwave"
point_id: 11
x: 0.796875
y: -0.208984375
z: -1.4609375
range: 1.78665578365
velocity: 0.0
doppler_bin: 8
bearing: -14.6951656342
intensity: 25.6937389374
---
header: 
  seq: 172446
  stamp: 
    secs: 1561866358
    nsecs: 227347947
  frame_id: "ti_mmwave"
point_id: 12
x: 2.642578125
y: -0.1796875
z: 1.0859375
range: 3.05038785934
velocity: 0.0
doppler_bin: 8
bearing: -3.88995575905
intensity: 31.8440742493
---
header: 
  seq: 172447
  stamp: 
    secs: 1561866358
    nsecs: 227357830
  frame_id: "ti_mmwave"
point_id: 13
x: 2.744140625
y: -0.08984375
z: 0.9453125
range: 3.09396481514
velocity: 0.0
doppler_bin: 8
bearing: -1.87520623207
intensity: 31.0105934143
---
header: 
  seq: 172448
  stamp: 
    secs: 1561866358
    nsecs: 227381700
  frame_id: "ti_mmwave"
point_id: 15
x: 0.041015625
y: -0.033203125
z: 0.0625
range: 0.0871539413929
velocity: 0.0
doppler_bin: 8
bearing: -38.9909973145
intensity: 30.0902576447
---
header: 
  seq: 172449
  stamp: 
    secs: 1561866358
    nsecs: 227443162
  frame_id: "ti_mmwave"
point_id: 16
x: 0.046875
y: -0.046875
z: 0.103515625
range: 0.130730912089
velocity: 0.0
doppler_bin: 8
bearing: -45.0
intensity: 28.9927310944
---
header: 
  seq: 172450
  stamp: 
    secs: 1561866358
    nsecs: 227460080
  frame_id: "ti_mmwave"
point_id: 18
x: 1.630859375
y: 0.3671875
z: 0.12890625
range: 1.78665578365
velocity: 0.0
doppler_bin: 8
bearing: 12.6885471344
intensity: 23.3645973206
---
header: 
  seq: 172451
  stamp: 
    secs: 1561866358
    nsecs: 287179939
  frame_id: "ti_mmwave"
point_id: 0
x: 0.01171875
y: -0.0390625
z: -0.0078125
range: 0.0435769706964
velocity: 0.0
doppler_bin: 8
bearing: -73.3007583618
intensity: 30.6520614624
---
header: 
  seq: 172452
  stamp: 
    secs: 1561866358
    nsecs: 287251574
  frame_id: "ti_mmwave"
point_id: 1
x: 0.017578125
y: -0.080078125
z: -0.0078125
range: 0.0871539413929
velocity: 0.0
doppler_bin: 8
bearing: -77.6192398071
intensity: 31.9061183929
---
header: 
  seq: 172453
  stamp: 
    secs: 1561866358
    nsecs: 287267873
  frame_id: "ti_mmwave"
point_id: 2
x: 0.029296875
y: -0.119140625
z: -0.005859375
range: 0.130730912089
velocity: 0.0
doppler_bin: 8
bearing: -76.1849746704
intensity: 30.1367969513
---
header: 
  seq: 172454
  stamp: 
    secs: 1561866358
    nsecs: 287281703
  frame_id: "ti_mmwave"
point_id: 3
x: 0.056640625
y: -0.154296875
z: 0.005859375
range: 0.174307882786
velocity: 0.0
doppler_bin: 8
bearing: -69.8423843384
intensity: 25.4654273987
---
header: 
  seq: 172455
  stamp: 
    secs: 1561866358
    nsecs: 287299771
  frame_id: "ti_mmwave"
point_id: 4
x: 0.12890625
y: -0.080078125
z: 1.259765625
range: 1.35088610649
velocity: 0.0
doppler_bin: 8
bearing: -31.8490524292
intensity: 23.1175384521
---
header: 
  seq: 172456
  stamp: 
    secs: 1561866358
    nsecs: 287369867
  frame_id: "ti_mmwave"
point_id: 6
x: 0.431640625
y: -0.083984375
z: -1.275390625
range: 1.43804001808
velocity: 0.0
doppler_bin: 8
bearing: -11.0104799271
intensity: 23.031961441
---
header: 
  seq: 172457
  stamp: 
    secs: 1561866358
    nsecs: 287383260
  frame_id: "ti_mmwave"
point_id: 7
x: 1.55078125
y: -0.0
z: -0.107421875
range: 1.65592491627
velocity: 0.0
doppler_bin: 8
bearing: -0.0
intensity: 28.8081359863
---
header: 
  seq: 172458
  stamp: 
    secs: 1561866358
    nsecs: 287394927
  frame_id: "ti_mmwave"
point_id: 8
x: 1.583984375
y: -0.0
z: -0.189453125
range: 1.69950187206
velocity: 0.0
doppler_bin: 8
bearing: -0.0
intensity: 30.0432128906
---
header: 
  seq: 172459
  stamp: 
    secs: 1561866358
    nsecs: 287405912
  frame_id: "ti_mmwave"
point_id: 9
x: 1.46875
y: -0.0
z: -0.720703125
range: 1.74307882786
velocity: 0.0
doppler_bin: 8
bearing: -0.0
intensity: 28.8422870636
---
header: 
  seq: 172460
  stamp: 
    secs: 1561866358
    nsecs: 287417290
  frame_id: "ti_mmwave"
point_id: 10
x: 1.24609375
y: -0.052734375
z: 1.12109375
range: 1.78665578365
velocity: 0.0
doppler_bin: 8
bearing: -2.42329692841
intensity: 27.8175544739
---
header: 
  seq: 172461
  stamp: 
    secs: 1561866358
    nsecs: 287429161
  frame_id: "ti_mmwave"
point_id: 11
x: 1.568359375
y: -0.052734375
z: 0.69921875
range: 1.83023273945
velocity: 0.0
doppler_bin: 8
bearing: -1.92578268051
intensity: 26.9548168182
---
header: 
  seq: 172462
  stamp: 
    secs: 1561866358
    nsecs: 287442444
  frame_id: "ti_mmwave"
point_id: 12
x: 2.611328125
y: -0.17578125
z: 1.0546875
range: 3.00681090355
velocity: 0.0
doppler_bin: 8
bearing: -3.85104894638
intensity: 29.6520175934
---
header: 
  seq: 172463
  stamp: 
    secs: 1561866358
    nsecs: 287456807
  frame_id: "ti_mmwave"
point_id: 13
x: 2.662109375
y: -0.1796875
z: 1.037109375
range: 3.05038785934
velocity: 0.0
doppler_bin: 8
bearing: -3.86150240898
intensity: 32.7346420288
---
header: 
  seq: 172464
  stamp: 
    secs: 1561866358
    nsecs: 287466360
  frame_id: "ti_mmwave"
point_id: 14
x: 2.75
y: -0.08984375
z: 0.9296875
range: 3.09396481514
velocity: 0.0
doppler_bin: 8
bearing: -1.87121355534
intensity: 31.723110199
---
header: 
  seq: 172465
  stamp: 
    secs: 1561866358
    nsecs: 287493568
  frame_id: "ti_mmwave"
point_id: 16
x: 0.041015625
y: -0.033203125
z: 0.0625
range: 0.0871539413929
velocity: 0.0
doppler_bin: 8
bearing: -38.9909973145
intensity: 30.0945091248
---
header: 
  seq: 172466
  stamp: 
    secs: 1561866358
    nsecs: 287559281
  frame_id: "ti_mmwave"
point_id: 17
x: 0.044921875
y: -0.046875
z: 0.103515625
range: 0.130730912089
velocity: 0.0
doppler_bin: 8
bearing: -46.218875885
intensity: 28.9982051849
---
header: 
  seq: 172467
  stamp: 
    secs: 1561866358
    nsecs: 288398295
  frame_id: "ti_mmwave"
point_id: 0
x: 0.01171875
y: -0.0390625
z: -0.0078125
range: 0.0435769706964
velocity: 0.0
doppler_bin: 8
bearing: -73.3007583618
intensity: 30.6483230591
---
header: 
  seq: 172468
  stamp: 
    secs: 1561866358
    nsecs: 288439915
  frame_id: "ti_mmwave"
point_id: 1
x: 0.017578125
y: -0.080078125
z: -0.0078125
range: 0.0871539413929
velocity: 0.0
doppler_bin: 8
bearing: -77.6192398071
intensity: 31.9061183929
---
header: 
  seq: 172469
  stamp: 
    secs: 1561866358
    nsecs: 288454624
  frame_id: "ti_mmwave"
point_id: 2
x: 0.029296875
y: -0.119140625
z: -0.005859375
range: 0.130730912089
velocity: 0.0
doppler_bin: 8
bearing: -76.1849746704
intensity: 30.1367969513
---
header: 
  seq: 172470
  stamp: 
    secs: 1561866358
    nsecs: 288467927
  frame_id: "ti_mmwave"
point_id: 3
x: 0.056640625
y: -0.154296875
z: 0.005859375
range: 0.174307882786
velocity: 0.0
doppler_bin: 8
bearing: -69.8423843384
intensity: 25.4530715942
---
header: 
  seq: 172471
  stamp: 
    secs: 1561866358
    nsecs: 288526837
  frame_id: "ti_mmwave"
point_id: 4
x: 0.115234375
y: -0.080078125
z: 1.259765625
range: 1.35088610649
velocity: 0.0
doppler_bin: 8
bearing: -34.7960281372
intensity: 23.1175384521
---
header: 
  seq: 172472
  stamp: 
    secs: 1561866358
    nsecs: 288543757
  frame_id: "ti_mmwave"
point_id: 6
x: 0.431640625
y: -0.083984375
z: -1.275390625
range: 1.43804001808
velocity: 0.0
doppler_bin: 8
bearing: -11.0104799271
intensity: 23.0535144806
---
header: 
  seq: 172473
  stamp: 
    secs: 1561866358
    nsecs: 288555127
  frame_id: "ti_mmwave"
point_id: 7
x: 0.583984375
y: -0.04296875
z: -1.26171875
range: 1.48161697388
velocity: 0.0
doppler_bin: 8
bearing: -4.20815992355
intensity: 21.6435279846
---
header: 
  seq: 172474
  stamp: 
    secs: 1561866358
    nsecs: 288567522
  frame_id: "ti_mmwave"
point_id: 8
x: 1.55078125
y: 0.048828125
z: -0.103515625
range: 1.65592491627
velocity: 0.0
doppler_bin: 8
bearing: 1.80342757702
intensity: 27.9657440186
---
header: 
  seq: 172475
  stamp: 
    secs: 1561866358
    nsecs: 288582360
  frame_id: "ti_mmwave"
point_id: 9
x: 1.59375
y: -0.0
z: -0.0859375
range: 1.69950187206
velocity: 0.0
doppler_bin: 8
bearing: -0.0
intensity: 30.1953163147
---
header: 
  seq: 172476
  stamp: 
    secs: 1561866358
    nsecs: 288591177
  frame_id: "ti_mmwave"
point_id: 10
x: 1.63671875
y: -0.0
z: -0.015625
range: 1.74307882786
velocity: 0.0
doppler_bin: 8
bearing: -0.0
intensity: 31.6761264801
---
header: 
  seq: 172477
  stamp: 
    secs: 1561866358
    nsecs: 288637906
  frame_id: "ti_mmwave"
point_id: 11
x: 1.67578125
y: -0.0
z: 0.080078125
range: 1.78665578365
velocity: 0.0
doppler_bin: 8
bearing: -0.0
intensity: 31.4860267639
---
header: 
  seq: 172478
  stamp: 
    secs: 1561866358
    nsecs: 288652348
  frame_id: "ti_mmwave"
point_id: 12
x: 1.7109375
y: -0.0
z: 0.1484375
range: 1.83023273945
velocity: 0.0
doppler_bin: 8
bearing: -0.0
intensity: 28.2085800171
---
header: 
  seq: 172479
  stamp: 
    secs: 1561866358
    nsecs: 288665836
  frame_id: "ti_mmwave"
point_id: 13
x: 2.685546875
y: -0.1796875
z: 0.9765625
range: 3.05038785934
velocity: 0.0
doppler_bin: 8
bearing: -3.8279030323
intensity: 31.5926628113
---
header: 
  seq: 172480
  stamp: 
    secs: 1561866358
    nsecs: 288677897
  frame_id: "ti_mmwave"
point_id: 14
x: 2.783203125
y: -0.181640625
z: 0.8125
range: 3.09396481514
velocity: 0.0
doppler_bin: 8
bearing: -3.73400807381
intensity: 30.6929798126
---
header: 
  seq: 172481
  stamp: 
    secs: 1561866358
    nsecs: 288692206
  frame_id: "ti_mmwave"
point_id: 16
x: 0.041015625
y: -0.033203125
z: 0.0625
range: 0.0871539413929
velocity: 0.0
doppler_bin: 8
bearing: -38.9909973145
intensity: 30.0945091248
---
header: 
  seq: 172482
  stamp: 
    secs: 1561866358
    nsecs: 288705146
  frame_id: "ti_mmwave"
point_id: 17
x: 0.044921875
y: -0.046875
z: 0.103515625
range: 0.130730912089
velocity: 0.0
doppler_bin: 8
bearing: -46.218875885
intensity: 28.9982051849
---
header: 
  seq: 172483
  stamp: 
    secs: 1561866358
    nsecs: 288722599
  frame_id: "ti_mmwave"
point_id: 19
x: 0.40625
y: 0.630859375
z: 1.361328125
range: 1.65592491627
velocity: 0.0
doppler_bin: 8
bearing: 57.2199668884
intensity: 25.1851387024
---
header: 
  seq: 172484
  stamp: 
    secs: 1561866358
    nsecs: 347095066
  frame_id: "ti_mmwave"
point_id: 0
x: 0.01171875
y: -0.0390625
z: -0.0078125
range: 0.0435769706964
velocity: 0.0
doppler_bin: 8
bearing: -73.3007583618
intensity: 30.6483230591
---
header: 
  seq: 172485
  stamp: 
    secs: 1561866358
    nsecs: 347162812
  frame_id: "ti_mmwave"
point_id: 1
x: 0.017578125
y: -0.080078125
z: -0.0078125
range: 0.0871539413929
velocity: 0.0
doppler_bin: 8
bearing: -77.6192398071
intensity: 31.9061183929
---
header: 
  seq: 172486
  stamp: 
    secs: 1561866358
    nsecs: 347174334
  frame_id: "ti_mmwave"
point_id: 2
x: 0.029296875
y: -0.119140625
z: -0.005859375
range: 0.130730912089
velocity: 0.0
doppler_bin: 8
bearing: -76.1849746704
intensity: 30.1367969513
---
header: 
  seq: 172487
  stamp: 
    secs: 1561866358
    nsecs: 347185360
  frame_id: "ti_mmwave"
point_id: 3
x: 0.056640625
y: -0.154296875
z: 0.005859375
range: 0.174307882786
velocity: 0.0
doppler_bin: 8
bearing: -69.8423843384
intensity: 25.4406795502
---
header: 
  seq: 172488
  stamp: 
    secs: 1561866358
    nsecs: 347196165
  frame_id: "ti_mmwave"
point_id: 4
x: 0.11328125
y: -0.080078125
z: 1.259765625
range: 1.35088610649
velocity: 0.0
doppler_bin: 8
bearing: -35.2563591003
intensity: 23.1175384521
---
header: 
  seq: 172489
  stamp: 
    secs: 1561866358
    nsecs: 347206771
  frame_id: "ti_mmwave"
point_id: 6
x: 0.435546875
y: -0.083984375
z: -1.275390625
range: 1.43804001808
velocity: 0.0
doppler_bin: 8
bearing: -10.9141130447
intensity: 23.0535144806
---
header: 
  seq: 172490
  stamp: 
    secs: 1561866358
    nsecs: 347215490
  frame_id: "ti_mmwave"
point_id: 7
x: 0.58984375
y: -0.04296875
z: -1.259765625
range: 1.48161697388
velocity: 0.0
doppler_bin: 8
bearing: -4.16650438309
intensity: 21.5836257935
---
header: 
  seq: 172491
  stamp: 
    secs: 1561866358
    nsecs: 347226579
  frame_id: "ti_mmwave"
point_id: 8
x: 1.546875
y: -0.048828125
z: -0.142578125
range: 1.65592491627
velocity: 0.0
doppler_bin: 8
bearing: -1.80797839165
intensity: 26.0097293854
---
header: 
  seq: 172492
  stamp: 
    secs: 1561866358
    nsecs: 347398996
  frame_id: "ti_mmwave"
point_id: 9
x: 1.591796875
y: -0.05078125
z: -0.08203125
range: 1.69950187206
velocity: 0.0
doppler_bin: 8
bearing: -1.82722115517
intensity: 27.8461723328
---
header: 
  seq: 172493
  stamp: 
    secs: 1561866358
    nsecs: 347420610
  frame_id: "ti_mmwave"
point_id: 10
x: 1.634765625
y: -0.0
z: 0.048828125
range: 1.74307882786
velocity: 0.0
doppler_bin: 8
bearing: -0.0
intensity: 28.864906311
---
header: 
  seq: 172494
  stamp: 
    secs: 1561866358
    nsecs: 347453748
  frame_id: "ti_mmwave"
point_id: 11
x: 1.658203125
y: -0.0
z: 0.248046875
range: 1.78665578365
velocity: 0.0
doppler_bin: 8
bearing: -0.0
intensity: 28.9762706757
---
header: 
  seq: 172495
  stamp: 
    secs: 1561866358
    nsecs: 347530710
  frame_id: "ti_mmwave"
point_id: 12
x: 2.6171875
y: -0.17578125
z: 1.04296875
range: 3.00681090355
velocity: 0.0
doppler_bin: 8
bearing: -3.84245300293
intensity: 28.1291332245
---
header: 
  seq: 172496
  stamp: 
    secs: 1561866358
    nsecs: 347550163
  frame_id: "ti_mmwave"
point_id: 13
x: 2.69140625
y: -0.08984375
z: 0.9765625
range: 3.05038785934
velocity: 0.0
doppler_bin: 8
bearing: -1.91192126274
intensity: 31.5896530151
---
header: 
  seq: 172497
  stamp: 
    secs: 1561866358
    nsecs: 347563339
  frame_id: "ti_mmwave"
point_id: 14
x: 2.734375
y: -0.181640625
z: 0.96484375
range: 3.09396481514
velocity: 0.0
doppler_bin: 8
bearing: -3.80049324036
intensity: 30.7518177032
---
header: 
  seq: 172498
  stamp: 
    secs: 1561866358
    nsecs: 347580834
  frame_id: "ti_mmwave"
point_id: 15
x: 0.009765625
y: 0.03125
z: 0.025390625
range: 0.0435769706964
velocity: 0.0
doppler_bin: 8
bearing: 72.6459732056
intensity: 29.2941894531
---
header: 
  seq: 172499
  stamp: 
    secs: 1561866358
    nsecs: 347639830
  frame_id: "ti_mmwave"
point_id: 16
x: 0.041015625
y: -0.033203125
z: 0.0625
range: 0.0871539413929
velocity: 0.0
doppler_bin: 8
bearing: -38.9909973145
intensity: 30.0945091248
---
header: 
  seq: 172500
  stamp: 
    secs: 1561866358
    nsecs: 347656037
  frame_id: "ti_mmwave"
point_id: 17
x: 0.044921875
y: -0.046875
z: 0.103515625
range: 0.130730912089
velocity: 0.0
doppler_bin: 8
bearing: -46.218875885
intensity: 28.9927310944
---
header: 
  seq: 172501
  stamp: 
    secs: 1561866358
    nsecs: 347673718
  frame_id: "ti_mmwave"
point_id: 19
x: 0.732421875
y: 0.630859375
z: 1.216796875
range: 1.65592491627
velocity: 0.0
doppler_bin: 8
bearing: 40.7394142151
intensity: 23.9794006348
---
header: 
  seq: 172502
  stamp: 
    secs: 1561866358
    nsecs: 348165403
  frame_id: "ti_mmwave"
point_id: 20
x: 2.779296875
y: -0.0
z: 0.845703125
range: 3.09396481514
velocity: 0.0
doppler_bin: 8
bearing: -0.0
intensity: 30.7445068359
---
header: 
  seq: 172503
  stamp: 
    secs: 1561866358
    nsecs: 348353371
  frame_id: "ti_mmwave"
point_id: 0
x: 0.01171875
y: -0.0390625
z: -0.0078125
range: 0.0435769706964
velocity: 0.0
doppler_bin: 8
bearing: -73.3007583618
intensity: 30.6408348083
---
header: 
  seq: 172504
  stamp: 
    secs: 1561866358
    nsecs: 348409457
  frame_id: "ti_mmwave"
point_id: 1
x: 0.017578125
y: -0.080078125
z: -0.0078125
range: 0.0871539413929
velocity: 0.0
doppler_bin: 8
bearing: -77.6192398071
intensity: 31.9033164978
---
header: 
  seq: 172505
  stamp: 
    secs: 1561866358
    nsecs: 348514112
  frame_id: "ti_mmwave"
point_id: 2
x: 0.029296875
y: -0.119140625
z: -0.005859375
range: 0.130730912089
velocity: 0.0
doppler_bin: 8
bearing: -76.1849746704
intensity: 30.1367969513
---
header: 
  seq: 172506
  stamp: 
    secs: 1561866358
    nsecs: 348540950
  frame_id: "ti_mmwave"
point_id: 3
x: 0.056640625
y: -0.154296875
z: 0.005859375
range: 0.174307882786
velocity: 0.0
doppler_bin: 8
bearing: -69.8423843384
intensity: 25.4654273987
---
header: 
  seq: 172507
  stamp: 
    secs: 1561866358
    nsecs: 348555750
  frame_id: "ti_mmwave"
point_id: 4
x: 0.126953125
y: -0.080078125
z: 1.259765625
range: 1.35088610649
velocity: 0.0
doppler_bin: 8
bearing: -32.2424697876
intensity: 23.1175384521
---
header: 
  seq: 172508
  stamp: 
    secs: 1561866358
    nsecs: 348575391
  frame_id: "ti_mmwave"
point_id: 6
x: 0.41796875
y: -0.083984375
z: -1.28125
range: 1.43804001808
velocity: 0.0
doppler_bin: 8
bearing: -11.3614110947
intensity: 23.0749607086
---
header: 
  seq: 172509
  stamp: 
    secs: 1561866358
    nsecs: 348639228
  frame_id: "ti_mmwave"
point_id: 7
x: 0.5390625
y: -0.04296875
z: -1.28125
range: 1.48161697388
velocity: 0.0
doppler_bin: 8
bearing: -4.55741930008
intensity: 21.7026176453
---
header: 
  seq: 172510
  stamp: 
    secs: 1561866358
    nsecs: 348655146
  frame_id: "ti_mmwave"
point_id: 8
x: 1.55078125
y: -0.0
z: -0.111328125
range: 1.65592491627
velocity: 0.0
doppler_bin: 8
bearing: -0.0
intensity: 29.2220630646
---
header: 
  seq: 172511
  stamp: 
    secs: 1561866358
    nsecs: 348670235
  frame_id: "ti_mmwave"
point_id: 9
x: 1.587890625
y: -0.05078125
z: -0.138671875
range: 1.69950187206
velocity: 0.0
doppler_bin: 8
bearing: -1.83171308041
intensity: 30.1283721924
---
header: 
  seq: 172512
  stamp: 
    secs: 1561866358
    nsecs: 348681080
  frame_id: "ti_mmwave"
point_id: 10
x: 1.576171875
y: -0.0
z: -0.439453125
range: 1.74307882786
velocity: 0.0
doppler_bin: 8
bearing: -0.0
intensity: 26.5801143646
---
header: 
  seq: 172513
  stamp: 
    secs: 1561866358
    nsecs: 348727896
  frame_id: "ti_mmwave"
point_id: 11
x: 1.6796875
y: -0.052734375
z: 0.357421875
range: 1.83023273945
velocity: 0.0
doppler_bin: 8
bearing: -1.79823040962
intensity: 25.8546066284
---
header: 
  seq: 172514
  stamp: 
    secs: 1561866358
    nsecs: 348744826
  frame_id: "ti_mmwave"
point_id: 12
x: 2.666015625
y: -0.1796875
z: 1.02734375
range: 3.05038785934
velocity: 0.0
doppler_bin: 8
bearing: -3.85586214066
intensity: 31.225435257
---
header: 
  seq: 172515
  stamp: 
    secs: 1561866358
    nsecs: 348761091
  frame_id: "ti_mmwave"
point_id: 13
x: 2.779296875
y: -0.0
z: 0.841796875
range: 3.09396481514
velocity: 0.0
doppler_bin: 8
bearing: -0.0
intensity: 30.1911621094
---
header: 
  seq: 172516
  stamp: 
    secs: 1561866358
    nsecs: 348772430
  frame_id: "ti_mmwave"
point_id: 15
x: 0.041015625
y: -0.033203125
z: 0.0625
range: 0.0871539413929
velocity: 0.0
doppler_bin: 8
bearing: -38.9909973145
intensity: 30.0987567902
---
header: 
  seq: 172517
  stamp: 
    secs: 1561866358
    nsecs: 348820158
  frame_id: "ti_mmwave"
point_id: 16
x: 0.044921875
y: -0.046875
z: 0.103515625
range: 0.130730912089
velocity: 0.0
doppler_bin: 8
bearing: -46.218875885
intensity: 29.0036716461
---
header: 
  seq: 172518
  stamp: 
    secs: 1561866358
    nsecs: 407045597
  frame_id: "ti_mmwave"
point_id: 0
x: 0.01171875
y: -0.0390625
z: -0.0078125
range: 0.0435769706964
velocity: 0.0
doppler_bin: 8
bearing: -73.3007583618
intensity: 30.6483230591
---
header: 
  seq: 172519
  stamp: 
    secs: 1561866358
    nsecs: 407124335
  frame_id: "ti_mmwave"
point_id: 1
x: 0.017578125
y: -0.080078125
z: -0.0078125
range: 0.0871539413929
velocity: 0.0
doppler_bin: 8
bearing: -77.6192398071
intensity: 31.9061183929
---
header: 
  seq: 172520
  stamp: 
    secs: 1561866358
    nsecs: 407142824
  frame_id: "ti_mmwave"
point_id: 2
x: 0.029296875
y: -0.119140625
z: -0.005859375
range: 0.130730912089
velocity: 0.0
doppler_bin: 8
bearing: -76.1849746704
intensity: 30.1367969513
---
header: 
  seq: 172521
  stamp: 
    secs: 1561866358
    nsecs: 407157840
  frame_id: "ti_mmwave"
point_id: 3
x: 0.056640625
y: -0.154296875
z: 0.005859375
range: 0.174307882786
velocity: 0.0
doppler_bin: 8
bearing: -69.8423843384
intensity: 25.4406795502
---
header: 
  seq: 172522
  stamp: 
