header: 
  seq: 149736
  stamp: 
    secs: 1561866310
    nsecs: 947166946
  frame_id: "ti_mmwave"
point_id: 0
x: 0.01171875
y: -0.0390625
z: -0.0078125
range: 0.0435769706964
velocity: 0.0
doppler_bin: 8
bearing: -73.3007583618
intensity: 30.6669845581
---
header: 
  seq: 149737
  stamp: 
    secs: 1561866310
    nsecs: 947258233
  frame_id: "ti_mmwave"
point_id: 1
x: 0.017578125
y: -0.080078125
z: -0.0078125
range: 0.0871539413929
velocity: 0.0
doppler_bin: 8
bearing: -77.6192398071
intensity: 31.9173030853
---
header: 
  seq: 149738
  stamp: 
    secs: 1561866310
    nsecs: 947275102
  frame_id: "ti_mmwave"
point_id: 2
x: 0.029296875
y: -0.119140625
z: -0.005859375
range: 0.130730912089
velocity: 0.0
doppler_bin: 8
bearing: -76.1849746704
intensity: 30.1452045441
---
header: 
  seq: 149739
  stamp: 
    secs: 1561866310
    nsecs: 947297009
  frame_id: "ti_mmwave"
point_id: 3
x: 0.056640625
y: -0.154296875
z: 0.0078125
range: 0.174307882786
velocity: 0.0
doppler_bin: 8
bearing: -69.8423843384
intensity: 25.4530715942
---
header: 
  seq: 149740
  stamp: 
    secs: 1561866310
    nsecs: 947312207
  frame_id: "ti_mmwave"
point_id: 4
x: 0.10546875
y: -0.080078125
z: 1.26171875
range: 1.35088610649
velocity: 0.0
doppler_bin: 8
bearing: -37.2079238892
intensity: 23.0963020325
---
header: 
  seq: 149741
  stamp: 
    secs: 1561866310
    nsecs: 947339061
  frame_id: "ti_mmwave"
point_id: 6
x: 0.41015625
y: -0.083984375
z: -1.283203125
range: 1.43804001808
velocity: 0.0
doppler_bin: 8
bearing: -11.5720338821
intensity: 23.0535144806
---
header: 
  seq: 149742
  stamp: 
    secs: 1561866310
    nsecs: 947360352
  frame_id: "ti_mmwave"
point_id: 7
x: 0.55859375
y: -0.04296875
z: -1.2734375
range: 1.48161697388
velocity: 0.0
doppler_bin: 8
bearing: -4.39870548248
intensity: 21.6435279846
---
header: 
  seq: 149743
  stamp: 
    secs: 1561866310
    nsecs: 947374567
  frame_id: "ti_mmwave"
point_id: 8
x: 1.634765625
y: -0.05078125
z: 0.021484375
range: 1.74307882786
velocity: 0.0
doppler_bin: 8
bearing: -1.77922511101
intensity: 26.875289917
---
header: 
  seq: 149744
  stamp: 
    secs: 1561866310
    nsecs: 947396014
  frame_id: "ti_mmwave"
point_id: 9
x: 1.67578125
y: -0.052734375
z: 0.021484375
range: 1.78665578365
velocity: 0.0
doppler_bin: 8
bearing: -1.80241930485
intensity: 27.9726753235
---
header: 
  seq: 149745
  stamp: 
    secs: 1561866310
    nsecs: 947491612
  frame_id: "ti_mmwave"
point_id: 10
x: 1.71875
y: -0.0
z: -0.015625
range: 1.83023273945
velocity: 0.0
doppler_bin: 8
bearing: -0.0
intensity: 27.7887439728
---
header: 
  seq: 149746
  stamp: 
    secs: 1561866310
    nsecs: 947510689
  frame_id: "ti_mmwave"
point_id: 11
x: 1.7578125
y: -0.0
z: -0.033203125
range: 1.87380969524
velocity: 0.0
doppler_bin: 8
bearing: -0.0
intensity: 26.3042793274
---
header: 
  seq: 149747
  stamp: 
    secs: 1561866310
    nsecs: 947527117
  frame_id: "ti_mmwave"
point_id: 12
x: 2.658203125
y: -0.1796875
z: 1.05078125
range: 3.05038785934
velocity: 0.0
doppler_bin: 8
bearing: -3.86716008186
intensity: 31.8440742493
---
header: 
  seq: 149748
  stamp: 
    secs: 1561866310
    nsecs: 947540985
  frame_id: "ti_mmwave"
point_id: 13
x: 2.76171875
y: -0.08984375
z: 0.896484375
range: 3.09396481514
velocity: 0.0
doppler_bin: 8
bearing: -1.86327898502
intensity: 30.8564720154
---
header: 
  seq: 149749
  stamp: 
    secs: 1561866310
    nsecs: 947560329
  frame_id: "ti_mmwave"
point_id: 15
x: 0.041015625
y: -0.033203125
z: 0.0625
range: 0.0871539413929
velocity: 0.0
doppler_bin: 8
bearing: -38.9909973145
intensity: 30.0987567902
---
header: 
  seq: 149750
  stamp: 
    secs: 1561866310
    nsecs: 947574579
  frame_id: "ti_mmwave"
point_id: 16
x: 0.046875
y: -0.046875
z: 0.103515625
range: 0.130730912089
velocity: 0.0
doppler_bin: 8
bearing: -45.0
intensity: 29.0036716461
---
header: 
  seq: 149751
  stamp: 
    secs: 1561866310
    nsecs: 948450330
  frame_id: "ti_mmwave"
point_id: 0
x: 0.01171875
y: -0.0390625
z: -0.0078125
range: 0.0435769706964
velocity: 0.0
doppler_bin: 8
bearing: -73.3007583618
intensity: 30.6595306396
---
header: 
  seq: 149752
  stamp: 
    secs: 1561866310
    nsecs: 948535813
  frame_id: "ti_mmwave"
point_id: 1
x: 0.017578125
y: -0.080078125
z: -0.0078125
range: 0.0871539413929
velocity: 0.0
doppler_bin: 8
bearing: -77.6192398071
intensity: 31.9145107269
---
header: 
  seq: 149753
  stamp: 
    secs: 1561866310
    nsecs: 948556492
  frame_id: "ti_mmwave"
point_id: 2
x: 0.029296875
y: -0.119140625
z: -0.005859375
range: 0.130730912089
velocity: 0.0
doppler_bin: 8
bearing: -76.1849746704
intensity: 30.1452045441
---
header: 
  seq: 149754
  stamp: 
    secs: 1561866310
    nsecs: 948569696
  frame_id: "ti_mmwave"
point_id: 3
x: 0.056640625
y: -0.154296875
z: 0.005859375
range: 0.174307882786
velocity: 0.0
doppler_bin: 8
bearing: -69.8423843384
intensity: 25.4530715942
---
header: 
  seq: 149755
  stamp: 
    secs: 1561866310
    nsecs: 948584837
  frame_id: "ti_mmwave"
point_id: 4
x: 0.1171875
y: -0.080078125
z: 1.259765625
range: 1.35088610649
velocity: 0.0
doppler_bin: 8
bearing: -34.3460998535
intensity: 23.1175384521
---
header: 
  seq: 149756
  stamp: 
    secs: 1561866310
    nsecs: 948600082
  frame_id: "ti_mmwave"
point_id: 6
x: 0.416015625
y: -0.083984375
z: -1.28125
range: 1.43804001808
velocity: 0.0
doppler_bin: 8
bearing: -11.4133548737
intensity: 23.0749607086
---
header: 
  seq: 149757
  stamp: 
    secs: 1561866310
    nsecs: 948611677
  frame_id: "ti_mmwave"
point_id: 7
x: 0.56640625
y: -0.04296875
z: -1.26953125
range: 1.48161697388
velocity: 0.0
doppler_bin: 8
bearing: -4.33826684952
intensity: 21.6435279846
---
header: 
  seq: 149758
  stamp: 
    secs: 1561866310
    nsecs: 948623534
  frame_id: "ti_mmwave"
point_id: 8
x: 1.7421875
y: -0.0546875
z: 0.23828125
range: 1.87380969524
velocity: 0.0
doppler_bin: 8
bearing: -1.79793179035
intensity: 27.5050830841
---
header: 
  seq: 149759
  stamp: 
    secs: 1561866310
    nsecs: 948636467
  frame_id: "ti_mmwave"
point_id: 9
x: 1.78515625
y: -0.056640625
z: 0.220703125
range: 1.91738677025
velocity: 0.0
doppler_bin: 8
bearing: -1.81730902195
intensity: 28.4323272705
---
header: 
  seq: 149760
  stamp: 
    secs: 1561866310
    nsecs: 948648561
  frame_id: "ti_mmwave"
point_id: 10
x: 2.6171875
y: -0.17578125
z: 1.041015625
range: 3.00681090355
velocity: 0.0
doppler_bin: 8
bearing: -3.84245300293
intensity: 28.9872512817
---
header: 
  seq: 149761
  stamp: 
    secs: 1561866310
    nsecs: 948660811
  frame_id: "ti_mmwave"
point_id: 11
x: 2.662109375
y: -0.1796875
z: 1.0390625
range: 3.05038785934
velocity: 0.0
doppler_bin: 8
bearing: -3.86150240898
intensity: 31.9728050232
---
header: 
  seq: 149762
  stamp: 
    secs: 1561866310
    nsecs: 948672784
  frame_id: "ti_mmwave"
point_id: 12
x: 2.76171875
y: -0.08984375
z: 0.892578125
range: 3.09396481514
velocity: 0.0
doppler_bin: 8
bearing: -1.86327898502
intensity: 30.7990455627
---
header: 
  seq: 149763
  stamp: 
    secs: 1561866310
    nsecs: 948685476
  frame_id: "ti_mmwave"
point_id: 13
x: 0.009765625
y: 0.03125
z: 0.025390625
range: 0.0435769706964
velocity: 0.0
doppler_bin: 8
bearing: 72.6459732056
intensity: 29.3094902039
---
header: 
  seq: 149764
  stamp: 
    secs: 1561866310
    nsecs: 948697617
  frame_id: "ti_mmwave"
point_id: 14
x: 0.041015625
y: -0.033203125
z: 0.0625
range: 0.0871539413929
velocity: 0.0
doppler_bin: 8
bearing: -38.9909973145
intensity: 30.1029987335
---
header: 
  seq: 149765
  stamp: 
    secs: 1561866310
    nsecs: 948708534
  frame_id: "ti_mmwave"
point_id: 15
x: 0.044921875
y: -0.046875
z: 0.103515625
range: 0.130730912089
velocity: 0.0
doppler_bin: 8
bearing: -46.218875885
intensity: 28.9982051849
---
header: 
  seq: 149766
  stamp: 
    secs: 1561866311
    nsecs:   7439063
  frame_id: "ti_mmwave"
point_id: 0
x: 0.01171875
y: -0.0390625
z: -0.0078125
range: 0.0435769706964
velocity: 0.0
doppler_bin: 8
bearing: -73.3007583618
intensity: 30.6669845581
---
header: 
  seq: 149767
  stamp: 
    secs: 1561866311
    nsecs:   7513503
  frame_id: "ti_mmwave"
point_id: 1
x: 0.017578125
y: -0.080078125
z: -0.0078125
range: 0.0871539413929
velocity: 0.0
doppler_bin: 8
bearing: -77.6192398071
intensity: 31.9145107269
---
header: 
  seq: 149768
  stamp: 
    secs: 1561866311
    nsecs:   7524390
  frame_id: "ti_mmwave"
point_id: 2
x: 0.029296875
y: -0.119140625
z: -0.005859375
range: 0.130730912089
velocity: 0.0
doppler_bin: 8
bearing: -76.1849746704
intensity: 30.1452045441
---
header: 
  seq: 149769
  stamp: 
    secs: 1561866311
    nsecs:   7533274
  frame_id: "ti_mmwave"
point_id: 3
x: 0.056640625
y: -0.154296875
z: 0.005859375
range: 0.174307882786
velocity: 0.0
doppler_bin: 8
bearing: -69.8423843384
intensity: 25.4654273987
---
header: 
  seq: 149770
  stamp: 
    secs: 1561866311
    nsecs:   7542735
  frame_id: "ti_mmwave"
point_id: 4
x: 0.134765625
y: -0.080078125
z: 1.2578125
range: 1.35088610649
velocity: 0.0
doppler_bin: 8
bearing: -30.7189025879
intensity: 23.0749607086
---
header: 
  seq: 149771
  stamp: 
    secs: 1561866311
    nsecs:   7554967
  frame_id: "ti_mmwave"
point_id: 5
x: 0.04296875
y: -0.08203125
z: 1.306640625
range: 1.39446306229
velocity: 0.0
doppler_bin: 8
bearing: -62.3540267944
intensity: 24.5939254761
---
header: 
  seq: 149772
  stamp: 
    secs: 1561866311
    nsecs:   7564607
  frame_id: "ti_mmwave"
point_id: 6
x: 0.423828125
y: -0.083984375
z: -1.279296875
range: 1.43804001808
velocity: 0.0
doppler_bin: 8
bearing: -11.2083444595
intensity: 23.0535144806
---
header: 
  seq: 149773
  stamp: 
    secs: 1561866311
    nsecs:   7573493
  frame_id: "ti_mmwave"
point_id: 7
x: 0.576171875
y: -0.04296875
z: -1.265625
range: 1.48161697388
velocity: 0.0
doppler_bin: 8
bearing: -4.2650103569
intensity: 21.6435279846
---
header: 
  seq: 149774
  stamp: 
    secs: 1561866311
    nsecs:   7584644
  frame_id: "ti_mmwave"
point_id: 8
x: 1.796875
y: -0.0
z: 0.107421875
range: 1.91738677025
velocity: 0.0
doppler_bin: 8
bearing: -0.0
intensity: 27.2916469574
---
header: 
  seq: 149775
  stamp: 
    secs: 1561866311
    nsecs:   7744020
  frame_id: "ti_mmwave"
point_id: 9
x: 2.6640625
y: -0.1796875
z: 1.03515625
range: 3.05038785934
velocity: 0.0
doppler_bin: 8
bearing: -3.85868024826
intensity: 32.1325187683
---
header: 
  seq: 149776
  stamp: 
    secs: 1561866311
    nsecs:   7764527
  frame_id: "ti_mmwave"
point_id: 10
x: 2.76953125
y: -0.08984375
z: 0.869140625
range: 3.09396481514
velocity: 0.0
doppler_bin: 8
bearing: -1.85802662373
intensity: 31.176027298
---
header: 
  seq: 149777
  stamp: 
    secs: 1561866311
    nsecs:   7775215
  frame_id: "ti_mmwave"
point_id: 12
x: 0.041015625
y: -0.033203125
z: 0.0625
range: 0.0871539413929
velocity: 0.0
doppler_bin: 8
bearing: -38.9909973145
intensity: 30.1029987335
---
header: 
  seq: 149778
  stamp: 
    secs: 1561866311
    nsecs:   7786235
  frame_id: "ti_mmwave"
point_id: 13
x: 0.044921875
y: -0.046875
z: 0.103515625
range: 0.130730912089
velocity: 0.0
doppler_bin: 8
bearing: -46.218875885
intensity: 29.0036716461
---
header: 
  seq: 149779
  stamp: 
    secs: 1561866311
    nsecs:   8752016
  frame_id: "ti_mmwave"
point_id: 0
x: 0.01171875
y: -0.0390625
z: -0.0078125
range: 0.0435769706964
velocity: 0.0
doppler_bin: 8
bearing: -73.3007583618
intensity: 30.6557979584
---
header: 
  seq: 149780
  stamp: 
    secs: 1561866311
    nsecs:   8790760
  frame_id: "ti_mmwave"
point_id: 1
x: 0.017578125
y: -0.080078125
z: -0.0078125
range: 0.0871539413929
velocity: 0.0
doppler_bin: 8
bearing: -77.6192398071
intensity: 31.9117145538
---
header: 
  seq: 149781
  stamp: 
    secs: 1561866311
    nsecs:   8800669
  frame_id: "ti_mmwave"
point_id: 2
x: 0.029296875
y: -0.119140625
z: -0.005859375
range: 0.130730912089
velocity: 0.0
doppler_bin: 8
bearing: -76.1849746704
intensity: 30.1452045441
---
header: 
  seq: 149782
  stamp: 
    secs: 1561866311
    nsecs:   8808573
  frame_id: "ti_mmwave"
point_id: 3
x: 0.056640625
y: -0.154296875
z: 0.005859375
range: 0.174307882786
velocity: 0.0
doppler_bin: 8
bearing: -69.8423843384
intensity: 25.4530715942
---
header: 
  seq: 149783
  stamp: 
    secs: 1561866311
    nsecs:   8819520
  frame_id: "ti_mmwave"
point_id: 5
x: 0.10546875
y: -0.08203125
z: -1.302734375
range: 1.39446306229
velocity: 0.0
doppler_bin: 8
bearing: -37.8749847412
intensity: 24.6389293671
---
header: 
  seq: 149784
  stamp: 
    secs: 1561866311
    nsecs:   8829835
  frame_id: "ti_mmwave"
point_id: 6
x: 0.439453125
y: -0.083984375
z: -1.2734375
range: 1.43804001808
velocity: 0.0
doppler_bin: 8
bearing: -10.81939888
intensity: 23.0535144806
---
header: 
  seq: 149785
  stamp: 
    secs: 1561866311
    nsecs:   8847937
  frame_id: "ti_mmwave"
point_id: 7
x: 0.564453125
y: -0.04296875
z: -1.271484375
range: 1.48161697388
velocity: 0.0
doppler_bin: 8
bearing: -4.35321998596
intensity: 21.6731739044
---
header: 
  seq: 149786
  stamp: 
    secs: 1561866311
    nsecs:   8858539
  frame_id: "ti_mmwave"
point_id: 8
x: 1.67578125
y: -0.0
z: -0.080078125
range: 1.78665578365
velocity: 0.0
doppler_bin: 8
bearing: -0.0
intensity: 31.7405986786
---
header: 
  seq: 149787
  stamp: 
    secs: 1561866311
    nsecs:   8916445
  frame_id: "ti_mmwave"
point_id: 9
x: 1.716796875
y: -0.052734375
z: -0.046875
range: 1.83023273945
velocity: 0.0
doppler_bin: 8
bearing: -1.75938534737
intensity: 33.5256843567
---
header: 
  seq: 149788
  stamp: 
    secs: 1561866311
    nsecs:   8925848
  frame_id: "ti_mmwave"
point_id: 10
x: 1.759765625
y: -0.0
z: 0.01171875
range: 1.87380969524
velocity: 0.0
doppler_bin: 8
bearing: -0.0
intensity: 32.474822998
---
header: 
  seq: 149789
  stamp: 
    secs: 1561866311
    nsecs:   8933736
  frame_id: "ti_mmwave"
point_id: 11
x: 1.798828125
y: -0.0
z: 0.078125
range: 1.91738677025
velocity: 0.0
doppler_bin: 8
bearing: -0.0
intensity: 29.1062431335
---
header: 
  seq: 149790
  stamp: 
    secs: 1561866311
    nsecs:   8941671
  frame_id: "ti_mmwave"
point_id: 12
x: 2.62890625
y: -0.17578125
z: 1.01171875
range: 3.00681090355
velocity: 0.0
doppler_bin: 8
bearing: -3.82537555695
intensity: 29.0687351227
---
header: 
  seq: 149791
  stamp: 
    secs: 1561866311
    nsecs:   8950498
  frame_id: "ti_mmwave"
point_id: 13
x: 2.669921875
y: -0.1796875
z: 1.01953125
range: 3.05038785934
velocity: 0.0
doppler_bin: 8
bearing: -3.85023736954
intensity: 32.2530937195
---
header: 
  seq: 149792
  stamp: 
    secs: 1561866311
    nsecs:   8958024
  frame_id: "ti_mmwave"
point_id: 14
x: 2.767578125
y: -0.08984375
z: 0.87890625
range: 3.09396481514
velocity: 0.0
doppler_bin: 8
bearing: -1.85933709145
intensity: 31.235250473
---
header: 
  seq: 149793
  stamp: 
    secs: 1561866311
    nsecs:   8965686
  frame_id: "ti_mmwave"
point_id: 15
x: 0.009765625
y: 0.03125
z: 0.025390625
range: 0.0435769706964
velocity: 0.0
doppler_bin: 8
bearing: 72.6459732056
intensity: 29.3094902039
---
header: 
  seq: 149794
  stamp: 
    secs: 1561866311
    nsecs:   8973085
  frame_id: "ti_mmwave"
point_id: 16
x: 0.041015625
y: -0.033203125
z: 0.0625
range: 0.0871539413929
velocity: 0.0
doppler_bin: 8
bearing: -38.9909973145
intensity: 30.1029987335
---
header: 
  seq: 149795
  stamp: 
    secs: 1561866311
    nsecs:   8981086
  frame_id: "ti_mmwave"
point_id: 17
x: 0.044921875
y: -0.046875
z: 0.103515625
range: 0.130730912089
velocity: 0.0
doppler_bin: 8
bearing: -46.218875885
intensity: 29.0036716461
---
header: 
  seq: 149796
  stamp: 
    secs: 1561866311
    nsecs:  67164223
  frame_id: "ti_mmwave"
point_id: 0
x: 0.01171875
y: -0.0390625
z: -0.0078125
range: 0.0435769706964
velocity: 0.0
doppler_bin: 8
bearing: -73.3007583618
intensity: 30.6557979584
---
header: 
  seq: 149797
  stamp: 
    secs: 1561866311
    nsecs:  67239098
  frame_id: "ti_mmwave"
point_id: 1
x: 0.017578125
y: -0.080078125
z: -0.0078125
range: 0.0871539413929
velocity: 0.0
doppler_bin: 8
bearing: -77.6192398071
intensity: 31.9145107269
---
header: 
  seq: 149798
  stamp: 
    secs: 1561866311
    nsecs:  67249677
  frame_id: "ti_mmwave"
point_id: 2
x: 0.029296875
y: -0.119140625
z: -0.005859375
range: 0.130730912089
velocity: 0.0
doppler_bin: 8
bearing: -76.1849746704
intensity: 30.1452045441
---
header: 
  seq: 149799
  stamp: 
    secs: 1561866311
    nsecs:  67260117
  frame_id: "ti_mmwave"
point_id: 3
x: 0.056640625
y: -0.154296875
z: 0.0078125
range: 0.174307882786
velocity: 0.0
doppler_bin: 8
bearing: -69.8423843384
intensity: 25.4530715942
---
header: 
  seq: 149800
  stamp: 
    secs: 1561866311
    nsecs:  67268781
  frame_id: "ti_mmwave"
point_id: 4
x: 0.115234375
y: -0.080078125
z: 1.259765625
range: 1.35088610649
velocity: 0.0
doppler_bin: 8
bearing: -34.7960281372
intensity: 23.1175384521
---
header: 
  seq: 149801
  stamp: 
    secs: 1561866311
    nsecs:  67277358
  frame_id: "ti_mmwave"
point_id: 5
x: 0.05859375
y: -0.08203125
z: -1.3046875
range: 1.39446306229
velocity: 0.0
doppler_bin: 8
bearing: -54.4623222351
intensity: 24.6389293671
---
header: 
  seq: 149802
  stamp: 
    secs: 1561866311
    nsecs:  67285891
  frame_id: "ti_mmwave"
point_id: 6
x: 0.451171875
y: -0.083984375
z: -1.26953125
range: 1.43804001808
velocity: 0.0
doppler_bin: 8
bearing: -10.5447587967
intensity: 23.0749607086
---
header: 
  seq: 149803
  stamp: 
    secs: 1561866311
    nsecs:  67294507
  frame_id: "ti_mmwave"
point_id: 7
x: 0.591796875
y: -0.04296875
z: -1.2578125
range: 1.48161697388
velocity: 0.0
doppler_bin: 8
bearing: -4.15280246735
intensity: 21.7026176453
---
header: 
  seq: 149804
  stamp: 
    secs: 1561866311
    nsecs:  67304079
  frame_id: "ti_mmwave"
point_id: 8
x: 1.6640625
y: -0.052734375
z: -0.20703125
range: 1.78665578365
velocity: 0.0
doppler_bin: 8
bearing: -1.8151037693
intensity: 30.0560951233
---
header: 
  seq: 149805
  stamp: 
    secs: 1561866311
    nsecs:  67312549
  frame_id: "ti_mmwave"
point_id: 9
x: 1.697265625
y: -0.052734375
z: -0.259765625
range: 1.83023273945
velocity: 0.0
doppler_bin: 8
bearing: -1.77961862087
intensity: 30.5422992706
---
header: 
  seq: 149806
  stamp: 
    secs: 1561866311
    nsecs:  67320837
  frame_id: "ti_mmwave"
point_id: 10
x: 2.626953125
y: -0.17578125
z: 1.017578125
range: 3.00681090355
velocity: 0.0
doppler_bin: 8
bearing: -3.82821130753
intensity: 29.020029068
---
header: 
  seq: 149807
  stamp: 
    secs: 1561866311
    nsecs:  67330316
  frame_id: "ti_mmwave"
point_id: 11
x: 2.66796875
y: -0.1796875
z: 1.0234375
range: 3.05038785934
velocity: 0.0
doppler_bin: 8
bearing: -3.85304760933
intensity: 32.2375526428
---
header: 
  seq: 149808
  stamp: 
    secs: 1561866311
    nsecs:  67338359
  frame_id: "ti_mmwave"
point_id: 12
x: 2.767578125
y: -0.08984375
z: 0.87890625
range: 3.09396481514
velocity: 0.0
doppler_bin: 8
bearing: -1.85933709145
intensity: 31.2450428009
---
header: 
  seq: 149809
  stamp: 
    secs: 1561866311
    nsecs:  67346910
  frame_id: "ti_mmwave"
point_id: 13
x: 4.84765625
y: -1.091796875
z: -0.4609375
range: 5.31639051437
velocity: 0.0
doppler_bin: 8
bearing: -12.6924667358
intensity: 28.7966918945
---
header: 
  seq: 149810
  stamp: 
    secs: 1561866311
    nsecs:  67355795
  frame_id: "ti_mmwave"
point_id: 14
x: 1.748046875
y: -0.0
z: -0.193359375
range: 1.87380969524
velocity: 0.614668667316
doppler_bin: 9
bearing: -0.0
intensity: 26.4640369415
---
header: 
  seq: 149811
  stamp: 
    secs: 1561866311
    nsecs:  67365503
  frame_id: "ti_mmwave"
point_id: 15
x: 0.009765625
y: 0.03125
z: 0.025390625
range: 0.0435769706964
velocity: 0.0
doppler_bin: 8
bearing: 72.6459732056
intensity: 29.2992954254
---
header: 
  seq: 149812
  stamp: 
    secs: 1561866311
    nsecs:  67374253
  frame_id: "ti_mmwave"
point_id: 16
x: 0.041015625
y: -0.033203125
z: 0.0625
range: 0.0871539413929
velocity: 0.0
doppler_bin: 8
bearing: -38.9909973145
intensity: 30.1072387695
---
header: 
  seq: 149813
  stamp: 
    secs: 1561866311
    nsecs:  67382614
  frame_id: "ti_mmwave"
point_id: 17
x: 0.044921875
y: -0.046875
z: 0.103515625
range: 0.130730912089
velocity: 0.0
doppler_bin: 8
bearing: -46.218875885
intensity: 29.0091304779
---
header: 
  seq: 149814
  stamp: 
    secs: 1561866311
    nsecs:  68371317
  frame_id: "ti_mmwave"
point_id: 0
x: 0.01171875
y: -0.0390625
z: -0.0078125
range: 0.0435769706964
velocity: 0.0
doppler_bin: 8
bearing: -73.3007583618
intensity: 30.6595306396
---
header: 
  seq: 149815
  stamp: 
    secs: 1561866311
    nsecs:  68433640
  frame_id: "ti_mmwave"
point_id: 1
x: 0.017578125
y: -0.080078125
z: -0.0078125
range: 0.0871539413929
velocity: 0.0
doppler_bin: 8
bearing: -77.6192398071
intensity: 31.9173030853
---
header: 
  seq: 149816
  stamp: 
    secs: 1561866311
    nsecs:  68452821
  frame_id: "ti_mmwave"
point_id: 2
x: 0.029296875
y: -0.119140625
z: -0.005859375
range: 0.130730912089
velocity: 0.0
doppler_bin: 8
bearing: -76.1849746704
intensity: 30.1494026184
---
header: 
  seq: 149817
  stamp: 
    secs: 1561866311
    nsecs:  68467462
  frame_id: "ti_mmwave"
point_id: 3
x: 0.056640625
y: -0.154296875
z: 0.005859375
range: 0.174307882786
velocity: 0.0
doppler_bin: 8
bearing: -69.8423843384
intensity: 25.4777469635
---
header: 
  seq: 149818
  stamp: 
    secs: 1561866311
    nsecs:  68481001
  frame_id: "ti_mmwave"
point_id: 4
x: 0.115234375
y: -0.080078125
z: 1.259765625
range: 1.35088610649
velocity: 0.0
doppler_bin: 8
bearing: -34.7960281372
intensity: 23.138671875
---
header: 
  seq: 149819
  stamp: 
    secs: 1561866311
    nsecs:  68493745
  frame_id: "ti_mmwave"
point_id: 6
x: 0.42578125
y: -0.083984375
z: -1.27734375
range: 1.43804001808
velocity: 0.0
doppler_bin: 8
bearing: -11.1582231522
intensity: 23.0749607086
---
header: 
  seq: 149820
  stamp: 
    secs: 1561866311
    nsecs:  68510784
  frame_id: "ti_mmwave"
point_id: 7
x: 0.576171875
y: -0.04296875
z: -1.265625
range: 1.48161697388
velocity: 0.0
doppler_bin: 8
bearing: -4.2650103569
intensity: 21.6731739044
---
header: 
  seq: 149821
  stamp: 
    secs: 1561866311
    nsecs:  68527207
  frame_id: "ti_mmwave"
point_id: 8
x: 1.67578125
y: -0.052734375
z: -0.044921875
range: 1.78665578365
velocity: 0.0
doppler_bin: 8
bearing: -1.80241930485
intensity: 26.3648796082
---
header: 
  seq: 149822
  stamp: 
    secs: 1561866311
    nsecs:  68630174
  frame_id: "ti_mmwave"
point_id: 9
x: 1.71484375
y: -0.052734375
z: 0.087890625
range: 1.83023273945
velocity: 0.0
doppler_bin: 8
bearing: -1.76138806343
intensity: 28.6093654633
---
header: 
  seq: 149823
  stamp: 
    secs: 1561866311
    nsecs:  68661758
  frame_id: "ti_mmwave"
point_id: 10
x: 1.748046875
y: -0.0546875
z: 0.181640625
range: 1.87380969524
velocity: 0.0
doppler_bin: 8
bearing: -1.79190933704
intensity: 28.350561142
---
header: 
  seq: 149824
  stamp: 
    secs: 1561866311
    nsecs:  68677212
  frame_id: "ti_mmwave"
point_id: 11
x: 2.625
y: -0.17578125
z: 1.0234375
range: 3.00681090355
velocity: 0.0
doppler_bin: 8
bearing: -3.83105134964
intensity: 29.0741138458
---
header: 
  seq: 149825
  stamp: 
    secs: 1561866311
    nsecs:  68691291
  frame_id: "ti_mmwave"
point_id: 12
x: 2.658203125
y: -0.1796875
z: 1.046875
range: 3.05038785934
velocity: 0.0
doppler_bin: 8
bearing: -3.86716008186
intensity: 32.1906051636
---
header: 
  seq: 149826
  stamp: 
    secs: 1561866311
    nsecs:  68704330
  frame_id: "ti_mmwave"
point_id: 13
x: 2.74609375
y: -0.08984375
z: 0.94140625
range: 3.09396481514
velocity: 0.0
doppler_bin: 8
bearing: -1.8738732338
intensity: 31.1226978302
---
header: 
  seq: 149827
  stamp: 
    secs: 1561866311
    nsecs:  68732817
  frame_id: "ti_mmwave"
point_id: 15
x: 0.041015625
y: -0.033203125
z: 0.0625
range: 0.0871539413929
velocity: 0.0
doppler_bin: 8
bearing: -38.9909973145
intensity: 30.0987567902
---
header: 
  seq: 149828
  stamp: 
    secs: 1561866311
    nsecs:  68859666
  frame_id: "ti_mmwave"
point_id: 16
x: 0.044921875
y: -0.046875
z: 0.103515625
range: 0.130730912089
velocity: 0.0
doppler_bin: 8
bearing: -46.218875885
intensity: 29.0036716461
---
header: 
  seq: 149829
  stamp: 
    secs: 1561866311
    nsecs: 127396013
  frame_id: "ti_mmwave"
point_id: 0
x: 0.01171875
y: -0.0390625
z: -0.0078125
range: 0.0435769706964
velocity: 0.0
doppler_bin: 8
bearing: -73.3007583618
intensity: 30.6595306396
---
header: 
  seq: 149830
  stamp: 
    secs: 1561866311
    nsecs: 127470989
  frame_id: "ti_mmwave"
point_id: 1
x: 0.017578125
y: -0.080078125
z: -0.0078125
range: 0.0871539413929
velocity: 0.0
doppler_bin: 8
bearing: -77.6192398071
intensity: 31.9173030853
---
header: 
  seq: 149831
  stamp: 
    secs: 1561866311
    nsecs: 127483968
  frame_id: "ti_mmwave"
point_id: 2
x: 0.029296875
y: -0.119140625
z: -0.005859375
range: 0.130730912089
velocity: 0.0
doppler_bin: 8
bearing: -76.1849746704
intensity: 30.1494026184
---
header: 
  seq: 149832
  stamp: 
    secs: 1561866311
    nsecs: 127492864
  frame_id: "ti_mmwave"
point_id: 3
x: 0.056640625
y: -0.154296875
z: 0.005859375
range: 0.174307882786
velocity: 0.0
doppler_bin: 8
bearing: -69.8423843384
intensity: 25.4654273987
---
header: 
  seq: 149833
  stamp: 
    secs: 1561866311
    nsecs: 127501164
  frame_id: "ti_mmwave"
point_id: 4
x: 0.02734375
y: -0.080078125
z: 1.265625
range: 1.35088610649
velocity: 0.0
doppler_bin: 8
bearing: -71.1468429565
intensity: 23.1597042084
---
header: 
  seq: 149834
  stamp: 
    secs: 1561866311
    nsecs: 127511202
  frame_id: "ti_mmwave"
point_id: 6
x: 0.419921875
y: -0.083984375
z: -1.279296875
range: 1.43804001808
velocity: 0.0
doppler_bin: 8
bearing: -11.3099327087
intensity: 23.0963020325
---
header: 
  seq: 149835
  stamp: 
    secs: 1561866311
    nsecs: 127519906
  frame_id: "ti_mmwave"
point_id: 7
x: 2.638671875
y: -0.17578125
z: 0.98828125
range: 3.00681090355
velocity: 0.0
doppler_bin: 8
bearing: -3.81125974655
intensity: 28.9707698822
---
header: 
  seq: 149836
  stamp: 
    secs: 1561866311
    nsecs: 127530048
  frame_id: "ti_mmwave"
point_id: 8
x: 2.66015625
y: -0.1796875
z: 1.044921875
range: 3.05038785934
velocity: 0.0
doppler_bin: 8
bearing: -3.86432933807
intensity: 32.1510848999
---
header: 
  seq: 149837
  stamp: 
    secs: 1561866311
    nsecs: 127537847
  frame_id: "ti_mmwave"
point_id: 9
x: 2.740234375
y: -0.08984375
z: 0.958984375
range: 3.09396481514
velocity: 0.0
doppler_bin: 8
bearing: -1.87787723541
intensity: 31.0991592407
---
header: 
  seq: 149838
  stamp: 
    secs: 1561866311
    nsecs: 127548206
  frame_id: "ti_mmwave"
point_id: 11
x: 0.041015625
y: -0.033203125
z: 0.0625
range: 0.0871539413929
velocity: 0.0
doppler_bin: 8
bearing: -38.9909973145
intensity: 30.1029987335
---
header: 
  seq: 149839
  stamp: 
    secs: 1561866311
    nsecs: 127558843
  frame_id: "ti_mmwave"
point_id: 12
x: 0.044921875
y: -0.046875
z: 0.103515625
range: 0.130730912089
velocity: 0.0
doppler_bin: 8
bearing: -46.218875885
intensity: 29.0091304779
---
header: 
  seq: 149840
  stamp: 
    secs: 1561866311
    nsecs: 187139765
  frame_id: "ti_mmwave"
point_id: 0
x: 0.01171875
y: -0.0390625
z: -0.0078125
range: 0.0435769706964
velocity: 0.0
doppler_bin: 8
bearing: -73.3007583618
intensity: 30.6520614624
---
header: 
  seq: 149841
  stamp: 
    secs: 1561866311
    nsecs: 187214609
  frame_id: "ti_mmwave"
point_id: 1
x: 0.017578125
y: -0.080078125
z: -0.0078125
range: 0.0871539413929
velocity: 0.0
doppler_bin: 8
bearing: -77.6192398071
intensity: 31.9145107269
---
header: 
  seq: 149842
  stamp: 
    secs: 1561866311
    nsecs: 187228939
  frame_id: "ti_mmwave"
point_id: 2
x: 0.029296875
y: -0.119140625
z: -0.005859375
range: 0.130730912089
velocity: 0.0
doppler_bin: 8
bearing: -76.1849746704
intensity: 30.1494026184
---
header: 
  seq: 149843
  stamp: 
    secs: 1561866311
    nsecs: 187238287
  frame_id: "ti_mmwave"
point_id: 3
x: 0.056640625
y: -0.154296875
z: 0.0078125
range: 0.174307882786
velocity: 0.0
doppler_bin: 8
bearing: -69.8423843384
intensity: 25.4654273987
---
header: 
  seq: 149844
  stamp: 
    secs: 1561866311
    nsecs: 187247814
  frame_id: "ti_mmwave"
point_id: 4
x: 0.12890625
y: -0.080078125
z: 1.259765625
range: 1.35088610649
velocity: 0.0
doppler_bin: 8
bearing: -31.8490524292
intensity: 23.0749607086
---
header: 
  seq: 149845
  stamp: 
    secs: 1561866311
    nsecs: 187256875
  frame_id: "ti_mmwave"
point_id: 5
x: 0.0859375
y: -0.08203125
z: 1.302734375
range: 1.39446306229
velocity: 0.0
doppler_bin: 8
bearing: -43.6677780151
intensity: 24.6239795685
---
header: 
  seq: 149846
  stamp: 
    secs: 1561866311
    nsecs: 187265682
  frame_id: "ti_mmwave"
point_id: 6
x: 0.40625
y: -0.083984375
z: -1.28515625
range: 1.43804001808
velocity: 0.0
doppler_bin: 8
bearing: -11.6802606583
intensity: 23.0749607086
---
header: 
  seq: 149847
  stamp: 
    secs: 1561866311
    nsecs: 187280019
  frame_id: "ti_mmwave"
point_id: 7
x: 1.65625
y: -0.052734375
z: -0.255859375
range: 1.78665578365
velocity: 0.0
doppler_bin: 8
bearing: -1.82366013527
intensity: 28.5793533325
---
header: 
  seq: 149848
  stamp: 
    secs: 1561866311
    nsecs: 187374966
  frame_id: "ti_mmwave"
point_id: 8
x: 1.69921875
y: -0.052734375
z: -0.25
range: 1.83023273945
velocity: 0.0
doppler_bin: 8
bearing: -1.77757430077
intensity: 30.3140850067
---
header: 
  seq: 149849
  stamp: 
    secs: 1561866311
    nsecs: 187389463
  frame_id: "ti_mmwave"
point_id: 9
x: 1.740234375
y: -0.0546875
z: -0.25390625
range: 1.87380969524
velocity: 0.0
doppler_bin: 8
bearing: -1.7999484539
intensity: 28.645111084
---
header: 
  seq: 149850
  stamp: 
    secs: 1561866311
    nsecs: 187397829
  frame_id: "ti_mmwave"
point_id: 10
x: 2.6171875
y: -0.17578125
z: 1.044921875
range: 3.00681090355
velocity: 0.0
doppler_bin: 8
bearing: -3.84245300293
intensity: 28.8874092102
---
header: 
  seq: 149851
  stamp: 
    secs: 1561866311
    nsecs: 187405929
  frame_id: "ti_mmwave"
point_id: 11
x: 2.662109375
y: -0.1796875
z: 1.0390625
range: 3.05038785934
velocity: 0.0
doppler_bin: 8
bearing: -3.86150240898
intensity: 32.1827278137
---
header: 
  seq: 149852
  stamp: 
    secs: 1561866311
    nsecs: 187414402
  frame_id: "ti_mmwave"
point_id: 12
x: 2.7578125
y: -0.08984375
z: 0.908203125
range: 3.09396481514
velocity: 0.0
doppler_bin: 8
bearing: -1.86591637135
intensity: 31.1494445801
---
header: 
  seq: 149853
  stamp: 
    secs: 1561866311
    nsecs: 187422352
  frame_id: "ti_mmwave"
point_id: 13
x: 0.009765625
y: 0.03125
z: 0.025390625
range: 0.0435769706964
velocity: 0.0
doppler_bin: 8
bearing: 72.6459732056
intensity: 29.3094902039
---
header: 
  seq: 149854
  stamp: 
    secs: 1561866311
    nsecs: 187430907
  frame_id: "ti_mmwave"
point_id: 14
x: 0.041015625
y: -0.033203125
z: 0.0625
range: 0.0871539413929
velocity: 0.0
doppler_bin: 8
bearing: -38.9909973145
intensity: 30.0987567902
---
header: 
  seq: 149855
  stamp: 
    secs: 1561866311
    nsecs: 187440323
  frame_id: "ti_mmwave"
point_id: 15
x: 0.046875
y: -0.046875
z: 0.103515625
range: 0.130730912089
velocity: 0.0
doppler_bin: 8
bearing: -45.0
intensity: 29.0091304779
---
header: 
  seq: 149856
  stamp: 
    secs: 1561866311
    nsecs: 188418954
  frame_id: "ti_mmwave"
point_id: 0
x: 0.01171875
y: -0.0390625
z: -0.0078125
range: 0.0435769706964
velocity: 0.0
doppler_bin: 8
bearing: -73.3007583618
intensity: 30.6520614624
---
header: 
  seq: 149857
  stamp: 
    secs: 1561866311
    nsecs: 188480605
  frame_id: "ti_mmwave"
point_id: 1
x: 0.017578125
y: -0.080078125
z: -0.0078125
range: 0.0871539413929
velocity: 0.0
doppler_bin: 8
bearing: -77.6192398071
intensity: 31.9145107269
---
header: 
  seq: 149858
  stamp: 
    secs: 1561866311
    nsecs: 188501687
  frame_id: "ti_mmwave"
point_id: 2
x: 0.029296875
y: -0.119140625
z: -0.005859375
range: 0.130730912089
velocity: 0.0
doppler_bin: 8
bearing: -76.1849746704
intensity: 30.1494026184
---
header: 
  seq: 149859
  stamp: 
    secs: 1561866311
    nsecs: 188521919
  frame_id: "ti_mmwave"
point_id: 3
x: 0.056640625
y: -0.154296875
z: 0.005859375
range: 0.174307882786
velocity: 0.0
doppler_bin: 8
bearing: -69.8423843384
intensity: 25.4654273987
---
header: 
  seq: 149860
  stamp: 
    secs: 1561866311
    nsecs: 188640291
  frame_id: "ti_mmwave"
point_id: 4
x: 0.166015625
y: -0.080078125
z: 1.25390625
range: 1.35088610649
velocity: 0.0
doppler_bin: 8
bearing: -25.7504749298
intensity: 23.1175384521
---
header: 
  seq: 149861
  stamp: 
    secs: 1561866311
    nsecs: 188662578
  frame_id: "ti_mmwave"
point_id: 5
x: 0.05859375
y: -0.08203125
z: 1.3046875
range: 1.39446306229
velocity: 0.0
doppler_bin: 8
bearing: -54.4623222351
intensity: 24.6389293671
---
header: 
  seq: 149862
  stamp: 
    secs: 1561866311
    nsecs: 188732353
  frame_id: "ti_mmwave"
point_id: 6
x: 0.41015625
y: -0.083984375
z: -1.283203125
range: 1.43804001808
velocity: 0.0
doppler_bin: 8
bearing: -11.5720338821
intensity: 23.0749607086
---
header: 
  seq: 149863
  stamp: 
    secs: 1561866311
    nsecs: 188748907
  frame_id: "ti_mmwave"
point_id: 7
x: 1.716796875
y: -0.052734375
z: 0.01953125
range: 1.83023273945
velocity: 0.0
doppler_bin: 8
bearing: -1.75938534737
intensity: 28.2672252655
---
header: 
  seq: 149864
  stamp: 
    secs: 1561866311
    nsecs: 188757397
  frame_id: "ti_mmwave"
point_id: 8
x: 1.755859375
y: -0.0546875
z: 0.083984375
range: 1.87380969524
velocity: 0.0
doppler_bin: 8
bearing: -1.78394150734
intensity: 28.5973854065
---
header: 
  seq: 149865
  stamp: 
    secs: 1561866311
    nsecs: 188791408
  frame_id: "ti_mmwave"
point_id: 9
x: 2.619140625
y: -0.17578125
z: 1.037109375
range: 3.00681090355
velocity: 0.0
doppler_bin: 8
bearing: -3.83959650993
intensity: 29.122220993
---
header: 
  seq: 149866
  stamp: 
    secs: 1561866311
    nsecs: 188806602
  frame_id: "ti_mmwave"
point_id: 10
x: 2.654296875
y: -0.1796875
z: 1.060546875
range: 3.05038785934
velocity: 0.0
doppler_bin: 8
bearing: -3.87283420563
intensity: 32.2141418457
---
header: 
  seq: 149867
  stamp: 
    secs: 1561866311
    nsecs: 188818912
  frame_id: "ti_mmwave"
point_id: 11
x: 2.740234375
y: -0.08984375
z: 0.95703125
range: 3.09396481514
velocity: 0.0
doppler_bin: 8
bearing: -1.87787723541
intensity: 31.1627559662
---
header: 
  seq: 149868
  stamp: 
    secs: 1561866311
    nsecs: 188832941
  frame_id: "ti_mmwave"
point_id: 12
x: 0.009765625
y: 0.03125
z: 0.025390625
range: 0.0435769706964
velocity: 0.0
doppler_bin: 8
bearing: 72.6459732056
intensity: 29.3094902039
---
header: 
  seq: 149869
  stamp: 
    secs: 1561866311
    nsecs: 188849492
  frame_id: "ti_mmwave"
point_id: 13
x: 0.041015625
y: -0.033203125
z: 0.0625
range: 0.0871539413929
velocity: 0.0
doppler_bin: 8
bearing: -38.9909973145
intensity: 30.1029987335
---
header: 
  seq: 149870
  stamp: 
    secs: 1561866311
    nsecs: 188861386
  frame_id: "ti_mmwave"
point_id: 14
x: 0.044921875
y: -0.046875
z: 0.103515625
range: 0.130730912089
velocity: 0.0
doppler_bin: 8
bearing: -46.218875885
intensity: 29.0036716461
---
header: 
  seq: 149871
  stamp: 
    secs: 1561866311
    nsecs: 247105012
  frame_id: "ti_mmwave"
point_id: 0
x: 0.01171875
y: -0.0390625
z: -0.0078125
range: 0.0435769706964
velocity: 0.0
doppler_bin: 8
bearing: -73.3007583618
intensity: 30.6557979584
---
header: 
  seq: 149872
  stamp: 
    secs: 1561866311
    nsecs: 247173465
  frame_id: "ti_mmwave"
point_id: 1
x: 0.017578125
y: -0.080078125
z: -0.0078125
range: 0.0871539413929
velocity: 0.0
doppler_bin: 8
bearing: -77.6192398071
intensity: 31.9117145538
---
header: 
  seq: 149873
  stamp: 
    secs: 1561866311
    nsecs: 247184663
  frame_id: "ti_mmwave"
point_id: 2
x: 0.029296875
y: -0.119140625
z: -0.005859375
range: 0.130730912089
velocity: 0.0
doppler_bin: 8
bearing: -76.1849746704
intensity: 30.141002655
---
header: 
  seq: 149874
  stamp: 
    secs: 1561866311
    nsecs: 247193896
  frame_id: "ti_mmwave"
point_id: 3
x: 0.056640625
y: -0.154296875
z: 0.005859375
range: 0.174307882786
velocity: 0.0
doppler_bin: 8
bearing: -69.8423843384
intensity: 25.4530715942
---
header: 
  seq: 149875
  stamp: 
    secs: 1561866311
    nsecs: 247204181
  frame_id: "ti_mmwave"
point_id: 4
x: 0.109375
y: -0.080078125
z: 1.26171875
range: 1.35088610649
velocity: 0.0
doppler_bin: 8
bearing: -36.2094573975
intensity: 23.0963020325
---
header: 
  seq: 149876
  stamp: 
    secs: 1561866311
    nsecs: 247215021
  frame_id: "ti_mmwave"
point_id: 6
x: 0.4140625
y: -0.083984375
z: -1.28125
range: 1.43804001808
velocity: 0.0
doppler_bin: 8
bearing: -11.4657688141
intensity: 23.031961441
---
header: 
  seq: 149877
  stamp: 
    secs: 1561866311
    nsecs: 247225714
  frame_id: "ti_mmwave"
point_id: 7
x: 1.642578125
y: -0.052734375
z: -0.3359375
range: 1.78665578365
velocity: 0.0
doppler_bin: 8
bearing: -1.8388286829
intensity: 30.2366390228
---
header: 
  seq: 149878
  stamp: 
    secs: 1561866311
    nsecs: 247234203
  frame_id: "ti_mmwave"
point_id: 8
x: 1.6875
y: -0.052734375
z: -0.318359375
range: 1.83023273945
velocity: 0.0
doppler_bin: 8
bearing: -1.7899106741
intensity: 31.4612808228
---
header: 
  seq: 149879
  stamp: 
    secs: 1561866311
    nsecs: 247242741
  frame_id: "ti_mmwave"
point_id: 9
x: 1.734375
y: -0.0546875
z: -0.28515625
range: 1.87380969524
velocity: 0.0
doppler_bin: 8
bearing: -1.80602538586
intensity: 30.1114730835
---
header: 
  seq: 149880
  stamp: 
    secs: 1561866311
    nsecs: 247254979
  frame_id: "ti_mmwave"
point_id: 10
x: 2.607421875
y: -0.17578125
z: 1.068359375
range: 3.00681090355
velocity: 0.0
doppler_bin: 8
bearing: -3.8568007946
intensity: 28.9927310944
---
header: 
  seq: 149881
  stamp: 
    secs: 1561866311
    nsecs: 247425066
  frame_id: "ti_mmwave"
point_id: 11
x: 2.65625
y: -0.1796875
z: 1.0546875
range: 3.05038785934
velocity: 0.0
doppler_bin: 8
bearing: -3.86999511719
intensity: 32.1642990112
---
header: 
  seq: 149882
  stamp: 
    secs: 1561866311
    nsecs: 247448651
  frame_id: "ti_mmwave"
point_id: 12
x: 2.751953125
y: -0.08984375
z: 0.92578125
range: 3.09396481514
velocity: 0.0
doppler_bin: 8
bearing: -1.86988639832
intensity: 31.1058979034
---
header: 
  seq: 149883
  stamp: 
    secs: 1561866311
    nsecs: 247454608
  frame_id: "ti_mmwave"
point_id: 13
x: 1.78125
y: -0.056640625
z: 0.24609375
range: 1.91738677025
velocity: 0.614668667316
doppler_bin: 9
bearing: -1.8212916851
intensity: 26.7851829529
---
header: 
  seq: 149884
  stamp: 
    secs: 1561866311
    nsecs: 247469479
  frame_id: "ti_mmwave"
point_id: 15
x: 0.041015625
y: -0.033203125
z: 0.0625
range: 0.0871539413929
velocity: 0.0
doppler_bin: 8
bearing: -38.9909973145
intensity: 30.0987567902
---
header: 
  seq: 149885
  stamp: 
    secs: 1561866311
    nsecs: 247511363
  frame_id: "ti_mmwave"
point_id: 16
x: 0.046875
y: -0.046875
z: 0.103515625
range: 0.130730912089
velocity: 0.0
doppler_bin: 8
bearing: -45.0
intensity: 29.0036716461
---
header: 
  seq: 149886
  stamp: 
    secs: 1561866311
    nsecs: 248650751
  frame_id: "ti_mmwave"
point_id: 0
x: 0.01171875
y: -0.0390625
z: -0.0078125
range: 0.0435769706964
velocity: 0.0
doppler_bin: 8
bearing: -73.3007583618
intensity: 30.6483230591
---
header: 
  seq: 149887
  stamp: 
    secs: 1561866311
    nsecs: 248712282
  frame_id: "ti_mmwave"
point_id: 1
x: 0.017578125
y: -0.080078125
z: -0.0078125
range: 0.0871539413929
velocity: 0.0
doppler_bin: 8
bearing: -77.6192398071
intensity: 31.9089164734
---
header: 
  seq: 149888
  stamp: 
    secs: 1561866311
    nsecs: 248733320
  frame_id: "ti_mmwave"
point_id: 2
x: 0.029296875
y: -0.119140625
z: -0.005859375
range: 0.130730912089
velocity: 0.0
doppler_bin: 8
bearing: -76.1849746704
intensity: 30.141002655
---
header: 
  seq: 149889
  stamp: 
    secs: 1561866311
    nsecs: 248746722
  frame_id: "ti_mmwave"
point_id: 3
x: 0.056640625
y: -0.154296875
z: 0.005859375
range: 0.174307882786
velocity: 0.0
doppler_bin: 8
bearing: -69.8423843384
intensity: 25.4530715942
---
header: 
  seq: 149890
  stamp: 
    secs: 1561866311
    nsecs: 248761313
  frame_id: "ti_mmwave"
point_id: 4
x: 0.140625
y: -0.080078125
z: 1.2578125
range: 1.35088610649
velocity: 0.0
doppler_bin: 8
bearing: -29.6591091156
intensity: 23.0963020325
---
header: 
  seq: 149891
  stamp: 
    secs: 1561866311
    nsecs: 248776783
  frame_id: "ti_mmwave"
point_id: 5
x: 0.103515625
y: -0.08203125
z: 1.302734375
range: 1.39446306229
velocity: 0.0
doppler_bin: 8
bearing: -38.3951644897
intensity: 24.6239795685
---
header: 
  seq: 149892
  stamp: 
    secs: 1561866311
    nsecs: 248790589
  frame_id: "ti_mmwave"
point_id: 6
x: 0.3984375
y: -0.083984375
z: -1.287109375
range: 1.43804001808
velocity: 0.0
doppler_bin: 8
bearing: -11.9028120041
intensity: 23.0749607086
---
header: 
  seq: 149893
  stamp: 
    secs: 1561866311
    nsecs: 248809108
  frame_id: "ti_mmwave"
point_id: 7
x: 0.54296875
y: -0.04296875
z: -1.279296875
range: 1.48161697388
velocity: 0.0
doppler_bin: 8
bearing: -4.52476835251
intensity: 21.7026176453
---
header: 
  seq: 149894
  stamp: 
    secs: 1561866311
    nsecs: 248884313
  frame_id: "ti_mmwave"
point_id: 8
x: 1.666015625
y: -0.0
z: -0.197265625
range: 1.78665578365
velocity: 0.0
doppler_bin: 8
bearing: -0.0
intensity: 29.1855449677
---
header: 
  seq: 149895
  stamp: 
    secs: 1561866311
    nsecs: 248901854
  frame_id: "ti_mmwave"
point_id: 9
x: 1.708984375
y: -0.0
z: -0.1796875
range: 1.83023273945
velocity: 0.0
doppler_bin: 8
bearing: -0.0
intensity: 29.6614170074
---
header: 
  seq: 149896
  stamp: 
    secs: 1561866311
    nsecs: 248914375
  frame_id: "ti_mmwave"
point_id: 10
x: 1.75390625
y: -0.0546875
z: -0.109375
range: 1.87380969524
velocity: 0.0
doppler_bin: 8
bearing: -1.78592669964
intensity: 27.7011528015
---
header: 
  seq: 149897
  stamp: 
    secs: 1561866311
    nsecs: 248929104
  frame_id: "ti_mmwave"
point_id: 11
x: 2.619140625
y: -0.17578125
z: 1.0390625
range: 3.00681090355
velocity: 0.0
doppler_bin: 8
bearing: -3.83959650993
intensity: 29.2064495087
---
header: 
  seq: 149898
  stamp: 
    secs: 1561866311
    nsecs: 248942881
  frame_id: "ti_mmwave"
point_id: 12
x: 2.66015625
y: -0.1796875
z: 1.044921875
range: 3.05038785934
velocity: 0.0
doppler_bin: 8
bearing: -3.86432933807
intensity: 32.2659988403
---
header: 
  seq: 149899
  stamp: 
    secs: 1561866311
    nsecs: 248955483
  frame_id: "ti_mmwave"
point_id: 13
x: 2.75390625
y: -0.08984375
z: 0.91796875
range: 3.09396481514
velocity: 0.0
doppler_bin: 8
bearing: -1.86856126785
intensity: 31.176027298
---
header: 
  seq: 149900
  stamp: 
    secs: 1561866311
    nsecs: 249013283
  frame_id: "ti_mmwave"
point_id: 14
x: 1.78125
y: -0.056640625
z: 0.24609375
range: 1.91738677025
velocity: 0.614668667316
doppler_bin: 9
bearing: -1.8212916851
intensity: 26.4836006165
---
header: 
  seq: 149901
  stamp: 
    secs: 1561866311
    nsecs: 249033310
  frame_id: "ti_mmwave"
point_id: 15
x: 0.009765625
y: 0.03125
z: 0.025390625
range: 0.0435769706964
velocity: 0.0
doppler_bin: 8
bearing: 72.6459732056
intensity: 29.3043956757
---
header: 
  seq: 149902
  stamp: 
    secs: 1561866311
    nsecs: 249052468
  frame_id: "ti_mmwave"
point_id: 16
x: 0.041015625
y: -0.033203125
z: 0.0625
range: 0.0871539413929
velocity: 0.0
doppler_bin: 8
bearing: -38.9909973145
intensity: 30.0987567902
---
header: 
  seq: 149903
  stamp: 
    secs: 1561866311
    nsecs: 249060677
  frame_id: "ti_mmwave"
point_id: 17
x: 0.044921875
y: -0.046875
z: 0.103515625
range: 0.130730912089
velocity: 0.0
doppler_bin: 8
bearing: -46.218875885
intensity: 29.0036716461
---
header: 
  seq: 149904
  stamp: 
    secs: 1561866311
    nsecs: 307129914
  frame_id: "ti_mmwave"
point_id: 0
x: 0.01171875
y: -0.0390625
z: -0.0078125
range: 0.0435769706964
velocity: 0.0
doppler_bin: 8
bearing: -73.3007583618
intensity: 30.6520614624
---
header: 
  seq: 149905
  stamp: 
    secs: 1561866311
    nsecs: 307196902
  frame_id: "ti_mmwave"
point_id: 1
x: 0.017578125
y: -0.080078125
z: -0.0078125
range: 0.0871539413929
velocity: 0.0
doppler_bin: 8
bearing: -77.6192398071
intensity: 31.9145107269
---
header: 
  seq: 149906
  stamp: 
    secs: 1561866311
    nsecs: 307207549
  frame_id: "ti_mmwave"
point_id: 2
x: 0.029296875
y: -0.119140625
z: -0.005859375
range: 0.130730912089
velocity: 0.0
doppler_bin: 8
bearing: -76.1849746704
intensity: 30.1452045441
---
header: 
  seq: 149907
  stamp: 
    secs: 1561866311
    nsecs: 307216043
  frame_id: "ti_mmwave"
point_id: 3
x: 0.056640625
y: -0.154296875
z: 0.005859375
range: 0.174307882786
velocity: 0.0
doppler_bin: 8
bearing: -69.8423843384
intensity: 25.4654273987
---
header: 
  seq: 149908
  stamp: 
    secs: 1561866311
    nsecs: 307226544
  frame_id: "ti_mmwave"
point_id: 4
x: 0.15234375
y: -0.080078125
z: 1.255859375
range: 1.35088610649
velocity: 0.0
doppler_bin: 8
bearing: -27.7282581329
intensity: 23.1597042084
---
header: 
  seq: 149909
  stamp: 
    secs: 1561866311
    nsecs: 307238152
  frame_id: "ti_mmwave"
point_id: 6
x: 0.4453125
y: -0.083984375
z: -1.271484375
range: 1.43804001808
velocity: 0.0
doppler_bin: 8
bearing: -10.6803331375
intensity: 23.0749607086
---
header: 
  seq: 149910
  stamp: 
    secs: 1561866311
    nsecs: 307246420
  frame_id: "ti_mmwave"
point_id: 7
x: 0.572265625
y: -0.04296875
z: -1.267578125
range: 1.48161697388
velocity: 0.0
doppler_bin: 8
bearing: -4.29401493073
intensity: 21.6435279846
---
header: 
  seq: 149911
  stamp: 
    secs: 1561866311
    nsecs: 307254369
  frame_id: "ti_mmwave"
point_id: 8
x: 1.662109375
y: -0.0
z: -0.21875
range: 1.78665578365
velocity: 0.0
doppler_bin: 8
bearing: -0.0
intensity: 29.0633506775
---
header: 
  seq: 149912
  stamp: 
    secs: 1561866311
    nsecs: 307432599
  frame_id: "ti_mmwave"
point_id: 9
x: 1.697265625
y: -0.0
z: -0.267578125
range: 1.83023273945
velocity: 0.0
doppler_bin: 8
bearing: -0.0
intensity: 30.6892757416
---
header: 
  seq: 149913
  stamp: 
    secs: 1561866311
    nsecs: 307484139
  frame_id: "ti_mmwave"
point_id: 10
x: 1.6953125
y: 0.0546875
z: -0.46484375
range: 1.87380969524
velocity: 0.0
doppler_bin: 8
bearing: 1.847610116
intensity: 29.2839584351
---
header: 
  seq: 149914
  stamp: 
    secs: 1561866311
    nsecs: 307496367
  frame_id: "ti_mmwave"
point_id: 11
x: 2.615234375
y: -0.17578125
z: 1.046875
range: 3.00681090355
velocity: 0.0
doppler_bin: 8
bearing: -3.84531402588
intensity: 28.9209461212
---
header: 
  seq: 149915
  stamp: 
    secs: 1561866311
    nsecs: 307510436
  frame_id: "ti_mmwave"
point_id: 12
x: 2.65625
y: -0.1796875
z: 1.0546875
range: 3.05038785934
velocity: 0.0
doppler_bin: 8
bearing: -3.86999511719
intensity: 32.0763435364
---
header: 
  seq: 149916
  stamp: 
    secs: 1561866311
    nsecs: 307518740
  frame_id: "ti_mmwave"
point_id: 13
x: 2.75390625
y: -0.08984375
z: 0.916015625
range: 3.09396481514
velocity: 0.0
doppler_bin: 8
bearing: -1.86856126785
intensity: 31.0311927795
---
header: 
  seq: 149917
  stamp: 
    secs: 1561866311
    nsecs: 307594872
  frame_id: "ti_mmwave"
point_id: 14
x: 1.626953125
y: -0.16796875
z: 0.75
range: 1.91738677025
velocity: 0.614668667316
doppler_bin: 9
bearing: -5.89440727234
intensity: 25.2374649048
---
header: 
  seq: 149918
  stamp: 
    secs: 1561866311
    nsecs: 307616095
  frame_id: "ti_mmwave"
point_id: 16
x: 0.041015625
y: -0.033203125
z: 0.0625
range: 0.0871539413929
velocity: 0.0
doppler_bin: 8
bearing: -38.9909973145
intensity: 30.0987567902
---
header: 
  seq: 149919
  stamp: 
    secs: 1561866311
    nsecs: 307628923
  frame_id: "ti_mmwave"
point_id: 17
x: 0.046875
y: -0.046875
z: 0.103515625
range: 0.130730912089
velocity: 0.0
doppler_bin: 8
bearing: -45.0
intensity: 29.0036716461
---
header: 
  seq: 149920
  stamp: 
    secs: 1561866311
    nsecs: 308757209
  frame_id: "ti_mmwave"
point_id: 0
x: 0.01171875
y: -0.0390625
z: -0.0078125
range: 0.0435769706964
velocity: 0.0
doppler_bin: 8
bearing: -73.3007583618
intensity: 30.6520614624
---
header: 
  seq: 149921
  stamp: 
    secs: 1561866311
    nsecs: 308824373
  frame_id: "ti_mmwave"
point_id: 1
x: 0.017578125
y: -0.080078125
z: -0.0078125
range: 0.0871539413929
velocity: 0.0
doppler_bin: 8
bearing: -77.6192398071
intensity: 31.9173030853
---
header: 
  seq: 149922
  stamp: 
    secs: 1561866311
    nsecs: 308841371
  frame_id: "ti_mmwave"
point_id: 2
x: 0.029296875
y: -0.119140625
z: -0.005859375
range: 0.130730912089
velocity: 0.0
doppler_bin: 8
bearing: -76.1849746704
intensity: 30.1452045441
---
header: 
  seq: 149923
  stamp: 
    secs: 1561866311
    nsecs: 308854811
  frame_id: "ti_mmwave"
point_id: 3
x: 0.056640625
y: -0.154296875
z: 0.005859375
range: 0.174307882786
velocity: 0.0
doppler_bin: 8
bearing: -69.8423843384
intensity: 25.4654273987
---
header: 
  seq: 149924
  stamp: 
    secs: 1561866311
    nsecs: 308868215
  frame_id: "ti_mmwave"
point_id: 4
x: 0.11328125
y: -0.080078125
z: 1.259765625
range: 1.35088610649
velocity: 0.0
doppler_bin: 8
bearing: -35.2563591003
intensity: 23.138671875
---
header: 
  seq: 149925
  stamp: 
    secs: 1561866311
    nsecs: 308886062
  frame_id: "ti_mmwave"
point_id: 6
x: 0.42578125
y: -0.083984375
z: -1.279296875
range: 1.43804001808
velocity: 0.0
doppler_bin: 8
bearing: -11.1582231522
intensity: 23.0963020325
---
header: 
  seq: 149926
  stamp: 
    secs: 1561866311
    nsecs: 308901961
  frame_id: "ti_mmwave"
point_id: 7
x: 0.576171875
y: -0.04296875
z: -1.265625
range: 1.48161697388
velocity: 0.0
doppler_bin: 8
bearing: -4.2650103569
intensity: 21.6731739044
---
header: 
  seq: 149927
  stamp: 
    secs: 1561866311
    nsecs: 308915565
  frame_id: "ti_mmwave"
point_id: 8
x: 1.62890625
y: -0.0
z: -0.158203125
range: 1.74307882786
velocity: 0.0
doppler_bin: 8
bearing: -0.0
intensity: 27.7378635406
---
header: 
  seq: 149928
  stamp: 
    secs: 1561866311
    nsecs: 308945648
  frame_id: "ti_mmwave"
point_id: 9
x: 1.669921875
y: -0.0
z: -0.146484375
range: 1.78665578365
velocity: 0.0
doppler_bin: 8
bearing: -0.0
intensity: 31.562461853
---
header: 
  seq: 149929
  stamp: 
    secs: 1561866311
    nsecs: 309024039
  frame_id: "ti_mmwave"
point_id: 10
x: 1.708984375
y: -0.052734375
z: -0.17578125
range: 1.83023273945
velocity: 0.0
doppler_bin: 8
bearing: -1.76742315292
intensity: 31.8977088928
---
header: 
  seq: 149930
  stamp: 
    secs: 1561866311
    nsecs: 309039911
  frame_id: "ti_mmwave"
point_id: 11
x: 1.712890625
y: -0.0546875
z: -0.396484375
range: 1.87380969524
velocity: 0.0
doppler_bin: 8
bearing: -1.82866251469
intensity: 28.9209461212
---
header: 
  seq: 149931
  stamp: 
    secs: 1561866311
    nsecs: 309052969
  frame_id: "ti_mmwave"
point_id: 12
x: 2.62109375
y: -0.17578125
z: 1.03125
range: 3.00681090355
velocity: 0.0
doppler_bin: 8
bearing: -3.83674383163
intensity: 29.3951931
---
header: 
  seq: 149932
  stamp: 
    secs: 1561866311
    nsecs: 309066414
  frame_id: "ti_mmwave"
point_id: 13
x: 2.6640625
y: -0.1796875
z: 1.03515625
range: 3.05038785934
velocity: 0.0
doppler_bin: 8
bearing: -3.85868024826
intensity: 32.5236740112
---
header: 
  seq: 149933
  stamp: 
    secs: 1561866311
    nsecs: 309081323
  frame_id: "ti_mmwave"
point_id: 14
x: 2.75390625
y: -0.08984375
z: 0.919921875
range: 3.09396481514
velocity: 0.0
doppler_bin: 8
bearing: -1.86856126785
intensity: 31.4332714081
---
header: 
  seq: 149934
  stamp: 
    secs: 1561866311
    nsecs: 309098496
  frame_id: "ti_mmwave"
point_id: 16
x: 0.041015625
y: -0.033203125
z: 0.0625
range: 0.0871539413929
velocity: 0.0
doppler_bin: 8
bearing: -38.9909973145
intensity: 30.0987567902
---
header: 
  seq: 149935
  stamp: 
    secs: 1561866311
    nsecs: 309146261
  frame_id: "ti_mmwave"
point_id: 17
x: 0.044921875
y: -0.046875
z: 0.103515625
range: 0.130730912089
velocity: 0.0
doppler_bin: 8
bearing: -46.218875885
intensity: 29.0036716461
---
header: 
  seq: 149936
  stamp: 
    secs: 1561866311
    nsecs: 367240579
  frame_id: "ti_mmwave"
point_id: 0
x: 0.01171875
y: -0.0390625
z: -0.0078125
range: 0.0435769706964
velocity: 0.0
doppler_bin: 8
bearing: -73.3007583618
intensity: 30.6557979584
---
header: 
  seq: 149937
  stamp: 
    secs: 1561866311
    nsecs: 367302657
  frame_id: "ti_mmwave"
point_id: 1
x: 0.017578125
y: -0.080078125
z: -0.0078125
range: 0.0871539413929
velocity: 0.0
doppler_bin: 8
bearing: -77.6192398071
intensity: 31.9145107269
---
header: 
  seq: 149938
  stamp: 
    secs: 1561866311
    nsecs: 367314611
  frame_id: "ti_mmwave"
point_id: 2
x: 0.029296875
y: -0.119140625
z: -0.005859375
range: 0.130730912089
velocity: 0.0
doppler_bin: 8
bearing: -76.1849746704
intensity: 30.1452045441
---
header: 
  seq: 149939
  stamp: 
    secs: 1561866311
    nsecs: 367324256
  frame_id: "ti_mmwave"
point_id: 3
x: 0.056640625
y: -0.154296875
z: 0.005859375
range: 0.174307882786
velocity: 0.0
doppler_bin: 8
bearing: -69.8423843384
intensity: 25.4654273987
---
header: 
  seq: 149940
  stamp: 
    secs: 1561866311
    nsecs: 367334078
  frame_id: "ti_mmwave"
point_id: 4
x: 0.1640625
y: -0.080078125
z: 1.255859375
range: 1.35088610649
velocity: 0.0
doppler_bin: 8
bearing: -26.0167827606
intensity: 23.1175384521
---
header: 
  seq: 149941
  stamp: 
    secs: 1561866311
    nsecs: 367348289
  frame_id: "ti_mmwave"
point_id: 6
x: 0.419921875
y: -0.083984375
z: -1.279296875
range: 1.43804001808
velocity: 0.0
doppler_bin: 8
bearing: -11.3099327087
intensity: 23.0535144806
---
header: 
  seq: 149942
  stamp: 
    secs: 1561866311
    nsecs: 367357529
  frame_id: "ti_mmwave"
point_id: 7
x: 0.568359375
y: -0.04296875
z: -1.26953125
range: 1.48161697388
velocity: 0.0
doppler_bin: 8
bearing: -4.32341527939
intensity: 21.6731739044
---
header: 
  seq: 149943
  stamp: 
    secs: 1561866311
    nsecs: 367366545
  frame_id: "ti_mmwave"
point_id: 8
x: 1.6640625
y: -0.0
z: -0.21484375
range: 1.78665578365
velocity: 0.0
doppler_bin: 8
bearing: -0.0
intensity: 26.6651802063
---
header: 
  seq: 149944
  stamp: 
    secs: 1561866311
    nsecs: 367375309
  frame_id: "ti_mmwave"
point_id: 9
x: 1.689453125
y: -0.0
z: -0.30859375
range: 1.83023273945
velocity: 0.0
doppler_bin: 8
bearing: -0.0
intensity: 29.4546852112
---
header: 
  seq: 149945
  stamp: 
    secs: 1561866311
    nsecs: 367382837
  frame_id: "ti_mmwave"
point_id: 10
x: 1.7421875
y: -0.0546875
z: -0.23828125
range: 1.87380969524
velocity: 0.0
doppler_bin: 8
bearing: -1.79793179035
intensity: 30.4139270782
---
header: 
  seq: 149946
  stamp: 
    secs: 1561866311
    nsecs: 367392060
  frame_id: "ti_mmwave"
point_id: 11
x: 1.796875
y: -0.11328125
z: 0.001953125
range: 1.91738677025
velocity: 0.0
doppler_bin: 8
bearing: -3.60735106468
intensity: 30.2242832184
---
header: 
  seq: 149947
  stamp: 
    secs: 1561866311
    nsecs: 367408685
  frame_id: "ti_mmwave"
point_id: 12
x: 1.826171875
y: -0.115234375
z: 0.203125
range: 1.96096372604
velocity: 0.0
doppler_bin: 8
bearing: -3.61066842079
intensity: 27.9795970917
---
header: 
  seq: 149948
  stamp: 
    secs: 1561866311
    nsecs: 367423716
  frame_id: "ti_mmwave"
point_id: 13
x: 2.66015625
y: -0.1796875
z: 1.04296875
range: 3.05038785934
velocity: 0.0
doppler_bin: 8
bearing: -3.86432933807
intensity: 31.6731739044
---
header: 
  seq: 149949
  stamp: 
    secs: 1561866311
    nsecs: 367487067
  frame_id: "ti_mmwave"
point_id: 14
x: 2.783203125
y: -0.0
z: 0.830078125
range: 3.09396481514
velocity: 0.0
doppler_bin: 8
bearing: -0.0
intensity: 30.5956344604
---
header: 
  seq: 149950
  stamp: 
    secs: 1561866311
    nsecs: 367500737
  frame_id: "ti_mmwave"
point_id: 16
x: 0.041015625
y: -0.033203125
z: 0.0625
range: 0.0871539413929
velocity: 0.0
doppler_bin: 8
bearing: -38.9909973145
intensity: 30.0987567902
---
header: 
  seq: 149951
  stamp: 
    secs: 1561866311
    nsecs: 367509661
  frame_id: "ti_mmwave"
point_id: 17
x: 0.044921875
y: -0.046875
z: 0.103515625
range: 0.130730912089
velocity: 0.0
doppler_bin: 8
bearing: -46.218875885
intensity: 29.0036716461
---
header: 
  seq: 149952
  stamp: 
    secs: 1561866311
    nsecs: 368129729
  frame_id: "ti_mmwave"
point_id: 0
x: 0.01171875
y: -0.0390625
z: -0.0078125
range: 0.0435769706964
velocity: 0.0
doppler_bin: 8
bearing: -73.3007583618
intensity: 30.6557979584
---
header: 
  seq: 149953
  stamp: 
    secs: 1561866311
    nsecs: 368160846
  frame_id: "ti_mmwave"
point_id: 1
x: 0.017578125
y: -0.080078125
z: -0.0078125
range: 0.0871539413929
velocity: 0.0
doppler_bin: 8
bearing: -77.6192398071
intensity: 31.9145107269
---
header: 
  seq: 149954
  stamp: 
    secs: 1561866311
    nsecs: 368172071
  frame_id: "ti_mmwave"
point_id: 2
x: 0.029296875
y: -0.119140625
z: -0.005859375
range: 0.130730912089
velocity: 0.0
doppler_bin: 8
bearing: -76.1849746704
intensity: 30.1452045441
---
header: 
  seq: 149955
  stamp: 
    secs: 1561866311
    nsecs: 368180554
  frame_id: "ti_mmwave"
point_id: 3
x: 0.056640625
y: -0.154296875
z: 0.005859375
range: 0.174307882786
velocity: 0.0
doppler_bin: 8
bearing: -69.8423843384
intensity: 25.4654273987
---
header: 
  seq: 149956
  stamp: 
    secs: 1561866311
    nsecs: 368201532
  frame_id: "ti_mmwave"
point_id: 4
x: 0.072265625
y: -0.080078125
z: 1.263671875
range: 1.35088610649
velocity: 0.0
doppler_bin: 8
bearing: -47.93567276
intensity: 23.138671875
---
header: 
  seq: 149957
  stamp: 
    secs: 1561866311
    nsecs: 368249186
  frame_id: "ti_mmwave"
point_id: 6
x: 0.419921875
y: -0.083984375
z: -1.279296875
range: 1.43804001808
velocity: 0.0
doppler_bin: 8
bearing: -11.3099327087
intensity: 23.0535144806
---
header: 
  seq: 149958
  stamp: 
    secs: 1561866311
    nsecs: 368258065
  frame_id: "ti_mmwave"
point_id: 7
x: 0.55859375
y: -0.04296875
z: -1.2734375
range: 1.48161697388
velocity: 0.0
doppler_bin: 8
bearing: -4.39870548248
intensity: 21.6731739044
---
header: 
  seq: 149959
  stamp: 
    secs: 1561866311
    nsecs: 368265711
  frame_id: "ti_mmwave"
point_id: 8
x: 1.685546875
y: -0.0
z: -0.33203125
range: 1.83023273945
velocity: 0.0
doppler_bin: 8
bearing: -0.0
intensity: 28.4941940308
---
header: 
  seq: 149960
  stamp: 
    secs: 1561866311
    nsecs: 368273134
  frame_id: "ti_mmwave"
point_id: 9
x: 1.73046875
y: -0.0546875
z: -0.310546875
range: 1.87380969524
velocity: 0.0
doppler_bin: 8
bearing: -1.81009960175
intensity: 28.8366146088
---
header: 
  seq: 149961
  stamp: 
    secs: 1561866311
    nsecs: 368282004
  frame_id: "ti_mmwave"
point_id: 10
x: 1.79296875
y: -0.0
z: 0.154296875
range: 1.91738677025
velocity: 0.0
doppler_bin: 8
bearing: -0.0
intensity: 28.7737140656
---
header: 
  seq: 149962
  stamp: 
    secs: 1561866311
    nsecs: 368289305
  frame_id: "ti_mmwave"
point_id: 11
x: 2.658203125
y: -0.1796875
z: 1.046875
range: 3.05038785934
velocity: 0.0
doppler_bin: 8
bearing: -3.86716008186
intensity: 31.8069915771
---
header: 
  seq: 149963
  stamp: 
    secs: 1561866311
    nsecs: 368297776
  frame_id: "ti_mmwave"
point_id: 12
x: 2.734375
y: -0.181640625
z: 0.962890625
range: 3.09396481514
velocity: 0.0
doppler_bin: 8
bearing: -3.80049324036
intensity: 30.8314418793
---
header: 
  seq: 149964
  stamp: 
    secs: 1561866311
    nsecs: 368308816
  frame_id: "ti_mmwave"
point_id: 14
x: 0.041015625
y: -0.033203125
z: 0.0625
range: 0.0871539413929
velocity: 0.0
doppler_bin: 8
bearing: -38.9909973145
intensity: 30.1072387695
---
header: 
  seq: 149965
  stamp: 
    secs: 1561866311
    nsecs: 368320693
  frame_id: "ti_mmwave"
point_id: 15
x: 0.044921875
y: -0.046875
z: 0.103515625
range: 0.130730912089
velocity: 0.0
doppler_bin: 8
bearing: -46.218875885
intensity: 29.0036716461
---
header: 
  seq: 149966
  stamp: 
    secs: 1561866311
    nsecs: 368363856
  frame_id: "ti_mmwave"
point_id: 17
x: 2.78125
y: -0.0
z: 0.837890625
range: 3.09396481514
velocity: 0.0
doppler_bin: 8
bearing: -0.0
intensity: 30.8134727478
---
header: 
  seq: 149967
  stamp: 
    secs: 1561866311
    nsecs: 427065637
  frame_id: "ti_mmwave"
point_id: 0
x: 0.01171875
y: -0.0390625
z: -0.0078125
range: 0.0435769706964
velocity: 0.0
doppler_bin: 8
bearing: -73.3007583618
intensity: 30.6445808411
---
header: 
  seq: 149968
  stamp: 
    secs: 1561866311
    nsecs: 427137276
  frame_id: "ti_mmwave"
point_id: 1
x: 0.017578125
y: -0.080078125
z: -0.0078125
range: 0.0871539413929
velocity: 0.0
doppler_bin: 8
bearing: -77.6192398071
intensity: 31.9117145538
---
header: 
  seq: 149969
  stamp: 
    secs: 1561866311
    nsecs: 427153467
  frame_id: "ti_mmwave"
