header: 
  seq: 139119
  stamp: 
    secs: 1561866287
    nsecs: 967516961
  frame_id: "ti_mmwave"
point_id: 0
x: 0.01171875
y: -0.0390625
z: -0.0078125
range: 0.0435769706964
velocity: 0.0
doppler_bin: 8
bearing: -73.3007583618
intensity: 30.6520614624
---
header: 
  seq: 139120
  stamp: 
    secs: 1561866287
    nsecs: 967619699
  frame_id: "ti_mmwave"
point_id: 1
x: 0.017578125
y: -0.080078125
z: -0.0078125
range: 0.0871539413929
velocity: 0.0
doppler_bin: 8
bearing: -77.6192398071
intensity: 31.9117145538
---
header: 
  seq: 139121
  stamp: 
    secs: 1561866287
    nsecs: 967639776
  frame_id: "ti_mmwave"
point_id: 2
x: 0.029296875
y: -0.119140625
z: -0.005859375
range: 0.130730912089
velocity: 0.0
doppler_bin: 8
bearing: -76.1849746704
intensity: 30.141002655
---
header: 
  seq: 139122
  stamp: 
    secs: 1561866287
    nsecs: 967653801
  frame_id: "ti_mmwave"
point_id: 3
x: 0.056640625
y: -0.154296875
z: 0.005859375
range: 0.174307882786
velocity: 0.0
doppler_bin: 8
bearing: -69.8423843384
intensity: 25.4406795502
---
header: 
  seq: 139123
  stamp: 
    secs: 1561866287
    nsecs: 967669528
  frame_id: "ti_mmwave"
point_id: 4
x: 0.119140625
y: -0.080078125
z: 1.259765625
range: 1.35088610649
velocity: 0.0
doppler_bin: 8
bearing: -33.9062767029
intensity: 23.138671875
---
header: 
  seq: 139124
  stamp: 
    secs: 1561866287
    nsecs: 967686785
  frame_id: "ti_mmwave"
point_id: 6
x: 0.419921875
y: -0.083984375
z: -1.279296875
range: 1.43804001808
velocity: 0.0
doppler_bin: 8
bearing: -11.3099327087
intensity: 23.0535144806
---
header: 
  seq: 139125
  stamp: 
    secs: 1561866287
    nsecs: 967702612
  frame_id: "ti_mmwave"
point_id: 7
x: 0.552734375
y: -0.04296875
z: -1.275390625
range: 1.48161697388
velocity: 0.0
doppler_bin: 8
bearing: -4.44514894485
intensity: 21.6731739044
---
header: 
  seq: 139126
  stamp: 
    secs: 1561866287
    nsecs: 967718232
  frame_id: "ti_mmwave"
point_id: 8
x: 1.912109375
y: -0.060546875
z: 0.201171875
range: 2.04811763763
velocity: 0.0
doppler_bin: 8
bearing: -1.81366276741
intensity: 28.0482063293
---
header: 
  seq: 139127
  stamp: 
    secs: 1561866287
    nsecs: 967746100
  frame_id: "ti_mmwave"
point_id: 9
x: 1.951171875
y: -0.123046875
z: 0.185546875
range: 2.09169459343
velocity: 0.0
doppler_bin: 8
bearing: -3.60846877098
intensity: 27.9448795319
---
header: 
  seq: 139128
  stamp: 
    secs: 1561866287
    nsecs: 967829634
  frame_id: "ti_mmwave"
point_id: 10
x: 2.615234375
y: -0.17578125
z: 1.044921875
range: 3.00681090355
velocity: 0.0
doppler_bin: 8
bearing: -3.84531402588
intensity: 28.9320678711
---
header: 
  seq: 139129
  stamp: 
    secs: 1561866287
    nsecs: 967848619
  frame_id: "ti_mmwave"
point_id: 11
x: 2.69140625
y: -0.08984375
z: 0.974609375
range: 3.05038785934
velocity: 0.0
doppler_bin: 8
bearing: -1.91192126274
intensity: 32.1642990112
---
header: 
  seq: 139130
  stamp: 
    secs: 1561866287
    nsecs: 967865478
  frame_id: "ti_mmwave"
point_id: 12
x: 2.7734375
y: -0.0
z: 0.859375
range: 3.09396481514
velocity: 0.0
doppler_bin: 8
bearing: -0.0
intensity: 31.0856494904
---
header: 
  seq: 139131
  stamp: 
    secs: 1561866287
    nsecs: 967882513
  frame_id: "ti_mmwave"
point_id: 13
x: 4.41796875
y: -0.142578125
z: 1.20703125
range: 4.88062095642
velocity: 0.0
doppler_bin: 8
bearing: -1.84842634201
intensity: 30.9412155151
---
header: 
  seq: 139132
  stamp: 
    secs: 1561866287
    nsecs: 967899116
  frame_id: "ti_mmwave"
point_id: 14
x: 4.45703125
y: -0.14453125
z: 1.21484375
range: 4.9241976738
velocity: 0.0
doppler_bin: 8
bearing: -1.8573192358
intensity: 30.7335166931
---
header: 
  seq: 139133
  stamp: 
    secs: 1561866287
    nsecs: 967919289
  frame_id: "ti_mmwave"
point_id: 16
x: 0.041015625
y: -0.033203125
z: 0.0625
range: 0.0871539413929
velocity: 0.0
doppler_bin: 8
bearing: -38.9909973145
intensity: 30.1029987335
---
header: 
  seq: 139134
  stamp: 
    secs: 1561866287
    nsecs: 967938300
  frame_id: "ti_mmwave"
point_id: 17
x: 0.044921875
y: -0.046875
z: 0.103515625
range: 0.130730912089
velocity: 0.0
doppler_bin: 8
bearing: -46.218875885
intensity: 29.0036716461
---
header: 
  seq: 139135
  stamp: 
    secs: 1561866287
    nsecs: 968005854
  frame_id: "ti_mmwave"
point_id: 19
x: 2.732421875
y: -0.181640625
z: 0.966796875
range: 3.09396481514
velocity: 0.0
doppler_bin: 8
bearing: -3.80320167542
intensity: 31.0788803101
---
header: 
  seq: 139136
  stamp: 
    secs: 1561866287
    nsecs: 969126034
  frame_id: "ti_mmwave"
point_id: 0
x: 0.01171875
y: -0.0390625
z: -0.0078125
range: 0.0435769706964
velocity: 0.0
doppler_bin: 8
bearing: -73.3007583618
intensity: 30.6520614624
---
header: 
  seq: 139137
  stamp: 
    secs: 1561866287
    nsecs: 969177112
  frame_id: "ti_mmwave"
point_id: 1
x: 0.017578125
y: -0.080078125
z: -0.0078125
range: 0.0871539413929
velocity: 0.0
doppler_bin: 8
bearing: -77.6192398071
intensity: 31.9117145538
---
header: 
  seq: 139138
  stamp: 
    secs: 1561866287
    nsecs: 969188612
  frame_id: "ti_mmwave"
point_id: 2
x: 0.029296875
y: -0.119140625
z: -0.005859375
range: 0.130730912089
velocity: 0.0
doppler_bin: 8
bearing: -76.1849746704
intensity: 30.141002655
---
header: 
  seq: 139139
  stamp: 
    secs: 1561866287
    nsecs: 969197623
  frame_id: "ti_mmwave"
point_id: 3
x: 0.056640625
y: -0.154296875
z: 0.005859375
range: 0.174307882786
velocity: 0.0
doppler_bin: 8
bearing: -69.8423843384
intensity: 25.4530715942
---
header: 
  seq: 139140
  stamp: 
    secs: 1561866287
    nsecs: 969207242
  frame_id: "ti_mmwave"
point_id: 4
x: 0.095703125
y: -0.080078125
z: 1.26171875
range: 1.35088610649
velocity: 0.0
doppler_bin: 8
bearing: -39.9203910828
intensity: 23.0749607086
---
header: 
  seq: 139141
  stamp: 
    secs: 1561866287
    nsecs: 969217639
  frame_id: "ti_mmwave"
point_id: 6
x: 0.431640625
y: -0.083984375
z: -1.275390625
range: 1.43804001808
velocity: 0.0
doppler_bin: 8
bearing: -11.0104799271
intensity: 23.0102996826
---
header: 
  seq: 139142
  stamp: 
    secs: 1561866287
    nsecs: 969281216
  frame_id: "ti_mmwave"
point_id: 7
x: 0.576171875
y: -0.04296875
z: -1.265625
range: 1.48161697388
velocity: 0.0
doppler_bin: 8
bearing: -4.2650103569
intensity: 21.6435279846
---
header: 
  seq: 139143
  stamp: 
    secs: 1561866287
    nsecs: 969291987
  frame_id: "ti_mmwave"
point_id: 8
x: 1.91796875
y: -0.060546875
z: -0.125
range: 2.04811763763
velocity: 0.0
doppler_bin: 8
bearing: -1.80812585354
intensity: 26.3648796082
---
header: 
  seq: 139144
  stamp: 
    secs: 1561866287
    nsecs: 969301487
  frame_id: "ti_mmwave"
point_id: 9
x: 1.9609375
y: -0.0
z: -0.1171875
range: 2.09169459343
velocity: 0.0
doppler_bin: 8
bearing: -0.0
intensity: 27.2098579407
---
header: 
  seq: 139145
  stamp: 
    secs: 1561866287
    nsecs: 969311244
  frame_id: "ti_mmwave"
point_id: 10
x: 2.615234375
y: -0.17578125
z: 1.046875
range: 3.00681090355
velocity: 0.0
doppler_bin: 8
bearing: -3.84531402588
intensity: 29.1062431335
---
header: 
  seq: 139146
  stamp: 
    secs: 1561866287
    nsecs: 969323357
  frame_id: "ti_mmwave"
point_id: 11
x: 2.69140625
y: -0.08984375
z: 0.97265625
range: 3.05038785934
velocity: 0.0
doppler_bin: 8
bearing: -1.91192126274
intensity: 32.2245635986
---
header: 
  seq: 139147
  stamp: 
    secs: 1561866287
    nsecs: 969335961
  frame_id: "ti_mmwave"
point_id: 12
x: 2.7734375
y: -0.0
z: 0.859375
range: 3.09396481514
velocity: 0.0
doppler_bin: 8
bearing: -0.0
intensity: 31.1660766602
---
header: 
  seq: 139148
  stamp: 
    secs: 1561866287
    nsecs: 969347945
  frame_id: "ti_mmwave"
point_id: 13
x: 4.41796875
y: -0.142578125
z: 1.205078125
range: 4.88062095642
velocity: 0.0
doppler_bin: 8
bearing: -1.84842634201
intensity: 31.3481445312
---
header: 
  seq: 139149
  stamp: 
    secs: 1561866287
    nsecs: 969361291
  frame_id: "ti_mmwave"
point_id: 14
x: 4.455078125
y: -0.14453125
z: 1.2265625
range: 4.9241976738
velocity: 0.0
doppler_bin: 8
bearing: -1.85813295841
intensity: 31.1859531403
---
header: 
  seq: 139150
  stamp: 
    secs: 1561866287
    nsecs: 969379063
  frame_id: "ti_mmwave"
point_id: 16
x: 0.041015625
y: -0.033203125
z: 0.0625
range: 0.0871539413929
velocity: 0.0
doppler_bin: 8
bearing: -38.9909973145
intensity: 30.0987567902
---
header: 
  seq: 139151
  stamp: 
    secs: 1561866287
    nsecs: 969395404
  frame_id: "ti_mmwave"
point_id: 17
x: 0.046875
y: -0.046875
z: 0.103515625
range: 0.130730912089
velocity: 0.0
doppler_bin: 8
bearing: -45.0
intensity: 29.0036716461
---
header: 
  seq: 139152
  stamp: 
    secs: 1561866287
    nsecs: 969697165
  frame_id: "ti_mmwave"
point_id: 19
x: 2.734375
y: -0.181640625
z: 0.958984375
range: 3.09396481514
velocity: 0.0
doppler_bin: 8
bearing: -3.80049324036
intensity: 31.1660766602
---
header: 
  seq: 139153
  stamp: 
    secs: 1561866288
    nsecs:  27386389
  frame_id: "ti_mmwave"
point_id: 0
x: 0.01171875
y: -0.0390625
z: -0.0078125
range: 0.0435769706964
velocity: 0.0
doppler_bin: 8
bearing: -73.3007583618
intensity: 30.6557979584
---
header: 
  seq: 139154
  stamp: 
    secs: 1561866288
    nsecs:  27462813
  frame_id: "ti_mmwave"
point_id: 1
x: 0.017578125
y: -0.080078125
z: -0.0078125
range: 0.0871539413929
velocity: 0.0
doppler_bin: 8
bearing: -77.6192398071
intensity: 31.9145107269
---
header: 
  seq: 139155
  stamp: 
    secs: 1561866288
    nsecs:  27473706
  frame_id: "ti_mmwave"
point_id: 2
x: 0.029296875
y: -0.119140625
z: -0.005859375
range: 0.130730912089
velocity: 0.0
doppler_bin: 8
bearing: -76.1849746704
intensity: 30.1452045441
---
header: 
  seq: 139156
  stamp: 
    secs: 1561866288
    nsecs:  27482192
  frame_id: "ti_mmwave"
point_id: 3
x: 0.056640625
y: -0.154296875
z: 0.005859375
range: 0.174307882786
velocity: 0.0
doppler_bin: 8
bearing: -69.8423843384
intensity: 25.4530715942
---
header: 
  seq: 139157
  stamp: 
    secs: 1561866288
    nsecs:  27491005
  frame_id: "ti_mmwave"
point_id: 4
x: 0.04296875
y: -0.080078125
z: 1.265625
range: 1.35088610649
velocity: 0.0
doppler_bin: 8
bearing: -61.7826461792
intensity: 23.1175384521
---
header: 
  seq: 139158
  stamp: 
    secs: 1561866288
    nsecs:  27499170
  frame_id: "ti_mmwave"
point_id: 5
x: 0.056640625
y: -0.08203125
z: -1.3046875
range: 1.39446306229
velocity: 0.0
doppler_bin: 8
bearing: -55.3758430481
intensity: 24.6239795685
---
header: 
  seq: 139159
  stamp: 
    secs: 1561866288
    nsecs:  27509373
  frame_id: "ti_mmwave"
point_id: 6
x: 0.419921875
y: -0.083984375
z: -1.279296875
range: 1.43804001808
velocity: 0.0
doppler_bin: 8
bearing: -11.3099327087
intensity: 23.0749607086
---
header: 
  seq: 139160
  stamp: 
    secs: 1561866288
    nsecs:  27518056
  frame_id: "ti_mmwave"
point_id: 7
x: 0.556640625
y: -0.04296875
z: -1.2734375
range: 1.48161697388
velocity: 0.0
doppler_bin: 8
bearing: -4.41407871246
intensity: 21.7026176453
---
header: 
  seq: 139161
  stamp: 
    secs: 1561866288
    nsecs:  27525625
  frame_id: "ti_mmwave"
point_id: 8
x: 1.94921875
y: -0.060546875
z: -0.224609375
range: 2.09169459343
velocity: 0.0
doppler_bin: 8
bearing: -1.77915656567
intensity: 27.2263393402
---
header: 
  seq: 139162
  stamp: 
    secs: 1561866288
    nsecs:  27534020
  frame_id: "ti_mmwave"
point_id: 9
x: 1.9921875
y: -0.0625
z: -0.21484375
range: 2.13527154922
velocity: 0.0
doppler_bin: 8
bearing: -1.79692542553
intensity: 27.6937732697
---
header: 
  seq: 139163
  stamp: 
    secs: 1561866288
    nsecs:  27542284
  frame_id: "ti_mmwave"
point_id: 10
x: 2.60546875
y: -0.17578125
z: 1.072265625
range: 3.00681090355
velocity: 0.0
doppler_bin: 8
bearing: -3.85968351364
intensity: 29.1381378174
---
header: 
  seq: 139164
  stamp: 
    secs: 1561866288
    nsecs:  27550159
  frame_id: "ti_mmwave"
point_id: 11
x: 2.689453125
y: -0.08984375
z: 0.9765625
range: 3.05038785934
velocity: 0.0
doppler_bin: 8
bearing: -1.91330885887
intensity: 32.1906051636
---
header: 
  seq: 139165
  stamp: 
    secs: 1561866288
    nsecs:  27558333
  frame_id: "ti_mmwave"
point_id: 12
x: 2.77734375
y: -0.0
z: 0.8515625
range: 3.09396481514
velocity: 0.0
doppler_bin: 8
bearing: -0.0
intensity: 31.0822658539
---
header: 
  seq: 139166
  stamp: 
    secs: 1561866288
    nsecs:  27567284
  frame_id: "ti_mmwave"
point_id: 13
x: 4.40234375
y: -0.287109375
z: 1.23828125
range: 4.88062095642
velocity: 0.0
doppler_bin: 8
bearing: -3.73139691353
intensity: 30.1494026184
---
header: 
  seq: 139167
  stamp: 
    secs: 1561866288
    nsecs:  27576774
  frame_id: "ti_mmwave"
point_id: 14
x: 4.453125
y: -0.14453125
z: 1.228515625
range: 4.9241976738
velocity: 0.0
doppler_bin: 8
bearing: -1.85894739628
intensity: 29.9825935364
---
header: 
  seq: 139168
  stamp: 
    secs: 1561866288
    nsecs:  27586230
  frame_id: "ti_mmwave"
point_id: 15
x: 0.009765625
y: 0.03125
z: 0.025390625
range: 0.0435769706964
velocity: 0.0
doppler_bin: 8
bearing: 72.6459732056
intensity: 29.3043956757
---
header: 
  seq: 139169
  stamp: 
    secs: 1561866288
    nsecs:  27608980
  frame_id: "ti_mmwave"
point_id: 16
x: 0.041015625
y: -0.033203125
z: 0.0625
range: 0.0871539413929
velocity: 0.0
doppler_bin: 8
bearing: -38.9909973145
intensity: 30.1029987335
---
header: 
  seq: 139170
  stamp: 
    secs: 1561866288
    nsecs:  27623267
  frame_id: "ti_mmwave"
point_id: 17
x: 0.044921875
y: -0.046875
z: 0.103515625
range: 0.130730912089
velocity: 0.0
doppler_bin: 8
bearing: -46.218875885
intensity: 29.0036716461
---
header: 
  seq: 139171
  stamp: 
    secs: 1561866288
    nsecs:  27639653
  frame_id: "ti_mmwave"
point_id: 19
x: 2.736328125
y: -0.181640625
z: 0.95703125
range: 3.09396481514
velocity: 0.0
doppler_bin: 8
bearing: -3.79778838158
intensity: 31.0754909515
---
header: 
  seq: 139172
  stamp: 
    secs: 1561866288
    nsecs:  87210317
  frame_id: "ti_mmwave"
point_id: 0
x: 0.01171875
y: -0.0390625
z: -0.0078125
range: 0.0435769706964
velocity: 0.0
doppler_bin: 8
bearing: -73.3007583618
intensity: 30.6557979584
---
header: 
  seq: 139173
  stamp: 
    secs: 1561866288
    nsecs:  87287253
  frame_id: "ti_mmwave"
point_id: 1
x: 0.017578125
y: -0.080078125
z: -0.0078125
range: 0.0871539413929
velocity: 0.0
doppler_bin: 8
bearing: -77.6192398071
intensity: 31.9145107269
---
header: 
  seq: 139174
  stamp: 
    secs: 1561866288
    nsecs:  87298236
  frame_id: "ti_mmwave"
point_id: 2
x: 0.029296875
y: -0.119140625
z: -0.005859375
range: 0.130730912089
velocity: 0.0
doppler_bin: 8
bearing: -76.1849746704
intensity: 30.1452045441
---
header: 
  seq: 139175
  stamp: 
    secs: 1561866288
    nsecs:  87306519
  frame_id: "ti_mmwave"
point_id: 3
x: 0.056640625
y: -0.154296875
z: 0.005859375
range: 0.174307882786
velocity: 0.0
doppler_bin: 8
bearing: -69.8423843384
intensity: 25.4654273987
---
header: 
  seq: 139176
  stamp: 
    secs: 1561866288
    nsecs:  87315091
  frame_id: "ti_mmwave"
point_id: 4
x: 0.1484375
y: -0.080078125
z: 1.255859375
range: 1.35088610649
velocity: 0.0
doppler_bin: 8
bearing: -28.3456954956
intensity: 23.0963020325
---
header: 
  seq: 139177
  stamp: 
    secs: 1561866288
    nsecs:  87323724
  frame_id: "ti_mmwave"
point_id: 5
x: 0.07421875
y: -0.08203125
z: 1.3046875
range: 1.39446306229
velocity: 0.0
doppler_bin: 8
bearing: -47.8624038696
intensity: 24.6239795685
---
header: 
  seq: 139178
  stamp: 
    secs: 1561866288
    nsecs:  87332464
  frame_id: "ti_mmwave"
point_id: 6
x: 0.408203125
y: -0.083984375
z: -1.283203125
range: 1.43804001808
velocity: 0.0
doppler_bin: 8
bearing: -11.6258993149
intensity: 23.0535144806
---
header: 
  seq: 139179
  stamp: 
    secs: 1561866288
    nsecs:  87340998
  frame_id: "ti_mmwave"
point_id: 7
x: 0.546875
y: -0.04296875
z: -1.279296875
range: 1.48161697388
velocity: 0.0
doppler_bin: 8
bearing: -4.49258184433
intensity: 21.6435279846
---
header: 
  seq: 139180
  stamp: 
    secs: 1561866288
    nsecs:  87353740
  frame_id: "ti_mmwave"
point_id: 8
x: 1.85546875
y: -0.0
z: -0.3125
range: 2.00454068184
velocity: 0.0
doppler_bin: 8
bearing: -0.0
intensity: 27.7451705933
---
header: 
  seq: 139181
  stamp: 
    secs: 1561866288
    nsecs:  87552920
  frame_id: "ti_mmwave"
point_id: 9
x: 1.896484375
y: -0.0
z: -0.314453125
range: 2.04811763763
velocity: 0.0
doppler_bin: 8
bearing: -0.0
intensity: 26.9635639191
---
header: 
  seq: 139182
  stamp: 
    secs: 1561866288
    nsecs:  87600520
  frame_id: "ti_mmwave"
point_id: 10
x: 1.9609375
y: -0.060546875
z: -0.07421875
range: 2.09169459343
velocity: 0.0
doppler_bin: 8
bearing: -1.76853096485
intensity: 26.9460525513
---
header: 
  seq: 139183
  stamp: 
    secs: 1561866288
    nsecs:  87617035
  frame_id: "ti_mmwave"
point_id: 11
x: 1.998046875
y: -0.0
z: -0.154296875
range: 2.13527154922
velocity: 0.0
doppler_bin: 8
bearing: -0.0
intensity: 27.1850166321
---
header: 
  seq: 139184
  stamp: 
    secs: 1561866288
    nsecs:  87668419
  frame_id: "ti_mmwave"
point_id: 12
x: 2.625
y: -0.17578125
z: 1.01953125
range: 3.00681090355
velocity: 0.0
doppler_bin: 8
bearing: -3.83105134964
intensity: 29.0254669189
---
header: 
  seq: 139185
  stamp: 
    secs: 1561866288
    nsecs:  87683320
  frame_id: "ti_mmwave"
point_id: 13
x: 2.69140625
y: -0.08984375
z: 0.974609375
range: 3.05038785934
velocity: 0.0
doppler_bin: 8
bearing: -1.91192126274
intensity: 32.1616592407
---
header: 
  seq: 139186
  stamp: 
    secs: 1561866288
    nsecs:  87699269
  frame_id: "ti_mmwave"
point_id: 14
x: 2.724609375
y: -0.181640625
z: 0.990234375
range: 3.09396481514
velocity: 0.0
doppler_bin: 8
bearing: -3.81407499313
intensity: 31.0720996857
---
header: 
  seq: 139187
  stamp: 
    secs: 1561866288
    nsecs:  87736373
  frame_id: "ti_mmwave"
point_id: 15
x: 0.009765625
y: 0.03125
z: 0.025390625
range: 0.0435769706964
velocity: 0.0
doppler_bin: 8
bearing: 72.6459732056
intensity: 29.3043956757
---
header: 
  seq: 139188
  stamp: 
    secs: 1561866288
    nsecs:  87750436
  frame_id: "ti_mmwave"
point_id: 16
x: 0.041015625
y: -0.033203125
z: 0.0625
range: 0.0871539413929
velocity: 0.0
doppler_bin: 8
bearing: -38.9909973145
intensity: 30.1072387695
---
header: 
  seq: 139189
  stamp: 
    secs: 1561866288
    nsecs:  87774468
  frame_id: "ti_mmwave"
point_id: 17
x: 0.046875
y: -0.046875
z: 0.103515625
range: 0.130730912089
velocity: 0.0
doppler_bin: 8
bearing: -45.0
intensity: 29.0036716461
---
header: 
  seq: 139190
  stamp: 
    secs: 1561866288
    nsecs:  87827358
  frame_id: "ti_mmwave"
point_id: 19
x: 2.765625
y: -0.0
z: 0.884765625
range: 3.09396481514
velocity: 0.0
doppler_bin: 8
bearing: -0.0
intensity: 31.0551013947
---
header: 
  seq: 139191
  stamp: 
    secs: 1561866288
    nsecs:  88503687
  frame_id: "ti_mmwave"
point_id: 0
x: 0.01171875
y: -0.0390625
z: -0.0078125
range: 0.0435769706964
velocity: 0.0
doppler_bin: 8
bearing: -73.3007583618
intensity: 30.6520614624
---
header: 
  seq: 139192
  stamp: 
    secs: 1561866288
    nsecs:  88546511
  frame_id: "ti_mmwave"
point_id: 1
x: 0.017578125
y: -0.080078125
z: -0.0078125
range: 0.0871539413929
velocity: 0.0
doppler_bin: 8
bearing: -77.6192398071
intensity: 31.9117145538
---
header: 
  seq: 139193
  stamp: 
    secs: 1561866288
    nsecs:  88564707
  frame_id: "ti_mmwave"
point_id: 2
x: 0.029296875
y: -0.119140625
z: -0.005859375
range: 0.130730912089
velocity: 0.0
doppler_bin: 8
bearing: -76.1849746704
intensity: 30.1452045441
---
header: 
  seq: 139194
  stamp: 
    secs: 1561866288
    nsecs:  88577345
  frame_id: "ti_mmwave"
point_id: 3
x: 0.056640625
y: -0.154296875
z: 0.005859375
range: 0.174307882786
velocity: 0.0
doppler_bin: 8
bearing: -69.8423843384
intensity: 25.4654273987
---
header: 
  seq: 139195
  stamp: 
    secs: 1561866288
    nsecs:  88643695
  frame_id: "ti_mmwave"
point_id: 4
x: 0.13671875
y: -0.080078125
z: 1.2578125
range: 1.35088610649
velocity: 0.0
doppler_bin: 8
bearing: -30.3581142426
intensity: 23.0749607086
---
header: 
  seq: 139196
  stamp: 
    secs: 1561866288
    nsecs:  88658569
  frame_id: "ti_mmwave"
point_id: 5
x: 0.083984375
y: -0.08203125
z: 1.3046875
range: 1.39446306229
velocity: 0.0
doppler_bin: 8
bearing: -44.3259658813
intensity: 24.6089782715
---
header: 
  seq: 139197
  stamp: 
    secs: 1561866288
    nsecs:  88672056
  frame_id: "ti_mmwave"
point_id: 6
x: 0.41796875
y: -0.083984375
z: -1.28125
range: 1.43804001808
velocity: 0.0
doppler_bin: 8
bearing: -11.3614110947
intensity: 23.0535144806
---
header: 
  seq: 139198
  stamp: 
    secs: 1561866288
    nsecs:  88684343
  frame_id: "ti_mmwave"
point_id: 7
x: 0.576171875
y: -0.04296875
z: -1.265625
range: 1.48161697388
velocity: 0.0
doppler_bin: 8
bearing: -4.2650103569
intensity: 21.7026176453
---
header: 
  seq: 139199
  stamp: 
    secs: 1561866288
    nsecs:  88695889
  frame_id: "ti_mmwave"
point_id: 8
x: 1.921875
y: -0.0
z: 0.01171875
range: 2.04811763763
velocity: 0.0
doppler_bin: 8
bearing: -0.0
intensity: 26.4048137665
---
header: 
  seq: 139200
  stamp: 
    secs: 1561866288
    nsecs:  88710816
  frame_id: "ti_mmwave"
point_id: 9
x: 1.962890625
y: -0.060546875
z: 0.046875
range: 2.09169459343
velocity: 0.0
doppler_bin: 8
bearing: -1.7667722702
intensity: 27.283536911
---
header: 
  seq: 139201
  stamp: 
    secs: 1561866288
    nsecs:  88723707
  frame_id: "ti_mmwave"
point_id: 10
x: 2.001953125
y: -0.0625
z: 0.0546875
range: 2.13527154922
velocity: 0.0
doppler_bin: 8
bearing: -1.7881654501
intensity: 27.2181053162
---
header: 
  seq: 139202
  stamp: 
    secs: 1561866288
    nsecs:  88771390
  frame_id: "ti_mmwave"
point_id: 11
x: 2.6171875
y: -0.17578125
z: 1.04296875
range: 3.00681090355
velocity: 0.0
doppler_bin: 8
bearing: -3.84245300293
intensity: 28.8195495605
---
header: 
  seq: 139203
  stamp: 
    secs: 1561866288
    nsecs:  88787025
  frame_id: "ti_mmwave"
point_id: 12
x: 2.6953125
y: -0.08984375
z: 0.96484375
range: 3.05038785934
velocity: 0.0
doppler_bin: 8
bearing: -1.90915250778
intensity: 32.0817260742
---
header: 
  seq: 139204
  stamp: 
    secs: 1561866288
    nsecs:  88800098
  frame_id: "ti_mmwave"
point_id: 13
x: 2.775390625
y: -0.0
z: 0.857421875
range: 3.09396481514
velocity: 0.0
doppler_bin: 8
bearing: -0.0
intensity: 31.027765274
---
header: 
  seq: 139205
  stamp: 
    secs: 1561866288
    nsecs:  88816373
  frame_id: "ti_mmwave"
point_id: 15
x: 0.041015625
y: -0.033203125
z: 0.0625
range: 0.0871539413929
velocity: 0.0
doppler_bin: 8
bearing: -38.9909973145
intensity: 30.1029987335
---
header: 
  seq: 139206
  stamp: 
    secs: 1561866288
    nsecs:  88828623
  frame_id: "ti_mmwave"
point_id: 16
x: 0.044921875
y: -0.046875
z: 0.103515625
range: 0.130730912089
velocity: 0.0
doppler_bin: 8
bearing: -46.218875885
intensity: 29.0036716461
---
header: 
  seq: 139207
  stamp: 
    secs: 1561866288
    nsecs:  88845895
  frame_id: "ti_mmwave"
point_id: 18
x: 2.734375
y: -0.181640625
z: 0.962890625
range: 3.09396481514
velocity: 0.0
doppler_bin: 8
bearing: -3.80049324036
intensity: 31.0174713135
---
header: 
  seq: 139208
  stamp: 
    secs: 1561866288
    nsecs: 147191683
  frame_id: "ti_mmwave"
point_id: 0
x: 0.01171875
y: -0.0390625
z: -0.0078125
range: 0.0435769706964
velocity: 0.0
doppler_bin: 8
bearing: -73.3007583618
intensity: 30.6483230591
---
header: 
  seq: 139209
  stamp: 
    secs: 1561866288
    nsecs: 147270962
  frame_id: "ti_mmwave"
point_id: 1
x: 0.017578125
y: -0.080078125
z: -0.0078125
range: 0.0871539413929
velocity: 0.0
doppler_bin: 8
bearing: -77.6192398071
intensity: 31.9145107269
---
header: 
  seq: 139210
  stamp: 
    secs: 1561866288
    nsecs: 147287391
  frame_id: "ti_mmwave"
point_id: 2
x: 0.029296875
y: -0.119140625
z: -0.005859375
range: 0.130730912089
velocity: 0.0
doppler_bin: 8
bearing: -76.1849746704
intensity: 30.1452045441
---
header: 
  seq: 139211
  stamp: 
    secs: 1561866288
    nsecs: 147302551
  frame_id: "ti_mmwave"
point_id: 3
x: 0.056640625
y: -0.154296875
z: 0.005859375
range: 0.174307882786
velocity: 0.0
doppler_bin: 8
bearing: -69.8423843384
intensity: 25.4654273987
---
header: 
  seq: 139212
  stamp: 
    secs: 1561866288
    nsecs: 147314725
  frame_id: "ti_mmwave"
point_id: 4
x: 0.080078125
y: -0.080078125
z: 1.263671875
range: 1.35088610649
velocity: 0.0
doppler_bin: 8
bearing: -45.0
intensity: 23.1175384521
---
header: 
  seq: 139213
  stamp: 
    secs: 1561866288
    nsecs: 147398318
  frame_id: "ti_mmwave"
point_id: 6
x: 0.4375
y: -0.083984375
z: -1.2734375
range: 1.43804001808
velocity: 0.0
doppler_bin: 8
bearing: -10.8665513992
intensity: 23.031961441
---
header: 
  seq: 139214
  stamp: 
    secs: 1561866288
    nsecs: 147412531
  frame_id: "ti_mmwave"
point_id: 7
x: 1.8671875
y: -0.05859375
z: -0.232421875
range: 2.00454068184
velocity: 0.0
doppler_bin: 8
bearing: -1.79739499092
intensity: 29.2685680389
---
header: 
  seq: 139215
  stamp: 
    secs: 1561866288
    nsecs: 147423869
  frame_id: "ti_mmwave"
point_id: 8
x: 1.91015625
y: -0.0
z: -0.212890625
range: 2.04811763763
velocity: 0.0
doppler_bin: 8
bearing: -0.0
intensity: 29.8452739716
---
header: 
  seq: 139216
  stamp: 
    secs: 1561866288
    nsecs: 147435989
  frame_id: "ti_mmwave"
point_id: 9
x: 1.94921875
y: 0.060546875
z: -0.228515625
range: 2.09169459343
velocity: 0.0
doppler_bin: 8
bearing: 1.77915656567
intensity: 27.5358314514
---
header: 
  seq: 139217
  stamp: 
    secs: 1561866288
    nsecs: 147447854
  frame_id: "ti_mmwave"
point_id: 10
x: 2.611328125
y: -0.17578125
z: 1.056640625
range: 3.00681090355
velocity: 0.0
doppler_bin: 8
bearing: -3.85104894638
intensity: 28.8930168152
---
header: 
  seq: 139218
  stamp: 
    secs: 1561866288
    nsecs: 147459646
  frame_id: "ti_mmwave"
point_id: 11
x: 2.685546875
y: -0.08984375
z: 0.990234375
range: 3.05038785934
velocity: 0.0
doppler_bin: 8
bearing: -1.91608965397
intensity: 32.1165428162
---
header: 
  seq: 139219
  stamp: 
    secs: 1561866288
    nsecs: 147471216
  frame_id: "ti_mmwave"
point_id: 12
x: 2.763671875
y: -0.0
z: 0.890625
range: 3.09396481514
velocity: 0.0
doppler_bin: 8
bearing: -0.0
intensity: 31.00715065
---
header: 
  seq: 139220
  stamp: 
    secs: 1561866288
    nsecs: 147487408
  frame_id: "ti_mmwave"
point_id: 14
x: 0.041015625
y: -0.033203125
z: 0.0625
range: 0.0871539413929
velocity: 0.0
doppler_bin: 8
bearing: -38.9909973145
intensity: 30.0987567902
---
header: 
  seq: 139221
  stamp: 
    secs: 1561866288
    nsecs: 147501807
  frame_id: "ti_mmwave"
point_id: 15
x: 0.044921875
y: -0.046875
z: 0.103515625
range: 0.130730912089
velocity: 0.0
doppler_bin: 8
bearing: -46.218875885
intensity: 28.9982051849
---
header: 
  seq: 139222
  stamp: 
    secs: 1561866288
    nsecs: 147513508
  frame_id: "ti_mmwave"
point_id: 17
x: 2.720703125
y: -0.181640625
z: 0.998046875
range: 3.09396481514
velocity: 0.0
doppler_bin: 8
bearing: -3.81953430176
intensity: 30.9691009521
---
header: 
  seq: 139223
  stamp: 
    secs: 1561866288
    nsecs: 148424925
  frame_id: "ti_mmwave"
point_id: 0
x: 0.01171875
y: -0.0390625
z: -0.0078125
range: 0.0435769706964
velocity: 0.0
doppler_bin: 8
bearing: -73.3007583618
intensity: 30.6520614624
---
header: 
  seq: 139224
  stamp: 
    secs: 1561866288
    nsecs: 148494204
  frame_id: "ti_mmwave"
point_id: 1
x: 0.017578125
y: -0.080078125
z: -0.0078125
range: 0.0871539413929
velocity: 0.0
doppler_bin: 8
bearing: -77.6192398071
intensity: 31.9117145538
---
header: 
  seq: 139225
  stamp: 
    secs: 1561866288
    nsecs: 148511213
  frame_id: "ti_mmwave"
point_id: 2
x: 0.029296875
y: -0.119140625
z: -0.005859375
range: 0.130730912089
velocity: 0.0
doppler_bin: 8
bearing: -76.1849746704
intensity: 30.141002655
---
header: 
  seq: 139226
  stamp: 
    secs: 1561866288
    nsecs: 148526129
  frame_id: "ti_mmwave"
point_id: 3
x: 0.056640625
y: -0.154296875
z: 0.005859375
range: 0.174307882786
velocity: 0.0
doppler_bin: 8
bearing: -69.8423843384
intensity: 25.4530715942
---
header: 
  seq: 139227
  stamp: 
    secs: 1561866288
    nsecs: 148540265
  frame_id: "ti_mmwave"
point_id: 4
x: 0.115234375
y: -0.080078125
z: 1.259765625
range: 1.35088610649
velocity: 0.0
doppler_bin: 8
bearing: -34.7960281372
intensity: 23.1175384521
---
header: 
  seq: 139228
  stamp: 
    secs: 1561866288
    nsecs: 148554785
  frame_id: "ti_mmwave"
point_id: 5
x: 0.025390625
y: -0.08203125
z: 1.306640625
range: 1.39446306229
velocity: 0.0
doppler_bin: 8
bearing: -72.8014526367
intensity: 24.6389293671
---
header: 
  seq: 139229
  stamp: 
    secs: 1561866288
    nsecs: 148569421
  frame_id: "ti_mmwave"
point_id: 6
x: 0.41796875
y: -0.083984375
z: -1.28125
range: 1.43804001808
velocity: 0.0
doppler_bin: 8
bearing: -11.3614110947
intensity: 23.0749607086
---
header: 
  seq: 139230
  stamp: 
    secs: 1561866288
    nsecs: 148586171
  frame_id: "ti_mmwave"
point_id: 7
x: 0.5625
y: -0.04296875
z: -1.271484375
range: 1.48161697388
velocity: 0.0
doppler_bin: 8
bearing: -4.36827754974
intensity: 21.6435279846
---
header: 
  seq: 139231
  stamp: 
    secs: 1561866288
    nsecs: 148599526
  frame_id: "ti_mmwave"
point_id: 8
x: 1.873046875
y: -0.0
z: -0.177734375
range: 2.00454068184
velocity: 0.0
doppler_bin: 8
bearing: -0.0
intensity: 27.1011734009
---
header: 
  seq: 139232
  stamp: 
    secs: 1561866288
    nsecs: 148613162
  frame_id: "ti_mmwave"
point_id: 9
x: 1.90625
y: -0.0
z: -0.24609375
range: 2.04811763763
velocity: 0.0
doppler_bin: 8
bearing: -0.0
intensity: 27.4193916321
---
header: 
  seq: 139233
  stamp: 
    secs: 1561866288
    nsecs: 148769355
  frame_id: "ti_mmwave"
point_id: 10
x: 0.58203125
y: 2.537109375
z: -0.28515625
range: 2.78892612457
velocity: 0.0
doppler_bin: 8
bearing: 77.079498291
intensity: 24.6538276672
---
header: 
  seq: 139234
  stamp: 
    secs: 1561866288
    nsecs: 148799772
  frame_id: "ti_mmwave"
point_id: 11
x: 2.615234375
y: -0.17578125
z: 1.046875
range: 3.00681090355
velocity: 0.0
doppler_bin: 8
bearing: -3.84531402588
intensity: 29.0741138458
---
header: 
  seq: 139235
  stamp: 
    secs: 1561866288
    nsecs: 148813396
  frame_id: "ti_mmwave"
point_id: 12
x: 2.685546875
y: -0.08984375
z: 0.98828125
range: 3.05038785934
velocity: 0.0
doppler_bin: 8
bearing: -1.91608965397
intensity: 32.1879806519
---
header: 
  seq: 139236
  stamp: 
    secs: 1561866288
    nsecs: 148827918
  frame_id: "ti_mmwave"
point_id: 13
x: 2.7265625
y: -0.181640625
z: 0.986328125
range: 3.09396481514
velocity: 0.0
doppler_bin: 8
bearing: -3.81135106087
intensity: 31.0924091339
---
header: 
  seq: 139237
  stamp: 
    secs: 1561866288
    nsecs: 149091546
  frame_id: "ti_mmwave"
point_id: 15
x: 0.041015625
y: -0.033203125
z: 0.0625
range: 0.0871539413929
velocity: 0.0
doppler_bin: 8
bearing: -38.9909973145
intensity: 30.1072387695
---
header: 
  seq: 139238
  stamp: 
    secs: 1561866288
    nsecs: 149110588
  frame_id: "ti_mmwave"
point_id: 16
x: 0.044921875
y: -0.046875
z: 0.103515625
range: 0.130730912089
velocity: 0.0
doppler_bin: 8
bearing: -46.218875885
intensity: 29.0091304779
---
header: 
  seq: 139239
  stamp: 
    secs: 1561866288
    nsecs: 149129053
  frame_id: "ti_mmwave"
point_id: 19
x: 2.767578125
y: -0.0
z: 0.880859375
range: 3.09396481514
velocity: 0.0
doppler_bin: 8
bearing: -0.0
intensity: 31.0720996857
---
header: 
  seq: 139240
  stamp: 
    secs: 1561866288
    nsecs: 207062484
  frame_id: "ti_mmwave"
point_id: 0
x: 0.01171875
y: -0.0390625
z: -0.0078125
range: 0.0435769706964
velocity: 0.0
doppler_bin: 8
bearing: -73.3007583618
intensity: 30.6557979584
---
header: 
  seq: 139241
  stamp: 
    secs: 1561866288
    nsecs: 207138587
  frame_id: "ti_mmwave"
point_id: 1
x: 0.017578125
y: -0.080078125
z: -0.0078125
range: 0.0871539413929
velocity: 0.0
doppler_bin: 8
bearing: -77.6192398071
intensity: 31.9145107269
---
header: 
  seq: 139242
  stamp: 
    secs: 1561866288
    nsecs: 207149448
  frame_id: "ti_mmwave"
point_id: 2
x: 0.029296875
y: -0.119140625
z: -0.005859375
range: 0.130730912089
velocity: 0.0
doppler_bin: 8
bearing: -76.1849746704
intensity: 30.1452045441
---
header: 
  seq: 139243
  stamp: 
    secs: 1561866288
    nsecs: 207157756
  frame_id: "ti_mmwave"
point_id: 3
x: 0.056640625
y: -0.154296875
z: 0.005859375
range: 0.174307882786
velocity: 0.0
doppler_bin: 8
bearing: -69.8423843384
intensity: 25.4530715942
---
header: 
  seq: 139244
  stamp: 
    secs: 1561866288
    nsecs: 207169801
  frame_id: "ti_mmwave"
point_id: 6
x: 0.419921875
y: -0.083984375
z: -1.279296875
range: 1.43804001808
velocity: 0.0
doppler_bin: 8
bearing: -11.3099327087
intensity: 23.031961441
---
header: 
  seq: 139245
  stamp: 
    secs: 1561866288
    nsecs: 207180043
  frame_id: "ti_mmwave"
point_id: 7
x: 1.8671875
y: -0.05859375
z: -0.2265625
range: 2.00454068184
velocity: 0.0
doppler_bin: 8
bearing: -1.79739499092
intensity: 29.7635002136
---
header: 
  seq: 139246
  stamp: 
    secs: 1561866288
    nsecs: 207189718
  frame_id: "ti_mmwave"
point_id: 8
x: 1.912109375
y: -0.060546875
z: -0.19921875
range: 2.04811763763
velocity: 0.0
doppler_bin: 8
bearing: -1.81366276741
intensity: 29.2788333893
---
header: 
  seq: 139247
  stamp: 
    secs: 1561866288
    nsecs: 207197870
  frame_id: "ti_mmwave"
point_id: 9
x: 2.62890625
y: -0.17578125
z: 1.013671875
range: 3.00681090355
velocity: 0.0
doppler_bin: 8
bearing: -3.82537555695
intensity: 29.0525608063
---
header: 
  seq: 139248
  stamp: 
    secs: 1561866288
    nsecs: 207206117
  frame_id: "ti_mmwave"
point_id: 10
x: 2.69140625
y: -0.08984375
z: 0.970703125
range: 3.05038785934
velocity: 0.0
doppler_bin: 8
bearing: -1.91192126274
intensity: 32.1616592407
---
header: 
  seq: 139249
  stamp: 
    secs: 1561866288
    nsecs: 207213855
  frame_id: "ti_mmwave"
point_id: 11
x: 2.732421875
y: -0.181640625
z: 0.970703125
range: 3.09396481514
velocity: 0.0
doppler_bin: 8
bearing: -3.80320167542
intensity: 31.0754909515
---
header: 
  seq: 139250
  stamp: 
    secs: 1561866288
    nsecs: 207224497
  frame_id: "ti_mmwave"
point_id: 13
x: 0.041015625
y: -0.033203125
z: 0.0625
range: 0.0871539413929
velocity: 0.0
doppler_bin: 8
bearing: -38.9909973145
intensity: 30.1029987335
---
header: 
  seq: 139251
  stamp: 
    secs: 1561866288
    nsecs: 207233146
  frame_id: "ti_mmwave"
point_id: 14
x: 0.044921875
y: -0.046875
z: 0.103515625
range: 0.130730912089
velocity: 0.0
doppler_bin: 8
bearing: -46.218875885
intensity: 29.0036716461
---
header: 
  seq: 139252
  stamp: 
    secs: 1561866288
    nsecs: 207243563
  frame_id: "ti_mmwave"
point_id: 16
x: 2.7734375
y: -0.0
z: 0.865234375
range: 3.09396481514
velocity: 0.0
doppler_bin: 8
bearing: -0.0
intensity: 31.0619087219
---
header: 
  seq: 139253
  stamp: 
    secs: 1561866288
    nsecs: 208121047
  frame_id: "ti_mmwave"
point_id: 0
x: 0.01171875
y: -0.0390625
z: -0.0078125
range: 0.0435769706964
velocity: 0.0
doppler_bin: 8
bearing: -73.3007583618
intensity: 30.6520614624
---
header: 
  seq: 139254
  stamp: 
    secs: 1561866288
    nsecs: 208189498
  frame_id: "ti_mmwave"
point_id: 1
x: 0.017578125
y: -0.080078125
z: -0.0078125
range: 0.0871539413929
velocity: 0.0
doppler_bin: 8
bearing: -77.6192398071
intensity: 31.9117145538
---
header: 
  seq: 139255
  stamp: 
    secs: 1561866288
    nsecs: 208209927
  frame_id: "ti_mmwave"
point_id: 2
x: 0.029296875
y: -0.119140625
z: -0.005859375
range: 0.130730912089
velocity: 0.0
doppler_bin: 8
bearing: -76.1849746704
intensity: 30.141002655
---
header: 
  seq: 139256
  stamp: 
    secs: 1561866288
    nsecs: 208225142
  frame_id: "ti_mmwave"
point_id: 3
x: 0.056640625
y: -0.154296875
z: 0.005859375
range: 0.174307882786
velocity: 0.0
doppler_bin: 8
bearing: -69.8423843384
intensity: 25.4654273987
---
header: 
  seq: 139257
  stamp: 
    secs: 1561866288
    nsecs: 208317456
  frame_id: "ti_mmwave"
point_id: 4
x: 0.107421875
y: -0.080078125
z: 1.26171875
range: 1.35088610649
velocity: 0.0
doppler_bin: 8
bearing: -36.7028541565
intensity: 23.031961441
---
header: 
  seq: 139258
  stamp: 
    secs: 1561866288
    nsecs: 208349833
  frame_id: "ti_mmwave"
point_id: 6
x: 0.41796875
y: -0.083984375
z: -1.28125
range: 1.43804001808
velocity: 0.0
doppler_bin: 8
bearing: -11.3614110947
intensity: 23.031961441
---
header: 
  seq: 139259
  stamp: 
    secs: 1561866288
    nsecs: 208365271
  frame_id: "ti_mmwave"
point_id: 7
x: 0.548828125
y: -0.04296875
z: -1.27734375
range: 1.48161697388
velocity: 0.0
doppler_bin: 8
bearing: -4.47665882111
intensity: 21.6435279846
---
header: 
  seq: 139260
  stamp: 
    secs: 1561866288
    nsecs: 208434302
  frame_id: "ti_mmwave"
point_id: 8
x: 1.861328125
y: -0.05859375
z: -0.263671875
range: 2.00454068184
velocity: 0.0
doppler_bin: 8
bearing: -1.80304908752
intensity: 30.5652370453
---
header: 
  seq: 139261
  stamp: 
    secs: 1561866288
    nsecs: 208450627
  frame_id: "ti_mmwave"
point_id: 9
x: 1.896484375
y: -0.060546875
z: -0.314453125
range: 2.04811763763
velocity: 0.0
doppler_bin: 8
bearing: -1.82859528065
intensity: 30.7809410095
---
header: 
  seq: 139262
  stamp: 
    secs: 1561866288
    nsecs: 208507532
  frame_id: "ti_mmwave"
point_id: 10
x: 1.83984375
y: -0.060546875
z: -0.685546875
range: 2.09169459343
velocity: 0.0
doppler_bin: 8
bearing: -1.88484966755
intensity: 26.9196510315
---
header: 
  seq: 139263
  stamp: 
    secs: 1561866288
    nsecs: 208521402
  frame_id: "ti_mmwave"
point_id: 11
x: 2.623046875
y: -0.17578125
z: 1.02734375
range: 3.00681090355
velocity: 0.0
doppler_bin: 8
bearing: -3.83389568329
intensity: 29.0633506775
---
header: 
  seq: 139264
  stamp: 
    secs: 1561866288
    nsecs: 208533484
  frame_id: "ti_mmwave"
point_id: 12
x: 2.662109375
y: -0.1796875
z: 1.037109375
range: 3.05038785934
velocity: 0.0
doppler_bin: 8
bearing: -3.86150240898
intensity: 32.2141418457
---
header: 
  seq: 139265
  stamp: 
    secs: 1561866288
    nsecs: 208563833
  frame_id: "ti_mmwave"
point_id: 13
x: 2.736328125
y: -0.181640625
z: 0.95703125
range: 3.09396481514
velocity: 0.0
doppler_bin: 8
bearing: -3.79778838158
intensity: 31.0890312195
---
header: 
  seq: 139266
  stamp: 
    secs: 1561866288
    nsecs: 208586182
  frame_id: "ti_mmwave"
point_id: 15
x: 0.041015625
y: -0.033203125
z: 0.0625
range: 0.0871539413929
velocity: 0.0
doppler_bin: 8
bearing: -38.9909973145
intensity: 30.0987567902
---
header: 
  seq: 139267
  stamp: 
    secs: 1561866288
    nsecs: 208666222
  frame_id: "ti_mmwave"
point_id: 16
x: 0.044921875
y: -0.046875
z: 0.103515625
range: 0.130730912089
velocity: 0.0
doppler_bin: 8
bearing: -46.218875885
intensity: 29.0036716461
---
header: 
  seq: 139268
  stamp: 
    secs: 1561866288
    nsecs: 208683307
  frame_id: "ti_mmwave"
point_id: 18
x: 2.77734375
y: -0.0
z: 0.8515625
range: 3.09396481514
velocity: 0.0
doppler_bin: 8
bearing: -0.0
intensity: 31.0822658539
---
header: 
  seq: 139269
  stamp: 
    secs: 1561866288
    nsecs: 267096314
  frame_id: "ti_mmwave"
point_id: 0
x: 0.01171875
y: -0.0390625
z: -0.0078125
range: 0.0435769706964
velocity: 0.0
doppler_bin: 8
bearing: -73.3007583618
intensity: 30.6632595062
---
header: 
  seq: 139270
  stamp: 
    secs: 1561866288
    nsecs: 267174528
  frame_id: "ti_mmwave"
point_id: 1
x: 0.017578125
y: -0.080078125
z: -0.0078125
range: 0.0871539413929
velocity: 0.0
doppler_bin: 8
bearing: -77.6192398071
intensity: 31.9145107269
---
header: 
  seq: 139271
  stamp: 
    secs: 1561866288
    nsecs: 267185904
  frame_id: "ti_mmwave"
point_id: 2
x: 0.029296875
y: -0.119140625
z: -0.005859375
range: 0.130730912089
velocity: 0.0
doppler_bin: 8
bearing: -76.1849746704
intensity: 30.141002655
---
header: 
  seq: 139272
  stamp: 
    secs: 1561866288
    nsecs: 267196604
  frame_id: "ti_mmwave"
point_id: 3
x: 0.056640625
y: -0.154296875
z: 0.0078125
range: 0.174307882786
velocity: 0.0
doppler_bin: 8
bearing: -69.8423843384
intensity: 25.4530715942
---
header: 
  seq: 139273
  stamp: 
    secs: 1561866288
    nsecs: 267205878
  frame_id: "ti_mmwave"
point_id: 4
x: 0.134765625
y: -0.080078125
z: 1.2578125
range: 1.35088610649
velocity: 0.0
doppler_bin: 8
bearing: -30.7189025879
intensity: 23.0963020325
---
header: 
  seq: 139274
  stamp: 
    secs: 1561866288
    nsecs: 267214537
  frame_id: "ti_mmwave"
point_id: 5
x: 0.046875
y: -0.08203125
z: 1.3046875
range: 1.39446306229
velocity: 0.0
doppler_bin: 8
bearing: -60.255115509
intensity: 24.6239795685
---
header: 
  seq: 139275
  stamp: 
    secs: 1561866288
    nsecs: 267223125
  frame_id: "ti_mmwave"
point_id: 6
x: 0.404296875
y: -0.083984375
z: -1.28515625
range: 1.43804001808
velocity: 0.0
doppler_bin: 8
bearing: -11.7351255417
intensity: 23.0749607086
---
header: 
  seq: 139276
  stamp: 
    secs: 1561866288
    nsecs: 267232400
  frame_id: "ti_mmwave"
point_id: 7
x: 0.560546875
y: -0.04296875
z: -1.271484375
range: 1.48161697388
velocity: 0.0
doppler_bin: 8
bearing: -4.38343858719
intensity: 21.7026176453
---
header: 
  seq: 139277
  stamp: 
    secs: 1561866288
    nsecs: 267240387
  frame_id: "ti_mmwave"
point_id: 8
x: 1.880859375
y: -0.05859375
z: -0.009765625
range: 2.00454068184
velocity: 0.0
doppler_bin: 8
bearing: -1.78433823586
intensity: 28.034570694
---
header: 
  seq: 139278
  stamp: 
    secs: 1561866288
    nsecs: 267428599
  frame_id: "ti_mmwave"
point_id: 9
x: 1.908203125
y: -0.12109375
z: 0.20703125
range: 2.04811763763
velocity: 0.0
doppler_bin: 8
bearing: -3.63109636307
intensity: 28.0550079346
---
header: 
  seq: 139279
  stamp: 
    secs: 1561866288
    nsecs: 267450050
  frame_id: "ti_mmwave"
point_id: 10
x: 2.603515625
y: -0.17578125
z: 1.076171875
range: 3.00681090355
velocity: 0.0
doppler_bin: 8
bearing: -3.86257004738
intensity: 29.020029068
---
header: 
  seq: 139280
  stamp: 
    secs: 1561866288
    nsecs: 267458436
  frame_id: "ti_mmwave"
point_id: 11
x: 2.685546875
y: -0.08984375
z: 0.990234375
range: 3.05038785934
velocity: 0.0
doppler_bin: 8
bearing: -1.91608965397
intensity: 32.1932258606
---
header: 
  seq: 139281
  stamp: 
    secs: 1561866288
    nsecs: 267466824
  frame_id: "ti_mmwave"
point_id: 12
x: 2.7265625
y: -0.181640625
z: 0.986328125
range: 3.09396481514
velocity: 0.0
doppler_bin: 8
bearing: -3.81135106087
intensity: 31.1360912323
---
header: 
  seq: 139282
  stamp: 
    secs: 1561866288
    nsecs: 267473962
  frame_id: "ti_mmwave"
point_id: 14
x: 0.041015625
y: -0.033203125
z: 0.0625
range: 0.0871539413929
velocity: 0.0
doppler_bin: 8
bearing: -38.9909973145
intensity: 30.1029987335
---
header: 
  seq: 139283
  stamp: 
    secs: 1561866288
    nsecs: 267485641
  frame_id: "ti_mmwave"
point_id: 15
x: 0.046875
y: -0.046875
z: 0.103515625
range: 0.130730912089
velocity: 0.0
doppler_bin: 8
bearing: -45.0
intensity: 29.0036716461
---
header: 
  seq: 139284
  stamp: 
    secs: 1561866288
    nsecs: 267543713
  frame_id: "ti_mmwave"
point_id: 17
x: 2.767578125
y: -0.0
z: 0.87890625
range: 3.09396481514
velocity: 0.0
doppler_bin: 8
bearing: -0.0
intensity: 31.1159858704
---
header: 
  seq: 139285
  stamp: 
    secs: 1561866288
    nsecs: 268254123
  frame_id: "ti_mmwave"
point_id: 0
x: 0.01171875
y: -0.0390625
z: -0.0078125
range: 0.0435769706964
velocity: 0.0
doppler_bin: 8
bearing: -73.3007583618
intensity: 30.6557979584
---
header: 
  seq: 139286
  stamp: 
    secs: 1561866288
    nsecs: 268314574
  frame_id: "ti_mmwave"
point_id: 1
x: 0.017578125
y: -0.080078125
z: -0.0078125
range: 0.0871539413929
velocity: 0.0
doppler_bin: 8
bearing: -77.6192398071
intensity: 31.9145107269
---
header: 
  seq: 139287
  stamp: 
    secs: 1561866288
    nsecs: 268325592
  frame_id: "ti_mmwave"
point_id: 2
x: 0.029296875
y: -0.119140625
z: -0.005859375
range: 0.130730912089
velocity: 0.0
doppler_bin: 8
bearing: -76.1849746704
intensity: 30.1452045441
---
header: 
  seq: 139288
  stamp: 
    secs: 1561866288
    nsecs: 268334266
  frame_id: "ti_mmwave"
point_id: 3
x: 0.056640625
y: -0.154296875
z: 0.005859375
range: 0.174307882786
velocity: 0.0
doppler_bin: 8
bearing: -69.8423843384
intensity: 25.4654273987
---
header: 
  seq: 139289
  stamp: 
    secs: 1561866288
    nsecs: 268342849
  frame_id: "ti_mmwave"
point_id: 4
x: 0.150390625
y: -0.080078125
z: 1.255859375
range: 1.35088610649
velocity: 0.0
doppler_bin: 8
bearing: -28.0338516235
intensity: 23.0963020325
---
header: 
  seq: 139290
  stamp: 
    secs: 1561866288
    nsecs: 268352699
  frame_id: "ti_mmwave"
point_id: 6
x: 0.419921875
y: -0.083984375
z: -1.279296875
range: 1.43804001808
velocity: 0.0
doppler_bin: 8
bearing: -11.3099327087
intensity: 23.0535144806
---
header: 
  seq: 139291
  stamp: 
    secs: 1561866288
    nsecs: 268360831
  frame_id: "ti_mmwave"
point_id: 7
x: 0.576171875
y: -0.04296875
z: -1.265625
range: 1.48161697388
velocity: 0.0
doppler_bin: 8
bearing: -4.2650103569
intensity: 21.6731739044
---
header: 
  seq: 139292
  stamp: 
    secs: 1561866288
    nsecs: 268371704
  frame_id: "ti_mmwave"
point_id: 8
x: 1.86328125
y: -0.0
z: -0.263671875
range: 2.00454068184
velocity: 0.0
doppler_bin: 8
bearing: -0.0
intensity: 26.2428207397
---
header: 
  seq: 139293
  stamp: 
    secs: 1561866288
    nsecs: 268379721
  frame_id: "ti_mmwave"
point_id: 9
x: 1.87890625
y: -0.060546875
z: -0.40625
range: 2.04811763763
velocity: 0.0
doppler_bin: 8
bearing: -1.84569108486
intensity: 27.8887519836
---
header: 
  seq: 139294
  stamp: 
    secs: 1561866288
    nsecs: 268387837
  frame_id: "ti_mmwave"
point_id: 10
x: 1.896484375
y: -0.060546875
z: -0.5078125
range: 2.09169459343
velocity: 0.0
doppler_bin: 8
bearing: -1.82859528065
intensity: 26.1278381348
---
header: 
  seq: 139295
  stamp: 
    secs: 1561866288
    nsecs: 268395237
  frame_id: "ti_mmwave"
point_id: 11
x: 2.61328125
y: -0.17578125
z: 1.05078125
range: 3.00681090355
velocity: 0.0
doppler_bin: 8
bearing: -3.84817934036
intensity: 29.0145835876
---
header: 
  seq: 139296
  stamp: 
    secs: 1561866288
    nsecs: 268403398
  frame_id: "ti_mmwave"
point_id: 12
x: 2.68359375
y: -0.08984375
z: 0.99609375
range: 3.05038785934
velocity: 0.0
doppler_bin: 8
bearing: -1.91748321056
intensity: 32.1484375
---
header: 
  seq: 139297
  stamp: 
    secs: 1561866288
    nsecs: 268411443
  frame_id: "ti_mmwave"
point_id: 13
x: 2.720703125
y: -0.181640625
z: 1.0
range: 3.09396481514
velocity: 0.0
doppler_bin: 8
bearing: -3.81953430176
intensity: 31.0619087219
---
header: 
  seq: 139298
  stamp: 
    secs: 1561866288
    nsecs: 268420212
  frame_id: "ti_mmwave"
point_id: 14
x: 0.009765625
y: 0.03125
z: 0.025390625
range: 0.0435769706964
velocity: 0.0
doppler_bin: 8
bearing: 72.6459732056
intensity: 29.3094902039
---
header: 
  seq: 139299
  stamp: 
    secs: 1561866288
    nsecs: 268429395
  frame_id: "ti_mmwave"
point_id: 15
x: 0.041015625
y: -0.033203125
z: 0.0625
range: 0.0871539413929
velocity: 0.0
doppler_bin: 8
bearing: -38.9909973145
intensity: 30.1072387695
---
header: 
  seq: 139300
  stamp: 
    secs: 1561866288
    nsecs: 268438792
  frame_id: "ti_mmwave"
point_id: 16
x: 0.044921875
y: -0.046875
z: 0.103515625
range: 0.130730912089
velocity: 0.0
doppler_bin: 8
bearing: -46.218875885
intensity: 29.0091304779
---
header: 
  seq: 139301
  stamp: 
    secs: 1561866288
    nsecs: 268448667
  frame_id: "ti_mmwave"
point_id: 18
x: 2.763671875
y: -0.0
z: 0.89453125
range: 3.09396481514
velocity: 0.0
doppler_bin: 8
bearing: -0.0
intensity: 31.0414562225
---
header: 
  seq: 139302
  stamp: 
    secs: 1561866288
    nsecs: 327143943
  frame_id: "ti_mmwave"
point_id: 0
x: 0.01171875
y: -0.0390625
z: -0.0078125
range: 0.0435769706964
velocity: 0.0
doppler_bin: 8
bearing: -73.3007583618
intensity: 30.6557979584
---
header: 
  seq: 139303
  stamp: 
    secs: 1561866288
    nsecs: 327218971
  frame_id: "ti_mmwave"
point_id: 1
x: 0.017578125
y: -0.080078125
z: -0.0078125
range: 0.0871539413929
velocity: 0.0
doppler_bin: 8
bearing: -77.6192398071
intensity: 31.9145107269
---
header: 
  seq: 139304
  stamp: 
    secs: 1561866288
    nsecs: 327229900
  frame_id: "ti_mmwave"
point_id: 2
x: 0.029296875
y: -0.119140625
z: -0.005859375
range: 0.130730912089
velocity: 0.0
doppler_bin: 8
bearing: -76.1849746704
intensity: 30.1452045441
---
header: 
  seq: 139305
  stamp: 
    secs: 1561866288
    nsecs: 327242292
  frame_id: "ti_mmwave"
point_id: 3
x: 0.056640625
y: -0.154296875
z: 0.005859375
range: 0.174307882786
velocity: 0.0
doppler_bin: 8
bearing: -69.8423843384
intensity: 25.4777469635
---
header: 
  seq: 139306
  stamp: 
    secs: 1561866288
    nsecs: 327251159
  frame_id: "ti_mmwave"
point_id: 4
x: 0.080078125
y: -0.080078125
z: 1.263671875
range: 1.35088610649
velocity: 0.0
doppler_bin: 8
bearing: -45.0
intensity: 23.0749607086
---
header: 
  seq: 139307
  stamp: 
    secs: 1561866288
    nsecs: 327261001
  frame_id: "ti_mmwave"
point_id: 6
x: 0.41796875
y: -0.083984375
z: -1.28125
range: 1.43804001808
velocity: 0.0
doppler_bin: 8
bearing: -11.3614110947
intensity: 23.0102996826
---
header: 
  seq: 139308
  stamp: 
    secs: 1561866288
    nsecs: 327269382
  frame_id: "ti_mmwave"
point_id: 7
x: 1.849609375
y: -0.1171875
z: -0.32421875
range: 2.00454068184
velocity: 0.0
doppler_bin: 8
bearing: -3.62529873848
intensity: 27.9865055084
---
header: 
  seq: 139309
  stamp: 
    secs: 1561866288
    nsecs: 327277504
  frame_id: "ti_mmwave"
point_id: 8
x: 1.904296875
y: -0.060546875
z: -0.26171875
range: 2.04811763763
velocity: 0.0
doppler_bin: 8
bearing: -1.82109856606
intensity: 28.1624126434
---
header: 
  seq: 139310
  stamp: 
    secs: 1561866288
    nsecs: 327285173
  frame_id: "ti_mmwave"
point_id: 9
x: 2.623046875
y: -0.17578125
z: 1.02734375
range: 3.00681090355
velocity: 0.0
doppler_bin: 8
bearing: -3.83389568329
intensity: 29.0687351227
---
header: 
  seq: 139311
  stamp: 
    secs: 1561866288
    nsecs: 327293932
  frame_id: "ti_mmwave"
point_id: 10
x: 2.693359375
y: -0.08984375
z: 0.96875
range: 3.05038785934
velocity: 0.0
doppler_bin: 8
bearing: -1.91053581238
intensity: 32.2063102722
---
header: 
  seq: 139312
  stamp: 
    secs: 1561866288
    nsecs: 327303662
  frame_id: "ti_mmwave"
point_id: 11
x: 2.734375
y: -0.181640625
z: 0.962890625
range: 3.09396481514
velocity: 0.0
doppler_bin: 8
bearing: -3.80049324036
intensity: 31.1461105347
---
header: 
  seq: 139313
  stamp: 
    secs: 1561866288
    nsecs: 327313043
  frame_id: "ti_mmwave"
point_id: 12
x: 0.009765625
y: 0.03125
z: 0.025390625
range: 0.0435769706964
velocity: 0.0
doppler_bin: 8
bearing: 72.6459732056
intensity: 29.3043956757
---
header: 
  seq: 139314
  stamp: 
    secs: 1561866288
    nsecs: 327321507
  frame_id: "ti_mmwave"
point_id: 13
x: 0.041015625
y: -0.033203125
z: 0.0625
range: 0.0871539413929
velocity: 0.0
doppler_bin: 8
bearing: -38.9909973145
intensity: 30.0987567902
---
header: 
  seq: 139315
  stamp: 
    secs: 1561866288
    nsecs: 327329971
  frame_id: "ti_mmwave"
point_id: 14
x: 0.044921875
y: -0.046875
z: 0.103515625
range: 0.130730912089
velocity: 0.0
doppler_bin: 8
bearing: -46.218875885
intensity: 29.0036716461
---
header: 
  seq: 139316
  stamp: 
    secs: 1561866288
    nsecs: 327340076
  frame_id: "ti_mmwave"
point_id: 16
x: 2.7734375
y: -0.0
z: 0.86328125
range: 3.09396481514
velocity: 0.0
doppler_bin: 8
bearing: -0.0
intensity: 31.1226978302
---
header: 
  seq: 139317
  stamp: 
    secs: 1561866288
    nsecs: 387146323
  frame_id: "ti_mmwave"
point_id: 0
x: 0.01171875
y: -0.0390625
z: -0.0078125
range: 0.0435769706964
velocity: 0.0
doppler_bin: 8
bearing: -73.3007583618
intensity: 30.6669845581
---
header: 
  seq: 139318
  stamp: 
    secs: 1561866288
    nsecs: 387230765
  frame_id: "ti_mmwave"
point_id: 1
x: 0.017578125
y: -0.080078125
z: -0.0078125
range: 0.0871539413929
velocity: 0.0
doppler_bin: 8
bearing: -77.6192398071
intensity: 31.9145107269
---
header: 
  seq: 139319
  stamp: 
    secs: 1561866288
    nsecs: 387242781
  frame_id: "ti_mmwave"
point_id: 2
x: 0.029296875
y: -0.119140625
z: -0.005859375
range: 0.130730912089
velocity: 0.0
doppler_bin: 8
bearing: -76.1849746704
intensity: 30.141002655
---
header: 
  seq: 139320
  stamp: 
    secs: 1561866288
    nsecs: 387250854
  frame_id: "ti_mmwave"
point_id: 3
x: 0.056640625
y: -0.154296875
z: 0.005859375
range: 0.174307882786
velocity: 0.0
doppler_bin: 8
bearing: -69.8423843384
intensity: 25.4406795502
---
header: 
  seq: 139321
  stamp: 
    secs: 1561866288
    nsecs: 387261406
  frame_id: "ti_mmwave"
point_id: 4
x: 0.078125
y: -0.080078125
z: 1.263671875
range: 1.35088610649
velocity: 0.0
doppler_bin: 8
bearing: -45.7073173523
intensity: 23.0749607086
---
header: 
  seq: 139322
  stamp: 
    secs: 1561866288
    nsecs: 387288721
  frame_id: "ti_mmwave"
point_id: 6
x: 0.423828125
y: -0.083984375
z: -1.279296875
range: 1.43804001808
velocity: 0.0
doppler_bin: 8
bearing: -11.2083444595
intensity: 23.0535144806
---
header: 
  seq: 139323
  stamp: 
    secs: 1561866288
    nsecs: 387301757
  frame_id: "ti_mmwave"
point_id: 7
x: 1.83984375
y: -0.05859375
z: -0.390625
range: 2.00454068184
velocity: 0.0
doppler_bin: 8
bearing: -1.82409000397
intensity: 28.3186969757
---
header: 
  seq: 139324
  stamp: 
    secs: 1561866288
    nsecs: 387476866
  frame_id: "ti_mmwave"
point_id: 8
x: 1.876953125
y: -0.060546875
z: -0.4140625
range: 2.04811763763
velocity: 0.0
doppler_bin: 8
bearing: -1.847610116
intensity: 29.6142101288
---
header: 
  seq: 139325
  stamp: 
    secs: 1561866288
    nsecs: 387501652
  frame_id: "ti_mmwave"
point_id: 9
x: 2.6015625
y: -0.17578125
z: 1.078125
range: 3.00681090355
velocity: 0.0
doppler_bin: 8
bearing: -3.86546111107
intensity: 28.9872512817
---
header: 
  seq: 139326
  stamp: 
    secs: 1561866288
    nsecs: 387553010
  frame_id: "ti_mmwave"
point_id: 10
x: 2.68359375
y: -0.08984375
z: 0.994140625
range: 3.05038785934
velocity: 0.0
doppler_bin: 8
bearing: -1.91748321056
intensity: 32.1351776123
---
header: 
  seq: 139327
  stamp: 
    secs: 1561866288
    nsecs: 387568444
  frame_id: "ti_mmwave"
point_id: 11
x: 2.76953125
y: -0.0
z: 0.876953125
range: 3.09396481514
velocity: 0.0
doppler_bin: 8
bearing: -0.0
intensity: 31.0687046051
---
header: 
  seq: 139328
  stamp: 
    secs: 1561866288
    nsecs: 387579896
  frame_id: "ti_mmwave"
point_id: 12
x: 1.94921875
y: 0.060546875
z: -0.23046875
range: 2.09169459343
velocity: 0.614668667316
doppler_bin: 9
bearing: 1.77915656567
intensity: 26.9548168182
---
header: 
  seq: 139329
  stamp: 
    secs: 1561866288
    nsecs: 387597939
  frame_id: "ti_mmwave"
point_id: 14
x: 0.041015625
y: -0.033203125
z: 0.0625
range: 0.0871539413929
velocity: 0.0
doppler_bin: 8
bearing: -38.9909973145
intensity: 30.0987567902
---
header: 
  seq: 139330
  stamp: 
    secs: 1561866288
    nsecs: 387629806
  frame_id: "ti_mmwave"
point_id: 15
x: 0.044921875
y: -0.046875
z: 0.103515625
range: 0.130730912089
velocity: 0.0
doppler_bin: 8
bearing: -46.218875885
intensity: 28.9982051849
---
header: 
  seq: 139331
  stamp: 
    secs: 1561866288
    nsecs: 387740466
  frame_id: "ti_mmwave"
point_id: 17
x: 2.728515625
y: -0.181640625
z: 0.9765625
range: 3.09396481514
velocity: 0.0
doppler_bin: 8
bearing: -3.80863046646
intensity: 31.058506012
---
header: 
  seq: 139332
  stamp: 
    secs: 1561866288
    nsecs: 388552801
  frame_id: "ti_mmwave"
point_id: 0
x: 0.01171875
y: -0.0390625
z: -0.0078125
range: 0.0435769706964
velocity: 0.0
doppler_bin: 8
bearing: -73.3007583618
intensity: 30.6520614624
---
header: 
  seq: 139333
  stamp: 
    secs: 1561866288
    nsecs: 388604845
  frame_id: "ti_mmwave"
point_id: 1
x: 0.017578125
y: -0.080078125
z: -0.0078125
range: 0.0871539413929
velocity: 0.0
doppler_bin: 8
bearing: -77.6192398071
intensity: 31.9145107269
---
header: 
  seq: 139334
  stamp: 
    secs: 1561866288
    nsecs: 388615069
  frame_id: "ti_mmwave"
point_id: 2
x: 0.029296875
y: -0.119140625
z: -0.005859375
range: 0.130730912089
velocity: 0.0
doppler_bin: 8
bearing: -76.1849746704
intensity: 30.1494026184
---
header: 
  seq: 139335
  stamp: 
    secs: 1561866288
    nsecs: 388623878
  frame_id: "ti_mmwave"
point_id: 3
x: 0.056640625
y: -0.154296875
z: 0.0078125
range: 0.174307882786
velocity: 0.0
doppler_bin: 8
bearing: -69.8423843384
intensity: 25.4654273987
---
header: 
  seq: 139336
  stamp: 
    secs: 1561866288
    nsecs: 388633661
  frame_id: "ti_mmwave"
point_id: 4
x: 0.076171875
y: -0.080078125
z: 1.263671875
range: 1.35088610649
velocity: 0.0
doppler_bin: 8
bearing: -46.4320983887
intensity: 23.1175384521
---
header: 
  seq: 139337
  stamp: 
    secs: 1561866288
    nsecs: 388645794
  frame_id: "ti_mmwave"
point_id: 6
x: 0.408203125
y: -0.083984375
z: -1.283203125
range: 1.43804001808
velocity: 0.0
doppler_bin: 8
bearing: -11.6258993149
intensity: 23.0102996826
---
header: 
  seq: 139338
  stamp: 
    secs: 1561866288
    nsecs: 388721303
  frame_id: "ti_mmwave"
point_id: 7
x: 0.552734375
y: -0.04296875
z: -1.275390625
range: 1.48161697388
velocity: 0.0
doppler_bin: 8
bearing: -4.44514894485
intensity: 21.6136798859
---
header: 
  seq: 139339
  stamp: 
    secs: 1561866288
    nsecs: 388732044
  frame_id: "ti_mmwave"
point_id: 8
x: 2.61328125
y: -0.17578125
z: 1.05078125
range: 3.00681090355
velocity: 0.0
doppler_bin: 8
bearing: -3.84817934036
intensity: 29.0145835876
---
header: 
  seq: 139340
  stamp: 
    secs: 1561866288
    nsecs: 388743748
  frame_id: "ti_mmwave"
point_id: 9
x: 2.689453125
y: -0.08984375
z: 0.98046875
range: 3.05038785934
velocity: 0.0
doppler_bin: 8
bearing: -1.91330885887
intensity: 32.156375885
---
header: 
  seq: 139341
  stamp: 
    secs: 1561866288
    nsecs: 388755286
  frame_id: "ti_mmwave"
point_id: 10
x: 2.767578125
y: -0.0
z: 0.8828125
range: 3.09396481514
velocity: 0.0
doppler_bin: 8
bearing: -0.0
intensity: 31.0105934143
---
header: 
  seq: 139342
  stamp: 
    secs: 1561866288
    nsecs: 388769918
  frame_id: "ti_mmwave"
point_id: 11
x: 4.404296875
y: -0.287109375
z: 1.2265625
range: 4.88062095642
velocity: 0.0
doppler_bin: 8
bearing: -3.72974681854
intensity: 29.2116603851
---
header: 
  seq: 139343
  stamp: 
    secs: 1561866288
    nsecs: 388809632
  frame_id: "ti_mmwave"
point_id: 12
x: 4.45703125
y: -0.14453125
z: 1.21875
range: 4.9241976738
velocity: 0.0
doppler_bin: 8
bearing: -1.8573192358
intensity: 29.1539974213
---
header: 
  seq: 139344
  stamp: 
    secs: 1561866288
    nsecs: 388827252
  frame_id: "ti_mmwave"
point_id: 14
x: 0.041015625
y: -0.033203125
z: 0.0625
range: 0.0871539413929
velocity: 0.0
doppler_bin: 8
bearing: -38.9909973145
intensity: 30.1029987335
---
header: 
  seq: 139345
  stamp: 
    secs: 1561866288
    nsecs: 388843569
  frame_id: "ti_mmwave"
point_id: 15
x: 0.046875
y: -0.046875
z: 0.103515625
range: 0.130730912089
velocity: 0.0
doppler_bin: 8
bearing: -45.0
intensity: 29.0091304779
---
header: 
  seq: 139346
  stamp: 
    secs: 1561866288
    nsecs: 388869865
  frame_id: "ti_mmwave"
point_id: 17
x: 2.724609375
y: -0.181640625
z: 0.990234375
range: 3.09396481514
velocity: 0.0
doppler_bin: 8
bearing: -3.81407499313
intensity: 31.0002574921
---
header: 
  seq: 139347
  stamp: 
    secs: 1561866288
    nsecs: 447286358
  frame_id: "ti_mmwave"
point_id: 0
x: 0.01171875
y: -0.0390625
z: -0.0078125
range: 0.0435769706964
velocity: 0.0
doppler_bin: 8
bearing: -73.3007583618
intensity: 30.6595306396
---
header: 
  seq: 139348
  stamp: 
    secs: 1561866288
    nsecs: 447364283
  frame_id: "ti_mmwave"
point_id: 1
x: 0.017578125
y: -0.080078125
z: -0.0078125
range: 0.0871539413929
velocity: 0.0
doppler_bin: 8
bearing: -77.6192398071
intensity: 31.9145107269
---
header: 
  seq: 139349
  stamp: 
    secs: 1561866288
    nsecs: 447375704
  frame_id: "ti_mmwave"
point_id: 2
x: 0.029296875
y: -0.119140625
z: -0.005859375
range: 0.130730912089
velocity: 0.0
doppler_bin: 8
bearing: -76.1849746704
intensity: 30.1452045441
---
header: 
  seq: 139350
  stamp: 
    secs: 1561866288
    nsecs: 447385810
  frame_id: "ti_mmwave"
point_id: 3
x: 0.056640625
y: -0.154296875
z: 0.005859375
range: 0.174307882786
velocity: 0.0
doppler_bin: 8
bearing: -69.8423843384
intensity: 25.4406795502
---
header: 
  seq: 139351
  stamp: 
    secs: 1561866288
    nsecs: 447397450
  frame_id: "ti_mmwave"
point_id: 4
x: 0.1015625
y: -0.080078125
z: 1.26171875
range: 1.35088610649
velocity: 0.0
doppler_bin: 8
bearing: -38.2544212341
intensity: 23.0963020325
---
header: 
  seq: 139352
  stamp: 
    secs: 1561866288
    nsecs: 447408154
  frame_id: "ti_mmwave"
point_id: 6
x: 0.404296875
y: -0.083984375
z: -1.28515625
range: 1.43804001808
