header: 
  seq: 160717
  stamp: 
    secs: 1561866334
    nsecs: 287138607
  frame_id: "ti_mmwave"
point_id: 0
x: 0.01171875
y: -0.0390625
z: -0.0078125
range: 0.0435769706964
velocity: 0.0
doppler_bin: 8
bearing: -73.3007583618
intensity: 30.6557979584
---
header: 
  seq: 160718
  stamp: 
    secs: 1561866334
    nsecs: 287238012
  frame_id: "ti_mmwave"
point_id: 1
x: 0.017578125
y: -0.080078125
z: -0.0078125
range: 0.0871539413929
velocity: 0.0
doppler_bin: 8
bearing: -77.6192398071
intensity: 31.9145107269
---
header: 
  seq: 160719
  stamp: 
    secs: 1561866334
    nsecs: 287259694
  frame_id: "ti_mmwave"
point_id: 2
x: 0.029296875
y: -0.119140625
z: -0.005859375
range: 0.130730912089
velocity: 0.0
doppler_bin: 8
bearing: -76.1849746704
intensity: 30.141002655
---
header: 
  seq: 160720
  stamp: 
    secs: 1561866334
    nsecs: 287276959
  frame_id: "ti_mmwave"
point_id: 3
x: 0.056640625
y: -0.154296875
z: 0.005859375
range: 0.174307882786
velocity: 0.0
doppler_bin: 8
bearing: -69.8423843384
intensity: 25.4530715942
---
header: 
  seq: 160721
  stamp: 
    secs: 1561866334
    nsecs: 287293844
  frame_id: "ti_mmwave"
point_id: 4
x: 0.044921875
y: -0.080078125
z: -1.265625
range: 1.35088610649
velocity: 0.0
doppler_bin: 8
bearing: -60.7086410522
intensity: 23.0963020325
---
header: 
  seq: 160722
  stamp: 
    secs: 1561866334
    nsecs: 287311077
  frame_id: "ti_mmwave"
point_id: 5
x: 0.005859375
y: -0.08203125
z: -1.306640625
range: 1.39446306229
velocity: 0.0
doppler_bin: 8
bearing: -85.9143829346
intensity: 24.6089782715
---
header: 
  seq: 160723
  stamp: 
    secs: 1561866334
    nsecs: 287328058
  frame_id: "ti_mmwave"
point_id: 6
x: 0.423828125
y: -0.083984375
z: -1.279296875
range: 1.43804001808
velocity: 0.0
doppler_bin: 8
bearing: -11.2083444595
intensity: 23.0535144806
---
header: 
  seq: 160724
  stamp: 
    secs: 1561866334
    nsecs: 287360115
  frame_id: "ti_mmwave"
point_id: 7
x: 0.58203125
y: -0.04296875
z: -1.26171875
range: 1.48161697388
velocity: 0.0
doppler_bin: 8
bearing: -4.22222995758
intensity: 21.6731739044
---
header: 
  seq: 160725
  stamp: 
    secs: 1561866334
    nsecs: 287446773
  frame_id: "ti_mmwave"
point_id: 8
x: 1.79296875
y: -0.0
z: -0.166015625
range: 1.91738677025
velocity: 0.0
doppler_bin: 8
bearing: -0.0
intensity: 26.4246444702
---
header: 
  seq: 160726
  stamp: 
    secs: 1561866334
    nsecs: 287463328
  frame_id: "ti_mmwave"
point_id: 9
x: 1.830078125
y: -0.0
z: -0.189453125
range: 1.96096372604
velocity: 0.0
doppler_bin: 8
bearing: -0.0
intensity: 28.1491317749
---
header: 
  seq: 160727
  stamp: 
    secs: 1561866334
    nsecs: 287475383
  frame_id: "ti_mmwave"
point_id: 10
x: 1.875
y: 0.05859375
z: -0.140625
range: 2.00454068184
velocity: 0.0
doppler_bin: 8
bearing: 1.7899106741
intensity: 30.1283721924
---
header: 
  seq: 160728
  stamp: 
    secs: 1561866334
    nsecs: 287486240
  frame_id: "ti_mmwave"
point_id: 11
x: 1.916015625
y: 0.12109375
z: -0.091796875
range: 2.04811763763
velocity: 0.0
doppler_bin: 8
bearing: 3.61633038521
intensity: 29.3751792908
---
header: 
  seq: 160729
  stamp: 
    secs: 1561866334
    nsecs: 287497304
  frame_id: "ti_mmwave"
point_id: 12
x: 2.6171875
y: -0.17578125
z: 1.041015625
range: 3.00681090355
velocity: 0.0
doppler_bin: 8
bearing: -3.84245300293
intensity: 29.0145835876
---
header: 
  seq: 160730
  stamp: 
    secs: 1561866334
    nsecs: 287508994
  frame_id: "ti_mmwave"
point_id: 13
x: 2.65234375
y: -0.1796875
z: 1.0625
range: 3.05038785934
velocity: 0.0
doppler_bin: 8
bearing: -3.87567687035
intensity: 32.1827278137
---
header: 
  seq: 160731
  stamp: 
    secs: 1561866334
    nsecs: 287520080
  frame_id: "ti_mmwave"
point_id: 14
x: 2.75
y: -0.08984375
z: 0.9296875
range: 3.09396481514
velocity: 0.0
doppler_bin: 8
bearing: -1.87121355534
intensity: 31.1594314575
---
header: 
  seq: 160732
  stamp: 
    secs: 1561866334
    nsecs: 287535490
  frame_id: "ti_mmwave"
point_id: 16
x: 0.041015625
y: -0.033203125
z: 0.0625
range: 0.0871539413929
velocity: 0.0
doppler_bin: 8
bearing: -38.9909973145
intensity: 30.0987567902
---
header: 
  seq: 160733
  stamp: 
    secs: 1561866334
    nsecs: 287546806
  frame_id: "ti_mmwave"
point_id: 17
x: 0.044921875
y: -0.046875
z: 0.103515625
range: 0.130730912089
velocity: 0.0
doppler_bin: 8
bearing: -46.218875885
intensity: 29.0036716461
---
header: 
  seq: 160734
  stamp: 
    secs: 1561866334
    nsecs: 288439377
  frame_id: "ti_mmwave"
point_id: 0
x: 0.01171875
y: -0.0390625
z: -0.0078125
range: 0.0435769706964
velocity: 0.0
doppler_bin: 8
bearing: -73.3007583618
intensity: 30.6483230591
---
header: 
  seq: 160735
  stamp: 
    secs: 1561866334
    nsecs: 288504982
  frame_id: "ti_mmwave"
point_id: 1
x: 0.017578125
y: -0.080078125
z: -0.0078125
range: 0.0871539413929
velocity: 0.0
doppler_bin: 8
bearing: -77.6192398071
intensity: 31.9089164734
---
header: 
  seq: 160736
  stamp: 
    secs: 1561866334
    nsecs: 288522524
  frame_id: "ti_mmwave"
point_id: 2
x: 0.029296875
y: -0.119140625
z: -0.005859375
range: 0.130730912089
velocity: 0.0
doppler_bin: 8
bearing: -76.1849746704
intensity: 30.1367969513
---
header: 
  seq: 160737
  stamp: 
    secs: 1561866334
    nsecs: 288537717
  frame_id: "ti_mmwave"
point_id: 3
x: 0.056640625
y: -0.154296875
z: 0.005859375
range: 0.174307882786
velocity: 0.0
doppler_bin: 8
bearing: -69.8423843384
intensity: 25.4406795502
---
header: 
  seq: 160738
  stamp: 
    secs: 1561866334
    nsecs: 288554881
  frame_id: "ti_mmwave"
point_id: 4
x: 0.09765625
y: -0.080078125
z: 1.26171875
range: 1.35088610649
velocity: 0.0
doppler_bin: 8
bearing: -39.3517532349
intensity: 23.0749607086
---
header: 
  seq: 160739
  stamp: 
    secs: 1561866334
    nsecs: 288572230
  frame_id: "ti_mmwave"
point_id: 6
x: 0.443359375
y: -0.083984375
z: -1.2734375
range: 1.43804001808
velocity: 0.0
doppler_bin: 8
bearing: -10.7262945175
intensity: 23.0749607086
---
header: 
  seq: 160740
  stamp: 
    secs: 1561866334
    nsecs: 288586369
  frame_id: "ti_mmwave"
point_id: 7
x: 0.599609375
y: -0.04296875
z: -1.25390625
range: 1.48161697388
velocity: 0.0
doppler_bin: 8
bearing: -4.09887981415
intensity: 21.7318630219
---
header: 
  seq: 160741
  stamp: 
    secs: 1561866334
    nsecs: 288604573
  frame_id: "ti_mmwave"
point_id: 8
x: 1.798828125
y: -0.0
z: -0.0625
range: 1.91738677025
velocity: 0.0
doppler_bin: 8
bearing: -0.0
intensity: 28.9376182556
---
header: 
  seq: 160742
  stamp: 
    secs: 1561866334
    nsecs: 288690639
  frame_id: "ti_mmwave"
point_id: 9
x: 1.837890625
y: 0.056640625
z: -0.083984375
range: 1.96096372604
velocity: 0.0
doppler_bin: 8
bearing: 1.76519858837
intensity: 31.7143383026
---
header: 
  seq: 160743
  stamp: 
    secs: 1561866334
    nsecs: 288707738
  frame_id: "ti_mmwave"
point_id: 10
x: 1.880859375
y: -0.0
z: -0.076171875
range: 2.00454068184
velocity: 0.0
doppler_bin: 8
bearing: -0.0
intensity: 32.9203453064
---
header: 
  seq: 160744
  stamp: 
    secs: 1561866334
    nsecs: 288713471
  frame_id: "ti_mmwave"
point_id: 11
x: 1.921875
y: 0.060546875
z: -0.048828125
range: 2.04811763763
velocity: 0.0
doppler_bin: 8
bearing: 1.80445313454
intensity: 32.5041999817
---
header: 
  seq: 160745
  stamp: 
    secs: 1561866334
    nsecs: 288735070
  frame_id: "ti_mmwave"
point_id: 12
x: 1.962890625
y: 0.060546875
z: 0.0390625
range: 2.09169459343
velocity: 0.0
doppler_bin: 8
bearing: 1.7667722702
intensity: 29.7266559601
---
header: 
  seq: 160746
  stamp: 
    secs: 1561866334
    nsecs: 288743554
  frame_id: "ti_mmwave"
point_id: 13
x: 2.611328125
y: -0.17578125
z: 1.0546875
range: 3.00681090355
velocity: 0.0
doppler_bin: 8
bearing: -3.85104894638
intensity: 28.9762706757
---
header: 
  seq: 160747
  stamp: 
    secs: 1561866334
    nsecs: 288834244
  frame_id: "ti_mmwave"
point_id: 14
x: 2.66015625
y: -0.1796875
z: 1.044921875
range: 3.05038785934
velocity: 0.0
doppler_bin: 8
bearing: -3.86432933807
intensity: 32.1695709229
---
header: 
  seq: 160748
  stamp: 
    secs: 1561866334
    nsecs: 288917726
  frame_id: "ti_mmwave"
point_id: 15
x: 2.751953125
y: -0.08984375
z: 0.921875
range: 3.09396481514
velocity: 0.0
doppler_bin: 8
bearing: -1.86988639832
intensity: 31.1826477051
---
header: 
  seq: 160749
  stamp: 
    secs: 1561866334
    nsecs: 288940744
  frame_id: "ti_mmwave"
point_id: 17
x: 0.041015625
y: -0.033203125
z: 0.0625
range: 0.0871539413929
velocity: 0.0
doppler_bin: 8
bearing: -38.9909973145
intensity: 30.0987567902
---
header: 
  seq: 160750
  stamp: 
    secs: 1561866334
    nsecs: 288963058
  frame_id: "ti_mmwave"
point_id: 18
x: 0.046875
y: -0.046875
z: 0.103515625
range: 0.130730912089
velocity: 0.0
doppler_bin: 8
bearing: -45.0
intensity: 28.9982051849
---
header: 
  seq: 160751
  stamp: 
    secs: 1561866334
    nsecs: 347100726
  frame_id: "ti_mmwave"
point_id: 0
x: 0.01171875
y: -0.0390625
z: -0.0078125
range: 0.0435769706964
velocity: 0.0
doppler_bin: 8
bearing: -73.3007583618
intensity: 30.6483230591
---
header: 
  seq: 160752
  stamp: 
    secs: 1561866334
    nsecs: 347191939
  frame_id: "ti_mmwave"
point_id: 1
x: 0.017578125
y: -0.080078125
z: -0.0078125
range: 0.0871539413929
velocity: 0.0
doppler_bin: 8
bearing: -77.6192398071
intensity: 31.9089164734
---
header: 
  seq: 160753
  stamp: 
    secs: 1561866334
    nsecs: 347211898
  frame_id: "ti_mmwave"
point_id: 2
x: 0.029296875
y: -0.119140625
z: -0.005859375
range: 0.130730912089
velocity: 0.0
doppler_bin: 8
bearing: -76.1849746704
intensity: 30.1367969513
---
header: 
  seq: 160754
  stamp: 
    secs: 1561866334
    nsecs: 347226209
  frame_id: "ti_mmwave"
point_id: 3
x: 0.056640625
y: -0.154296875
z: 0.0078125
range: 0.174307882786
velocity: 0.0
doppler_bin: 8
bearing: -69.8423843384
intensity: 25.4530715942
---
header: 
  seq: 160755
  stamp: 
    secs: 1561866334
    nsecs: 347251322
  frame_id: "ti_mmwave"
point_id: 4
x: 0.12109375
y: -0.080078125
z: 1.259765625
range: 1.35088610649
velocity: 0.0
doppler_bin: 8
bearing: -33.4762802124
intensity: 23.0963020325
---
header: 
  seq: 160756
  stamp: 
    secs: 1561866334
    nsecs: 347342655
  frame_id: "ti_mmwave"
point_id: 6
x: 0.419921875
y: -0.083984375
z: -1.279296875
range: 1.43804001808
velocity: 0.0
doppler_bin: 8
bearing: -11.3099327087
intensity: 23.031961441
---
header: 
  seq: 160757
  stamp: 
    secs: 1561866334
    nsecs: 347359917
  frame_id: "ti_mmwave"
point_id: 7
x: 0.552734375
y: -0.04296875
z: -1.275390625
range: 1.48161697388
velocity: 0.0
doppler_bin: 8
bearing: -4.44514894485
intensity: 21.6136798859
---
header: 
  seq: 160758
  stamp: 
    secs: 1561866334
    nsecs: 347376508
  frame_id: "ti_mmwave"
point_id: 8
x: 1.798828125
y: -0.0
z: -0.072265625
range: 1.91738677025
velocity: 0.0
doppler_bin: 8
bearing: -0.0
intensity: 29.8721923828
---
header: 
  seq: 160759
  stamp: 
    secs: 1561866334
    nsecs: 347388965
  frame_id: "ti_mmwave"
point_id: 9
x: 1.83984375
y: -0.0
z: -0.0625
range: 1.96096372604
velocity: 0.0
doppler_bin: 8
bearing: -0.0
intensity: 30.8919830322
---
header: 
  seq: 160760
  stamp: 
    secs: 1561866334
    nsecs: 347400934
  frame_id: "ti_mmwave"
point_id: 10
x: 1.865234375
y: -0.05859375
z: 0.234375
range: 2.00454068184
velocity: 0.0
doppler_bin: 8
bearing: -1.79927563667
intensity: 29.1062431335
---
header: 
  seq: 160761
  stamp: 
    secs: 1561866334
    nsecs: 347413292
  frame_id: "ti_mmwave"
point_id: 11
x: 1.755859375
y: -0.12109375
z: 0.775390625
range: 2.04811763763
velocity: 0.0
doppler_bin: 8
bearing: -3.94518637657
intensity: 27.7085208893
---
header: 
  seq: 160762
  stamp: 
    secs: 1561866334
    nsecs: 347456923
  frame_id: "ti_mmwave"
point_id: 12
x: 2.6015625
y: -0.17578125
z: 1.078125
range: 3.00681090355
velocity: 0.0
doppler_bin: 8
bearing: -3.86546111107
intensity: 28.9597473145
---
header: 
  seq: 160763
  stamp: 
    secs: 1561866334
    nsecs: 347469471
  frame_id: "ti_mmwave"
point_id: 13
x: 2.658203125
y: -0.1796875
z: 1.05078125
range: 3.05038785934
velocity: 0.0
doppler_bin: 8
bearing: -3.86716008186
intensity: 32.1484375
---
header: 
  seq: 160764
  stamp: 
    secs: 1561866334
    nsecs: 347480775
  frame_id: "ti_mmwave"
point_id: 14
x: 2.763671875
y: -0.08984375
z: 0.890625
range: 3.09396481514
velocity: 0.0
doppler_bin: 8
bearing: -1.8619633913
intensity: 31.119342804
---
header: 
  seq: 160765
  stamp: 
    secs: 1561866334
    nsecs: 347498059
  frame_id: "ti_mmwave"
point_id: 16
x: 0.041015625
y: -0.033203125
z: 0.0625
range: 0.0871539413929
velocity: 0.0
doppler_bin: 8
bearing: -38.9909973145
intensity: 30.1072387695
---
header: 
  seq: 160766
  stamp: 
    secs: 1561866334
    nsecs: 347511810
  frame_id: "ti_mmwave"
point_id: 17
x: 0.044921875
y: -0.046875
z: 0.103515625
range: 0.130730912089
velocity: 0.0
doppler_bin: 8
bearing: -46.218875885
intensity: 29.0036716461
---
header: 
  seq: 160767
  stamp: 
    secs: 1561866334
    nsecs: 348426197
  frame_id: "ti_mmwave"
point_id: 0
x: 0.01171875
y: -0.0390625
z: -0.0078125
range: 0.0435769706964
velocity: 0.0
doppler_bin: 8
bearing: -73.3007583618
intensity: 30.6483230591
---
header: 
  seq: 160768
  stamp: 
    secs: 1561866334
    nsecs: 348492305
  frame_id: "ti_mmwave"
point_id: 1
x: 0.017578125
y: -0.080078125
z: -0.0078125
range: 0.0871539413929
velocity: 0.0
doppler_bin: 8
bearing: -77.6192398071
intensity: 31.9117145538
---
header: 
  seq: 160769
  stamp: 
    secs: 1561866334
    nsecs: 348510367
  frame_id: "ti_mmwave"
point_id: 2
x: 0.029296875
y: -0.119140625
z: -0.005859375
range: 0.130730912089
velocity: 0.0
doppler_bin: 8
bearing: -76.1849746704
intensity: 30.141002655
---
header: 
  seq: 160770
  stamp: 
    secs: 1561866334
    nsecs: 348524943
  frame_id: "ti_mmwave"
point_id: 3
x: 0.056640625
y: -0.154296875
z: 0.005859375
range: 0.174307882786
velocity: 0.0
doppler_bin: 8
bearing: -69.8423843384
intensity: 25.4530715942
---
header: 
  seq: 160771
  stamp: 
    secs: 1561866334
    nsecs: 348542448
  frame_id: "ti_mmwave"
point_id: 4
x: 0.099609375
y: -0.080078125
z: 1.26171875
range: 1.35088610649
velocity: 0.0
doppler_bin: 8
bearing: -38.7965545654
intensity: 23.1175384521
---
header: 
  seq: 160772
  stamp: 
    secs: 1561866334
    nsecs: 348628376
  frame_id: "ti_mmwave"
point_id: 6
x: 0.421875
y: -0.083984375
z: -1.279296875
range: 1.43804001808
velocity: 0.0
doppler_bin: 8
bearing: -11.2589120865
intensity: 23.0749607086
---
header: 
  seq: 160773
  stamp: 
    secs: 1561866334
    nsecs: 348638444
  frame_id: "ti_mmwave"
point_id: 7
x: 1.8359375
y: -0.0
z: -0.142578125
range: 1.96096372604
velocity: 0.0
doppler_bin: 8
bearing: -0.0
intensity: 29.7818050385
---
header: 
  seq: 160774
  stamp: 
    secs: 1561866334
    nsecs: 348648204
  frame_id: "ti_mmwave"
point_id: 8
x: 1.873046875
y: -0.0
z: -0.169921875
range: 2.00454068184
velocity: 0.0
doppler_bin: 8
bearing: -0.0
intensity: 30.4218158722
---
header: 
  seq: 160775
  stamp: 
    secs: 1561866334
    nsecs: 348658864
  frame_id: "ti_mmwave"
point_id: 9
x: 1.921875
y: -0.0
z: -0.001953125
range: 2.04811763763
velocity: 0.0
doppler_bin: 8
bearing: -0.0
intensity: 30.2694168091
---
header: 
  seq: 160776
  stamp: 
    secs: 1561866334
    nsecs: 348670838
  frame_id: "ti_mmwave"
point_id: 10
x: 1.951171875
y: -0.060546875
z: 0.21484375
range: 2.09169459343
velocity: 0.0
doppler_bin: 8
bearing: -1.77737677097
intensity: 28.5003318787
---
header: 
  seq: 160777
  stamp: 
    secs: 1561866334
    nsecs: 348683064
  frame_id: "ti_mmwave"
point_id: 11
x: 2.6015625
y: -0.17578125
z: 1.08203125
range: 3.00681090355
velocity: 0.0
doppler_bin: 8
bearing: -3.86546111107
intensity: 28.762178421
---
header: 
  seq: 160778
  stamp: 
    secs: 1561866334
    nsecs: 348698197
  frame_id: "ti_mmwave"
point_id: 12
x: 2.66015625
y: -0.1796875
z: 1.044921875
range: 3.05038785934
velocity: 0.0
doppler_bin: 8
bearing: -3.86432933807
intensity: 32.0439147949
---
header: 
  seq: 160779
  stamp: 
    secs: 1561866334
    nsecs: 348763340
  frame_id: "ti_mmwave"
point_id: 13
x: 2.76171875
y: -0.08984375
z: 0.896484375
range: 3.09396481514
velocity: 0.0
doppler_bin: 8
bearing: -1.86327898502
intensity: 31.0414562225
---
header: 
  seq: 160780
  stamp: 
    secs: 1561866334
    nsecs: 348784454
  frame_id: "ti_mmwave"
point_id: 15
x: 0.041015625
y: -0.033203125
z: 0.0625
range: 0.0871539413929
velocity: 0.0
doppler_bin: 8
bearing: -38.9909973145
intensity: 30.1029987335
---
header: 
  seq: 160781
  stamp: 
    secs: 1561866334
    nsecs: 348798575
  frame_id: "ti_mmwave"
point_id: 16
x: 0.044921875
y: -0.046875
z: 0.103515625
range: 0.130730912089
velocity: 0.0
doppler_bin: 8
bearing: -46.218875885
intensity: 29.0036716461
---
header: 
  seq: 160782
  stamp: 
    secs: 1561866334
    nsecs: 407116869
  frame_id: "ti_mmwave"
point_id: 0
x: 0.01171875
y: -0.0390625
z: -0.0078125
range: 0.0435769706964
velocity: 0.0
doppler_bin: 8
bearing: -73.3007583618
intensity: 30.6557979584
---
header: 
  seq: 160783
  stamp: 
    secs: 1561866334
    nsecs: 407196570
  frame_id: "ti_mmwave"
point_id: 1
x: 0.017578125
y: -0.080078125
z: -0.0078125
range: 0.0871539413929
velocity: 0.0
doppler_bin: 8
bearing: -77.6192398071
intensity: 31.9117145538
---
header: 
  seq: 160784
  stamp: 
    secs: 1561866334
    nsecs: 407210285
  frame_id: "ti_mmwave"
point_id: 2
x: 0.029296875
y: -0.119140625
z: -0.005859375
range: 0.130730912089
velocity: 0.0
doppler_bin: 8
bearing: -76.1849746704
intensity: 30.1452045441
---
header: 
  seq: 160785
  stamp: 
    secs: 1561866334
    nsecs: 407218631
  frame_id: "ti_mmwave"
point_id: 3
x: 0.056640625
y: -0.154296875
z: 0.005859375
range: 0.174307882786
velocity: 0.0
doppler_bin: 8
bearing: -69.8423843384
intensity: 25.4654273987
---
header: 
  seq: 160786
  stamp: 
    secs: 1561866334
    nsecs: 407227743
  frame_id: "ti_mmwave"
point_id: 4
x: 0.109375
y: -0.080078125
z: 1.26171875
range: 1.35088610649
velocity: 0.0
doppler_bin: 8
bearing: -36.2094573975
intensity: 23.0963020325
---
header: 
  seq: 160787
  stamp: 
    secs: 1561866334
    nsecs: 407238168
  frame_id: "ti_mmwave"
point_id: 6
x: 0.431640625
y: -0.083984375
z: -1.27734375
range: 1.43804001808
velocity: 0.0
doppler_bin: 8
bearing: -11.0104799271
intensity: 23.0749607086
---
header: 
  seq: 160788
  stamp: 
    secs: 1561866334
    nsecs: 407247019
  frame_id: "ti_mmwave"
point_id: 7
x: 0.55859375
y: -0.04296875
z: -1.2734375
range: 1.48161697388
velocity: 0.0
doppler_bin: 8
bearing: -4.39870548248
intensity: 21.7026176453
---
header: 
  seq: 160789
  stamp: 
    secs: 1561866334
    nsecs: 407255482
  frame_id: "ti_mmwave"
point_id: 8
x: 1.798828125
y: -0.0
z: -0.0625
range: 1.91738677025
velocity: 0.0
doppler_bin: 8
bearing: -0.0
intensity: 28.350561142
---
header: 
  seq: 160790
  stamp: 
    secs: 1561866334
    nsecs: 407264899
  frame_id: "ti_mmwave"
point_id: 9
x: 1.8359375
y: 0.056640625
z: -0.1171875
range: 1.96096372604
velocity: 0.0
doppler_bin: 8
bearing: 1.76707530022
intensity: 31.8469142914
---
header: 
  seq: 160791
  stamp: 
    secs: 1561866334
    nsecs: 407434977
  frame_id: "ti_mmwave"
point_id: 10
x: 1.873046875
y: 0.05859375
z: -0.173828125
range: 2.00454068184
velocity: 0.0
doppler_bin: 8
bearing: 1.79177570343
intensity: 32.5695800781
---
header: 
  seq: 160792
  stamp: 
    secs: 1561866334
    nsecs: 407460601
  frame_id: "ti_mmwave"
point_id: 11
x: 1.908203125
y: 0.060546875
z: -0.23046875
range: 2.04811763763
velocity: 0.0
doppler_bin: 8
bearing: 1.81737291813
intensity: 30.824262619
---
header: 
  seq: 160793
  stamp: 
    secs: 1561866334
    nsecs: 407472907
  frame_id: "ti_mmwave"
point_id: 12
x: 2.630859375
y: -0.17578125
z: 1.005859375
range: 3.00681090355
velocity: 0.0
doppler_bin: 8
bearing: -3.82254433632
intensity: 28.8761730194
---
header: 
  seq: 160794
  stamp: 
    secs: 1561866334
    nsecs: 407484690
  frame_id: "ti_mmwave"
point_id: 13
x: 2.66796875
y: -0.1796875
z: 1.0234375
range: 3.05038785934
velocity: 0.0
doppler_bin: 8
bearing: -3.85304760933
intensity: 32.0978317261
---
header: 
  seq: 160795
  stamp: 
    secs: 1561866334
    nsecs: 407496144
  frame_id: "ti_mmwave"
point_id: 14
x: 2.759765625
y: -0.08984375
z: 0.90234375
range: 3.09396481514
velocity: 0.0
doppler_bin: 8
bearing: -1.86459684372
intensity: 31.0687046051
---
header: 
  seq: 160796
  stamp: 
    secs: 1561866334
    nsecs: 407510662
  frame_id: "ti_mmwave"
point_id: 16
x: 0.041015625
y: -0.033203125
z: 0.0625
range: 0.0871539413929
velocity: 0.0
doppler_bin: 8
bearing: -38.9909973145
intensity: 30.0987567902
---
header: 
  seq: 160797
  stamp: 
    secs: 1561866334
    nsecs: 407526925
  frame_id: "ti_mmwave"
point_id: 17
x: 0.046875
y: -0.046875
z: 0.103515625
range: 0.130730912089
velocity: 0.0
doppler_bin: 8
bearing: -45.0
intensity: 29.0036716461
---
header: 
  seq: 160798
  stamp: 
    secs: 1561866334
    nsecs: 408349315
  frame_id: "ti_mmwave"
point_id: 0
x: 0.01171875
y: -0.0390625
z: -0.0078125
range: 0.0435769706964
velocity: 0.0
doppler_bin: 8
bearing: -73.3007583618
intensity: 30.6520614624
---
header: 
  seq: 160799
  stamp: 
    secs: 1561866334
    nsecs: 408415107
  frame_id: "ti_mmwave"
point_id: 1
x: 0.017578125
y: -0.080078125
z: -0.0078125
range: 0.0871539413929
velocity: 0.0
doppler_bin: 8
bearing: -77.6192398071
intensity: 31.9117145538
---
header: 
  seq: 160800
  stamp: 
    secs: 1561866334
    nsecs: 408434940
  frame_id: "ti_mmwave"
point_id: 2
x: 0.029296875
y: -0.119140625
z: -0.005859375
range: 0.130730912089
velocity: 0.0
doppler_bin: 8
bearing: -76.1849746704
intensity: 30.1452045441
---
header: 
  seq: 160801
  stamp: 
    secs: 1561866334
    nsecs: 408451668
  frame_id: "ti_mmwave"
point_id: 3
x: 0.056640625
y: -0.154296875
z: 0.005859375
range: 0.174307882786
velocity: 0.0
doppler_bin: 8
bearing: -69.8423843384
intensity: 25.4530715942
---
header: 
  seq: 160802
  stamp: 
    secs: 1561866334
    nsecs: 408539752
  frame_id: "ti_mmwave"
point_id: 4
x: 0.09375
y: -0.080078125
z: 1.26171875
range: 1.35088610649
velocity: 0.0
doppler_bin: 8
bearing: -40.5028457642
intensity: 23.1175384521
---
header: 
  seq: 160803
  stamp: 
    secs: 1561866334
    nsecs: 408561151
  frame_id: "ti_mmwave"
point_id: 5
x: 0.04296875
y: -0.08203125
z: -1.306640625
range: 1.39446306229
velocity: 0.0
doppler_bin: 8
bearing: -62.3540267944
intensity: 24.6389293671
---
header: 
  seq: 160804
  stamp: 
    secs: 1561866334
    nsecs: 408577477
  frame_id: "ti_mmwave"
point_id: 6
x: 0.43359375
y: -0.083984375
z: -1.275390625
range: 1.43804001808
velocity: 0.0
doppler_bin: 8
bearing: -10.9620876312
intensity: 23.0749607086
---
header: 
  seq: 160805
  stamp: 
    secs: 1561866334
    nsecs: 408586080
  frame_id: "ti_mmwave"
point_id: 7
x: 0.56640625
y: -0.04296875
z: -1.26953125
range: 1.48161697388
velocity: 0.0
doppler_bin: 8
bearing: -4.33826684952
intensity: 21.6731739044
---
header: 
  seq: 160806
  stamp: 
    secs: 1561866334
    nsecs: 408612320
  frame_id: "ti_mmwave"
point_id: 8
x: 1.7890625
y: -0.0
z: -0.19140625
range: 1.91738677025
velocity: 0.0
doppler_bin: 8
bearing: -0.0
intensity: 27.678976059
---
header: 
  seq: 160807
  stamp: 
    secs: 1561866334
    nsecs: 408636320
  frame_id: "ti_mmwave"
point_id: 9
x: 1.830078125
y: 0.056640625
z: -0.19921875
range: 1.96096372604
velocity: 0.0
doppler_bin: 8
bearing: 1.77272939682
intensity: 30.1745071411
---
header: 
  seq: 160808
  stamp: 
    secs: 1561866334
    nsecs: 408658732
  frame_id: "ti_mmwave"
point_id: 10
x: 1.869140625
y: 0.05859375
z: -0.21484375
range: 2.00454068184
velocity: 0.0
doppler_bin: 8
bearing: 1.79551804066
intensity: 28.7390155792
---
header: 
  seq: 160809
  stamp: 
    secs: 1561866334
    nsecs: 408678127
  frame_id: "ti_mmwave"
point_id: 11
x: 2.607421875
y: -0.17578125
z: 1.06640625
range: 3.00681090355
velocity: 0.0
doppler_bin: 8
bearing: -3.8568007946
intensity: 29.1697998047
---
header: 
  seq: 160810
  stamp: 
    secs: 1561866334
    nsecs: 408699640
  frame_id: "ti_mmwave"
point_id: 12
x: 2.65625
y: -0.1796875
z: 1.056640625
range: 3.05038785934
velocity: 0.0
doppler_bin: 8
bearing: -3.86999511719
intensity: 32.3172454834
---
header: 
  seq: 160811
  stamp: 
    secs: 1561866334
    nsecs: 408716632
  frame_id: "ti_mmwave"
point_id: 13
x: 2.74609375
y: -0.08984375
z: 0.939453125
range: 3.09396481514
velocity: 0.0
doppler_bin: 8
bearing: -1.8738732338
intensity: 31.2872219086
---
header: 
  seq: 160812
  stamp: 
    secs: 1561866334
    nsecs: 408738179
  frame_id: "ti_mmwave"
point_id: 15
x: 0.041015625
y: -0.033203125
z: 0.0625
range: 0.0871539413929
velocity: 0.0
doppler_bin: 8
bearing: -38.9909973145
intensity: 30.1072387695
---
header: 
  seq: 160813
  stamp: 
    secs: 1561866334
    nsecs: 408812952
  frame_id: "ti_mmwave"
point_id: 16
x: 0.044921875
y: -0.046875
z: 0.103515625
range: 0.130730912089
velocity: 0.0
doppler_bin: 8
bearing: -46.218875885
intensity: 29.0091304779
---
header: 
  seq: 160814
  stamp: 
    secs: 1561866334
    nsecs: 467091287
  frame_id: "ti_mmwave"
point_id: 0
x: 0.01171875
y: -0.0390625
z: -0.0078125
range: 0.0435769706964
velocity: 0.0
doppler_bin: 8
bearing: -73.3007583618
intensity: 30.6520614624
---
header: 
  seq: 160815
  stamp: 
    secs: 1561866334
    nsecs: 467156895
  frame_id: "ti_mmwave"
point_id: 1
x: 0.017578125
y: -0.080078125
z: -0.0078125
range: 0.0871539413929
velocity: 0.0
doppler_bin: 8
bearing: -77.6192398071
intensity: 31.9145107269
---
header: 
  seq: 160816
  stamp: 
    secs: 1561866334
    nsecs: 467167580
  frame_id: "ti_mmwave"
point_id: 2
x: 0.029296875
y: -0.119140625
z: -0.005859375
range: 0.130730912089
velocity: 0.0
doppler_bin: 8
bearing: -76.1849746704
intensity: 30.1452045441
---
header: 
  seq: 160817
  stamp: 
    secs: 1561866334
    nsecs: 467178036
  frame_id: "ti_mmwave"
point_id: 3
x: 0.056640625
y: -0.154296875
z: 0.005859375
range: 0.174307882786
velocity: 0.0
doppler_bin: 8
bearing: -69.8423843384
intensity: 25.4654273987
---
header: 
  seq: 160818
  stamp: 
    secs: 1561866334
    nsecs: 467189096
  frame_id: "ti_mmwave"
point_id: 5
x: 0.037109375
y: -0.08203125
z: -1.306640625
range: 1.39446306229
velocity: 0.0
doppler_bin: 8
bearing: -65.6589126587
intensity: 24.5939254761
---
header: 
  seq: 160819
  stamp: 
    secs: 1561866334
    nsecs: 467198029
  frame_id: "ti_mmwave"
point_id: 6
x: 0.44921875
y: -0.083984375
z: -1.26953125
range: 1.43804001808
velocity: 0.0
doppler_bin: 8
bearing: -10.5895709991
intensity: 23.031961441
---
header: 
  seq: 160820
  stamp: 
    secs: 1561866334
    nsecs: 467206920
  frame_id: "ti_mmwave"
point_id: 7
x: 0.583984375
y: -0.04296875
z: -1.26171875
range: 1.48161697388
velocity: 0.0
doppler_bin: 8
bearing: -4.20815992355
intensity: 21.6731739044
---
header: 
  seq: 160821
  stamp: 
    secs: 1561866334
    nsecs: 467218220
  frame_id: "ti_mmwave"
point_id: 8
x: 1.837890625
y: 0.056640625
z: -0.078125
range: 1.96096372604
velocity: 0.0
doppler_bin: 8
bearing: 1.76519858837
intensity: 27.774269104
---
header: 
  seq: 160822
  stamp: 
    secs: 1561866334
    nsecs: 467387132
  frame_id: "ti_mmwave"
point_id: 9
x: 1.880859375
y: -0.0
z: 0.04296875
range: 2.00454068184
velocity: 0.0
doppler_bin: 8
bearing: -0.0
intensity: 27.6342792511
---
header: 
  seq: 160823
  stamp: 
    secs: 1561866334
    nsecs: 467416471
  frame_id: "ti_mmwave"
point_id: 10
x: 2.62109375
y: -0.17578125
z: 1.033203125
range: 3.00681090355
velocity: 0.0
doppler_bin: 8
bearing: -3.83674383163
intensity: 28.9652614594
---
header: 
  seq: 160824
  stamp: 
    secs: 1561866334
    nsecs: 467434674
  frame_id: "ti_mmwave"
point_id: 11
x: 2.66015625
y: -0.1796875
z: 1.04296875
range: 3.05038785934
velocity: 0.0
doppler_bin: 8
bearing: -3.86432933807
intensity: 32.1590194702
---
header: 
  seq: 160825
  stamp: 
    secs: 1561866334
    nsecs: 467447079
  frame_id: "ti_mmwave"
point_id: 12
x: 2.75390625
y: -0.08984375
z: 0.916015625
range: 3.09396481514
velocity: 0.0
doppler_bin: 8
bearing: -1.86856126785
intensity: 31.1394329071
---
header: 
  seq: 160826
  stamp: 
    secs: 1561866334
    nsecs: 467461158
  frame_id: "ti_mmwave"
point_id: 14
x: 0.041015625
y: -0.033203125
z: 0.0625
range: 0.0871539413929
velocity: 0.0
doppler_bin: 8
bearing: -38.9909973145
intensity: 30.0987567902
---
header: 
  seq: 160827
  stamp: 
    secs: 1561866334
    nsecs: 467517242
  frame_id: "ti_mmwave"
point_id: 15
x: 0.044921875
y: -0.046875
z: 0.103515625
range: 0.130730912089
velocity: 0.0
doppler_bin: 8
bearing: -46.218875885
intensity: 28.9982051849
---
header: 
  seq: 160828
  stamp: 
    secs: 1561866334
    nsecs: 468410846
  frame_id: "ti_mmwave"
point_id: 0
x: 0.01171875
y: -0.0390625
z: -0.0078125
range: 0.0435769706964
velocity: 0.0
doppler_bin: 8
bearing: -73.3007583618
intensity: 30.6557979584
---
header: 
  seq: 160829
  stamp: 
    secs: 1561866334
    nsecs: 468480178
  frame_id: "ti_mmwave"
point_id: 1
x: 0.017578125
y: -0.080078125
z: -0.0078125
range: 0.0871539413929
velocity: 0.0
doppler_bin: 8
bearing: -77.6192398071
intensity: 31.9173030853
---
header: 
  seq: 160830
  stamp: 
    secs: 1561866334
    nsecs: 468495159
  frame_id: "ti_mmwave"
point_id: 2
x: 0.029296875
y: -0.119140625
z: -0.005859375
range: 0.130730912089
velocity: 0.0
doppler_bin: 8
bearing: -76.1849746704
intensity: 30.1494026184
---
header: 
  seq: 160831
  stamp: 
    secs: 1561866334
    nsecs: 468504591
  frame_id: "ti_mmwave"
point_id: 3
x: 0.056640625
y: -0.154296875
z: 0.005859375
range: 0.174307882786
velocity: 0.0
doppler_bin: 8
bearing: -69.8423843384
intensity: 25.4654273987
---
header: 
  seq: 160832
  stamp: 
    secs: 1561866334
    nsecs: 468514025
  frame_id: "ti_mmwave"
point_id: 4
x: 0.064453125
y: -0.080078125
z: 1.263671875
range: 1.35088610649
velocity: 0.0
doppler_bin: 8
bearing: -51.1701774597
intensity: 23.138671875
---
header: 
  seq: 160833
  stamp: 
    secs: 1561866334
    nsecs: 468587909
  frame_id: "ti_mmwave"
point_id: 5
x: 0.05078125
y: -0.08203125
z: -1.3046875
range: 1.39446306229
velocity: 0.0
doppler_bin: 8
bearing: -58.2405166626
intensity: 24.6389293671
---
header: 
  seq: 160834
  stamp: 
    secs: 1561866334
    nsecs: 468597900
  frame_id: "ti_mmwave"
point_id: 6
x: 0.435546875
y: -0.083984375
z: -1.275390625
range: 1.43804001808
velocity: 0.0
doppler_bin: 8
bearing: -10.9141130447
intensity: 23.031961441
---
header: 
  seq: 160835
  stamp: 
    secs: 1561866334
    nsecs: 468605478
  frame_id: "ti_mmwave"
point_id: 7
x: 0.572265625
y: -0.04296875
z: -1.267578125
range: 1.48161697388
velocity: 0.0
doppler_bin: 8
bearing: -4.29401493073
intensity: 21.6136798859
---
header: 
  seq: 160836
  stamp: 
    secs: 1561866334
    nsecs: 468613308
  frame_id: "ti_mmwave"
point_id: 8
x: 1.83984375
y: -0.0
z: -0.025390625
range: 1.96096372604
velocity: 0.0
doppler_bin: 8
bearing: -0.0
intensity: 30.1072387695
---
header: 
  seq: 160837
  stamp: 
    secs: 1561866334
    nsecs: 468623436
  frame_id: "ti_mmwave"
point_id: 9
x: 1.880859375
y: -0.0
z: 0.013671875
range: 2.00454068184
velocity: 0.0
doppler_bin: 8
bearing: -0.0
intensity: 30.546131134
---
header: 
  seq: 160838
  stamp: 
    secs: 1561866334
    nsecs: 468632487
  frame_id: "ti_mmwave"
point_id: 10
x: 1.921875
y: -0.0
z: -0.029296875
range: 2.04811763763
velocity: 0.0
doppler_bin: 8
bearing: -0.0
intensity: 27.5511226654
---
header: 
  seq: 160839
  stamp: 
    secs: 1561866334
    nsecs: 468640942
  frame_id: "ti_mmwave"
point_id: 11
x: 2.626953125
y: -0.17578125
z: 1.015625
range: 3.00681090355
velocity: 0.0
doppler_bin: 8
bearing: -3.82821130753
intensity: 29.1115760803
---
header: 
  seq: 160840
  stamp: 
    secs: 1561866334
    nsecs: 468702200
  frame_id: "ti_mmwave"
point_id: 12
x: 2.662109375
y: -0.1796875
z: 1.041015625
range: 3.05038785934
velocity: 0.0
doppler_bin: 8
bearing: -3.86150240898
intensity: 32.240146637
---
header: 
  seq: 160841
  stamp: 
    secs: 1561866334
    nsecs: 468712394
  frame_id: "ti_mmwave"
point_id: 13
x: 2.751953125
y: -0.08984375
z: 0.923828125
range: 3.09396481514
velocity: 0.0
doppler_bin: 8
bearing: -1.86988639832
intensity: 31.2385158539
---
header: 
  seq: 160842
  stamp: 
    secs: 1561866334
    nsecs: 468720659
  frame_id: "ti_mmwave"
point_id: 14
x: 0.009765625
y: 0.03125
z: 0.025390625
range: 0.0435769706964
velocity: 0.0
doppler_bin: 8
bearing: 72.6459732056
intensity: 29.31457901
---
header: 
  seq: 160843
  stamp: 
    secs: 1561866334
    nsecs: 468726433
  frame_id: "ti_mmwave"
point_id: 15
x: 0.041015625
y: -0.033203125
z: 0.0625
range: 0.0871539413929
velocity: 0.0
doppler_bin: 8
bearing: -38.9909973145
intensity: 30.0987567902
---
header: 
  seq: 160844
  stamp: 
    secs: 1561866334
    nsecs: 468767503
  frame_id: "ti_mmwave"
point_id: 16
x: 0.044921875
y: -0.046875
z: 0.103515625
range: 0.130730912089
velocity: 0.0
doppler_bin: 8
bearing: -46.218875885
intensity: 28.9982051849
---
header: 
  seq: 160845
  stamp: 
    secs: 1561866334
    nsecs: 527408948
  frame_id: "ti_mmwave"
point_id: 0
x: 0.01171875
y: -0.0390625
z: -0.0078125
range: 0.0435769706964
velocity: 0.0
doppler_bin: 8
bearing: -73.3007583618
intensity: 30.6520614624
---
header: 
  seq: 160846
  stamp: 
    secs: 1561866334
    nsecs: 527491623
  frame_id: "ti_mmwave"
point_id: 1
x: 0.017578125
y: -0.080078125
z: -0.0078125
range: 0.0871539413929
velocity: 0.0
doppler_bin: 8
bearing: -77.6192398071
intensity: 31.9117145538
---
header: 
  seq: 160847
  stamp: 
    secs: 1561866334
    nsecs: 527502662
  frame_id: "ti_mmwave"
point_id: 2
x: 0.029296875
y: -0.119140625
z: -0.005859375
range: 0.130730912089
velocity: 0.0
doppler_bin: 8
bearing: -76.1849746704
intensity: 30.141002655
---
header: 
  seq: 160848
  stamp: 
    secs: 1561866334
    nsecs: 527511621
  frame_id: "ti_mmwave"
point_id: 3
x: 0.056640625
y: -0.154296875
z: 0.005859375
range: 0.174307882786
velocity: 0.0
doppler_bin: 8
bearing: -69.8423843384
intensity: 25.4530715942
---
header: 
  seq: 160849
  stamp: 
    secs: 1561866334
    nsecs: 527520118
  frame_id: "ti_mmwave"
point_id: 4
x: 0.107421875
y: -0.080078125
z: 1.26171875
range: 1.35088610649
velocity: 0.0
doppler_bin: 8
bearing: -36.7028541565
intensity: 23.0963020325
---
header: 
  seq: 160850
  stamp: 
    secs: 1561866334
    nsecs: 527530335
  frame_id: "ti_mmwave"
point_id: 5
x: 0.05859375
y: -0.08203125
z: 1.3046875
range: 1.39446306229
velocity: 0.0
doppler_bin: 8
bearing: -54.4623222351
intensity: 24.5939254761
---
header: 
  seq: 160851
  stamp: 
    secs: 1561866334
    nsecs: 527538645
  frame_id: "ti_mmwave"
point_id: 6
x: 0.4140625
y: -0.083984375
z: -1.283203125
range: 1.43804001808
velocity: 0.0
doppler_bin: 8
bearing: -11.4657688141
intensity: 23.031961441
---
header: 
  seq: 160852
  stamp: 
    secs: 1561866334
    nsecs: 527546797
  frame_id: "ti_mmwave"
point_id: 7
x: 1.80078125
y: -0.0
z: -0.380859375
range: 1.96096372604
velocity: 0.0
doppler_bin: 8
bearing: -0.0
intensity: 27.9795970917
---
header: 
  seq: 160853
  stamp: 
    secs: 1561866334
    nsecs: 527555018
  frame_id: "ti_mmwave"
point_id: 8
x: 2.623046875
y: -0.17578125
z: 1.02734375
range: 3.00681090355
velocity: 0.0
doppler_bin: 8
bearing: -3.83389568329
intensity: 28.9542255402
---
header: 
  seq: 160854
  stamp: 
    secs: 1561866334
    nsecs: 527564196
  frame_id: "ti_mmwave"
point_id: 9
x: 2.66796875
y: -0.1796875
z: 1.02734375
range: 3.05038785934
velocity: 0.0
doppler_bin: 8
bearing: -3.85304760933
intensity: 32.2115325928
---
header: 
  seq: 160855
  stamp: 
    secs: 1561866334
    nsecs: 527572960
  frame_id: "ti_mmwave"
point_id: 10
x: 2.763671875
y: -0.08984375
z: 0.888671875
range: 3.09396481514
velocity: 0.0
doppler_bin: 8
bearing: -1.8619633913
intensity: 31.2775249481
---
header: 
  seq: 160856
  stamp: 
    secs: 1561866334
    nsecs: 527581168
  frame_id: "ti_mmwave"
point_id: 11
x: 1.849609375
y: 0.05859375
z: -0.34375
range: 2.00454068184
velocity: 0.614668667316
doppler_bin: 9
bearing: 1.81446540356
intensity: 28.7157287598
---
header: 
  seq: 160857
  stamp: 
    secs: 1561866334
    nsecs: 527592249
  frame_id: "ti_mmwave"
point_id: 12
x: 1.8671875
y: 0.12109375
z: -0.443359375
range: 2.04811763763
velocity: 0.614668667316
doppler_bin: 9
bearing: 3.7106385231
intensity: 27.8247261047
---
header: 
  seq: 160858
  stamp: 
    secs: 1561866334
    nsecs: 527603257
  frame_id: "ti_mmwave"
point_id: 14
x: 0.041015625
y: -0.033203125
z: 0.0625
range: 0.0871539413929
velocity: 0.0
doppler_bin: 8
bearing: -38.9909973145
intensity: 30.1072387695
---
header: 
  seq: 160859
  stamp: 
    secs: 1561866334
    nsecs: 527612770
  frame_id: "ti_mmwave"
point_id: 15
x: 0.046875
y: -0.046875
z: 0.103515625
range: 0.130730912089
velocity: 0.0
doppler_bin: 8
bearing: -45.0
intensity: 29.0091304779
---
header: 
  seq: 160860
  stamp: 
    secs: 1561866334
    nsecs: 587250293
  frame_id: "ti_mmwave"
point_id: 0
x: 0.01171875
y: -0.0390625
z: -0.0078125
range: 0.0435769706964
velocity: 0.0
doppler_bin: 8
bearing: -73.3007583618
intensity: 30.6483230591
---
header: 
  seq: 160861
  stamp: 
    secs: 1561866334
    nsecs: 587329873
  frame_id: "ti_mmwave"
point_id: 1
x: 0.017578125
y: -0.080078125
z: -0.0078125
range: 0.0871539413929
velocity: 0.0
doppler_bin: 8
bearing: -77.6192398071
intensity: 31.9117145538
---
header: 
  seq: 160862
  stamp: 
    secs: 1561866334
    nsecs: 587344447
  frame_id: "ti_mmwave"
point_id: 2
x: 0.029296875
y: -0.119140625
z: -0.005859375
range: 0.130730912089
velocity: 0.0
doppler_bin: 8
bearing: -76.1849746704
intensity: 30.141002655
---
header: 
  seq: 160863
  stamp: 
    secs: 1561866334
    nsecs: 587354941
  frame_id: "ti_mmwave"
point_id: 3
x: 0.056640625
y: -0.154296875
z: 0.005859375
range: 0.174307882786
velocity: 0.0
doppler_bin: 8
bearing: -69.8423843384
intensity: 25.4654273987
---
header: 
  seq: 160864
  stamp: 
    secs: 1561866334
    nsecs: 587363923
  frame_id: "ti_mmwave"
point_id: 4
x: 0.095703125
y: -0.080078125
z: 1.26171875
range: 1.35088610649
velocity: 0.0
doppler_bin: 8
bearing: -39.9203910828
intensity: 23.1175384521
---
header: 
  seq: 160865
  stamp: 
    secs: 1561866334
    nsecs: 587374186
  frame_id: "ti_mmwave"
point_id: 6
x: 0.4453125
y: -0.083984375
z: -1.271484375
range: 1.43804001808
velocity: 0.0
doppler_bin: 8
bearing: -10.6803331375
intensity: 23.0102996826
---
header: 
  seq: 160866
  stamp: 
    secs: 1561866334
    nsecs: 587382731
  frame_id: "ti_mmwave"
point_id: 7
x: 0.580078125
y: -0.04296875
z: -1.263671875
range: 1.48161697388
velocity: 0.0
doppler_bin: 8
bearing: -4.2363948822
intensity: 21.5836257935
---
header: 
  seq: 160867
  stamp: 
    secs: 1561866334
    nsecs: 587390359
  frame_id: "ti_mmwave"
point_id: 8
x: 1.908203125
y: 0.060546875
z: -0.234375
range: 2.04811763763
velocity: 0.0
doppler_bin: 8
bearing: 1.81737291813
intensity: 27.9934062958
---
header: 
  seq: 160868
  stamp: 
    secs: 1561866334
    nsecs: 587401295
  frame_id: "ti_mmwave"
point_id: 9
x: 1.9375
y: -0.0
z: -0.314453125
range: 2.09169459343
velocity: 0.0
doppler_bin: 8
bearing: -0.0
intensity: 27.0842094421
---
header: 
  seq: 160869
  stamp: 
    secs: 1561866334
    nsecs: 587413815
  frame_id: "ti_mmwave"
point_id: 10
x: 2.60546875
y: -0.17578125
z: 1.072265625
range: 3.00681090355
velocity: 0.0
doppler_bin: 8
bearing: -3.85968351364
intensity: 28.9320678711
---
header: 
  seq: 160870
  stamp: 
    secs: 1561866334
    nsecs: 587428993
  frame_id: "ti_mmwave"
point_id: 11
x: 2.662109375
y: -0.1796875
z: 1.0390625
range: 3.05038785934
velocity: 0.0
doppler_bin: 8
bearing: -3.86150240898
intensity: 32.1325187683
---
header: 
  seq: 160871
  stamp: 
    secs: 1561866334
    nsecs: 587444540
  frame_id: "ti_mmwave"
point_id: 12
x: 2.76171875
y: -0.08984375
z: 0.896484375
range: 3.09396481514
velocity: 0.0
doppler_bin: 8
bearing: -1.86327898502
intensity: 31.119342804
---
header: 
  seq: 160872
  stamp: 
    secs: 1561866334
    nsecs: 587610114
  frame_id: "ti_mmwave"
point_id: 13
x: 4.4140625
y: -0.142578125
z: 1.216796875
range: 4.88062095642
velocity: 0.0
doppler_bin: 8
bearing: -1.850061059
intensity: 28.3695678711
---
header: 
  seq: 160873
  stamp: 
    secs: 1561866334
    nsecs: 587629973
  frame_id: "ti_mmwave"
point_id: 14
x: 0.009765625
y: 0.03125
z: 0.025390625
range: 0.0435769706964
velocity: 0.0
doppler_bin: 8
bearing: 72.6459732056
intensity: 29.3043956757
---
header: 
  seq: 160874
  stamp: 
    secs: 1561866334
    nsecs: 587638856
  frame_id: "ti_mmwave"
point_id: 15
x: 0.041015625
y: -0.033203125
z: 0.0625
range: 0.0871539413929
velocity: 0.0
doppler_bin: 8
bearing: -38.9909973145
intensity: 30.0987567902
---
header: 
  seq: 160875
  stamp: 
    secs: 1561866334
    nsecs: 587684001
  frame_id: "ti_mmwave"
point_id: 16
x: 0.044921875
y: -0.046875
z: 0.103515625
range: 0.130730912089
velocity: 0.0
doppler_bin: 8
bearing: -46.218875885
intensity: 29.0036716461
---
header: 
  seq: 160876
  stamp: 
    secs: 1561866334
    nsecs: 588712607
  frame_id: "ti_mmwave"
point_id: 0
x: 0.01171875
y: -0.0390625
z: -0.0078125
range: 0.0435769706964
velocity: 0.0
doppler_bin: 8
bearing: -73.3007583618
intensity: 30.6520614624
---
header: 
  seq: 160877
  stamp: 
    secs: 1561866334
    nsecs: 588771717
  frame_id: "ti_mmwave"
point_id: 1
x: 0.017578125
y: -0.080078125
z: -0.0078125
range: 0.0871539413929
velocity: 0.0
doppler_bin: 8
bearing: -77.6192398071
intensity: 31.9117145538
---
header: 
  seq: 160878
  stamp: 
    secs: 1561866334
    nsecs: 588789761
  frame_id: "ti_mmwave"
point_id: 2
x: 0.029296875
y: -0.119140625
z: -0.005859375
range: 0.130730912089
velocity: 0.0
doppler_bin: 8
bearing: -76.1849746704
intensity: 30.141002655
---
header: 
  seq: 160879
  stamp: 
    secs: 1561866334
    nsecs: 588802988
  frame_id: "ti_mmwave"
point_id: 3
x: 0.056640625
y: -0.154296875
z: 0.005859375
range: 0.174307882786
velocity: 0.0
doppler_bin: 8
bearing: -69.8423843384
intensity: 25.4530715942
---
header: 
  seq: 160880
  stamp: 
    secs: 1561866334
    nsecs: 588814644
  frame_id: "ti_mmwave"
point_id: 4
x: 0.13671875
y: -0.080078125
z: 1.2578125
range: 1.35088610649
velocity: 0.0
doppler_bin: 8
bearing: -30.3581142426
intensity: 23.0963020325
---
header: 
  seq: 160881
  stamp: 
    secs: 1561866334
    nsecs: 588825599
  frame_id: "ti_mmwave"
point_id: 5
x: 0.046875
y: -0.08203125
z: -1.3046875
range: 1.39446306229
velocity: 0.0
doppler_bin: 8
bearing: -60.255115509
intensity: 24.6239795685
---
header: 
  seq: 160882
  stamp: 
    secs: 1561866334
    nsecs: 588837578
  frame_id: "ti_mmwave"
point_id: 6
x: 0.4609375
y: -0.083984375
z: -1.265625
range: 1.43804001808
velocity: 0.0
doppler_bin: 8
bearing: -10.3262090683
intensity: 23.0535144806
---
header: 
  seq: 160883
  stamp: 
    secs: 1561866334
    nsecs: 588850878
  frame_id: "ti_mmwave"
point_id: 7
x: 0.60546875
y: -0.04296875
z: -1.251953125
range: 1.48161697388
velocity: 0.0
doppler_bin: 8
bearing: -4.05934619904
intensity: 21.6136798859
---
header: 
  seq: 160884
  stamp: 
    secs: 1561866334
    nsecs: 588862345
  frame_id: "ti_mmwave"
point_id: 8
x: 1.837890625
y: 0.056640625
z: -0.076171875
range: 1.96096372604
velocity: 0.0
doppler_bin: 8
bearing: 1.76519858837
intensity: 27.774269104
---
header: 
  seq: 160885
  stamp: 
    secs: 1561866334
    nsecs: 588874031
  frame_id: "ti_mmwave"
point_id: 9
x: 1.876953125
y: 0.05859375
z: -0.103515625
range: 2.00454068184
velocity: 0.0
doppler_bin: 8
bearing: 1.78804934025
intensity: 30.6408348083
---
header: 
  seq: 160886
  stamp: 
    secs: 1561866334
    nsecs: 588889762
  frame_id: "ti_mmwave"
point_id: 10
x: 1.912109375
y: -0.0
z: -0.193359375
range: 2.04811763763
velocity: 0.0
doppler_bin: 8
bearing: -0.0
intensity: 30.4139270782
---
header: 
  seq: 160887
  stamp: 
    secs: 1561866334
    nsecs: 588951519
  frame_id: "ti_mmwave"
point_id: 11
x: 1.92578125
y: -0.0
z: -0.38671875
range: 2.09169459343
velocity: 0.0
doppler_bin: 8
bearing: -0.0
intensity: 28.2930374146
---
header: 
  seq: 160888
  stamp: 
    secs: 1561866334
    nsecs: 588964719
  frame_id: "ti_mmwave"
point_id: 12
x: 2.6328125
y: -0.17578125
z: 1.0
range: 3.00681090355
velocity: 0.0
doppler_bin: 8
bearing: -3.81971669197
intensity: 29.0579586029
---
header: 
  seq: 160889
  stamp: 
    secs: 1561866334
    nsecs: 588977262
  frame_id: "ti_mmwave"
point_id: 13
x: 2.666015625
y: -0.1796875
z: 1.03125
range: 3.05038785934
velocity: 0.0
doppler_bin: 8
bearing: -3.85586214066
intensity: 32.1642990112
---
header: 
  seq: 160890
  stamp: 
    secs: 1561866334
    nsecs: 588990540
  frame_id: "ti_mmwave"
point_id: 14
x: 2.751953125
y: -0.08984375
z: 0.92578125
range: 3.09396481514
velocity: 0.0
doppler_bin: 8
bearing: -1.86988639832
intensity: 31.0991592407
---
header: 
  seq: 160891
  stamp: 
    secs: 1561866334
    nsecs: 589002273
  frame_id: "ti_mmwave"
point_id: 15
x: 4.42578125
y: -0.142578125
z: 1.177734375
range: 4.88062095642
velocity: 0.0
doppler_bin: 8
bearing: -1.84516572952
intensity: 30.9025802612
---
header: 
  seq: 160892
  stamp: 
    secs: 1561866334
    nsecs: 589014445
  frame_id: "ti_mmwave"
point_id: 16
x: 4.46484375
y: -0.14453125
z: 1.19140625
range: 4.9241976738
velocity: 0.0
doppler_bin: 8
bearing: -1.85407173634
intensity: 30.6707077026
---
header: 
  seq: 160893
  stamp: 
    secs: 1561866334
    nsecs: 589028285
  frame_id: "ti_mmwave"
point_id: 18
x: 0.041015625
y: -0.033203125
z: 0.0625
range: 0.0871539413929
velocity: 0.0
doppler_bin: 8
bearing: -38.9909973145
intensity: 30.1072387695
---
header: 
  seq: 160894
  stamp: 
    secs: 1561866334
    nsecs: 589043023
  frame_id: "ti_mmwave"
point_id: 19
x: 0.044921875
y: -0.046875
z: 0.103515625
range: 0.130730912089
velocity: 0.0
doppler_bin: 8
bearing: -46.218875885
intensity: 29.0036716461
---
header: 
  seq: 160895
  stamp: 
    secs: 1561866334
    nsecs: 647331588
  frame_id: "ti_mmwave"
point_id: 0
x: 0.01171875
y: -0.0390625
z: -0.0078125
range: 0.0435769706964
velocity: 0.0
doppler_bin: 8
bearing: -73.3007583618
intensity: 30.6520614624
---
header: 
  seq: 160896
  stamp: 
    secs: 1561866334
    nsecs: 647417088
  frame_id: "ti_mmwave"
point_id: 1
x: 0.017578125
y: -0.080078125
z: -0.0078125
range: 0.0871539413929
velocity: 0.0
doppler_bin: 8
bearing: -77.6192398071
intensity: 31.9117145538
---
header: 
  seq: 160897
  stamp: 
    secs: 1561866334
    nsecs: 647432161
  frame_id: "ti_mmwave"
point_id: 2
x: 0.029296875
y: -0.119140625
z: -0.005859375
range: 0.130730912089
velocity: 0.0
doppler_bin: 8
bearing: -76.1849746704
intensity: 30.141002655
---
header: 
  seq: 160898
  stamp: 
    secs: 1561866334
    nsecs: 647441125
  frame_id: "ti_mmwave"
point_id: 3
x: 0.056640625
y: -0.154296875
z: 0.005859375
range: 0.174307882786
velocity: 0.0
doppler_bin: 8
bearing: -69.8423843384
intensity: 25.4654273987
---
header: 
  seq: 160899
  stamp: 
    secs: 1561866334
    nsecs: 647450171
  frame_id: "ti_mmwave"
point_id: 4
x: 0.068359375
y: -0.080078125
z: 1.263671875
range: 1.35088610649
velocity: 0.0
doppler_bin: 8
bearing: -49.5139884949
intensity: 23.0963020325
---
header: 
  seq: 160900
  stamp: 
    secs: 1561866334
    nsecs: 647460691
  frame_id: "ti_mmwave"
point_id: 6
x: 0.431640625
y: -0.083984375
z: -1.27734375
range: 1.43804001808
velocity: 0.0
doppler_bin: 8
bearing: -11.0104799271
intensity: 23.0963020325
---
header: 
  seq: 160901
  stamp: 
    secs: 1561866334
    nsecs: 647470483
  frame_id: "ti_mmwave"
point_id: 7
x: 0.56640625
y: -0.04296875
z: -1.26953125
range: 1.48161697388
velocity: 0.0
doppler_bin: 8
bearing: -4.33826684952
intensity: 21.7318630219
---
header: 
  seq: 160902
  stamp: 
    secs: 1561866334
    nsecs: 647480791
  frame_id: "ti_mmwave"
point_id: 8
x: 1.837890625
y: 0.056640625
z: -0.078125
range: 1.96096372604
velocity: 0.0
doppler_bin: 8
bearing: 1.76519858837
intensity: 26.4048137665
---
header: 
  seq: 160903
  stamp: 
    secs: 1561866334
    nsecs: 647492167
  frame_id: "ti_mmwave"
point_id: 9
x: 1.875
y: 0.05859375
z: -0.150390625
range: 2.00454068184
velocity: 0.0
doppler_bin: 8
bearing: 1.7899106741
intensity: 28.767950058
---
header: 
  seq: 160904
  stamp: 
    secs: 1561866334
    nsecs: 647501323
  frame_id: "ti_mmwave"
point_id: 10
x: 1.919921875
y: -0.0
z: -0.111328125
range: 2.04811763763
velocity: 0.0
doppler_bin: 8
bearing: -0.0
intensity: 28.2085800171
---
header: 
  seq: 160905
  stamp: 
    secs: 1561866334
    nsecs: 647509733
  frame_id: "ti_mmwave"
point_id: 11
x: 2.62109375
y: -0.17578125
z: 1.033203125
range: 3.00681090355
velocity: 0.0
doppler_bin: 8
bearing: -3.83674383163
intensity: 28.8986167908
---
header: 
  seq: 160906
  stamp: 
    secs: 1561866334
    nsecs: 647518046
  frame_id: "ti_mmwave"
point_id: 12
x: 2.658203125
y: -0.1796875
z: 1.048828125
range: 3.05038785934
velocity: 0.0
doppler_bin: 8
bearing: -3.86716008186
intensity: 32.1695709229
---
header: 
  seq: 160907
  stamp: 
    secs: 1561866334
    nsecs: 647526858
  frame_id: "ti_mmwave"
point_id: 13
x: 2.75390625
y: -0.08984375
z: 0.916015625
range: 3.09396481514
velocity: 0.0
doppler_bin: 8
bearing: -1.86856126785
intensity: 31.235250473
---
header: 
  seq: 160908
  stamp: 
    secs: 1561866334
    nsecs: 647535921
  frame_id: "ti_mmwave"
point_id: 14
x: 4.41796875
y: -0.142578125
z: 1.205078125
range: 4.88062095642
velocity: 0.0
doppler_bin: 8
bearing: -1.84842634201
intensity: 30.2448558807
---
header: 
  seq: 160909
  stamp: 
    secs: 1561866334
    nsecs: 647555909
  frame_id: "ti_mmwave"
point_id: 15
x: 4.4609375
y: -0.14453125
z: 1.205078125
range: 4.9241976738
velocity: 0.0
doppler_bin: 8
bearing: -1.85569405556
intensity: 29.8989448547
---
header: 
  seq: 160910
  stamp: 
    secs: 1561866334
    nsecs: 647572525
  frame_id: "ti_mmwave"
point_id: 17
x: 0.041015625
y: -0.033203125
z: 0.0625
range: 0.0871539413929
velocity: 0.0
doppler_bin: 8
bearing: -38.9909973145
intensity: 30.1029987335
---
header: 
  seq: 160911
  stamp: 
    secs: 1561866334
    nsecs: 647585911
  frame_id: "ti_mmwave"
point_id: 18
x: 0.044921875
y: -0.046875
z: 0.103515625
range: 0.130730912089
velocity: 0.0
doppler_bin: 8
bearing: -46.218875885
intensity: 29.0036716461
---
header: 
  seq: 160912
  stamp: 
    secs: 1561866334
    nsecs: 649032297
  frame_id: "ti_mmwave"
point_id: 0
x: 0.01171875
y: -0.0390625
z: -0.0078125
range: 0.0435769706964
velocity: 0.0
doppler_bin: 8
bearing: -73.3007583618
intensity: 30.6557979584
---
header: 
  seq: 160913
  stamp: 
    secs: 1561866334
    nsecs: 649077468
  frame_id: "ti_mmwave"
point_id: 1
x: 0.017578125
y: -0.080078125
z: -0.0078125
range: 0.0871539413929
velocity: 0.0
doppler_bin: 8
bearing: -77.6192398071
intensity: 31.9117145538
---
header: 
  seq: 160914
  stamp: 
    secs: 1561866334
    nsecs: 649087966
  frame_id: "ti_mmwave"
point_id: 2
x: 0.029296875
y: -0.119140625
z: -0.005859375
range: 0.130730912089
velocity: 0.0
doppler_bin: 8
bearing: -76.1849746704
intensity: 30.141002655
---
header: 
  seq: 160915
  stamp: 
    secs: 1561866334
    nsecs: 649098809
  frame_id: "ti_mmwave"
point_id: 3
x: 0.056640625
y: -0.154296875
z: 0.005859375
range: 0.174307882786
velocity: 0.0
doppler_bin: 8
bearing: -69.8423843384
intensity: 25.4530715942
---
header: 
  seq: 160916
  stamp: 
    secs: 1561866334
    nsecs: 649145317
  frame_id: "ti_mmwave"
point_id: 4
x: 0.115234375
y: -0.080078125
z: 1.259765625
range: 1.35088610649
velocity: 0.0
doppler_bin: 8
bearing: -34.7960281372
intensity: 23.1175384521
---
header: 
  seq: 160917
  stamp: 
    secs: 1561866334
    nsecs: 649154833
  frame_id: "ti_mmwave"
point_id: 5
x: 0.080078125
y: -0.08203125
z: -1.3046875
range: 1.39446306229
velocity: 0.0
doppler_bin: 8
bearing: -45.6902770996
intensity: 24.6389293671
---
header: 
  seq: 160918
  stamp: 
    secs: 1561866334
    nsecs: 649162433
  frame_id: "ti_mmwave"
point_id: 6
x: 0.4453125
y: -0.083984375
z: -1.271484375
range: 1.43804001808
velocity: 0.0
doppler_bin: 8
bearing: -10.6803331375
intensity: 23.0535144806
---
header: 
  seq: 160919
  stamp: 
    secs: 1561866334
    nsecs: 649170362
  frame_id: "ti_mmwave"
point_id: 7
x: 0.5859375
y: -0.04296875
z: -1.259765625
range: 1.48161697388
velocity: 0.0
doppler_bin: 8
bearing: -4.19418287277
intensity: 21.6731739044
---
header: 
  seq: 160920
  stamp: 
    secs: 1561866334
    nsecs: 649178016
  frame_id: "ti_mmwave"
point_id: 8
x: 1.818359375
y: 0.056640625
z: -0.279296875
range: 1.96096372604
velocity: 0.0
doppler_bin: 8
bearing: 1.78414654732
intensity: 26.8304710388
---
header: 
  seq: 160921
  stamp: 
    secs: 1561866334
    nsecs: 649185713
  frame_id: "ti_mmwave"
point_id: 9
x: 1.86328125
y: 0.1171875
z: -0.236328125
range: 2.00454068184
velocity: 0.0
doppler_bin: 8
bearing: 3.59876823425
intensity: 28.034570694
---
header: 
  seq: 160922
  stamp: 
    secs: 1561866334
    nsecs: 649194964
  frame_id: "ti_mmwave"
point_id: 10
x: 1.91796875
y: 0.060546875
z: -0.109375
range: 2.04811763763
velocity: 0.0
doppler_bin: 8
bearing: 1.80812585354
intensity: 27.9028511047
---
header: 
  seq: 160923
  stamp: 
    secs: 1561866334
    nsecs: 649200297
  frame_id: "ti_mmwave"
point_id: 11
x: 1.958984375
y: 0.060546875
z: -0.109375
range: 2.09169459343
velocity: 0.0
doppler_bin: 8
bearing: 1.77029299736
intensity: 26.9019603729
---
header: 
  seq: 160924
  stamp: 
    secs: 1561866334
    nsecs: 649246259
  frame_id: "ti_mmwave"
point_id: 12
x: 0.642578125
y: -2.537109375
z: -0.099609375
range: 2.78892612457
velocity: 0.0
doppler_bin: 8
bearing: -75.7874679565
intensity: 25.3529415131
---
header: 
  seq: 160925
  stamp: 
    secs: 1561866334
    nsecs: 649260733
  frame_id: "ti_mmwave"
point_id: 13
x: 2.619140625
y: -0.17578125
z: 1.03515625
range: 3.00681090355
velocity: 0.0
doppler_bin: 8
bearing: -3.83959650993
intensity: 29.0902080536
---
header: 
  seq: 160926
  stamp: 
    secs: 1561866334
    nsecs: 649273030
  frame_id: "ti_mmwave"
point_id: 14
x: 2.65625
y: -0.1796875
z: 1.056640625
range: 3.05038785934
velocity: 0.0
doppler_bin: 8
bearing: -3.86999511719
intensity: 32.2608413696
---
header: 
  seq: 160927
  stamp: 
    secs: 1561866334
    nsecs: 649284958
  frame_id: "ti_mmwave"
point_id: 15
x: 2.74609375
y: -0.08984375
z: 0.943359375
range: 3.09396481514
velocity: 0.0
doppler_bin: 8
bearing: -1.8738732338
intensity: 31.1693973541
---
header: 
  seq: 160928
  stamp: 
    secs: 1561866334
    nsecs: 649296010
  frame_id: "ti_mmwave"
point_id: 16
x: 0.009765625
y: 0.03125
z: 0.025390625
range: 0.0435769706964
velocity: 0.0
doppler_bin: 8
bearing: 72.6459732056
intensity: 29.3043956757
---
header: 
  seq: 160929
  stamp: 
    secs: 1561866334
    nsecs: 649311047
  frame_id: "ti_mmwave"
point_id: 17
x: 0.041015625
y: -0.033203125
z: 0.0625
range: 0.0871539413929
velocity: 0.0
doppler_bin: 8
bearing: -38.9909973145
intensity: 30.1029987335
---
header: 
  seq: 160930
  stamp: 
    secs: 1561866334
    nsecs: 649323197
  frame_id: "ti_mmwave"
point_id: 18
x: 0.044921875
y: -0.046875
z: 0.103515625
range: 0.130730912089
velocity: 0.0
doppler_bin: 8
bearing: -46.218875885
intensity: 29.0036716461
---
header: 
  seq: 160931
  stamp: 
    secs: 1561866334
    nsecs: 707132552
  frame_id: "ti_mmwave"
point_id: 0
x: 0.01171875
y: -0.0390625
z: -0.0078125
range: 0.0435769706964
velocity: 0.0
doppler_bin: 8
bearing: -73.3007583618
intensity: 30.6520614624
---
header: 
  seq: 160932
  stamp: 
    secs: 1561866334
    nsecs: 707217648
  frame_id: "ti_mmwave"
point_id: 1
x: 0.017578125
y: -0.080078125
z: -0.0078125
range: 0.0871539413929
velocity: 0.0
doppler_bin: 8
bearing: -77.6192398071
intensity: 31.9117145538
---
header: 
  seq: 160933
  stamp: 
    secs: 1561866334
    nsecs: 707237756
  frame_id: "ti_mmwave"
point_id: 2
x: 0.029296875
y: -0.119140625
z: -0.005859375
range: 0.130730912089
velocity: 0.0
doppler_bin: 8
bearing: -76.1849746704
intensity: 30.141002655
---
header: 
  seq: 160934
  stamp: 
    secs: 1561866334
    nsecs: 707252110
  frame_id: "ti_mmwave"
point_id: 3
x: 0.056640625
y: -0.154296875
z: 0.005859375
range: 0.174307882786
velocity: 0.0
doppler_bin: 8
bearing: -69.8423843384
intensity: 25.4654273987
---
header: 
  seq: 160935
  stamp: 
    secs: 1561866334
    nsecs: 707266785
  frame_id: "ti_mmwave"
point_id: 4
x: 0.037109375
y: -0.080078125
z: 1.265625
range: 1.35088610649
velocity: 0.0
doppler_bin: 8
bearing: -65.1363067627
intensity: 23.1175384521
---
header: 
  seq: 160936
  stamp: 
    secs: 1561866334
    nsecs: 707280440
  frame_id: "ti_mmwave"
point_id: 5
x: 0.01953125
y: -0.08203125
z: -1.306640625
range: 1.39446306229
velocity: 0.0
doppler_bin: 8
bearing: -76.6075057983
intensity: 24.6089782715
---
header: 
  seq: 160937
  stamp: 
    secs: 1561866334
    nsecs: 707292463
  frame_id: "ti_mmwave"
point_id: 6
x: 0.4375
y: -0.083984375
z: -1.2734375
range: 1.43804001808
velocity: 0.0
doppler_bin: 8
bearing: -10.8665513992
intensity: 23.031961441
---
header: 
  seq: 160938
  stamp: 
    secs: 1561866334
    nsecs: 707304968
  frame_id: "ti_mmwave"
point_id: 7
x: 0.587890625
y: -0.04296875
z: -1.259765625
range: 1.48161697388
velocity: 0.0
doppler_bin: 8
bearing: -4.1802983284
intensity: 21.6136798859
---
header: 
  seq: 160939
  stamp: 
    secs: 1561866334
    nsecs: 707318209
  frame_id: "ti_mmwave"
point_id: 8
x: 1.8359375
y: -0.0
z: -0.125
range: 1.96096372604
velocity: 0.0
doppler_bin: 8
bearing: -0.0
intensity: 29.1115760803
---
header: 
  seq: 160940
  stamp: 
    secs: 1561866334
    nsecs: 707335869
  frame_id: "ti_mmwave"
point_id: 9
x: 1.876953125
y: -0.0
z: -0.134765625
range: 2.00454068184
velocity: 0.0
doppler_bin: 8
bearing: -0.0
intensity: 27.9865055084
---
header: 
  seq: 160941
  stamp: 
    secs: 1561866334
    nsecs: 707421756
  frame_id: "ti_mmwave"
point_id: 10
x: 2.615234375
y: -0.17578125
z: 1.044921875
range: 3.00681090355
velocity: 0.0
doppler_bin: 8
bearing: -3.84531402588
intensity: 28.9652614594
---
header: 
  seq: 160942
  stamp: 
    secs: 1561866334
    nsecs: 707441697
  frame_id: "ti_mmwave"
point_id: 11
x: 2.658203125
y: -0.1796875
z: 1.052734375
range: 3.05038785934
velocity: 0.0
doppler_bin: 8
bearing: -3.86716008186
intensity: 32.1695709229
---
header: 
  seq: 160943
  stamp: 
    secs: 1561866334
    nsecs: 707456956
  frame_id: "ti_mmwave"
point_id: 12
x: 2.75
y: -0.08984375
z: 0.927734375
range: 3.09396481514
velocity: 0.0
doppler_bin: 8
bearing: -1.87121355534
intensity: 31.172712326
---
header: 
  seq: 160944
  stamp: 
    secs: 1561866334
    nsecs: 707470704
  frame_id: "ti_mmwave"
point_id: 13
x: 0.009765625
y: 0.03125
z: 0.025390625
range: 0.0435769706964
velocity: 0.0
doppler_bin: 8
bearing: 72.6459732056
intensity: 29.3043956757
---
header: 
  seq: 160945
  stamp: 
    secs: 1561866334
    nsecs: 707485160
  frame_id: "ti_mmwave"
point_id: 14
x: 0.041015625
y: -0.033203125
z: 0.0625
range: 0.0871539413929
velocity: 0.0
doppler_bin: 8
bearing: -38.9909973145
intensity: 30.0945091248
---
header: 
  seq: 160946
  stamp: 
    secs: 1561866334
    nsecs: 707497058
  frame_id: "ti_mmwave"
point_id: 15
x: 0.044921875
y: -0.046875
z: 0.103515625
range: 0.130730912089
velocity: 0.0
doppler_bin: 8
bearing: -46.218875885
intensity: 28.9982051849
---
header: 
  seq: 160947
  stamp: 
    secs: 1561866334
    nsecs: 708311826
  frame_id: "ti_mmwave"
point_id: 0
x: 0.01171875
y: -0.0390625
z: -0.0078125
range: 0.0435769706964
velocity: 0.0
doppler_bin: 8
bearing: -73.3007583618
intensity: 30.6557979584
---
header: 
  seq: 160948
  stamp: 
    secs: 1561866334
    nsecs: 708386058
  frame_id: "ti_mmwave"
point_id: 1
x: 0.017578125
y: -0.080078125
z: -0.0078125
range: 0.0871539413929
velocity: 0.0
doppler_bin: 8
bearing: -77.6192398071
intensity: 31.9117145538
---
header: 
  seq: 160949
  stamp: 
    secs: 1561866334
    nsecs: 708405118
  frame_id: "ti_mmwave"
point_id: 2
x: 0.029296875
y: -0.119140625
z: -0.005859375
range: 0.130730912089
velocity: 0.0
doppler_bin: 8
bearing: -76.1849746704
intensity: 30.141002655
---
header: 
  seq: 160950
  stamp: 
    secs: 1561866334
    nsecs: 708421765
  frame_id: "ti_mmwave"
point_id: 3
x: 0.056640625
y: -0.154296875
z: 0.005859375
range: 0.174307882786
