header: 
  seq: 856741
  stamp: 
    secs: 1561682605
    nsecs:  44040779
  frame_id: "ti_mmwave"
point_id: 0
x: 0.01171875
y: -0.0390625
z: -0.0078125
range: 0.0435769706964
velocity: 0.0
doppler_bin: 8
bearing: -73.3007583618
intensity: 30.7335166931
---
header: 
  seq: 856742
  stamp: 
    secs: 1561682605
    nsecs:  44165414
  frame_id: "ti_mmwave"
point_id: 1
x: 0.017578125
y: -0.080078125
z: -0.0078125
range: 0.0871539413929
velocity: 0.0
doppler_bin: 8
bearing: -77.6192398071
intensity: 31.9645252228
---
header: 
  seq: 856743
  stamp: 
    secs: 1561682605
    nsecs:  44184504
  frame_id: "ti_mmwave"
point_id: 2
x: 0.041015625
y: -0.115234375
z: -0.0078125
range: 0.130730912089
velocity: 0.0
doppler_bin: 8
bearing: -70.4077224731
intensity: 30.2201576233
---
header: 
  seq: 856744
  stamp: 
    secs: 1561682605
    nsecs:  44197027
  frame_id: "ti_mmwave"
point_id: 3
x: 0.056640625
y: -0.154296875
z: 0.005859375
range: 0.174307882786
velocity: 0.0
doppler_bin: 8
bearing: -69.8423843384
intensity: 25.4654273987
---
header: 
  seq: 856745
  stamp: 
    secs: 1561682605
    nsecs:  44210751
  frame_id: "ti_mmwave"
point_id: 4
x: 1.16015625
y: -0.3828125
z: -0.123046875
range: 1.3073091507
velocity: 0.0
doppler_bin: 8
bearing: -18.2611503601
intensity: 23.344537735
---
header: 
  seq: 856746
  stamp: 
    secs: 1561682605
    nsecs:  44222860
  frame_id: "ti_mmwave"
point_id: 5
x: 1.203125
y: -0.396484375
z: -0.04296875
range: 1.35088610649
velocity: 0.0
doppler_bin: 8
bearing: -18.239402771
intensity: 27.4896278381
---
header: 
  seq: 856747
  stamp: 
    secs: 1561682605
    nsecs:  44234306
  frame_id: "ti_mmwave"
point_id: 6
x: 1.232421875
y: -0.408203125
z: -0.158203125
range: 1.39446306229
velocity: 0.0
doppler_bin: 8
bearing: -18.3259181976
intensity: 29.5327625275
---
header: 
  seq: 856748
  stamp: 
    secs: 1561682605
    nsecs:  44247230
  frame_id: "ti_mmwave"
point_id: 7
x: 1.26171875
y: -0.421875
z: -0.232421875
range: 1.43804001808
velocity: 0.0
doppler_bin: 8
bearing: -18.4881496429
intensity: 29.1592712402
---
header: 
  seq: 856749
  stamp: 
    secs: 1561682605
    nsecs:  44259376
  frame_id: "ti_mmwave"
point_id: 8
x: 1.27734375
y: -0.478515625
z: -0.271484375
range: 1.48161697388
velocity: 0.0
doppler_bin: 8
bearing: -20.5368404388
intensity: 25.550945282
---
header: 
  seq: 856750
  stamp: 
    secs: 1561682605
    nsecs:  44270829
  frame_id: "ti_mmwave"
point_id: 9
x: 2.537109375
y: -0.263671875
z: 1.208984375
range: 3.00681090355
velocity: 0.0
doppler_bin: 8
bearing: -5.93322753906
intensity: 29.4694328308
---
header: 
  seq: 856751
  stamp: 
    secs: 1561682605
    nsecs:  44282277
  frame_id: "ti_mmwave"
point_id: 10
x: 2.6015625
y: -0.267578125
z: 1.166015625
range: 3.05038785934
velocity: 0.0
doppler_bin: 8
bearing: -5.87238502502
intensity: 32.7760925293
---
header: 
  seq: 856752
  stamp: 
    secs: 1561682605
    nsecs:  44373147
  frame_id: "ti_mmwave"
point_id: 11
x: 2.662109375
y: -0.271484375
z: 1.126953125
range: 3.09396481514
velocity: 0.0
doppler_bin: 8
bearing: -5.82294607162
intensity: 31.9783172607
---
header: 
  seq: 856753
  stamp: 
    secs: 1561682605
    nsecs:  44387813
  frame_id: "ti_mmwave"
point_id: 12
x: 4.447265625
y: -0.287109375
z: 1.064453125
range: 4.88062095642
velocity: 0.0
doppler_bin: 8
bearing: -3.69381117821
intensity: 30.6929798126
---
header: 
  seq: 856754
  stamp: 
    secs: 1561682605
    nsecs:  44398651
  frame_id: "ti_mmwave"
point_id: 13
x: 4.484375
y: -0.43359375
z: 1.033203125
range: 4.9241976738
velocity: 0.0
doppler_bin: 8
bearing: -5.52275466919
intensity: 30.4375514984
---
header: 
  seq: 856755
  stamp: 
    secs: 1561682605
    nsecs:  44409317
  frame_id: "ti_mmwave"
point_id: 14
x: 4.736328125
y: -0.44921875
z: -0.525390625
range: 5.09850549698
velocity: 0.0
doppler_bin: 8
bearing: -5.41803121567
intensity: 32.3653717041
---
header: 
  seq: 856756
  stamp: 
    secs: 1561682605
    nsecs:  44421669
  frame_id: "ti_mmwave"
point_id: 15
x: 4.775390625
y: -0.453125
z: -0.541015625
range: 5.14208269119
velocity: 0.0
doppler_bin: 8
bearing: -5.42042589188
intensity: 33.0405960083
---
header: 
  seq: 856757
  stamp: 
    secs: 1561682605
    nsecs:  44431942
  frame_id: "ti_mmwave"
point_id: 16
x: 4.87109375
y: -0.30859375
z: 0.8203125
range: 5.27281332016
velocity: 0.0
doppler_bin: 8
bearing: -3.62496066093
intensity: 30.8314418793
---
header: 
  seq: 856758
  stamp: 
    secs: 1561682605
    nsecs:  44442401
  frame_id: "ti_mmwave"
point_id: 17
x: 1.02734375
y: -0.232421875
z: -0.1484375
range: 1.13300120831
velocity: 1.22933733463
doppler_bin: 10
bearing: -12.747756958
intensity: 21.172712326
---
header: 
  seq: 856759
  stamp: 
    secs: 1561682605
    nsecs:  44454246
  frame_id: "ti_mmwave"
point_id: 18
x: 1.05859375
y: -0.275390625
z: -0.158203125
range: 1.1765781641
velocity: 1.22933733463
doppler_bin: 10
bearing: -14.5821380615
intensity: 22.3299617767
---
header: 
  seq: 856760
  stamp: 
    secs: 1561682605
    nsecs:  44465674
  frame_id: "ti_mmwave"
point_id: 19
x: 0.92578125
y: -0.46484375
z: -0.240234375
range: 1.13300120831
velocity: -0.614668667316
doppler_bin: 7
bearing: -26.6616706848
intensity: 22.8330116272
---
header: 
  seq: 856761
  stamp: 
    secs: 1561682605
    nsecs:  44476663
  frame_id: "ti_mmwave"
point_id: 20
x: 0.96484375
y: -0.482421875
z: -0.23828125
range: 1.1765781641
velocity: -0.614668667316
doppler_bin: 7
bearing: -26.5650501251
intensity: 23.6361198425
---
header: 
  seq: 856762
  stamp: 
    secs: 1561682605
    nsecs:  44487557
  frame_id: "ti_mmwave"
point_id: 21
x: 1.041015625
y: -0.4296875
z: -0.208984375
range: 1.22015523911
velocity: -0.614668667316
doppler_bin: 7
bearing: -22.4287776947
intensity: 21.205739975
---
header: 
  seq: 856763
  stamp: 
    secs: 1561682605
    nsecs:  44500589
  frame_id: "ti_mmwave"
point_id: 23
x: 0.041015625
y: -0.033203125
z: 0.0625
range: 0.0871539413929
velocity: 0.0
doppler_bin: 8
bearing: -38.9909973145
intensity: 30.1367969513
---
header: 
  seq: 856764
  stamp: 
    secs: 1561682605
    nsecs:  44533313
  frame_id: "ti_mmwave"
point_id: 24
x: 0.052734375
y: -0.04296875
z: 0.1015625
range: 0.130730912089
velocity: 0.0
doppler_bin: 8
bearing: -39.1736602783
intensity: 29.0036716461
---
header: 
  seq: 856765
  stamp: 
    secs: 1561682605
    nsecs:  44557344
  frame_id: "ti_mmwave"
point_id: 26
x: 0.7109375
y: 0.04296875
z: 1.193359375
range: 1.48161697388
velocity: 0.0
doppler_bin: 8
bearing: 3.45872426033
intensity: 23.4635295868
---
header: 
  seq: 856766
  stamp: 
    secs: 1561682605
    nsecs: 104108991
  frame_id: "ti_mmwave"
point_id: 0
x: 0.01171875
y: -0.0390625
z: -0.0078125
range: 0.0435769706964
velocity: 0.0
doppler_bin: 8
bearing: -73.3007583618
intensity: 30.7371826172
---
header: 
  seq: 856767
  stamp: 
    secs: 1561682605
    nsecs: 104183317
  frame_id: "ti_mmwave"
point_id: 1
x: 0.017578125
y: -0.080078125
z: -0.0078125
range: 0.0871539413929
velocity: 0.0
doppler_bin: 8
bearing: -77.6192398071
intensity: 31.9672870636
---
header: 
  seq: 856768
  stamp: 
    secs: 1561682605
    nsecs: 104196752
  frame_id: "ti_mmwave"
point_id: 2
x: 0.041015625
y: -0.115234375
z: -0.0078125
range: 0.130730912089
velocity: 0.0
doppler_bin: 8
bearing: -70.4077224731
intensity: 30.2242832184
---
header: 
  seq: 856769
  stamp: 
    secs: 1561682605
    nsecs: 104209854
  frame_id: "ti_mmwave"
point_id: 3
x: 0.056640625
y: -0.154296875
z: 0.005859375
range: 0.174307882786
velocity: 0.0
doppler_bin: 8
bearing: -69.8423843384
intensity: 25.4777469635
---
header: 
  seq: 856770
  stamp: 
    secs: 1561682605
    nsecs: 104220832
  frame_id: "ti_mmwave"
point_id: 4
x: 1.10546875
y: -0.421875
z: 0.326171875
range: 1.3073091507
velocity: 0.0
doppler_bin: 8
bearing: -20.8881263733
intensity: 20.934217453
---
header: 
  seq: 856771
  stamp: 
    secs: 1561682605
    nsecs: 104231887
  frame_id: "ti_mmwave"
point_id: 5
x: 1.19140625
y: -0.435546875
z: 0.01171875
range: 1.35088610649
velocity: 0.0
doppler_bin: 8
bearing: -20.0810852051
intensity: 25.831987381
---
header: 
  seq: 856772
  stamp: 
    secs: 1561682605
    nsecs: 104247407
  frame_id: "ti_mmwave"
point_id: 6
x: 1.21875
y: -0.44921875
z: -0.154296875
range: 1.39446306229
velocity: 0.0
doppler_bin: 8
bearing: -20.2333679199
intensity: 28.9486961365
---
header: 
  seq: 856773
  stamp: 
    secs: 1561682605
    nsecs: 104258669
  frame_id: "ti_mmwave"
point_id: 7
x: 1.251953125
y: -0.46484375
z: -0.19921875
range: 1.43804001808
velocity: 0.0
doppler_bin: 8
bearing: -20.3697013855
intensity: 29.247959137
---
header: 
  seq: 856774
  stamp: 
    secs: 1561682605
    nsecs: 104269890
  frame_id: "ti_mmwave"
point_id: 8
x: 1.294921875
y: -0.478515625
z: -0.171875
range: 1.48161697388
velocity: 0.0
doppler_bin: 8
bearing: -20.2809066772
intensity: 26.170003891
---
header: 
  seq: 856775
  stamp: 
    secs: 1561682605
    nsecs: 104281444
  frame_id: "ti_mmwave"
point_id: 9
x: 2.54296875
y: -0.263671875
z: 1.1953125
range: 3.00681090355
velocity: 0.0
doppler_bin: 8
bearing: -5.91965341568
intensity: 29.4987773895
---
header: 
  seq: 856776
  stamp: 
    secs: 1561682605
    nsecs: 104294216
  frame_id: "ti_mmwave"
point_id: 10
x: 2.6015625
y: -0.267578125
z: 1.16796875
range: 3.05038785934
velocity: 0.0
doppler_bin: 8
bearing: -5.87238502502
intensity: 32.7989501953
---
header: 
  seq: 856777
  stamp: 
    secs: 1561682605
    nsecs: 104306228
  frame_id: "ti_mmwave"
point_id: 11
x: 2.66015625
y: -0.181640625
z: 1.15234375
range: 3.09396481514
velocity: 0.0
doppler_bin: 8
bearing: -3.90620398521
intensity: 32.0411987305
---
header: 
  seq: 856778
  stamp: 
    secs: 1561682605
    nsecs: 104331175
  frame_id: "ti_mmwave"
point_id: 12
x: 4.435546875
y: -0.287109375
z: 1.115234375
range: 4.88062095642
velocity: 0.0
doppler_bin: 8
bearing: -3.70354294777
intensity: 30.7845687866
---
header: 
  seq: 856779
  stamp: 
    secs: 1561682605
    nsecs: 104429956
  frame_id: "ti_mmwave"
point_id: 13
x: 4.474609375
y: -0.2890625
z: 1.12109375
range: 4.9241976738
velocity: 0.0
doppler_bin: 8
bearing: -3.69620633125
intensity: 30.4610481262
---
header: 
  seq: 856780
  stamp: 
    secs: 1561682605
    nsecs: 104449128
  frame_id: "ti_mmwave"
point_id: 14
x: 4.736328125
y: -0.44921875
z: -0.525390625
range: 5.09850549698
velocity: 0.0
doppler_bin: 8
bearing: -5.41803121567
intensity: 33.2551574707
---
header: 
  seq: 856781
  stamp: 
    secs: 1561682605
    nsecs: 104462330
  frame_id: "ti_mmwave"
point_id: 15
x: 4.77734375
y: -0.453125
z: -0.529296875
range: 5.14208269119
velocity: 0.0
doppler_bin: 8
bearing: -5.41822242737
intensity: 34.0191726685
---
header: 
  seq: 856782
  stamp: 
    secs: 1561682605
    nsecs: 104474753
  frame_id: "ti_mmwave"
point_id: 16
x: 4.8125
y: -0.45703125
z: -0.578125
range: 5.18565940857
velocity: 0.0
doppler_bin: 8
bearing: -5.42496871948
intensity: 30.6669845581
---
header: 
  seq: 856783
  stamp: 
    secs: 1561682605
    nsecs: 104488177
  frame_id: "ti_mmwave"
point_id: 17
x: 4.8671875
y: -0.30859375
z: 0.84375
range: 5.27281332016
velocity: 0.0
doppler_bin: 8
bearing: -3.62786221504
intensity: 30.6632595062
---
header: 
  seq: 856784
  stamp: 
    secs: 1561682605
    nsecs: 104502632
  frame_id: "ti_mmwave"
point_id: 18
x: 1.10546875
y: -0.21484375
z: -0.205078125
range: 1.22015523911
velocity: 1.22933733463
doppler_bin: 10
bearing: -10.9981212616
intensity: 19.6848297119
---
header: 
  seq: 856785
  stamp: 
    secs: 1561682605
    nsecs: 104515982
  frame_id: "ti_mmwave"
point_id: 19
x: 1.361328125
y: -0.216796875
z: -0.1796875
range: 1.48161697388
velocity: 1.22933733463
doppler_bin: 10
bearing: -9.04859256744
intensity: 26.3144378662
---
header: 
  seq: 856786
  stamp: 
    secs: 1561682605
    nsecs: 104532711
  frame_id: "ti_mmwave"
point_id: 20
x: 1.408203125
y: -0.1796875
z: -0.18359375
range: 1.52519392967
velocity: 1.22933733463
doppler_bin: 10
bearing: -7.27167701721
intensity: 25.5388298035
---
header: 
  seq: 856787
  stamp: 
    secs: 1561682605
    nsecs: 104555008
  frame_id: "ti_mmwave"
point_id: 22
x: 0.041015625
y: -0.033203125
z: 0.0625
range: 0.0871539413929
velocity: 0.0
doppler_bin: 8
bearing: -38.9909973145
intensity: 30.1325874329
---
header: 
  seq: 856788
  stamp: 
    secs: 1561682605
    nsecs: 104595277
  frame_id: "ti_mmwave"
point_id: 23
x: 0.052734375
y: -0.04296875
z: 0.1015625
range: 0.130730912089
velocity: 0.0
doppler_bin: 8
bearing: -39.1736602783
intensity: 28.9982051849
---
header: 
  seq: 856789
  stamp: 
    secs: 1561682605
    nsecs: 104606861
  frame_id: "ti_mmwave"
point_id: 25
x: 0.271484375
y: -0.0
z: -1.23828125
range: 1.35088610649
velocity: 0.0
doppler_bin: 8
bearing: -0.0
intensity: 23.1597042084
---
header: 
  seq: 856790
  stamp: 
    secs: 1561682605
    nsecs: 104616236
  frame_id: "ti_mmwave"
point_id: 26
x: 0.822265625
y: 0.04296875
z: 1.12109375
range: 1.48161697388
velocity: 0.0
doppler_bin: 8
bearing: 2.99135780334
intensity: 24.4560413361
---
header: 
  seq: 856791
  stamp: 
    secs: 1561682605
    nsecs: 105720846
  frame_id: "ti_mmwave"
point_id: 0
x: 0.01171875
y: -0.0390625
z: -0.0078125
range: 0.0435769706964
velocity: 0.0
doppler_bin: 8
bearing: -73.3007583618
intensity: 30.7371826172
---
header: 
  seq: 856792
  stamp: 
    secs: 1561682605
    nsecs: 105792162
  frame_id: "ti_mmwave"
point_id: 1
x: 0.017578125
y: -0.080078125
z: -0.0078125
range: 0.0871539413929
velocity: 0.0
doppler_bin: 8
bearing: -77.6192398071
intensity: 31.9672870636
---
header: 
  seq: 856793
  stamp: 
    secs: 1561682605
    nsecs: 105809265
  frame_id: "ti_mmwave"
point_id: 2
x: 0.041015625
y: -0.115234375
z: -0.0078125
range: 0.130730912089
velocity: 0.0
doppler_bin: 8
bearing: -70.4077224731
intensity: 30.2284069061
---
header: 
  seq: 856794
  stamp: 
    secs: 1561682605
    nsecs: 105828045
  frame_id: "ti_mmwave"
point_id: 3
x: 0.056640625
y: -0.154296875
z: 0.005859375
range: 0.174307882786
velocity: 0.0
doppler_bin: 8
bearing: -69.8423843384
intensity: 25.4777469635
---
header: 
  seq: 856795
  stamp: 
    secs: 1561682605
    nsecs: 105885241
  frame_id: "ti_mmwave"
point_id: 4
x: 0.880859375
y: -0.447265625
z: -0.265625
range: 1.08942425251
velocity: 0.0
doppler_bin: 8
bearing: -26.9196624756
intensity: 21.9865703583
---
header: 
  seq: 856796
  stamp: 
    secs: 1561682605
    nsecs: 105902052
  frame_id: "ti_mmwave"
point_id: 5
x: 0.939453125
y: -0.431640625
z: -0.251953125
range: 1.13300120831
velocity: 0.0
doppler_bin: 8
bearing: -24.6768627167
intensity: 23.9619941711
---
header: 
  seq: 856797
  stamp: 
    secs: 1561682605
    nsecs: 105915782
  frame_id: "ti_mmwave"
point_id: 6
x: 0.974609375
y: -0.44921875
z: -0.263671875
range: 1.1765781641
velocity: 0.0
doppler_bin: 8
bearing: -24.7460098267
intensity: 22.4551258087
---
header: 
  seq: 856798
  stamp: 
    secs: 1561682605
    nsecs: 105929473
  frame_id: "ti_mmwave"
point_id: 7
x: 1.17578125
y: -0.474609375
z: -0.029296875
range: 1.35088610649
velocity: 0.0
doppler_bin: 8
bearing: -21.9816875458
intensity: 28.2151355743
---
header: 
  seq: 856799
  stamp: 
    secs: 1561682605
    nsecs: 105949991
  frame_id: "ti_mmwave"
point_id: 8
x: 1.2109375
y: -0.490234375
z: -0.087890625
range: 1.39446306229
velocity: 0.0
doppler_bin: 8
bearing: -22.0400085449
intensity: 31.8695640564
---
header: 
  seq: 856800
  stamp: 
    secs: 1561682605
    nsecs: 105994414
  frame_id: "ti_mmwave"
point_id: 9
x: 1.248046875
y: -0.505859375
z: -0.078125
range: 1.43804001808
velocity: 0.0
doppler_bin: 8
bearing: -22.0637378693
intensity: 32.1774711609
---
header: 
  seq: 856801
  stamp: 
    secs: 1561682605
    nsecs: 106009540
  frame_id: "ti_mmwave"
point_id: 10
x: 1.2890625
y: -0.521484375
z: -0.00390625
range: 1.48161697388
velocity: 0.0
doppler_bin: 8
bearing: -22.0255699158
intensity: 29.8181858063
---
header: 
  seq: 856802
  stamp: 
    secs: 1561682605
    nsecs: 106023186
  frame_id: "ti_mmwave"
point_id: 11
x: 1.359375
y: -0.447265625
z: 0.03515625
range: 1.52519392967
velocity: 0.0
doppler_bin: 8
bearing: -18.2123947144
intensity: 25.6937389374
---
header: 
  seq: 856803
  stamp: 
    secs: 1561682605
    nsecs: 106036545
  frame_id: "ti_mmwave"
point_id: 12
x: 2.544921875
y: -0.263671875
z: 1.193359375
range: 3.00681090355
velocity: 0.0
doppler_bin: 8
bearing: -5.91514253616
intensity: 29.484128952
---
header: 
  seq: 856804
  stamp: 
    secs: 1561682605
    nsecs: 106053830
  frame_id: "ti_mmwave"
point_id: 13
x: 2.603515625
y: -0.267578125
z: 1.162109375
range: 3.05038785934
velocity: 0.0
doppler_bin: 8
bearing: -5.8680100441
intensity: 32.7600212097
---
header: 
  seq: 856805
  stamp: 
    secs: 1561682605
    nsecs: 106067148
  frame_id: "ti_mmwave"
point_id: 14
x: 2.662109375
y: -0.181640625
z: 1.1484375
range: 3.09396481514
velocity: 0.0
doppler_bin: 8
bearing: -3.90334677696
intensity: 31.9783172607
---
header: 
  seq: 856806
  stamp: 
    secs: 1561682605
    nsecs: 106092914
  frame_id: "ti_mmwave"
point_id: 15
x: 4.421875
y: -0.287109375
z: 1.166015625
range: 4.88062095642
velocity: 0.0
doppler_bin: 8
bearing: -3.7149617672
intensity: 30.7809410095
---
header: 
  seq: 856807
  stamp: 
    secs: 1561682605
    nsecs: 106114642
  frame_id: "ti_mmwave"
point_id: 16
x: 4.43359375
y: -0.2890625
z: 1.27734375
range: 4.9241976738
velocity: 0.0
doppler_bin: 8
bearing: -3.73030400276
intensity: 30.3862018585
---
header: 
  seq: 856808
  stamp: 
    secs: 1561682605
    nsecs: 106132273
  frame_id: "ti_mmwave"
point_id: 17
x: 4.73828125
y: -0.44921875
z: -0.5
range: 5.09850549698
velocity: 0.0
doppler_bin: 8
bearing: -5.4158115387
intensity: 33.6116104126
---
header: 
  seq: 856809
  stamp: 
    secs: 1561682605
    nsecs: 106188782
  frame_id: "ti_mmwave"
point_id: 18
x: 4.79296875
y: -0.30078125
z: -0.482421875
range: 5.14208269119
velocity: 0.0
doppler_bin: 8
bearing: -3.59086942673
intensity: 34.2258987427
---
header: 
  seq: 856810
  stamp: 
    secs: 1561682605
    nsecs: 106203539
  frame_id: "ti_mmwave"
point_id: 19
x: 4.82421875
y: -0.45703125
z: -0.470703125
range: 5.18565940857
velocity: 0.0
doppler_bin: 8
bearing: -5.41186904907
intensity: 30.9968070984
---
header: 
  seq: 856811
  stamp: 
    secs: 1561682605
    nsecs: 106217365
  frame_id: "ti_mmwave"
point_id: 20
x: 4.876953125
y: -0.30859375
z: 0.791015625
range: 5.27281332016
velocity: 0.0
doppler_bin: 8
bearing: -3.62061715126
intensity: 30.6669845581
---
header: 
  seq: 856812
  stamp: 
    secs: 1561682605
    nsecs: 106236490
  frame_id: "ti_mmwave"
point_id: 22
x: 0.041015625
y: -0.033203125
z: 0.0625
range: 0.0871539413929
velocity: 0.0
doppler_bin: 8
bearing: -38.9909973145
intensity: 30.1325874329
---
header: 
  seq: 856813
  stamp: 
    secs: 1561682605
    nsecs: 106253444
  frame_id: "ti_mmwave"
point_id: 23
x: 0.052734375
y: -0.04296875
z: 0.1015625
range: 0.130730912089
velocity: 0.0
doppler_bin: 8
bearing: -39.1736602783
intensity: 29.0036716461
---
header: 
  seq: 856814
  stamp: 
    secs: 1561682605
    nsecs: 106268955
  frame_id: "ti_mmwave"
point_id: 25
x: 4.763671875
y: -0.603515625
z: -0.498046875
range: 5.14208269119
velocity: 0.0
doppler_bin: 8
bearing: -7.2204079628
intensity: 34.2258987427
---
header: 
  seq: 856815
  stamp: 
    secs: 1561682605
    nsecs: 164135097
  frame_id: "ti_mmwave"
point_id: 0
x: 0.01171875
y: -0.0390625
z: -0.0078125
range: 0.0435769706964
velocity: 0.0
doppler_bin: 8
bearing: -73.3007583618
intensity: 30.7371826172
---
header: 
  seq: 856816
  stamp: 
    secs: 1561682605
    nsecs: 164213846
  frame_id: "ti_mmwave"
point_id: 1
x: 0.017578125
y: -0.080078125
z: -0.0078125
range: 0.0871539413929
velocity: 0.0
doppler_bin: 8
bearing: -77.6192398071
intensity: 31.9700469971
---
header: 
  seq: 856817
  stamp: 
    secs: 1561682605
    nsecs: 164226299
  frame_id: "ti_mmwave"
point_id: 2
x: 0.041015625
y: -0.115234375
z: -0.0078125
range: 0.130730912089
velocity: 0.0
doppler_bin: 8
bearing: -70.4077224731
intensity: 30.2325248718
---
header: 
  seq: 856818
  stamp: 
    secs: 1561682605
    nsecs: 164234700
  frame_id: "ti_mmwave"
point_id: 3
x: 0.056640625
y: -0.154296875
z: 0.005859375
range: 0.174307882786
velocity: 0.0
doppler_bin: 8
bearing: -69.8423843384
intensity: 25.490032196
---
header: 
  seq: 856819
  stamp: 
    secs: 1561682605
    nsecs: 164245188
  frame_id: "ti_mmwave"
point_id: 4
x: 1.185546875
y: -0.435546875
z: 0.111328125
range: 1.35088610649
velocity: 0.0
doppler_bin: 8
bearing: -20.1723499298
intensity: 24.9692974091
---
header: 
  seq: 856820
  stamp: 
    secs: 1561682605
    nsecs: 164255296
  frame_id: "ti_mmwave"
point_id: 5
x: 1.1953125
y: -0.53125
z: -0.03515625
range: 1.39446306229
velocity: 0.0
doppler_bin: 8
bearing: -23.9624900818
intensity: 27.1349048615
---
header: 
  seq: 856821
  stamp: 
    secs: 1561682605
    nsecs: 164263621
  frame_id: "ti_mmwave"
point_id: 6
x: 1.234375
y: -0.505859375
z: -0.2109375
range: 1.43804001808
velocity: 0.0
doppler_bin: 8
bearing: -22.2843151093
intensity: 27.3957233429
---
header: 
  seq: 856822
  stamp: 
    secs: 1561682605
    nsecs: 164281497
  frame_id: "ti_mmwave"
point_id: 7
x: 2.55078125
y: -0.263671875
z: 1.177734375
range: 3.00681090355
velocity: 0.0
doppler_bin: 8
bearing: -5.90165042877
intensity: 29.4151134491
---
header: 
  seq: 856823
  stamp: 
    secs: 1561682605
    nsecs: 164298651
  frame_id: "ti_mmwave"
point_id: 8
x: 2.60546875
y: -0.267578125
z: 1.15625
range: 3.05038785934
velocity: 0.0
doppler_bin: 8
bearing: -5.86364221573
intensity: 32.7760925293
---
header: 
  seq: 856824
  stamp: 
    secs: 1561682605
    nsecs: 164314359
  frame_id: "ti_mmwave"
point_id: 9
x: 2.66015625
y: -0.271484375
z: 1.1328125
range: 3.09396481514
velocity: 0.0
doppler_bin: 8
bearing: -5.82719182968
intensity: 31.9920654297
---
header: 
  seq: 856825
  stamp: 
    secs: 1561682605
    nsecs: 164330709
  frame_id: "ti_mmwave"
point_id: 10
x: 4.435546875
y: -0.287109375
z: 1.11328125
range: 4.88062095642
velocity: 0.0
doppler_bin: 8
bearing: -3.70354294777
intensity: 30.6892757416
---
header: 
  seq: 856826
  stamp: 
    secs: 1561682605
    nsecs: 164339747
  frame_id: "ti_mmwave"
point_id: 11
x: 4.47265625
y: -0.2890625
z: 1.1328125
range: 4.9241976738
velocity: 0.0
doppler_bin: 8
bearing: -3.6978161335
intensity: 30.2775726318
---
header: 
  seq: 856827
  stamp: 
    secs: 1561682605
    nsecs: 164347962
  frame_id: "ti_mmwave"
point_id: 12
x: 4.693359375
y: -0.4453125
z: -0.53515625
range: 5.0549287796
velocity: 0.0
doppler_bin: 8
bearing: -5.42007780075
intensity: 29.4546852112
---
header: 
  seq: 856828
  stamp: 
    secs: 1561682605
    nsecs: 164531268
  frame_id: "ti_mmwave"
point_id: 13
x: 4.73828125
y: -0.44921875
z: -0.494140625
range: 5.09850549698
velocity: 0.0
doppler_bin: 8
bearing: -5.4158115387
intensity: 33.7548065186
---
header: 
  seq: 856829
  stamp: 
    secs: 1561682605
    nsecs: 164559579
  frame_id: "ti_mmwave"
point_id: 14
x: 4.763671875
y: -0.603515625
z: -0.486328125
range: 5.14208269119
velocity: 0.0
doppler_bin: 8
bearing: -7.2204079628
intensity: 34.4043693542
---
header: 
  seq: 856830
  stamp: 
    secs: 1561682605
    nsecs: 164571915
  frame_id: "ti_mmwave"
point_id: 15
x: 4.828125
y: -0.45703125
z: -0.431640625
range: 5.18565940857
velocity: 0.0
doppler_bin: 8
bearing: -5.40751647949
intensity: 31.3608608246
---
header: 
  seq: 856831
  stamp: 
    secs: 1561682605
    nsecs: 164583604
  frame_id: "ti_mmwave"
point_id: 16
x: 4.880859375
y: -0.30859375
z: 0.755859375
range: 5.27281332016
velocity: 0.0
doppler_bin: 8
bearing: -3.61772704124
intensity: 30.7918128967
---
header: 
  seq: 856832
  stamp: 
    secs: 1561682605
    nsecs: 164595935
  frame_id: "ti_mmwave"
point_id: 17
x: 0.923828125
y: -0.416015625
z: -0.13671875
range: 1.08942425251
velocity: 0.614668667316
doppler_bin: 9
bearing: -24.2428531647
intensity: 23.5410842896
---
header: 
  seq: 856833
  stamp: 
    secs: 1561682605
    nsecs: 164606879
  frame_id: "ti_mmwave"
point_id: 18
x: 0.958984375
y: -0.431640625
z: -0.16015625
range: 1.13300120831
velocity: 0.614668667316
doppler_bin: 9
bearing: -24.2325954437
intensity: 26.2013607025
---
header: 
  seq: 856834
  stamp: 
    secs: 1561682605
    nsecs: 164641264
  frame_id: "ti_mmwave"
point_id: 19
x: 0.994140625
y: -0.44921875
z: -0.177734375
range: 1.1765781641
velocity: 0.614668667316
doppler_bin: 9
bearing: -24.3166122437
intensity: 25.1851387024
---
header: 
  seq: 856835
  stamp: 
    secs: 1561682605
    nsecs: 164664787
  frame_id: "ti_mmwave"
point_id: 20
x: 1.060546875
y: -0.39453125
z: -0.173828125
range: 1.22015523911
velocity: 0.614668667316
doppler_bin: 9
bearing: -20.4055728912
intensity: 20.3342380524
---
header: 
  seq: 856836
  stamp: 
    secs: 1561682605
    nsecs: 164682421
  frame_id: "ti_mmwave"
point_id: 21
x: 1.4453125
y: -0.18359375
z: -0.21875
range: 1.56877088547
velocity: 1.22933733463
doppler_bin: 10
bearing: -7.23934078217
intensity: 21.205739975
---
header: 
  seq: 856837
  stamp: 
    secs: 1561682605
    nsecs: 164756432
  frame_id: "ti_mmwave"
point_id: 22
x: 1.18359375
y: -0.23828125
z: -0.388671875
range: 1.35088610649
velocity: 1.84400606155
doppler_bin: 11
bearing: -11.382642746
intensity: 21.172712326
---
header: 
  seq: 856838
  stamp: 
    secs: 1561682605
    nsecs: 164772305
  frame_id: "ti_mmwave"
point_id: 24
x: 0.041015625
y: -0.033203125
z: 0.0625
range: 0.0871539413929
velocity: 0.0
doppler_bin: 8
bearing: -38.9909973145
intensity: 30.1367969513
---
header: 
  seq: 856839
  stamp: 
    secs: 1561682605
    nsecs: 164782733
  frame_id: "ti_mmwave"
point_id: 25
x: 0.052734375
y: -0.04296875
z: 0.1015625
range: 0.130730912089
velocity: 0.0
doppler_bin: 8
bearing: -39.1736602783
intensity: 29.0091304779
---
header: 
  seq: 856840
  stamp: 
    secs: 1561682605
    nsecs: 164797394
  frame_id: "ti_mmwave"
point_id: 27
x: 1.423828125
y: -0.275390625
z: -0.25
range: 1.56877088547
velocity: 1.22933733463
doppler_bin: 10
bearing: -10.9467315674
intensity: 21.205739975
---
header: 
  seq: 856841
  stamp: 
    secs: 1561682605
    nsecs: 165585108
  frame_id: "ti_mmwave"
point_id: 0
x: 0.01171875
y: -0.0390625
z: -0.0078125
range: 0.0435769706964
velocity: 0.0
doppler_bin: 8
bearing: -73.3007583618
intensity: 30.7298469543
---
header: 
  seq: 856842
  stamp: 
    secs: 1561682605
    nsecs: 165634961
  frame_id: "ti_mmwave"
point_id: 1
x: 0.017578125
y: -0.080078125
z: -0.0078125
range: 0.0871539413929
velocity: 0.0
doppler_bin: 8
bearing: -77.6192398071
intensity: 31.9645252228
---
header: 
  seq: 856843
  stamp: 
    secs: 1561682605
    nsecs: 165645941
  frame_id: "ti_mmwave"
point_id: 2
x: 0.041015625
y: -0.115234375
z: -0.0078125
range: 0.130730912089
velocity: 0.0
doppler_bin: 8
bearing: -70.4077224731
intensity: 30.2242832184
---
header: 
  seq: 856844
  stamp: 
    secs: 1561682605
    nsecs: 165655992
  frame_id: "ti_mmwave"
point_id: 3
x: 0.056640625
y: -0.154296875
z: 0.005859375
range: 0.174307882786
velocity: 0.0
doppler_bin: 8
bearing: -69.8423843384
intensity: 25.490032196
---
header: 
  seq: 856845
  stamp: 
    secs: 1561682605
    nsecs: 165664337
  frame_id: "ti_mmwave"
point_id: 4
x: 1.173828125
y: -0.474609375
z: 0.064453125
range: 1.35088610649
velocity: 0.0
doppler_bin: 8
bearing: -22.0147686005
intensity: 25.4406795502
---
header: 
  seq: 856846
  stamp: 
    secs: 1561682605
    nsecs: 165674135
  frame_id: "ti_mmwave"
point_id: 5
x: 1.189453125
y: -0.53125
z: -0.130859375
range: 1.39446306229
velocity: 0.0
doppler_bin: 8
bearing: -24.0671539307
intensity: 26.5127792358
---
header: 
  seq: 856847
  stamp: 
    secs: 1561682605
    nsecs: 165681842
  frame_id: "ti_mmwave"
point_id: 6
x: 2.548828125
y: -0.263671875
z: 1.18359375
range: 3.00681090355
velocity: 0.0
doppler_bin: 8
bearing: -5.90614128113
intensity: 29.4987773895
---
header: 
  seq: 856848
  stamp: 
    secs: 1561682605
    nsecs: 165690705
  frame_id: "ti_mmwave"
point_id: 7
x: 2.60546875
y: -0.267578125
z: 1.158203125
range: 3.05038785934
velocity: 0.0
doppler_bin: 8
bearing: -5.86364221573
intensity: 32.8057823181
---
header: 
  seq: 856849
  stamp: 
    secs: 1561682605
    nsecs: 165698566
  frame_id: "ti_mmwave"
point_id: 8
x: 2.66015625
y: -0.181640625
z: 1.15234375
range: 3.09396481514
velocity: 0.0
doppler_bin: 8
bearing: -3.90620398521
intensity: 32.0139694214
---
header: 
  seq: 856850
  stamp: 
    secs: 1561682605
    nsecs: 165772769
  frame_id: "ti_mmwave"
point_id: 9
x: 4.421875
y: -0.287109375
z: 1.166015625
range: 4.88062095642
velocity: 0.0
doppler_bin: 8
bearing: -3.7149617672
intensity: 30.5766601562
---
header: 
  seq: 856851
  stamp: 
    secs: 1561682605
    nsecs: 165783992
  frame_id: "ti_mmwave"
point_id: 10
x: 4.466796875
y: -0.2890625
z: 1.15234375
range: 4.9241976738
velocity: 0.0
doppler_bin: 8
bearing: -3.70265316963
intensity: 30.1619739532
---
header: 
  seq: 856852
  stamp: 
    secs: 1561682605
    nsecs: 165798332
  frame_id: "ti_mmwave"
point_id: 11
x: 4.693359375
y: -0.4453125
z: -0.53125
range: 5.0549287796
velocity: 0.0
doppler_bin: 8
bearing: -5.42007780075
intensity: 29.5182304382
---
header: 
  seq: 856853
  stamp: 
    secs: 1561682605
    nsecs: 165813283
  frame_id: "ti_mmwave"
point_id: 12
x: 4.740234375
y: -0.44921875
z: -0.490234375
range: 5.09850549698
velocity: 0.0
doppler_bin: 8
bearing: -5.41359329224
intensity: 33.7272796631
---
header: 
  seq: 856854
  stamp: 
    secs: 1561682605
    nsecs: 165826650
  frame_id: "ti_mmwave"
point_id: 13
x: 4.783203125
y: -0.453125
z: -0.46875
range: 5.14208269119
velocity: 0.0
doppler_bin: 8
bearing: -5.41162490845
intensity: 34.3695716858
---
header: 
  seq: 856855
  stamp: 
    secs: 1561682605
    nsecs: 165838468
  frame_id: "ti_mmwave"
point_id: 14
x: 4.828125
y: -0.45703125
z: -0.416015625
range: 5.18565940857
velocity: 0.0
doppler_bin: 8
bearing: -5.40751647949
intensity: 31.3033370972
---
header: 
  seq: 856856
  stamp: 
    secs: 1561682605
    nsecs: 165850121
  frame_id: "ti_mmwave"
point_id: 15
x: 4.8828125
y: -0.30859375
z: 0.75390625
range: 5.27281332016
velocity: 0.0
doppler_bin: 8
bearing: -3.61628341675
intensity: 30.8813610077
---
header: 
  seq: 856857
  stamp: 
    secs: 1561682605
    nsecs: 165861272
  frame_id: "ti_mmwave"
point_id: 16
x: 0.962890625
y: -0.431640625
z: -0.138671875
range: 1.13300120831
velocity: 0.614668667316
doppler_bin: 9
bearing: -24.1455421448
intensity: 22.1748390198
---
header: 
  seq: 856858
  stamp: 
    secs: 1561682605
    nsecs: 165873900
  frame_id: "ti_mmwave"
point_id: 17
x: 1.01171875
y: -0.4140625
z: -0.1640625
range: 1.1765781641
velocity: 0.614668667316
doppler_bin: 9
bearing: -22.2576370239
intensity: 23.3845653534
---
header: 
  seq: 856859
  stamp: 
    secs: 1561682605
    nsecs: 165983169
  frame_id: "ti_mmwave"
point_id: 18
x: 1.048828125
y: -0.4296875
z: -0.169921875
range: 1.22015523911
velocity: 0.614668667316
doppler_bin: 9
bearing: -22.2780990601
intensity: 21.172712326
---
header: 
  seq: 856860
  stamp: 
    secs: 1561682605
    nsecs: 166008684
  frame_id: "ti_mmwave"
point_id: 20
x: 0.041015625
y: -0.033203125
z: 0.0625
range: 0.0871539413929
velocity: 0.0
doppler_bin: 8
bearing: -38.9909973145
intensity: 30.1325874329
---
header: 
  seq: 856861
  stamp: 
    secs: 1561682605
    nsecs: 166026483
  frame_id: "ti_mmwave"
point_id: 21
x: 0.044921875
y: -0.046875
z: 0.103515625
range: 0.130730912089
velocity: 0.0
doppler_bin: 8
bearing: -46.218875885
intensity: 28.9982051849
---
header: 
  seq: 856862
  stamp: 
    secs: 1561682605
    nsecs: 166037080
  frame_id: "ti_mmwave"
point_id: 23
x: 0.431640625
y: -0.0390625
z: -1.19140625
range: 1.35088610649
velocity: 0.0
doppler_bin: 8
bearing: -5.1710524559
intensity: 23.0749607086
---
header: 
  seq: 856863
  stamp: 
    secs: 1561682605
    nsecs: 166045184
  frame_id: "ti_mmwave"
point_id: 24
x: 0.662109375
y: -0.08203125
z: 1.126953125
range: 1.39446306229
velocity: 0.0
doppler_bin: 8
bearing: -7.06260251999
intensity: 24.871383667
---
header: 
  seq: 856864
  stamp: 
    secs: 1561682605
    nsecs: 224045793
  frame_id: "ti_mmwave"
point_id: 0
x: 0.01171875
y: -0.0390625
z: -0.0078125
range: 0.0435769706964
velocity: 0.0
doppler_bin: 8
bearing: -73.3007583618
intensity: 30.7408466339
---
header: 
  seq: 856865
  stamp: 
    secs: 1561682605
    nsecs: 224117747
  frame_id: "ti_mmwave"
point_id: 1
x: 0.017578125
y: -0.080078125
z: -0.0078125
range: 0.0871539413929
velocity: 0.0
doppler_bin: 8
bearing: -77.6192398071
intensity: 31.9672870636
---
header: 
  seq: 856866
  stamp: 
    secs: 1561682605
    nsecs: 224131094
  frame_id: "ti_mmwave"
point_id: 2
x: 0.041015625
y: -0.115234375
z: -0.0078125
range: 0.130730912089
velocity: 0.0
doppler_bin: 8
bearing: -70.4077224731
intensity: 30.2242832184
---
header: 
  seq: 856867
  stamp: 
    secs: 1561682605
    nsecs: 224139573
  frame_id: "ti_mmwave"
point_id: 3
x: 0.056640625
y: -0.154296875
z: 0.005859375
range: 0.174307882786
velocity: 0.0
doppler_bin: 8
bearing: -69.8423843384
intensity: 25.4777469635
---
header: 
  seq: 856868
  stamp: 
    secs: 1561682605
    nsecs: 224149358
  frame_id: "ti_mmwave"
point_id: 4
x: 1.1328125
y: -0.421875
z: 0.21484375
range: 1.3073091507
velocity: 0.0
doppler_bin: 8
bearing: -20.4260234833
intensity: 23.3243846893
---
header: 
  seq: 856869
  stamp: 
    secs: 1561682605
    nsecs: 224158842
  frame_id: "ti_mmwave"
point_id: 5
x: 1.1484375
y: -0.474609375
z: 0.25390625
range: 1.35088610649
velocity: 0.0
doppler_bin: 8
bearing: -22.4536094666
intensity: 27.0671787262
---
header: 
  seq: 856870
  stamp: 
    secs: 1561682605
    nsecs: 224170619
  frame_id: "ti_mmwave"
point_id: 6
x: 1.21484375
y: -0.408203125
z: 0.265625
range: 1.39446306229
velocity: 0.0
doppler_bin: 8
bearing: -18.5730113983
intensity: 26.0530509949
---
header: 
  seq: 856871
  stamp: 
    secs: 1561682605
    nsecs: 224185139
  frame_id: "ti_mmwave"
point_id: 7
x: 2.548828125
y: -0.263671875
z: 1.185546875
range: 3.00681090355
velocity: 0.0
doppler_bin: 8
bearing: -5.90614128113
intensity: 29.484128952
---
header: 
  seq: 856872
  stamp: 
    secs: 1561682605
    nsecs: 224194014
  frame_id: "ti_mmwave"
point_id: 8
x: 2.603515625
y: -0.267578125
z: 1.162109375
range: 3.05038785934
velocity: 0.0
doppler_bin: 8
bearing: -5.8680100441
intensity: 32.7875366211
---
header: 
  seq: 856873
  stamp: 
    secs: 1561682605
    nsecs: 224203622
  frame_id: "ti_mmwave"
point_id: 9
x: 2.658203125
y: -0.181640625
z: 1.154296875
range: 3.09396481514
velocity: 0.0
doppler_bin: 8
bearing: -3.90906453133
intensity: 32.0030326843
---
header: 
  seq: 856874
  stamp: 
    secs: 1561682605
    nsecs: 224211390
  frame_id: "ti_mmwave"
point_id: 10
x: 4.44140625
y: -0.287109375
z: 1.0859375
range: 4.88062095642
velocity: 0.0
doppler_bin: 8
bearing: -3.69867086411
intensity: 30.7700424194
---
header: 
  seq: 856875
  stamp: 
    secs: 1561682605
    nsecs: 224231610
  frame_id: "ti_mmwave"
point_id: 11
x: 4.498046875
y: -0.2890625
z: 1.02734375
range: 4.9241976738
velocity: 0.0
doppler_bin: 8
bearing: -3.67699980736
intensity: 30.4218158722
---
header: 
  seq: 856876
  stamp: 
    secs: 1561682605
    nsecs: 224243719
  frame_id: "ti_mmwave"
point_id: 12
x: 4.693359375
y: -0.4453125
z: -0.54296875
range: 5.0549287796
velocity: 0.0
doppler_bin: 8
bearing: -5.42007780075
intensity: 29.5856380463
---
header: 
  seq: 856877
  stamp: 
    secs: 1561682605
    nsecs: 224412425
  frame_id: "ti_mmwave"
point_id: 13
x: 4.740234375
y: -0.44921875
z: -0.4921875
range: 5.09850549698
velocity: 0.0
doppler_bin: 8
bearing: -5.41359329224
intensity: 33.6903038025
---
header: 
  seq: 856878
  stamp: 
    secs: 1561682605
    nsecs: 224442773
  frame_id: "ti_mmwave"
point_id: 14
x: 4.783203125
y: -0.453125
z: -0.45703125
range: 5.14208269119
velocity: 0.0
doppler_bin: 8
bearing: -5.41162490845
intensity: 34.3472862244
---
header: 
  seq: 856879
  stamp: 
    secs: 1561682605
    nsecs: 224457097
  frame_id: "ti_mmwave"
point_id: 15
x: 4.83203125
y: -0.45703125
z: -0.3671875
range: 5.18565940857
velocity: 0.0
doppler_bin: 8
bearing: -5.40317106247
intensity: 31.2024478912
---
header: 
  seq: 856880
  stamp: 
    secs: 1561682605
    nsecs: 224472598
  frame_id: "ti_mmwave"
point_id: 16
x: 4.865234375
y: -0.30859375
z: 0.853515625
range: 5.27281332016
velocity: 0.0
doppler_bin: 8
bearing: -3.62931442261
intensity: 30.7188205719
---
header: 
  seq: 856881
  stamp: 
    secs: 1561682605
    nsecs: 224484006
  frame_id: "ti_mmwave"
point_id: 17
x: 0.97265625
y: -0.3984375
z: -0.16015625
range: 1.13300120831
velocity: 0.614668667316
doppler_bin: 9
bearing: -22.2758960724
intensity: 23.6172790527
---
header: 
  seq: 856882
  stamp: 
    secs: 1561682605
    nsecs: 224496021
  frame_id: "ti_mmwave"
point_id: 18
x: 1.009765625
y: -0.4140625
z: -0.169921875
range: 1.1765781641
velocity: 0.614668667316
doppler_bin: 9
bearing: -22.2964744568
intensity: 26.5609817505
---
header: 
  seq: 856883
  stamp: 
    secs: 1561682605
    nsecs: 224509269
  frame_id: "ti_mmwave"
point_id: 19
x: 1.044921875
y: -0.4296875
z: -0.185546875
range: 1.22015523911
velocity: 0.614668667316
doppler_bin: 9
bearing: -22.3531970978
intensity: 26.0097293854
---
header: 
  seq: 856884
  stamp: 
    secs: 1561682605
    nsecs: 224524449
  frame_id: "ti_mmwave"
point_id: 20
x: 1.06640625
y: -0.4453125
z: -0.271484375
range: 1.2637321949
velocity: 0.614668667316
doppler_bin: 9
bearing: -22.6645565033
intensity: 21.7318630219
---
header: 
  seq: 856885
  stamp: 
    secs: 1561682605
    nsecs: 224542036
  frame_id: "ti_mmwave"
point_id: 22
x: 0.041015625
y: -0.033203125
z: 0.0625
range: 0.0871539413929
velocity: 0.0
doppler_bin: 8
bearing: -38.9909973145
intensity: 30.1325874329
---
header: 
  seq: 856886
  stamp: 
    secs: 1561682605
    nsecs: 224554463
  frame_id: "ti_mmwave"
point_id: 23
x: 0.052734375
y: -0.04296875
z: 0.1015625
range: 0.130730912089
velocity: 0.0
doppler_bin: 8
bearing: -39.1736602783
intensity: 28.9982051849
---
header: 
  seq: 856887
  stamp: 
    secs: 1561682605
    nsecs: 224570539
  frame_id: "ti_mmwave"
point_id: 25
x: 1.185546875
y: -0.396484375
z: 0.21484375
range: 1.35088610649
velocity: 0.0
doppler_bin: 8
bearing: -18.491563797
intensity: 27.058637619
---
header: 
  seq: 856888
  stamp: 
    secs: 1561682605
    nsecs: 224586060
  frame_id: "ti_mmwave"
point_id: 26
x: 0.837890625
y: -0.0
z: -1.005859375
range: 1.39446306229
velocity: 0.0
doppler_bin: 8
bearing: -0.0
intensity: 24.014005661
---
header: 
  seq: 856889
  stamp: 
    secs: 1561682605
    nsecs: 225754001
  frame_id: "ti_mmwave"
point_id: 0
x: 0.01171875
y: -0.0390625
z: -0.0078125
range: 0.0435769706964
velocity: 0.0
doppler_bin: 8
bearing: -73.3007583618
intensity: 30.7371826172
---
header: 
  seq: 856890
  stamp: 
    secs: 1561682605
    nsecs: 225807402
  frame_id: "ti_mmwave"
point_id: 1
x: 0.017578125
y: -0.080078125
z: -0.0078125
range: 0.0871539413929
velocity: 0.0
doppler_bin: 8
bearing: -77.6192398071
intensity: 31.9672870636
---
header: 
  seq: 856891
  stamp: 
    secs: 1561682605
    nsecs: 225818360
  frame_id: "ti_mmwave"
point_id: 2
x: 0.041015625
y: -0.115234375
z: -0.0078125
range: 0.130730912089
velocity: 0.0
doppler_bin: 8
bearing: -70.4077224731
intensity: 30.2284069061
---
header: 
  seq: 856892
  stamp: 
    secs: 1561682605
    nsecs: 225827399
  frame_id: "ti_mmwave"
point_id: 3
x: 0.056640625
y: -0.154296875
z: 0.005859375
range: 0.174307882786
velocity: 0.0
doppler_bin: 8
bearing: -69.8423843384
intensity: 25.490032196
---
header: 
  seq: 856893
  stamp: 
    secs: 1561682605
    nsecs: 225837423
  frame_id: "ti_mmwave"
point_id: 4
x: 1.1640625
y: -0.3828125
z: 0.068359375
range: 1.3073091507
velocity: 0.0
doppler_bin: 8
bearing: -18.203918457
intensity: 24.5788192749
---
header: 
  seq: 856894
  stamp: 
    secs: 1561682605
    nsecs: 225846135
  frame_id: "ti_mmwave"
point_id: 5
x: 1.1875
y: -0.435546875
z: 0.076171875
range: 1.35088610649
velocity: 0.0
doppler_bin: 8
bearing: -20.1418418884
intensity: 27.9865055084
---
header: 
  seq: 856895
  stamp: 
    secs: 1561682605
    nsecs: 225862001
  frame_id: "ti_mmwave"
point_id: 6
x: 1.212890625
y: -0.490234375
z: 0.029296875
range: 1.39446306229
velocity: 0.0
doppler_bin: 8
bearing: -22.0079078674
intensity: 27.9028511047
---
header: 
  seq: 856896
  stamp: 
    secs: 1561682605
    nsecs: 225878456
  frame_id: "ti_mmwave"
point_id: 7
x: 1.28125
y: -0.421875
z: 0.05859375
range: 1.43804001808
velocity: 0.0
doppler_bin: 8
bearing: -18.2250766754
intensity: 25.0785579681
---
header: 
  seq: 856897
  stamp: 
    secs: 1561682605
    nsecs: 225894316
  frame_id: "ti_mmwave"
point_id: 8
x: 1.333984375
y: -0.390625
z: 0.05859375
range: 1.48161697388
velocity: 0.0
doppler_bin: 8
bearing: -16.321390152
intensity: 25.2762985229
---
header: 
  seq: 856898
  stamp: 
    secs: 1561682605
    nsecs: 225910456
  frame_id: "ti_mmwave"
point_id: 9
x: 2.541015625
y: -0.263671875
z: 1.197265625
range: 3.00681090355
velocity: 0.0
doppler_bin: 8
bearing: -5.92417097092
intensity: 29.4596061707
---
header: 
  seq: 856899
  stamp: 
    secs: 1561682605
    nsecs: 225926914
  frame_id: "ti_mmwave"
point_id: 10
x: 2.603515625
y: -0.267578125
z: 1.162109375
range: 3.05038785934
velocity: 0.0
doppler_bin: 8
bearing: -5.8680100441
intensity: 32.7692108154
---
header: 
  seq: 856900
  stamp: 
    secs: 1561682605
    nsecs: 225942072
  frame_id: "ti_mmwave"
point_id: 11
x: 2.66015625
y: -0.181640625
z: 1.150390625
range: 3.09396481514
velocity: 0.0
doppler_bin: 8
bearing: -3.90620398521
intensity: 31.9617614746
---
header: 
  seq: 856901
  stamp: 
    secs: 1561682605
    nsecs: 225957956
  frame_id: "ti_mmwave"
point_id: 12
x: 4.44140625
y: -0.287109375
z: 1.083984375
range: 4.88062095642
velocity: 0.0
doppler_bin: 8
bearing: -3.69867086411
intensity: 30.8778133392
---
header: 
  seq: 856902
  stamp: 
    secs: 1561682605
    nsecs: 225974210
  frame_id: "ti_mmwave"
point_id: 13
x: 4.486328125
y: -0.2890625
z: 1.076171875
range: 4.9241976738
velocity: 0.0
doppler_bin: 8
bearing: -3.68657827377
intensity: 30.5537834167
---
header: 
  seq: 856903
  stamp: 
    secs: 1561682605
    nsecs: 225990361
  frame_id: "ti_mmwave"
point_id: 14
x: 4.69140625
y: -0.4453125
z: -0.552734375
range: 5.0549287796
velocity: 0.0
doppler_bin: 8
bearing: -5.42232084274
intensity: 29.5327625275
---
header: 
  seq: 856904
  stamp: 
    secs: 1561682605
    nsecs: 226010348
  frame_id: "ti_mmwave"
point_id: 15
x: 4.740234375
y: -0.44921875
z: -0.482421875
range: 5.09850549698
velocity: 0.0
doppler_bin: 8
bearing: -5.41359329224
intensity: 33.6530075073
---
header: 
  seq: 856905
  stamp: 
    secs: 1561682605
    nsecs: 226102556
  frame_id: "ti_mmwave"
point_id: 16
x: 4.78515625
y: -0.453125
z: -0.439453125
range: 5.14208269119
velocity: 0.0
doppler_bin: 8
bearing: -5.40942907333
intensity: 34.2781066895
---
header: 
  seq: 856906
  stamp: 
    secs: 1561682605
    nsecs: 226119782
  frame_id: "ti_mmwave"
point_id: 17
x: 4.8359375
y: -0.45703125
z: -0.328125
range: 5.18565940857
velocity: 0.0
doppler_bin: 8
bearing: -5.39883232117
intensity: 31.1925582886
---
header: 
  seq: 856907
  stamp: 
    secs: 1561682605
    nsecs: 226134664
  frame_id: "ti_mmwave"
point_id: 18
x: 4.875
y: -0.30859375
z: 0.802734375
range: 5.27281332016
velocity: 0.0
doppler_bin: 8
bearing: -3.62206339836
intensity: 30.9166698456
---
header: 
  seq: 856908
  stamp: 
    secs: 1561682605
    nsecs: 226146247
  frame_id: "ti_mmwave"
point_id: 19
x: 1.009765625
y: -0.4140625
z: -0.173828125
range: 1.1765781641
velocity: 0.614668667316
doppler_bin: 9
bearing: -22.2964744568
intensity: 21.9589958191
---
header: 
  seq: 856909
  stamp: 
    secs: 1561682605
    nsecs: 226157486
  frame_id: "ti_mmwave"
point_id: 20
x: 1.046875
y: -0.4296875
z: -0.181640625
range: 1.22015523911
velocity: 0.614668667316
doppler_bin: 9
bearing: -22.3155879974
intensity: 22.8555736542
---
header: 
  seq: 856910
  stamp: 
    secs: 1561682605
    nsecs: 226171836
  frame_id: "ti_mmwave"
point_id: 22
x: 0.041015625
y: -0.033203125
z: 0.0625
range: 0.0871539413929
velocity: 0.0
doppler_bin: 8
bearing: -38.9909973145
intensity: 30.1367969513
---
header: 
  seq: 856911
  stamp: 
    secs: 1561682605
    nsecs: 226181328
  frame_id: "ti_mmwave"
point_id: 23
x: 0.052734375
y: -0.04296875
z: 0.1015625
range: 0.130730912089
velocity: 0.0
doppler_bin: 8
bearing: -39.1736602783
intensity: 28.9982051849
---
header: 
  seq: 856912
  stamp: 
    secs: 1561682605
    nsecs: 226190991
  frame_id: "ti_mmwave"
point_id: 25
x: 0.51171875
y: 0.04296875
z: 1.248046875
range: 1.43804001808
velocity: 0.0
doppler_bin: 8
bearing: 4.79983615875
intensity: 22.718416214
---
header: 
  seq: 856913
  stamp: 
    secs: 1561682605
    nsecs: 226199736
  frame_id: "ti_mmwave"
point_id: 26
x: 0.8515625
y: 0.04296875
z: 1.099609375
range: 1.48161697388
velocity: 0.0
doppler_bin: 8
bearing: 2.88862156868
intensity: 22.4303798676
---
header: 
  seq: 856914
  stamp: 
    secs: 1561682605
    nsecs: 226208603
  frame_id: "ti_mmwave"
point_id: 27
x: 2.423828125
y: -2.021484375
z: -3.376953125
range: 4.9241976738
velocity: 0.0
doppler_bin: 8
bearing: -39.8282661438
intensity: 27.5815467834
---
header: 
  seq: 856915
  stamp: 
    secs: 1561682605
    nsecs: 284175332
  frame_id: "ti_mmwave"
point_id: 0
x: 0.01171875
y: -0.0390625
z: -0.0078125
range: 0.0435769706964
velocity: 0.0
doppler_bin: 8
bearing: -73.3007583618
intensity: 30.7408466339
---
header: 
  seq: 856916
  stamp: 
    secs: 1561682605
    nsecs: 284256438
  frame_id: "ti_mmwave"
point_id: 1
x: 0.017578125
y: -0.080078125
z: -0.0078125
range: 0.0871539413929
velocity: 0.0
doppler_bin: 8
bearing: -77.6192398071
intensity: 31.9700469971
---
header: 
  seq: 856917
  stamp: 
    secs: 1561682605
    nsecs: 284273417
  frame_id: "ti_mmwave"
point_id: 2
x: 0.041015625
y: -0.115234375
z: -0.0078125
range: 0.130730912089
velocity: 0.0
doppler_bin: 8
bearing: -70.4077224731
intensity: 30.2325248718
---
header: 
  seq: 856918
  stamp: 
    secs: 1561682605
    nsecs: 284286633
  frame_id: "ti_mmwave"
point_id: 3
x: 0.056640625
y: -0.154296875
z: 0.005859375
range: 0.174307882786
velocity: 0.0
doppler_bin: 8
bearing: -69.8423843384
intensity: 25.490032196
---
header: 
  seq: 856919
  stamp: 
    secs: 1561682605
    nsecs: 284298571
  frame_id: "ti_mmwave"
point_id: 4
x: 1.14453125
y: -0.3828125
z: 0.224609375
range: 1.3073091507
velocity: 0.0
doppler_bin: 8
bearing: -18.4935932159
intensity: 27.6641292572
---
header: 
  seq: 856920
  stamp: 
    secs: 1561682605
    nsecs: 284396489
  frame_id: "ti_mmwave"
point_id: 5
x: 1.19140625
y: -0.396484375
z: 0.17578125
range: 1.35088610649
velocity: 0.0
doppler_bin: 8
bearing: -18.4067649841
intensity: 29.7680835724
---
header: 
  seq: 856921
  stamp: 
    secs: 1561682605
    nsecs: 284412019
  frame_id: "ti_mmwave"
point_id: 6
x: 1.240234375
y: -0.408203125
z: 0.076171875
range: 1.39446306229
velocity: 0.0
doppler_bin: 8
bearing: -18.218126297
intensity: 29.5133743286
---
header: 
  seq: 856922
  stamp: 
    secs: 1561682605
    nsecs: 284422915
  frame_id: "ti_mmwave"
point_id: 7
x: 1.294921875
y: -0.37890625
z: -0.041015625
range: 1.43804001808
velocity: 0.0
doppler_bin: 8
bearing: -16.3099689484
intensity: 29.2220630646
---
header: 
  seq: 856923
  stamp: 
    secs: 1561682605
    nsecs: 284435878
  frame_id: "ti_mmwave"
point_id: 8
x: 1.33203125
y: -0.390625
z: -0.08203125
range: 1.48161697388
velocity: 0.0
doppler_bin: 8
bearing: -16.344045639
intensity: 28.4509811401
---
header: 
  seq: 856924
  stamp: 
    secs: 1561682605
    nsecs: 284448075
  frame_id: "ti_mmwave"
point_id: 9
x: 2.53515625
y: -0.263671875
z: 1.2109375
range: 3.00681090355
velocity: 0.0
doppler_bin: 8
bearing: -5.9377655983
intensity: 29.4645233154
---
header: 
  seq: 856925
  stamp: 
    secs: 1561682605
    nsecs: 284458988
  frame_id: "ti_mmwave"
point_id: 10
x: 2.59765625
y: -0.267578125
z: 1.171875
range: 3.05038785934
velocity: 0.0
doppler_bin: 8
bearing: -5.88115358353
intensity: 32.7898216248
---
header: 
  seq: 856926
  stamp: 
    secs: 1561682605
    nsecs: 284470847
  frame_id: "ti_mmwave"
point_id: 11
x: 2.654296875
y: -0.271484375
z: 1.1484375
range: 3.09396481514
velocity: 0.0
doppler_bin: 8
bearing: -5.83996629715
intensity: 31.9672870636
---
header: 
  seq: 856927
  stamp: 
    secs: 1561682605
    nsecs: 284482211
  frame_id: "ti_mmwave"
point_id: 12
x: 4.4375
y: -0.287109375
z: 1.10546875
range: 4.88062095642
velocity: 0.0
doppler_bin: 8
bearing: -3.70191764832
intensity: 30.8671569824
---
header: 
  seq: 856928
  stamp: 
    secs: 1561682605
    nsecs: 284493269
  frame_id: "ti_mmwave"
point_id: 13
x: 4.4765625
y: -0.2890625
z: 1.1171875
range: 4.9241976738
velocity: 0.0
doppler_bin: 8
bearing: -3.69459795952
intensity: 30.4414768219
---
header: 
  seq: 856929
  stamp: 
    secs: 1561682605
    nsecs: 284504729
  frame_id: "ti_mmwave"
point_id: 14
x: 4.740234375
y: -0.44921875
z: -0.482421875
range: 5.09850549698
velocity: 0.0
doppler_bin: 8
bearing: -5.41359329224
intensity: 33.4202766418
---
header: 
  seq: 856930
  stamp: 
    secs: 1561682605
    nsecs: 284518229
  frame_id: "ti_mmwave"
point_id: 15
x: 4.787109375
y: -0.453125
z: -0.43359375
range: 5.14208269119
velocity: 0.0
doppler_bin: 8
bearing: -5.40723514557
intensity: 33.968963623
---
header: 
  seq: 856931
  stamp: 
    secs: 1561682605
    nsecs: 284531270
  frame_id: "ti_mmwave"
point_id: 16
x: 4.837890625
y: -0.45703125
z: -0.291015625
range: 5.18565940857
velocity: 0.0
doppler_bin: 8
bearing: -5.39666557312
intensity: 30.6707077026
---
header: 
  seq: 856932
  stamp: 
    secs: 1561682605
    nsecs: 284543670
  frame_id: "ti_mmwave"
point_id: 17
x: 4.869140625
y: -0.30859375
z: 0.833984375
range: 5.27281332016
velocity: 0.0
doppler_bin: 8
bearing: -3.62641048431
intensity: 30.6445808411
---
header: 
  seq: 856933
  stamp: 
    secs: 1561682605
    nsecs: 284615562
  frame_id: "ti_mmwave"
point_id: 18
x: 1.01171875
y: -0.4140625
z: -0.15234375
range: 1.1765781641
velocity: 0.614668667316
doppler_bin: 9
bearing: -22.2576370239
intensity: 20.0432128906
---
header: 
  seq: 856934
  stamp: 
    secs: 1561682605
    nsecs: 284634139
  frame_id: "ti_mmwave"
point_id: 19
x: 1.044921875
y: -0.4296875
z: -0.18359375
range: 1.22015523911
velocity: 0.614668667316
doppler_bin: 9
bearing: -22.3531970978
intensity: 21.7897701263
---
header: 
  seq: 856935
  stamp: 
    secs: 1561682605
    nsecs: 284644783
  frame_id: "ti_mmwave"
point_id: 20
x: 1.111328125
y: -0.37109375
z: 0.181640625
range: 1.2637321949
velocity: -0.614668667316
doppler_bin: 7
bearing: -18.4651527405
intensity: 20.2118930817
---
header: 
  seq: 856936
  stamp: 
    secs: 1561682605
    nsecs: 284661840
  frame_id: "ti_mmwave"
point_id: 22
x: 0.041015625
y: -0.033203125
z: 0.0625
range: 0.0871539413929
velocity: 0.0
doppler_bin: 8
bearing: -38.9909973145
intensity: 30.1367969513
---
header: 
  seq: 856937
  stamp: 
    secs: 1561682605
    nsecs: 284677468
  frame_id: "ti_mmwave"
point_id: 23
x: 0.052734375
y: -0.04296875
z: 0.1015625
range: 0.130730912089
velocity: 0.0
doppler_bin: 8
bearing: -39.1736602783
intensity: 29.0036716461
---
header: 
  seq: 856938
  stamp: 
    secs: 1561682605
    nsecs: 284694628
  frame_id: "ti_mmwave"
point_id: 25
x: 2.5625
y: -2.021484375
z: -3.2734375
range: 4.9241976738
velocity: 0.0
doppler_bin: 8
bearing: -38.2689170837
intensity: 27.6042251587
---
header: 
  seq: 856939
  stamp: 
    secs: 1561682605
    nsecs: 285772628
  frame_id: "ti_mmwave"
point_id: 0
x: 0.01171875
y: -0.0390625
z: -0.0078125
range: 0.0435769706964
velocity: 0.0
doppler_bin: 8
bearing: -73.3007583618
intensity: 30.7408466339
---
header: 
  seq: 856940
  stamp: 
    secs: 1561682605
    nsecs: 285833792
  frame_id: "ti_mmwave"
point_id: 1
x: 0.017578125
y: -0.080078125
z: -0.0078125
range: 0.0871539413929
velocity: 0.0
doppler_bin: 8
bearing: -77.6192398071
intensity: 31.9672870636
---
header: 
  seq: 856941
  stamp: 
    secs: 1561682605
    nsecs: 285850681
  frame_id: "ti_mmwave"
point_id: 2
x: 0.041015625
y: -0.115234375
z: -0.0078125
range: 0.130730912089
velocity: 0.0
doppler_bin: 8
bearing: -70.4077224731
intensity: 30.2242832184
---
header: 
  seq: 856942
  stamp: 
    secs: 1561682605
    nsecs: 285860228
  frame_id: "ti_mmwave"
point_id: 3
x: 0.056640625
y: -0.154296875
z: 0.005859375
range: 0.174307882786
velocity: 0.0
doppler_bin: 8
bearing: -69.8423843384
intensity: 25.4654273987
---
header: 
  seq: 856943
  stamp: 
    secs: 1561682605
    nsecs: 285878807
  frame_id: "ti_mmwave"
point_id: 4
x: 1.19140625
y: -0.267578125
z: -0.1171875
range: 1.3073091507
velocity: 0.0
doppler_bin: 8
bearing: -12.6580314636
intensity: 21.7026176453
---
header: 
  seq: 856944
  stamp: 
    secs: 1561682605
    nsecs: 285934200
  frame_id: "ti_mmwave"
point_id: 5
x: 1.216796875
y: -0.31640625
z: -0.166015625
range: 1.35088610649
velocity: 0.0
doppler_bin: 8
bearing: -14.5759391785
intensity: 24.4090900421
---
header: 
  seq: 856945
  stamp: 
    secs: 1561682605
    nsecs: 285944514
  frame_id: "ti_mmwave"
point_id: 6
x: 1.23046875
y: -0.408203125
z: -0.181640625
range: 1.39446306229
velocity: 0.0
doppler_bin: 8
bearing: -18.3530597687
intensity: 26.9019603729
---
header: 
  seq: 856946
  stamp: 
    secs: 1561682605
    nsecs: 285952738
  frame_id: "ti_mmwave"
point_id: 7
x: 1.265625
y: -0.421875
z: -0.201171875
range: 1.43804001808
velocity: 0.0
doppler_bin: 8
bearing: -18.4349479675
intensity: 29.0471553802
---
header: 
  seq: 856947
  stamp: 
    secs: 1561682605
    nsecs: 285960462
  frame_id: "ti_mmwave"
point_id: 8
x: 1.306640625
y: -0.435546875
z: -0.197265625
range: 1.48161697388
velocity: 0.0
doppler_bin: 8
bearing: -18.4349479675
intensity: 28.762178421
---
header: 
  seq: 856948
  stamp: 
    secs: 1561682605
    nsecs: 285969450
  frame_id: "ti_mmwave"
point_id: 9
x: 1.3515625
y: -0.40234375
z: -0.244140625
range: 1.52519392967
velocity: 0.0
doppler_bin: 8
bearing: -16.5776290894
intensity: 25.3402614594
---
header: 
  seq: 856949
  stamp: 
    secs: 1561682605
    nsecs: 285977128
  frame_id: "ti_mmwave"
point_id: 10
x: 2.54296875
y: -0.263671875
z: 1.193359375
range: 3.00681090355
velocity: 0.0
doppler_bin: 8
bearing: -5.91965341568
intensity: 29.4398880005
---
header: 
  seq: 856950
  stamp: 
    secs: 1561682605
    nsecs: 285986003
  frame_id: "ti_mmwave"
point_id: 11
x: 2.6015625
y: -0.267578125
z: 1.1640625
range: 3.05038785934
velocity: 0.0
doppler_bin: 8
bearing: -5.87238502502
intensity: 32.7600212097
---
header: 
  seq: 856951
  stamp: 
    secs: 1561682605
    nsecs: 285993489
  frame_id: "ti_mmwave"
point_id: 12
x: 2.66015625
y: -0.181640625
z: 1.150390625
range: 3.09396481514
velocity: 0.0
doppler_bin: 8
bearing: -3.90620398521
intensity: 31.9562301636
---
header: 
  seq: 856952
  stamp: 
    secs: 1561682605
    nsecs: 286001372
  frame_id: "ti_mmwave"
point_id: 13
x: 4.4140625
y: -0.287109375
z: 1.193359375
range: 4.88062095642
velocity: 0.0
doppler_bin: 8
bearing: -3.72151875496
intensity: 30.9025802612
---
header: 
  seq: 856953
  stamp: 
    secs: 1561682605
    nsecs: 286008758
  frame_id: "ti_mmwave"
point_id: 14
x: 4.447265625
y: -0.2890625
z: 1.224609375
range: 4.9241976738
velocity: 0.0
doppler_bin: 8
bearing: -3.71886897087
intensity: 30.4610481262
---
header: 
  seq: 856954
  stamp: 
    secs: 1561682605
    nsecs: 286016705
  frame_id: "ti_mmwave"
point_id: 15
x: 4.7421875
y: -0.44921875
z: -0.462890625
range: 5.09850549698
velocity: 0.0
doppler_bin: 8
bearing: -5.41137647629
intensity: 33.0362815857
---
header: 
  seq: 856955
  stamp: 
    secs: 1561682605
    nsecs: 286036067
  frame_id: "ti_mmwave"
point_id: 16
x: 4.787109375
y: -0.453125
z: -0.41796875
range: 5.14208269119
velocity: 0.0
doppler_bin: 8
bearing: -5.40723514557
intensity: 33.5024795532
---
header: 
  seq: 856956
  stamp: 
    secs: 1561682605
    nsecs: 286054058
  frame_id: "ti_mmwave"
point_id: 17
x: 4.837890625
y: -0.45703125
z: -0.2890625
range: 5.18565940857
velocity: 0.0
doppler_bin: 8
bearing: -5.39666557312
intensity: 29.9519634247
---
header: 
  seq: 856957
  stamp: 
    secs: 1561682605
    nsecs: 286070716
  frame_id: "ti_mmwave"
point_id: 18
x: 4.87890625
y: -0.30859375
z: 0.7734375
range: 5.27281332016
velocity: 0.0
doppler_bin: 8
bearing: -3.61917114258
intensity: 30.8421859741
---
header: 
  seq: 856958
  stamp: 
    secs: 1561682605
    nsecs: 286089474
  frame_id: "ti_mmwave"
point_id: 20
x: 0.041015625
y: -0.033203125
z: 0.0625
range: 0.0871539413929
velocity: 0.0
doppler_bin: 8
bearing: -38.9909973145
intensity: 30.1367969513
---
header: 
  seq: 856959
  stamp: 
    secs: 1561682605
    nsecs: 286109521
  frame_id: "ti_mmwave"
point_id: 21
x: 0.052734375
y: -0.04296875
z: 0.1015625
range: 0.130730912089
velocity: 0.0
doppler_bin: 8
bearing: -39.1736602783
intensity: 28.9982051849
---
header: 
  seq: 856960
  stamp: 
    secs: 1561682605
    nsecs: 286131003
  frame_id: "ti_mmwave"
point_id: 23
x: 2.798828125
y: -2.00390625
z: -3.0234375
range: 4.88062095642
velocity: 0.0
doppler_bin: 8
bearing: -35.6019248962
intensity: 28.1888542175
---
header: 
  seq: 856961
  stamp: 
    secs: 1561682605
    nsecs: 286143420
  frame_id: "ti_mmwave"
point_id: 24
x: 3.037109375
y: -2.021484375
z: -2.837890625
range: 4.9241976738
velocity: 0.0
doppler_bin: 8
bearing: -33.6475334167
intensity: 27.774269104
---
header: 
  seq: 856962
  stamp: 
    secs: 1561682605
    nsecs: 344059147
  frame_id: "ti_mmwave"
point_id: 0
x: 0.01171875
y: -0.0390625
z: -0.0078125
range: 0.0435769706964
velocity: 0.0
doppler_bin: 8
bearing: -73.3007583618
intensity: 30.7445068359
---
header: 
  seq: 856963
  stamp: 
    secs: 1561682605
    nsecs: 344136327
  frame_id: "ti_mmwave"
point_id: 1
x: 0.017578125
y: -0.080078125
z: -0.0078125
range: 0.0871539413929
velocity: 0.0
doppler_bin: 8
bearing: -77.6192398071
intensity: 31.9700469971
---
header: 
  seq: 856964
  stamp: 
    secs: 1561682605
    nsecs: 344148542
  frame_id: "ti_mmwave"
point_id: 2
x: 0.041015625
y: -0.115234375
z: -0.0078125
range: 0.130730912089
velocity: 0.0
doppler_bin: 8
bearing: -70.4077224731
intensity: 30.2284069061
---
header: 
  seq: 856965
  stamp: 
    secs: 1561682605
    nsecs: 344157169
  frame_id: "ti_mmwave"
point_id: 3
x: 0.056640625
y: -0.154296875
z: 0.005859375
range: 0.174307882786
velocity: 0.0
doppler_bin: 8
bearing: -69.8423843384
intensity: 25.4654273987
---
header: 
  seq: 856966
  stamp: 
    secs: 1561682605
    nsecs: 344165075
  frame_id: "ti_mmwave"
point_id: 4
x: 1.1875
y: -0.306640625
z: -0.0234375
range: 1.3073091507
velocity: 0.0
doppler_bin: 8
bearing: -14.478843689
intensity: 25.1454772949
---
header: 
  seq: 856967
  stamp: 
    secs: 1561682605
    nsecs: 344172707
  frame_id: "ti_mmwave"
point_id: 5
x: 1.240234375
y: -0.23828125
z: 0.1171875
range: 1.35088610649
velocity: 0.0
doppler_bin: 8
bearing: -10.8754873276
intensity: 25.1719589233
---
header: 
  seq: 856968
  stamp: 
    secs: 1561682605
    nsecs: 344180479
  frame_id: "ti_mmwave"
point_id: 6
x: 1.169921875
y: -0.490234375
z: -0.3203125
range: 1.39446306229
velocity: 0.0
doppler_bin: 8
bearing: -22.7352294922
intensity: 25.6820163727
---
header: 
  seq: 856969
  stamp: 
    secs: 1561682605
    nsecs: 344188423
  frame_id: "ti_mmwave"
point_id: 7
x: 1.265625
y: -0.421875
z: -0.2109375
range: 1.43804001808
velocity: 0.0
doppler_bin: 8
bearing: -18.4349479675
intensity: 29.4349460602
---
header: 
  seq: 856970
  stamp: 
    secs: 1561682605
    nsecs: 344198759
  frame_id: "ti_mmwave"
point_id: 8
x: 1.326171875
y: -0.390625
z: -0.146484375
range: 1.48161697388
velocity: 0.0
doppler_bin: 8
bearing: -16.4123802185
intensity: 29.3651371002
---
header: 
  seq: 856971
  stamp: 
    secs: 1561682605
    nsecs: 344206525
  frame_id: "ti_mmwave"
point_id: 9
x: 1.396484375
y: -0.3125
z: 0.0078125
range: 1.52519392967
velocity: 0.0
doppler_bin: 8
bearing: -12.6136274338
intensity: 26.4048137665
---
header: 
  seq: 856972
  stamp: 
    secs: 1561682605
