header: 
  seq: 3066173
  stamp: 
    secs: 1561686090
    nsecs:  53811129
  frame_id: "ti_mmwave"
point_id: 0
x: 0.01171875
y: -0.0390625
z: -0.0078125
range: 0.0435769706964
velocity: 0.0
doppler_bin: 8
bearing: -73.3007583618
intensity: 30.7371826172
---
header: 
  seq: 3066174
  stamp: 
    secs: 1561686090
    nsecs:  53866581
  frame_id: "ti_mmwave"
point_id: 1
x: 0.017578125
y: -0.080078125
z: -0.0078125
range: 0.0871539413929
velocity: 0.0
doppler_bin: 8
bearing: -77.6192398071
intensity: 31.9838218689
---
header: 
  seq: 3066175
  stamp: 
    secs: 1561686090
    nsecs:  54085186
  frame_id: "ti_mmwave"
point_id: 2
x: 0.029296875
y: -0.119140625
z: -0.00390625
range: 0.130730912089
velocity: 0.0
doppler_bin: 8
bearing: -76.1849746704
intensity: 30.2160263062
---
header: 
  seq: 3066176
  stamp: 
    secs: 1561686090
    nsecs:  54101748
  frame_id: "ti_mmwave"
point_id: 3
x: 0.056640625
y: -0.154296875
z: 0.005859375
range: 0.174307882786
velocity: 0.0
doppler_bin: 8
bearing: -69.8423843384
intensity: 25.5144996643
---
header: 
  seq: 3066177
  stamp: 
    secs: 1561686090
    nsecs:  54111101
  frame_id: "ti_mmwave"
point_id: 4
x: 0.38671875
y: -0.080078125
z: -1.205078125
range: 1.35088610649
velocity: 0.0
doppler_bin: 8
bearing: -11.6989374161
intensity: 22.0139713287
---
header: 
  seq: 3066178
  stamp: 
    secs: 1561686090
    nsecs:  54119849
  frame_id: "ti_mmwave"
point_id: 5
x: 0.265625
y: -0.041015625
z: 1.28125
range: 1.39446306229
velocity: 0.0
doppler_bin: 8
bearing: -8.77781772614
intensity: 23.2428245544
---
header: 
  seq: 3066179
  stamp: 
    secs: 1561686090
    nsecs:  54145264
  frame_id: "ti_mmwave"
point_id: 6
x: 0.3984375
y: -0.0
z: 1.291015625
range: 1.43804001808
velocity: 0.0
doppler_bin: 8
bearing: -0.0
intensity: 21.9033164978
---
header: 
  seq: 3066180
  stamp: 
    secs: 1561686090
    nsecs:  54163431
  frame_id: "ti_mmwave"
point_id: 7
x: 2.5859375
y: -0.17578125
z: 1.119140625
range: 3.00681090355
velocity: 0.0
doppler_bin: 8
bearing: -3.88874602318
intensity: 29.3951931
---
header: 
  seq: 3066181
  stamp: 
    secs: 1561686090
    nsecs:  54177750
  frame_id: "ti_mmwave"
point_id: 8
x: 2.619140625
y: -0.1796875
z: 1.142578125
range: 3.05038785934
velocity: 0.0
doppler_bin: 8
bearing: -3.9246571064
intensity: 32.7461967468
---
header: 
  seq: 3066182
  stamp: 
    secs: 1561686090
    nsecs:  54192824
  frame_id: "ti_mmwave"
point_id: 9
x: 2.65625
y: -0.181640625
z: 1.158203125
range: 3.09396481514
velocity: 0.0
doppler_bin: 8
bearing: -3.91193032265
intensity: 31.9893188477
---
header: 
  seq: 3066183
  stamp: 
    secs: 1561686090
    nsecs:  54208743
  frame_id: "ti_mmwave"
point_id: 10
x: 4.412109375
y: -0.287109375
z: 1.19921875
range: 4.88062095642
velocity: 0.0
doppler_bin: 8
bearing: -3.72316122055
intensity: 30.700378418
---
header: 
  seq: 3066184
  stamp: 
    secs: 1561686090
    nsecs:  54223461
  frame_id: "ti_mmwave"
point_id: 11
x: 4.4453125
y: -0.43359375
z: 1.193359375
range: 4.9241976738
velocity: 0.0
doppler_bin: 8
bearing: -5.57098150253
intensity: 30.0259799957
---
header: 
  seq: 3066185
  stamp: 
    secs: 1561686090
    nsecs:  54238302
  frame_id: "ti_mmwave"
point_id: 12
x: 4.736328125
y: -0.44921875
z: -0.513671875
range: 5.09850549698
velocity: 0.0
doppler_bin: 8
bearing: -5.41803121567
intensity: 33.0621032715
---
header: 
  seq: 3066186
  stamp: 
    secs: 1561686090
    nsecs:  54253057
  frame_id: "ti_mmwave"
point_id: 13
x: 4.7890625
y: -0.453125
z: -0.396484375
range: 5.14208269119
velocity: 0.0
doppler_bin: 8
bearing: -5.40504264832
intensity: 33.3945159912
---
header: 
  seq: 3066187
  stamp: 
    secs: 1561686090
    nsecs:  54267747
  frame_id: "ti_mmwave"
point_id: 14
x: 4.857421875
y: -0.3046875
z: -0.009765625
range: 5.18565940857
velocity: 0.0
doppler_bin: 8
bearing: -3.58924269676
intensity: 30.0987567902
---
header: 
  seq: 3066188
  stamp: 
    secs: 1561686090
    nsecs:  54279399
  frame_id: "ti_mmwave"
point_id: 15
x: 4.865234375
y: -0.306640625
z: 0.5703125
range: 5.22923660278
velocity: 0.0
doppler_bin: 8
bearing: -3.60640478134
intensity: 30.4610481262
---
header: 
  seq: 3066189
  stamp: 
    secs: 1561686090
    nsecs:  54436773
  frame_id: "ti_mmwave"
point_id: 16
x: 4.865234375
y: -0.46484375
z: 0.787109375
range: 5.27281332016
velocity: 0.0
doppler_bin: 8
bearing: -5.45769834518
intensity: 30.8990516663
---
header: 
  seq: 3066190
  stamp: 
    secs: 1561686090
    nsecs:  54457023
  frame_id: "ti_mmwave"
point_id: 17
x: 1.96875
y: 0.375
z: -0.0546875
range: 2.13527154922
velocity: 0.614668667316
doppler_bin: 9
bearing: 10.7842979431
intensity: 26.4345264435
---
header: 
  seq: 3066191
  stamp: 
    secs: 1561686090
    nsecs:  54466118
  frame_id: "ti_mmwave"
point_id: 18
x: 2.01953125
y: 0.3203125
z: -0.048828125
range: 2.17884850502
velocity: 0.614668667316
doppler_bin: 9
bearing: 9.01245880127
intensity: 26.7486114502
---
header: 
  seq: 3066192
  stamp: 
    secs: 1561686090
    nsecs:  54477629
  frame_id: "ti_mmwave"
point_id: 20
x: 0.041015625
y: -0.033203125
z: 0.0625
range: 0.0871539413929
velocity: 0.0
doppler_bin: 8
bearing: -38.9909973145
intensity: 30.1494026184
---
header: 
  seq: 3066193
  stamp: 
    secs: 1561686090
    nsecs:  54486553
  frame_id: "ti_mmwave"
point_id: 21
x: 0.044921875
y: -0.046875
z: 0.103515625
range: 0.130730912089
velocity: 0.0
doppler_bin: 8
bearing: -46.218875885
intensity: 29.0471553802
---
header: 
  seq: 3066194
  stamp: 
    secs: 1561686090
    nsecs:  54496807
  frame_id: "ti_mmwave"
point_id: 23
x: 1.21484375
y: 0.357421875
z: 0.078125
range: 1.35088610649
velocity: 0.0
doppler_bin: 8
bearing: 16.3945274353
intensity: 19.1907806396
---
header: 
  seq: 3066195
  stamp: 
    secs: 1561686090
    nsecs:  54505610
  frame_id: "ti_mmwave"
point_id: 24
x: 3.01171875
y: -2.021484375
z: -2.865234375
range: 4.9241976738
velocity: 0.0
doppler_bin: 8
bearing: -33.8697624207
intensity: 27.1767044067
---
header: 
  seq: 3066196
  stamp: 
    secs: 1561686090
    nsecs: 112307336
  frame_id: "ti_mmwave"
point_id: 0
x: 0.01171875
y: -0.0390625
z: -0.0078125
range: 0.0435769706964
velocity: 0.0
doppler_bin: 8
bearing: -73.3007583618
intensity: 30.7335166931
---
header: 
  seq: 3066197
  stamp: 
    secs: 1561686090
    nsecs: 112379571
  frame_id: "ti_mmwave"
point_id: 1
x: 0.017578125
y: -0.080078125
z: -0.0078125
range: 0.0871539413929
velocity: 0.0
doppler_bin: 8
bearing: -77.6192398071
intensity: 31.9783172607
---
header: 
  seq: 3066198
  stamp: 
    secs: 1561686090
    nsecs: 112390582
  frame_id: "ti_mmwave"
point_id: 2
x: 0.029296875
y: -0.119140625
z: -0.00390625
range: 0.130730912089
velocity: 0.0
doppler_bin: 8
bearing: -76.1849746704
intensity: 30.2118930817
---
header: 
  seq: 3066199
  stamp: 
    secs: 1561686090
    nsecs: 112398707
  frame_id: "ti_mmwave"
point_id: 3
x: 0.056640625
y: -0.154296875
z: 0.005859375
range: 0.174307882786
velocity: 0.0
doppler_bin: 8
bearing: -69.8423843384
intensity: 25.5022830963
---
header: 
  seq: 3066200
  stamp: 
    secs: 1561686090
    nsecs: 112406666
  frame_id: "ti_mmwave"
point_id: 4
x: 0.361328125
y: -0.080078125
z: -1.212890625
range: 1.35088610649
velocity: 0.0
doppler_bin: 8
bearing: -12.4960107803
intensity: 21.9865703583
---
header: 
  seq: 3066201
  stamp: 
    secs: 1561686090
    nsecs: 112414599
  frame_id: "ti_mmwave"
point_id: 5
x: 0.283203125
y: -0.041015625
z: 1.27734375
range: 1.39446306229
velocity: 0.0
doppler_bin: 8
bearing: -8.24071216583
intensity: 23.2837963104
---
header: 
  seq: 3066202
  stamp: 
    secs: 1561686090
    nsecs: 112422658
  frame_id: "ti_mmwave"
point_id: 6
x: 0.42578125
y: -0.0
z: 1.28125
range: 1.43804001808
velocity: 0.0
doppler_bin: 8
bearing: -0.0
intensity: 21.9589958191
---
header: 
  seq: 3066203
  stamp: 
    secs: 1561686090
    nsecs: 112430853
  frame_id: "ti_mmwave"
point_id: 7
x: 1.751953125
y: 0.1640625
z: 0.015625
range: 1.87380969524
velocity: 0.0
doppler_bin: 8
bearing: 5.34988880157
intensity: 28.2801513672
---
header: 
  seq: 3066204
  stamp: 
    secs: 1561686090
    nsecs: 112439820
  frame_id: "ti_mmwave"
point_id: 8
x: 1.791015625
y: 0.16796875
z: 0.001953125
range: 1.91738677025
velocity: 0.0
doppler_bin: 8
bearing: 5.35776042938
intensity: 29.4645233154
---
header: 
  seq: 3066205
  stamp: 
    secs: 1561686090
    nsecs: 112448437
  frame_id: "ti_mmwave"
point_id: 9
x: 2.55078125
y: -0.263671875
z: 1.177734375
range: 3.00681090355
velocity: 0.0
doppler_bin: 8
bearing: -5.90165042877
intensity: 29.4299964905
---
header: 
  seq: 3066206
  stamp: 
    secs: 1561686090
    nsecs: 112456325
  frame_id: "ti_mmwave"
point_id: 10
x: 2.62109375
y: -0.1796875
z: 1.13671875
range: 3.05038785934
velocity: 0.0
doppler_bin: 8
bearing: -3.9217414856
intensity: 32.7989501953
---
header: 
  seq: 3066207
  stamp: 
    secs: 1561686090
    nsecs: 112464193
  frame_id: "ti_mmwave"
point_id: 11
x: 2.666015625
y: -0.181640625
z: 1.13671875
range: 3.09396481514
velocity: 0.0
doppler_bin: 8
bearing: -3.89764523506
intensity: 32.0194320679
---
header: 
  seq: 3066208
  stamp: 
    secs: 1561686090
    nsecs: 112472179
  frame_id: "ti_mmwave"
point_id: 12
x: 4.412109375
y: -0.287109375
z: 1.205078125
range: 4.88062095642
velocity: 0.0
doppler_bin: 8
bearing: -3.72316122055
intensity: 30.9131507874
---
header: 
  seq: 3066209
  stamp: 
    secs: 1561686090
    nsecs: 112480261
  frame_id: "ti_mmwave"
point_id: 13
x: 4.4609375
y: -0.2890625
z: 1.177734375
range: 4.9241976738
velocity: 0.0
doppler_bin: 8
bearing: -3.70750308037
intensity: 30.6370849609
---
header: 
  seq: 3066210
  stamp: 
    secs: 1561686090
    nsecs: 112488526
  frame_id: "ti_mmwave"
point_id: 14
x: 4.740234375
y: -0.44921875
z: -0.478515625
range: 5.09850549698
velocity: 0.0
doppler_bin: 8
bearing: -5.41359329224
intensity: 33.2428245544
---
header: 
  seq: 3066211
  stamp: 
    secs: 1561686090
    nsecs: 112509849
  frame_id: "ti_mmwave"
point_id: 15
x: 4.79296875
y: -0.453125
z: -0.357421875
range: 5.14208269119
velocity: 0.0
doppler_bin: 8
bearing: -5.40066432953
intensity: 33.5545158386
---
header: 
  seq: 3066212
  stamp: 
    secs: 1561686090
    nsecs: 112521427
  frame_id: "ti_mmwave"
point_id: 16
x: 4.857421875
y: -0.3046875
z: 0.03515625
range: 5.18565940857
velocity: 0.0
doppler_bin: 8
bearing: -3.58924269676
intensity: 30.1114730835
---
header: 
  seq: 3066213
  stamp: 
    secs: 1561686090
    nsecs: 112675701
  frame_id: "ti_mmwave"
point_id: 17
x: 4.837890625
y: -0.4609375
z: 0.69140625
range: 5.22923660278
velocity: 0.0
doppler_bin: 8
bearing: -5.44251489639
intensity: 30.0689373016
---
header: 
  seq: 3066214
  stamp: 
    secs: 1561686090
    nsecs: 112695021
  frame_id: "ti_mmwave"
point_id: 18
x: 4.87109375
y: -0.46484375
z: 0.75
range: 5.27281332016
velocity: 0.0
doppler_bin: 8
bearing: -5.45117378235
intensity: 30.6744289398
---
header: 
  seq: 3066215
  stamp: 
    secs: 1561686090
    nsecs: 112706291
  frame_id: "ti_mmwave"
point_id: 20
x: 0.041015625
y: -0.033203125
z: 0.0625
range: 0.0871539413929
velocity: 0.0
doppler_bin: 8
bearing: -38.9909973145
intensity: 30.1535968781
---
header: 
  seq: 3066216
  stamp: 
    secs: 1561686090
    nsecs: 112750844
  frame_id: "ti_mmwave"
point_id: 21
x: 0.044921875
y: -0.046875
z: 0.103515625
range: 0.130730912089
velocity: 0.0
doppler_bin: 8
bearing: -46.218875885
intensity: 29.0579586029
---
header: 
  seq: 3066217
  stamp: 
    secs: 1561686090
    nsecs: 112760968
  frame_id: "ti_mmwave"
point_id: 23
x: 1.21484375
y: 0.357421875
z: 0.0859375
range: 1.35088610649
velocity: 0.0
doppler_bin: 8
bearing: 16.3945274353
intensity: 19.2427921295
---
header: 
  seq: 3066218
  stamp: 
    secs: 1561686090
    nsecs: 112770878
  frame_id: "ti_mmwave"
point_id: 24
x: 2.904296875
y: -1.861328125
z: -3.013671875
range: 4.88062095642
velocity: 0.0
doppler_bin: 8
bearing: -32.6553077698
intensity: 27.9169063568
---
header: 
  seq: 3066219
  stamp: 
    secs: 1561686090
    nsecs: 112778570
  frame_id: "ti_mmwave"
point_id: 25
x: 2.875
y: -2.021484375
z: -3.001953125
range: 4.9241976738
velocity: 0.0
doppler_bin: 8
bearing: -35.1120109558
intensity: 27.6937732697
---
header: 
  seq: 3066220
  stamp: 
    secs: 1561686090
    nsecs: 172277169
  frame_id: "ti_mmwave"
point_id: 0
x: 0.01171875
y: -0.0390625
z: -0.0078125
range: 0.0435769706964
velocity: 0.0
doppler_bin: 8
bearing: -73.3007583618
intensity: 30.7298469543
---
header: 
  seq: 3066221
  stamp: 
    secs: 1561686090
    nsecs: 172349829
  frame_id: "ti_mmwave"
point_id: 1
x: 0.017578125
y: -0.080078125
z: -0.0078125
range: 0.0871539413929
velocity: 0.0
doppler_bin: 8
bearing: -77.6192398071
intensity: 31.9783172607
---
header: 
  seq: 3066222
  stamp: 
    secs: 1561686090
    nsecs: 172360889
  frame_id: "ti_mmwave"
point_id: 2
x: 0.029296875
y: -0.119140625
z: -0.00390625
range: 0.130730912089
velocity: 0.0
doppler_bin: 8
bearing: -76.1849746704
intensity: 30.2077541351
---
header: 
  seq: 3066223
  stamp: 
    secs: 1561686090
    nsecs: 172369026
  frame_id: "ti_mmwave"
point_id: 3
x: 0.056640625
y: -0.154296875
z: 0.005859375
range: 0.174307882786
velocity: 0.0
doppler_bin: 8
bearing: -69.8423843384
intensity: 25.490032196
---
header: 
  seq: 3066224
  stamp: 
    secs: 1561686090
    nsecs: 172379396
  frame_id: "ti_mmwave"
point_id: 4
x: 0.33984375
y: -0.080078125
z: -1.21875
range: 1.35088610649
velocity: 0.0
doppler_bin: 8
bearing: -13.2588720322
intensity: 22.0139713287
---
header: 
  seq: 3066225
  stamp: 
    secs: 1561686090
    nsecs: 172387317
  frame_id: "ti_mmwave"
point_id: 5
x: 0.318359375
y: -0.041015625
z: 1.26953125
range: 1.39446306229
velocity: 0.0
doppler_bin: 8
bearing: -7.34122562408
intensity: 23.3243846893
---
header: 
  seq: 3066226
  stamp: 
    secs: 1561686090
    nsecs: 172395281
  frame_id: "ti_mmwave"
point_id: 6
x: 0.443359375
y: -0.0
z: 1.275390625
range: 1.43804001808
velocity: 0.0
doppler_bin: 8
bearing: -0.0
intensity: 22.0139713287
---
header: 
  seq: 3066227
  stamp: 
    secs: 1561686090
    nsecs: 172403467
  frame_id: "ti_mmwave"
point_id: 7
x: 1.96484375
y: 0.1875
z: -0.34375
range: 2.13527154922
velocity: 0.0
doppler_bin: 8
bearing: 5.45108318329
intensity: 27.5511226654
---
header: 
  seq: 3066228
  stamp: 
    secs: 1561686090
    nsecs: 172411360
  frame_id: "ti_mmwave"
point_id: 8
x: 2.54296875
y: -0.263671875
z: 1.197265625
range: 3.00681090355
velocity: 0.0
doppler_bin: 8
bearing: -5.91965341568
intensity: 29.4299964905
---
header: 
  seq: 3066229
  stamp: 
    secs: 1561686090
    nsecs: 172420289
  frame_id: "ti_mmwave"
point_id: 9
x: 2.599609375
y: -0.267578125
z: 1.171875
range: 3.05038785934
velocity: 0.0
doppler_bin: 8
bearing: -5.87676620483
intensity: 32.7852478027
---
header: 
  seq: 3066230
  stamp: 
    secs: 1561686090
    nsecs: 172427906
  frame_id: "ti_mmwave"
point_id: 10
x: 2.66015625
y: -0.181640625
z: 1.15234375
range: 3.09396481514
velocity: 0.0
doppler_bin: 8
bearing: -3.90620398521
intensity: 32.0384864807
---
header: 
  seq: 3066231
  stamp: 
    secs: 1561686090
    nsecs: 172436695
  frame_id: "ti_mmwave"
point_id: 11
x: 4.41015625
y: -0.287109375
z: 1.208984375
range: 4.88062095642
velocity: 0.0
doppler_bin: 8
bearing: -3.72480559349
intensity: 30.8026561737
---
header: 
  seq: 3066232
  stamp: 
    secs: 1561686090
    nsecs: 172445277
  frame_id: "ti_mmwave"
point_id: 12
x: 4.419921875
y: -0.2890625
z: 1.3203125
range: 4.9241976738
velocity: 0.0
doppler_bin: 8
bearing: -3.74181032181
intensity: 30.2448558807
---
header: 
  seq: 3066233
  stamp: 
    secs: 1561686090
    nsecs: 172454114
  frame_id: "ti_mmwave"
point_id: 13
x: 4.740234375
y: -0.44921875
z: -0.478515625
range: 5.09850549698
velocity: 0.0
doppler_bin: 8
bearing: -5.41359329224
intensity: 33.1111793518
---
header: 
  seq: 3066234
  stamp: 
    secs: 1561686090
    nsecs: 172462023
  frame_id: "ti_mmwave"
point_id: 14
x: 4.79296875
y: -0.453125
z: -0.34765625
range: 5.14208269119
velocity: 0.0
doppler_bin: 8
bearing: -5.40066432953
intensity: 33.3945159912
---
header: 
  seq: 3066235
  stamp: 
    secs: 1561686090
    nsecs: 172470088
  frame_id: "ti_mmwave"
point_id: 15
x: 4.845703125
y: -0.45703125
z: 0.080078125
range: 5.18565940857
velocity: 0.0
doppler_bin: 8
bearing: -5.38801622391
intensity: 29.7173957825
---
header: 
  seq: 3066236
  stamp: 
    secs: 1561686090
    nsecs: 172477880
  frame_id: "ti_mmwave"
point_id: 16
x: 4.83203125
y: -0.4609375
z: 0.7265625
range: 5.22923660278
velocity: 0.0
doppler_bin: 8
bearing: -5.44907474518
intensity: 30.2448558807
---
header: 
  seq: 3066237
  stamp: 
    secs: 1561686090
    nsecs: 172486438
  frame_id: "ti_mmwave"
point_id: 17
x: 4.884765625
y: -0.30859375
z: 0.734375
range: 5.27281332016
velocity: 0.0
doppler_bin: 8
bearing: -3.6148416996
intensity: 30.8564720154
---
header: 
  seq: 3066238
  stamp: 
    secs: 1561686090
    nsecs: 172496567
  frame_id: "ti_mmwave"
point_id: 18
x: 1.9453125
y: 0.24609375
z: -0.099609375
range: 2.09169459343
velocity: 0.614668667316
doppler_bin: 9
bearing: 7.20996236801
intensity: 27.5511226654
---
header: 
  seq: 3066239
  stamp: 
    secs: 1561686090
    nsecs: 172519917
  frame_id: "ti_mmwave"
point_id: 20
x: 0.041015625
y: -0.033203125
z: 0.0625
range: 0.0871539413929
velocity: 0.0
doppler_bin: 8
bearing: -38.9909973145
intensity: 30.1535968781
---
header: 
  seq: 3066240
  stamp: 
    secs: 1561686090
    nsecs: 172534200
  frame_id: "ti_mmwave"
point_id: 21
x: 0.044921875
y: -0.046875
z: 0.103515625
range: 0.130730912089
velocity: 0.0
doppler_bin: 8
bearing: -46.218875885
intensity: 29.0579586029
---
header: 
  seq: 3066241
  stamp: 
    secs: 1561686090
    nsecs: 172545284
  frame_id: "ti_mmwave"
point_id: 23
x: 1.21484375
y: 0.357421875
z: 0.0703125
range: 1.35088610649
velocity: 0.0
doppler_bin: 8
bearing: 16.3945274353
intensity: 19.1381378174
---
header: 
  seq: 3066242
  stamp: 
    secs: 1561686090
    nsecs: 172728967
  frame_id: "ti_mmwave"
point_id: 24
x: 3.1015625
y: -2.021484375
z: -2.767578125
range: 4.9241976738
velocity: 0.0
doppler_bin: 8
bearing: -33.0948295593
intensity: 27.2509460449
---
header: 
  seq: 3066243
  stamp: 
    secs: 1561686090
    nsecs: 173694224
  frame_id: "ti_mmwave"
point_id: 0
x: 0.01171875
y: -0.0390625
z: -0.0078125
range: 0.0435769706964
velocity: 0.0
doppler_bin: 8
bearing: -73.3007583618
intensity: 30.7371826172
---
header: 
  seq: 3066244
  stamp: 
    secs: 1561686090
    nsecs: 173758161
  frame_id: "ti_mmwave"
point_id: 1
x: 0.017578125
y: -0.080078125
z: -0.0078125
range: 0.0871539413929
velocity: 0.0
doppler_bin: 8
bearing: -77.6192398071
intensity: 31.9810695648
---
header: 
  seq: 3066245
  stamp: 
    secs: 1561686090
    nsecs: 173776827
  frame_id: "ti_mmwave"
point_id: 2
x: 0.029296875
y: -0.119140625
z: -0.00390625
range: 0.130730912089
velocity: 0.0
doppler_bin: 8
bearing: -76.1849746704
intensity: 30.2118930817
---
header: 
  seq: 3066246
  stamp: 
    secs: 1561686090
    nsecs: 173789522
  frame_id: "ti_mmwave"
point_id: 3
x: 0.056640625
y: -0.154296875
z: 0.005859375
range: 0.174307882786
velocity: 0.0
doppler_bin: 8
bearing: -69.8423843384
intensity: 25.5022830963
---
header: 
  seq: 3066247
  stamp: 
    secs: 1561686090
    nsecs: 173803455
  frame_id: "ti_mmwave"
point_id: 4
x: 0.330078125
y: -0.080078125
z: -1.220703125
range: 1.35088610649
velocity: 0.0
doppler_bin: 8
bearing: -13.6366977692
intensity: 21.9312458038
---
header: 
  seq: 3066248
  stamp: 
    secs: 1561686090
    nsecs: 173815064
  frame_id: "ti_mmwave"
point_id: 5
x: 0.337890625
y: -0.041015625
z: 1.263671875
range: 1.39446306229
velocity: 0.0
doppler_bin: 8
bearing: -6.92111730576
intensity: 23.2221927643
---
header: 
  seq: 3066249
  stamp: 
    secs: 1561686090
    nsecs: 173832152
  frame_id: "ti_mmwave"
point_id: 6
x: 0.44921875
y: -0.0
z: 1.2734375
range: 1.43804001808
velocity: 0.0
doppler_bin: 8
bearing: -0.0
intensity: 21.9033164978
---
header: 
  seq: 3066250
  stamp: 
    secs: 1561686090
    nsecs: 173846652
  frame_id: "ti_mmwave"
point_id: 7
x: 2.556640625
y: -0.263671875
z: 1.1640625
range: 3.00681090355
velocity: 0.0
doppler_bin: 8
bearing: -5.88822031021
intensity: 29.4497585297
---
header: 
  seq: 3066251
  stamp: 
    secs: 1561686090
    nsecs: 173859165
  frame_id: "ti_mmwave"
point_id: 8
x: 2.615234375
y: -0.1796875
z: 1.150390625
range: 3.05038785934
velocity: 0.0
doppler_bin: 8
bearing: -3.93050074577
intensity: 32.7600212097
---
header: 
  seq: 3066252
  stamp: 
    secs: 1561686090
    nsecs: 173871724
  frame_id: "ti_mmwave"
point_id: 9
x: 2.654296875
y: -0.181640625
z: 1.1640625
range: 3.09396481514
velocity: 0.0
doppler_bin: 8
bearing: -3.91479969025
intensity: 31.9975509644
---
header: 
  seq: 3066253
  stamp: 
    secs: 1561686090
    nsecs: 173966891
  frame_id: "ti_mmwave"
point_id: 10
x: 4.412109375
y: -0.287109375
z: 1.201171875
range: 4.88062095642
velocity: 0.0
doppler_bin: 8
bearing: -3.72316122055
intensity: 30.8778133392
---
header: 
  seq: 3066254
  stamp: 
    secs: 1561686090
    nsecs: 173981574
  frame_id: "ti_mmwave"
point_id: 11
x: 4.4609375
y: -0.2890625
z: 1.1796875
range: 4.9241976738
velocity: 0.0
doppler_bin: 8
bearing: -3.70750308037
intensity: 30.5842609406
---
header: 
  seq: 3066255
  stamp: 
    secs: 1561686090
    nsecs: 173992726
  frame_id: "ti_mmwave"
point_id: 12
x: 4.740234375
y: -0.44921875
z: -0.4921875
range: 5.09850549698
velocity: 0.0
doppler_bin: 8
bearing: -5.41359329224
intensity: 33.1196556091
---
header: 
  seq: 3066256
  stamp: 
    secs: 1561686090
    nsecs: 174005296
  frame_id: "ti_mmwave"
point_id: 13
x: 4.79296875
y: -0.453125
z: -0.359375
range: 5.14208269119
velocity: 0.0
doppler_bin: 8
bearing: -5.40066432953
intensity: 33.368598938
---
header: 
  seq: 3066257
  stamp: 
    secs: 1561686090
    nsecs: 174016855
  frame_id: "ti_mmwave"
point_id: 14
x: 4.845703125
y: -0.45703125
z: 0.0546875
range: 5.18565940857
velocity: 0.0
doppler_bin: 8
bearing: -5.38801622391
intensity: 29.7543182373
---
header: 
  seq: 3066258
  stamp: 
    secs: 1561686090
    nsecs: 174081259
  frame_id: "ti_mmwave"
point_id: 15
x: 4.8203125
y: -0.4609375
z: 0.80078125
range: 5.22923660278
velocity: 0.0
doppler_bin: 8
bearing: -5.46224212646
intensity: 29.8045787811
---
header: 
  seq: 3066259
  stamp: 
    secs: 1561686090
    nsecs: 174096823
  frame_id: "ti_mmwave"
point_id: 16
x: 4.859375
y: -0.46484375
z: 0.822265625
range: 5.27281332016
velocity: 0.0
doppler_bin: 8
bearing: -5.46423959732
intensity: 30.5804615021
---
header: 
  seq: 3066260
  stamp: 
    secs: 1561686090
    nsecs: 174110235
  frame_id: "ti_mmwave"
point_id: 18
x: 0.041015625
y: -0.033203125
z: 0.0625
range: 0.0871539413929
velocity: 0.0
doppler_bin: 8
bearing: -38.9909973145
intensity: 30.1535968781
---
header: 
  seq: 3066261
  stamp: 
    secs: 1561686090
    nsecs: 174123577
  frame_id: "ti_mmwave"
point_id: 19
x: 0.044921875
y: -0.046875
z: 0.103515625
range: 0.130730912089
velocity: 0.0
doppler_bin: 8
bearing: -46.218875885
intensity: 29.0525608063
---
header: 
  seq: 3066262
  stamp: 
    secs: 1561686090
    nsecs: 174183842
  frame_id: "ti_mmwave"
point_id: 21
x: 1.21484375
y: 0.357421875
z: 0.06640625
range: 1.35088610649
velocity: 0.0
doppler_bin: 8
bearing: 16.3945274353
intensity: 19.1907806396
---
header: 
  seq: 3066263
  stamp: 
    secs: 1561686090
    nsecs: 232548719
  frame_id: "ti_mmwave"
point_id: 0
x: 0.01171875
y: -0.0390625
z: -0.0078125
range: 0.0435769706964
velocity: 0.0
doppler_bin: 8
bearing: -73.3007583618
intensity: 30.7445068359
---
header: 
  seq: 3066264
  stamp: 
    secs: 1561686090
    nsecs: 232621373
  frame_id: "ti_mmwave"
point_id: 1
x: 0.017578125
y: -0.080078125
z: -0.0078125
range: 0.0871539413929
velocity: 0.0
doppler_bin: 8
bearing: -77.6192398071
intensity: 31.9810695648
---
header: 
  seq: 3066265
  stamp: 
    secs: 1561686090
    nsecs: 232632382
  frame_id: "ti_mmwave"
point_id: 2
x: 0.029296875
y: -0.119140625
z: -0.00390625
range: 0.130730912089
velocity: 0.0
doppler_bin: 8
bearing: -76.1849746704
intensity: 30.2118930817
---
header: 
  seq: 3066266
  stamp: 
    secs: 1561686090
    nsecs: 232643193
  frame_id: "ti_mmwave"
point_id: 3
x: 0.056640625
y: -0.154296875
z: 0.005859375
range: 0.174307882786
velocity: 0.0
doppler_bin: 8
bearing: -69.8423843384
intensity: 25.5022830963
---
header: 
  seq: 3066267
  stamp: 
    secs: 1561686090
    nsecs: 232653337
  frame_id: "ti_mmwave"
point_id: 4
x: 0.326171875
y: -0.080078125
z: -1.22265625
range: 1.35088610649
velocity: 0.0
doppler_bin: 8
bearing: -13.7938089371
intensity: 22.0139713287
---
header: 
  seq: 3066268
  stamp: 
    secs: 1561686090
    nsecs: 232661544
  frame_id: "ti_mmwave"
point_id: 5
x: 0.291015625
y: -0.041015625
z: 1.275390625
range: 1.39446306229
velocity: 0.0
doppler_bin: 8
bearing: -8.02240371704
intensity: 23.3041381836
---
header: 
  seq: 3066269
  stamp: 
    secs: 1561686090
    nsecs: 232669635
  frame_id: "ti_mmwave"
point_id: 6
x: 0.466796875
y: -0.04296875
z: 1.265625
range: 1.43804001808
velocity: 0.0
doppler_bin: 8
bearing: -5.25926733017
intensity: 21.9865703583
---
header: 
  seq: 3066270
  stamp: 
    secs: 1561686090
    nsecs: 232677690
  frame_id: "ti_mmwave"
point_id: 7
x: 1.955078125
y: 0.18359375
z: 0.005859375
range: 2.09169459343
velocity: 0.0
doppler_bin: 8
bearing: 5.36469078064
intensity: 29.3701610565
---
header: 
  seq: 3066271
  stamp: 
    secs: 1561686090
    nsecs: 232685954
  frame_id: "ti_mmwave"
point_id: 8
x: 1.99609375
y: 0.1875
z: -0.025390625
range: 2.13527154922
velocity: 0.0
doppler_bin: 8
bearing: 5.36624479294
intensity: 30.8278541565
---
header: 
  seq: 3066272
  stamp: 
    secs: 1561686090
    nsecs: 232693995
  frame_id: "ti_mmwave"
point_id: 9
x: 2.03515625
y: 0.19140625
z: -0.033203125
range: 2.17884850502
velocity: 0.0
doppler_bin: 8
bearing: 5.37285757065
intensity: 29.4001808167
---
header: 
  seq: 3066273
  stamp: 
    secs: 1561686090
    nsecs: 232702344
  frame_id: "ti_mmwave"
point_id: 10
x: 2.54296875
y: -0.263671875
z: 1.197265625
range: 3.00681090355
velocity: 0.0
doppler_bin: 8
bearing: -5.91965341568
intensity: 29.339931488
---
header: 
  seq: 3066274
  stamp: 
    secs: 1561686090
    nsecs: 232712934
  frame_id: "ti_mmwave"
point_id: 11
x: 2.60546875
y: -0.267578125
z: 1.158203125
range: 3.05038785934
velocity: 0.0
doppler_bin: 8
bearing: -5.86364221573
intensity: 32.753112793
---
header: 
  seq: 3066275
  stamp: 
    secs: 1561686090
    nsecs: 232721756
  frame_id: "ti_mmwave"
point_id: 12
x: 2.666015625
y: -0.181640625
z: 1.13671875
range: 3.09396481514
velocity: 0.0
doppler_bin: 8
bearing: -3.89764523506
intensity: 32.0248832703
---
header: 
  seq: 3066276
  stamp: 
    secs: 1561686090
    nsecs: 232729961
  frame_id: "ti_mmwave"
point_id: 13
x: 4.416015625
y: -0.287109375
z: 1.1875
range: 4.88062095642
velocity: 0.0
doppler_bin: 8
bearing: -3.71987724304
intensity: 30.8170719147
---
header: 
  seq: 3066277
  stamp: 
    secs: 1561686090
    nsecs: 232739125
  frame_id: "ti_mmwave"
point_id: 14
x: 4.470703125
y: -0.2890625
z: 1.138671875
range: 4.9241976738
velocity: 0.0
doppler_bin: 8
bearing: -3.69942688942
intensity: 30.5192394257
---
header: 
  seq: 3066278
  stamp: 
    secs: 1561686090
    nsecs: 232747118
  frame_id: "ti_mmwave"
point_id: 15
x: 4.71484375
y: -0.296875
z: -0.439453125
range: 5.0549287796
velocity: 0.0
doppler_bin: 8
bearing: -3.60293149948
intensity: 29.5133743286
---
header: 
  seq: 3066279
  stamp: 
    secs: 1561686090
    nsecs: 232921436
  frame_id: "ti_mmwave"
point_id: 16
x: 4.7421875
y: -0.44921875
z: -0.462890625
range: 5.09850549698
velocity: 0.0
doppler_bin: 8
bearing: -5.41137647629
intensity: 33.1764564514
---
header: 
  seq: 3066280
  stamp: 
    secs: 1561686090
    nsecs: 232940993
  frame_id: "ti_mmwave"
point_id: 17
x: 4.79296875
y: -0.453125
z: -0.33984375
range: 5.14208269119
velocity: 0.0
doppler_bin: 8
bearing: -5.40066432953
intensity: 33.5564308167
---
header: 
  seq: 3066281
  stamp: 
    secs: 1561686090
    nsecs: 232953302
  frame_id: "ti_mmwave"
point_id: 18
x: 4.857421875
y: -0.3046875
z: 0.064453125
range: 5.18565940857
velocity: 0.0
doppler_bin: 8
bearing: -3.58924269676
intensity: 30.3019485474
---
header: 
  seq: 3066282
  stamp: 
    secs: 1561686090
    nsecs: 232963355
  frame_id: "ti_mmwave"
point_id: 19
x: 4.830078125
y: -0.4609375
z: 0.744140625
range: 5.22923660278
velocity: 0.0
doppler_bin: 8
bearing: -5.45126533508
intensity: 30.2325248718
---
header: 
  seq: 3066283
  stamp: 
    secs: 1561686090
    nsecs: 232968866
  frame_id: "ti_mmwave"
point_id: 20
x: 4.884765625
y: -0.30859375
z: 0.7421875
range: 5.27281332016
velocity: 0.0
doppler_bin: 8
bearing: -3.6148416996
intensity: 30.7809410095
---
header: 
  seq: 3066284
  stamp: 
    secs: 1561686090
    nsecs: 232994632
  frame_id: "ti_mmwave"
point_id: 21
x: 1.791015625
y: 0.16796875
z: 0.05859375
range: 1.91738677025
velocity: 0.614668667316
doppler_bin: 9
bearing: 5.35776042938
intensity: 27.4973640442
---
header: 
  seq: 3066285
  stamp: 
    secs: 1561686090
    nsecs: 233003240
  frame_id: "ti_mmwave"
point_id: 22
x: 1.826171875
y: 0.23046875
z: 0.056640625
range: 1.96096372604
velocity: 0.614668667316
doppler_bin: 9
bearing: 7.19288396835
intensity: 28.7332057953
---
header: 
  seq: 3066286
  stamp: 
    secs: 1561686090
    nsecs: 233055583
  frame_id: "ti_mmwave"
point_id: 23
x: 1.865234375
y: 0.234375
z: 0.083984375
range: 2.00454068184
velocity: 0.614668667316
doppler_bin: 9
bearing: 7.16193294525
intensity: 26.8304710388
---
header: 
  seq: 3066287
  stamp: 
    secs: 1561686090
    nsecs: 233067745
  frame_id: "ti_mmwave"
point_id: 25
x: 0.041015625
y: -0.033203125
z: 0.0625
range: 0.0871539413929
velocity: 0.0
doppler_bin: 8
bearing: -38.9909973145
intensity: 30.1494026184
---
header: 
  seq: 3066288
  stamp: 
    secs: 1561686090
    nsecs: 233077798
  frame_id: "ti_mmwave"
point_id: 26
x: 0.044921875
y: -0.046875
z: 0.103515625
range: 0.130730912089
velocity: 0.0
doppler_bin: 8
bearing: -46.218875885
intensity: 29.0525608063
---
header: 
  seq: 3066289
  stamp: 
    secs: 1561686090
    nsecs: 233087419
  frame_id: "ti_mmwave"
point_id: 28
x: 1.21484375
y: 0.357421875
z: 0.06640625
range: 1.35088610649
velocity: 0.0
doppler_bin: 8
bearing: 16.3945274353
intensity: 19.2941894531
---
header: 
  seq: 3066290
  stamp: 
    secs: 1561686090
    nsecs: 234034480
  frame_id: "ti_mmwave"
point_id: 0
x: 0.01171875
y: -0.0390625
z: -0.0078125
range: 0.0435769706964
velocity: 0.0
doppler_bin: 8
bearing: -73.3007583618
intensity: 30.7335166931
---
header: 
  seq: 3066291
  stamp: 
    secs: 1561686090
    nsecs: 234099438
  frame_id: "ti_mmwave"
point_id: 1
x: 0.017578125
y: -0.080078125
z: -0.0078125
range: 0.0871539413929
velocity: 0.0
doppler_bin: 8
bearing: -77.6192398071
intensity: 31.9783172607
---
header: 
  seq: 3066292
  stamp: 
    secs: 1561686090
    nsecs: 234120016
  frame_id: "ti_mmwave"
point_id: 2
x: 0.029296875
y: -0.119140625
z: -0.00390625
range: 0.130730912089
velocity: 0.0
doppler_bin: 8
bearing: -76.1849746704
intensity: 30.2160263062
---
header: 
  seq: 3066293
  stamp: 
    secs: 1561686090
    nsecs: 234133748
  frame_id: "ti_mmwave"
point_id: 3
x: 0.056640625
y: -0.154296875
z: 0.0078125
range: 0.174307882786
velocity: 0.0
doppler_bin: 8
bearing: -69.8423843384
intensity: 25.5266819
---
header: 
  seq: 3066294
  stamp: 
    secs: 1561686090
    nsecs: 234212078
  frame_id: "ti_mmwave"
point_id: 4
x: 0.388671875
y: -0.080078125
z: -1.205078125
range: 1.35088610649
velocity: 0.0
doppler_bin: 8
bearing: -11.6417570114
intensity: 21.9312458038
---
header: 
  seq: 3066295
  stamp: 
    secs: 1561686090
    nsecs: 234229704
  frame_id: "ti_mmwave"
point_id: 5
x: 0.294921875
y: -0.041015625
z: 1.275390625
range: 1.39446306229
velocity: 0.0
doppler_bin: 8
bearing: -7.91750335693
intensity: 23.2428245544
---
header: 
  seq: 3066296
  stamp: 
    secs: 1561686090
    nsecs: 234244195
  frame_id: "ti_mmwave"
point_id: 6
x: 0.4375
y: -0.0
z: 1.27734375
range: 1.43804001808
velocity: 0.0
doppler_bin: 8
bearing: -0.0
intensity: 21.9312458038
---
header: 
  seq: 3066297
  stamp: 
    secs: 1561686090
    nsecs: 234257386
  frame_id: "ti_mmwave"
point_id: 7
x: 1.99609375
y: 0.1875
z: -0.037109375
range: 2.13527154922
velocity: 0.0
doppler_bin: 8
bearing: 5.36624479294
intensity: 27.6641292572
---
header: 
  seq: 3066298
  stamp: 
    secs: 1561686090
    nsecs: 234275098
  frame_id: "ti_mmwave"
point_id: 8
x: 2.03515625
y: 0.19140625
z: -0.06640625
range: 2.17884850502
velocity: 0.0
doppler_bin: 8
bearing: 5.37285757065
intensity: 28.1023254395
---
header: 
  seq: 3066299
  stamp: 
    secs: 1561686090
    nsecs: 234332344
  frame_id: "ti_mmwave"
point_id: 9
x: 2.544921875
y: -0.263671875
z: 1.193359375
range: 3.00681090355
velocity: 0.0
doppler_bin: 8
bearing: -5.91514253616
intensity: 29.4051647186
---
header: 
  seq: 3066300
  stamp: 
    secs: 1561686090
    nsecs: 234350028
  frame_id: "ti_mmwave"
point_id: 10
x: 2.603515625
y: -0.267578125
z: 1.162109375
range: 3.05038785934
velocity: 0.0
doppler_bin: 8
bearing: -5.8680100441
intensity: 32.7508087158
---
header: 
  seq: 3066301
  stamp: 
    secs: 1561686090
    nsecs: 234366844
  frame_id: "ti_mmwave"
point_id: 11
x: 2.66015625
y: -0.181640625
z: 1.15234375
range: 3.09396481514
velocity: 0.0
doppler_bin: 8
bearing: -3.90620398521
intensity: 31.9783172607
---
header: 
  seq: 3066302
  stamp: 
    secs: 1561686090
    nsecs: 234383448
  frame_id: "ti_mmwave"
point_id: 12
x: 4.4140625
y: -0.287109375
z: 1.19140625
range: 4.88062095642
velocity: 0.0
doppler_bin: 8
bearing: -3.72151875496
intensity: 30.8849048615
---
header: 
  seq: 3066303
  stamp: 
    secs: 1561686090
    nsecs: 234444368
  frame_id: "ti_mmwave"
point_id: 13
x: 4.470703125
y: -0.2890625
z: 1.140625
range: 4.9241976738
velocity: 0.0
doppler_bin: 8
bearing: -3.69942688942
intensity: 30.6445808411
---
header: 
  seq: 3066304
  stamp: 
    secs: 1561686090
    nsecs: 234462802
  frame_id: "ti_mmwave"
point_id: 14
x: 4.708984375
y: -0.296875
z: -0.505859375
range: 5.0549287796
velocity: 0.0
doppler_bin: 8
bearing: -3.60740232468
intensity: 29.527923584
---
header: 
  seq: 3066305
  stamp: 
    secs: 1561686090
    nsecs: 234476844
  frame_id: "ti_mmwave"
point_id: 15
x: 4.740234375
y: -0.44921875
z: -0.494140625
range: 5.09850549698
velocity: 0.0
doppler_bin: 8
bearing: -5.41359329224
intensity: 33.1281166077
---
header: 
  seq: 3066306
  stamp: 
    secs: 1561686090
    nsecs: 234505987
  frame_id: "ti_mmwave"
point_id: 16
x: 4.79296875
y: -0.453125
z: -0.34375
range: 5.14208269119
velocity: 0.0
doppler_bin: 8
bearing: -5.40066432953
intensity: 33.4654846191
---
header: 
  seq: 3066307
  stamp: 
    secs: 1561686090
    nsecs: 234528037
  frame_id: "ti_mmwave"
point_id: 17
x: 4.845703125
y: -0.45703125
z: 0.087890625
range: 5.18565940857
velocity: 0.0
doppler_bin: 8
bearing: -5.38801622391
intensity: 29.9607372284
---
header: 
  seq: 3066308
  stamp: 
    secs: 1561686090
    nsecs: 234602897
  frame_id: "ti_mmwave"
point_id: 18
x: 4.81640625
y: -0.4609375
z: 0.82421875
range: 5.22923660278
velocity: 0.0
doppler_bin: 8
bearing: -5.46664571762
intensity: 29.9475688934
---
header: 
  seq: 3066309
  stamp: 
    secs: 1561686090
    nsecs: 234614849
  frame_id: "ti_mmwave"
point_id: 19
x: 4.8828125
y: -0.30859375
z: 0.748046875
range: 5.27281332016
velocity: 0.0
doppler_bin: 8
bearing: -3.61628341675
intensity: 30.6707077026
---
header: 
  seq: 3066310
  stamp: 
    secs: 1561686090
    nsecs: 234625741
  frame_id: "ti_mmwave"
point_id: 21
x: 0.041015625
y: -0.033203125
z: 0.0625
range: 0.0871539413929
velocity: 0.0
doppler_bin: 8
bearing: -38.9909973145
intensity: 30.1535968781
---
header: 
  seq: 3066311
  stamp: 
    secs: 1561686090
    nsecs: 234633987
  frame_id: "ti_mmwave"
point_id: 22
x: 0.044921875
y: -0.046875
z: 0.10546875
range: 0.130730912089
velocity: 0.0
doppler_bin: 8
bearing: -46.218875885
intensity: 29.0525608063
---
header: 
  seq: 3066312
  stamp: 
    secs: 1561686090
    nsecs: 234644149
  frame_id: "ti_mmwave"
point_id: 24
x: 1.212890625
y: 0.357421875
z: 0.0859375
range: 1.35088610649
velocity: 0.0
doppler_bin: 8
bearing: 16.419506073
intensity: 19.2941894531
---
header: 
  seq: 3066313
  stamp: 
    secs: 1561686090
    nsecs: 292406501
  frame_id: "ti_mmwave"
point_id: 0
x: 0.01171875
y: -0.0390625
z: -0.0078125
range: 0.0435769706964
velocity: 0.0
doppler_bin: 8
bearing: -73.3007583618
intensity: 30.7335166931
---
header: 
  seq: 3066314
  stamp: 
    secs: 1561686090
    nsecs: 292483497
  frame_id: "ti_mmwave"
point_id: 1
x: 0.017578125
y: -0.080078125
z: -0.0078125
range: 0.0871539413929
velocity: 0.0
doppler_bin: 8
bearing: -77.6192398071
intensity: 31.9755630493
---
header: 
  seq: 3066315
  stamp: 
    secs: 1561686090
    nsecs: 292495187
  frame_id: "ti_mmwave"
point_id: 2
x: 0.029296875
y: -0.119140625
z: -0.00390625
range: 0.130730912089
velocity: 0.0
doppler_bin: 8
bearing: -76.1849746704
intensity: 30.2036132812
---
header: 
  seq: 3066316
  stamp: 
    secs: 1561686090
    nsecs: 292503891
  frame_id: "ti_mmwave"
point_id: 3
x: 0.056640625
y: -0.154296875
z: 0.005859375
range: 0.174307882786
velocity: 0.0
doppler_bin: 8
bearing: -69.8423843384
intensity: 25.5022830963
---
header: 
  seq: 3066317
  stamp: 
    secs: 1561686090
    nsecs: 292512319
  frame_id: "ti_mmwave"
point_id: 4
x: 0.33203125
y: -0.080078125
z: -1.220703125
range: 1.35088610649
velocity: 0.0
doppler_bin: 8
bearing: -13.5594520569
intensity: 22.0139713287
---
header: 
  seq: 3066318
  stamp: 
    secs: 1561686090
    nsecs: 292520222
  frame_id: "ti_mmwave"
point_id: 5
x: 0.30078125
y: -0.041015625
z: 1.2734375
range: 1.39446306229
velocity: 0.0
doppler_bin: 8
bearing: -7.76516628265
intensity: 23.2633590698
---
header: 
  seq: 3066319
  stamp: 
    secs: 1561686090
    nsecs: 292528312
  frame_id: "ti_mmwave"
point_id: 6
x: 0.392578125
y: -0.0
z: 1.291015625
range: 1.43804001808
velocity: 0.0
doppler_bin: 8
bearing: -0.0
intensity: 21.9033164978
---
header: 
  seq: 3066320
  stamp: 
    secs: 1561686090
    nsecs: 292537266
  frame_id: "ti_mmwave"
point_id: 7
x: 1.994140625
y: 0.1875
z: -0.076171875
range: 2.13527154922
velocity: 0.0
doppler_bin: 8
bearing: 5.37146997452
intensity: 29.9431724548
---
header: 
  seq: 3066321
  stamp: 
    secs: 1561686090
    nsecs: 292546837
  frame_id: "ti_mmwave"
point_id: 8
x: 2.033203125
y: 0.19140625
z: -0.09375
range: 2.17884850502
velocity: 0.0
doppler_bin: 8
bearing: 5.37798881531
intensity: 30.3019485474
---
header: 
  seq: 3066322
  stamp: 
    secs: 1561686090
    nsecs: 292555763
  frame_id: "ti_mmwave"
point_id: 9
x: 2.076171875
y: 0.1953125
z: -0.02734375
range: 2.22242546082
velocity: 0.0
doppler_bin: 8
bearing: 5.37419128418
intensity: 28.5369815826
---
header: 
  seq: 3066323
  stamp: 
    secs: 1561686090
    nsecs: 292576134
  frame_id: "ti_mmwave"
point_id: 10
x: 2.5625
y: -0.263671875
z: 1.154296875
range: 3.00681090355
velocity: 0.0
doppler_bin: 8
bearing: -5.87485074997
intensity: 29.4151134491
---
header: 
  seq: 3066324
  stamp: 
    secs: 1561686090
    nsecs: 292592117
  frame_id: "ti_mmwave"
point_id: 11
x: 2.611328125
y: -0.267578125
z: 1.14453125
range: 3.05038785934
velocity: 0.0
doppler_bin: 8
bearing: -5.85057687759
intensity: 32.7669143677
---
header: 
  seq: 3066325
  stamp: 
    secs: 1561686090
    nsecs: 292605284
  frame_id: "ti_mmwave"
point_id: 12
x: 2.666015625
y: -0.181640625
z: 1.13671875
range: 3.09396481514
velocity: 0.0
doppler_bin: 8
bearing: -3.89764523506
intensity: 32.0112380981
---
header: 
  seq: 3066326
  stamp: 
    secs: 1561686090
    nsecs: 292612891
  frame_id: "ti_mmwave"
point_id: 13
x: 4.41015625
y: -0.287109375
z: 1.208984375
range: 4.88062095642
velocity: 0.0
doppler_bin: 8
bearing: -3.72480559349
intensity: 30.8062648773
---
header: 
  seq: 3066327
  stamp: 
    secs: 1561686090
    nsecs: 292626445
  frame_id: "ti_mmwave"
point_id: 14
x: 4.4296875
y: -0.2890625
z: 1.287109375
range: 4.9241976738
velocity: 0.0
doppler_bin: 8
bearing: -3.73358464241
intensity: 30.3462848663
---
header: 
  seq: 3066328
  stamp: 
    secs: 1561686090
    nsecs: 292638357
  frame_id: "ti_mmwave"
point_id: 15
x: 4.736328125
y: -0.44921875
z: -0.513671875
range: 5.09850549698
velocity: 0.0
doppler_bin: 8
bearing: -5.41803121567
intensity: 33.1889762878
---
header: 
  seq: 3066329
  stamp: 
    secs: 1561686090
    nsecs: 292796889
  frame_id: "ti_mmwave"
point_id: 16
x: 4.79296875
y: -0.453125
z: -0.357421875
range: 5.14208269119
velocity: 0.0
doppler_bin: 8
bearing: -5.40066432953
intensity: 33.5564308167
---
header: 
  seq: 3066330
  stamp: 
    secs: 1561686090
    nsecs: 292818553
  frame_id: "ti_mmwave"
point_id: 17
x: 4.857421875
y: -0.3046875
z: 0.048828125
range: 5.18565940857
velocity: 0.0
doppler_bin: 8
bearing: -3.58924269676
intensity: 30.3342380524
---
header: 
  seq: 3066331
  stamp: 
    secs: 1561686090
    nsecs: 292827183
  frame_id: "ti_mmwave"
point_id: 18
x: 4.8203125
y: -0.4609375
z: 0.80078125
range: 5.22923660278
velocity: 0.0
doppler_bin: 8
bearing: -5.46224212646
intensity: 30.1870040894
---
header: 
  seq: 3066332
  stamp: 
    secs: 1561686090
    nsecs: 292835551
  frame_id: "ti_mmwave"
point_id: 19
x: 4.853515625
y: -0.46484375
z: 0.857421875
range: 5.27281332016
velocity: 0.0
doppler_bin: 8
bearing: -5.47079658508
intensity: 30.86003685
---
header: 
  seq: 3066333
  stamp: 
    secs: 1561686090
    nsecs: 292846010
  frame_id: "ti_mmwave"
point_id: 21
x: 0.041015625
y: -0.033203125
z: 0.0625
range: 0.0871539413929
velocity: 0.0
doppler_bin: 8
bearing: -38.9909973145
intensity: 30.1494026184
---
header: 
  seq: 3066334
  stamp: 
    secs: 1561686090
    nsecs: 292854058
  frame_id: "ti_mmwave"
point_id: 22
x: 0.044921875
y: -0.046875
z: 0.103515625
range: 0.130730912089
velocity: 0.0
doppler_bin: 8
bearing: -46.218875885
intensity: 29.0525608063
---
header: 
  seq: 3066335
  stamp: 
    secs: 1561686090
    nsecs: 292867912
  frame_id: "ti_mmwave"
point_id: 24
x: 1.21484375
y: 0.357421875
z: 0.083984375
range: 1.35088610649
velocity: 0.0
doppler_bin: 8
bearing: 16.3945274353
intensity: 19.2427921295
---
header: 
  seq: 3066336
  stamp: 
    secs: 1561686090
    nsecs: 292880376
  frame_id: "ti_mmwave"
point_id: 25
x: 3.033203125
y: -2.021484375
z: -2.841796875
range: 4.9241976738
velocity: 0.0
doppler_bin: 8
bearing: -33.681552887
intensity: 27.3559894562
---
header: 
  seq: 3066337
  stamp: 
    secs: 1561686090
    nsecs: 293861902
  frame_id: "ti_mmwave"
point_id: 0
x: 0.01171875
y: -0.0390625
z: -0.0078125
range: 0.0435769706964
velocity: 0.0
doppler_bin: 8
bearing: -73.3007583618
intensity: 30.7371826172
---
header: 
  seq: 3066338
  stamp: 
    secs: 1561686090
    nsecs: 293932850
  frame_id: "ti_mmwave"
point_id: 1
x: 0.017578125
y: -0.080078125
z: -0.0078125
range: 0.0871539413929
velocity: 0.0
doppler_bin: 8
bearing: -77.6192398071
intensity: 31.9810695648
---
header: 
  seq: 3066339
  stamp: 
    secs: 1561686090
    nsecs: 293956366
  frame_id: "ti_mmwave"
point_id: 2
x: 0.029296875
y: -0.119140625
z: -0.00390625
range: 0.130730912089
velocity: 0.0
doppler_bin: 8
bearing: -76.1849746704
intensity: 30.2077541351
---
header: 
  seq: 3066340
  stamp: 
    secs: 1561686090
    nsecs: 293971111
  frame_id: "ti_mmwave"
point_id: 3
x: 0.056640625
y: -0.154296875
z: 0.005859375
range: 0.174307882786
velocity: 0.0
doppler_bin: 8
bearing: -69.8423843384
intensity: 25.490032196
---
header: 
  seq: 3066341
  stamp: 
    secs: 1561686090
    nsecs: 293986709
  frame_id: "ti_mmwave"
point_id: 4
x: 0.357421875
y: -0.080078125
z: -1.21484375
range: 1.35088610649
velocity: 0.0
doppler_bin: 8
bearing: -12.6282215118
intensity: 21.9865703583
---
header: 
  seq: 3066342
  stamp: 
    secs: 1561686090
    nsecs: 294000027
  frame_id: "ti_mmwave"
point_id: 5
x: 0.30078125
y: -0.041015625
z: 1.2734375
range: 1.39446306229
velocity: 0.0
doppler_bin: 8
bearing: -7.76516628265
intensity: 23.2633590698
---
header: 
  seq: 3066343
  stamp: 
    secs: 1561686090
    nsecs: 294016095
  frame_id: "ti_mmwave"
point_id: 6
x: 0.419921875
y: -0.0
z: 1.283203125
range: 1.43804001808
velocity: 0.0
doppler_bin: 8
bearing: -0.0
intensity: 21.9312458038
---
header: 
  seq: 3066344
  stamp: 
    secs: 1561686090
    nsecs: 294032069
  frame_id: "ti_mmwave"
point_id: 7
x: 2.02734375
y: 0.255859375
z: -0.068359375
range: 2.17884850502
velocity: 0.0
doppler_bin: 8
bearing: 7.19294214249
intensity: 27.4272518158
---
header: 
  seq: 3066345
  stamp: 
    secs: 1561686090
    nsecs: 294044845
  frame_id: "ti_mmwave"
point_id: 8
x: 2.068359375
y: 0.26171875
z: -0.056640625
range: 2.22242546082
velocity: 0.0
doppler_bin: 8
bearing: 7.21156549454
intensity: 27.283536911
---
header: 
  seq: 3066346
  stamp: 
    secs: 1561686090
    nsecs: 294058812
  frame_id: "ti_mmwave"
point_id: 9
x: 2.55078125
y: -0.263671875
z: 1.177734375
range: 3.00681090355
velocity: 0.0
doppler_bin: 8
bearing: -5.90165042877
intensity: 29.4299964905
---
header: 
  seq: 3066347
  stamp: 
    secs: 1561686090
    nsecs: 294071354
  frame_id: "ti_mmwave"
point_id: 10
x: 2.6015625
y: -0.267578125
z: 1.1640625
range: 3.05038785934
velocity: 0.0
doppler_bin: 8
bearing: -5.87238502502
intensity: 32.7737998962
---
header: 
  seq: 3066348
  stamp: 
    secs: 1561686090
    nsecs: 294084945
  frame_id: "ti_mmwave"
point_id: 11
x: 2.65234375
y: -0.181640625
z: 1.16796875
range: 3.09396481514
velocity: 0.0
doppler_bin: 8
bearing: -3.9176735878
intensity: 32.0736503601
---
header: 
  seq: 3066349
  stamp: 
    secs: 1561686090
    nsecs: 294096459
  frame_id: "ti_mmwave"
point_id: 12
x: 4.4140625
y: -0.287109375
z: 1.1953125
range: 4.88062095642
velocity: 0.0
doppler_bin: 8
bearing: -3.72151875496
intensity: 30.8278541565
---
header: 
  seq: 3066350
  stamp: 
    secs: 1561686090
    nsecs: 294111944
  frame_id: "ti_mmwave"
point_id: 13
x: 4.419921875
y: -0.2890625
z: 1.32421875
range: 4.9241976738
velocity: 0.0
doppler_bin: 8
bearing: -3.74181032181
intensity: 30.2653331757
---
header: 
  seq: 3066351
  stamp: 
    secs: 1561686090
    nsecs: 294125479
  frame_id: "ti_mmwave"
point_id: 14
x: 4.7421875
y: -0.44921875
z: -0.4609375
range: 5.09850549698
velocity: 0.0
doppler_bin: 8
bearing: -5.41137647629
intensity: 33.1827201843
---
header: 
  seq: 3066352
  stamp: 
    secs: 1561686090
    nsecs: 294139662
  frame_id: "ti_mmwave"
point_id: 15
x: 4.79296875
y: -0.453125
z: -0.337890625
range: 5.14208269119
velocity: 0.0
doppler_bin: 8
bearing: -5.40066432953
intensity: 33.5044174194
---
header: 
  seq: 3066353
  stamp: 
    secs: 1561686090
    nsecs: 294152249
  frame_id: "ti_mmwave"
point_id: 16
x: 4.857421875
y: -0.3046875
z: 0.064453125
range: 5.18565940857
velocity: 0.0
doppler_bin: 8
bearing: -3.58924269676
intensity: 30.1745071411
---
header: 
  seq: 3066354
  stamp: 
    secs: 1561686090
    nsecs: 294167080
  frame_id: "ti_mmwave"
point_id: 17
x: 4.85546875
y: -0.306640625
z: 0.646484375
range: 5.22923660278
velocity: 0.0
doppler_bin: 8
bearing: -3.61363911629
intensity: 30.3981056213
---
header: 
  seq: 3066355
  stamp: 
    secs: 1561686090
    nsecs: 294182955
  frame_id: "ti_mmwave"
point_id: 18
x: 4.8828125
y: -0.30859375
z: 0.75390625
range: 5.27281332016
velocity: 0.0
doppler_bin: 8
bearing: -3.61628341675
intensity: 30.9166698456
---
header: 
  seq: 3066356
  stamp: 
    secs: 1561686090
    nsecs: 294199097
  frame_id: "ti_mmwave"
point_id: 20
x: 0.041015625
y: -0.033203125
z: 0.0625
range: 0.0871539413929
velocity: 0.0
doppler_bin: 8
bearing: -38.9909973145
intensity: 30.1535968781
---
header: 
  seq: 3066357
  stamp: 
    secs: 1561686090
    nsecs: 294212342
  frame_id: "ti_mmwave"
point_id: 21
x: 0.044921875
y: -0.046875
z: 0.103515625
range: 0.130730912089
velocity: 0.0
doppler_bin: 8
bearing: -46.218875885
intensity: 29.0579586029
---
header: 
  seq: 3066358
  stamp: 
    secs: 1561686090
    nsecs: 294231283
  frame_id: "ti_mmwave"
point_id: 23
x: 1.21484375
y: 0.357421875
z: 0.083984375
range: 1.35088610649
velocity: 0.0
doppler_bin: 8
bearing: 16.3945274353
intensity: 19.2427921295
---
header: 
  seq: 3066359
  stamp: 
    secs: 1561686090
    nsecs: 294289716
  frame_id: "ti_mmwave"
point_id: 24
x: 3.0234375
y: -2.021484375
z: -2.853515625
range: 4.9241976738
velocity: 0.0
doppler_bin: 8
bearing: -33.766872406
intensity: 27.4272518158
---
header: 
  seq: 3066360
  stamp: 
    secs: 1561686090
    nsecs: 352312171
  frame_id: "ti_mmwave"
point_id: 0
x: 0.01171875
y: -0.0390625
z: -0.0078125
range: 0.0435769706964
velocity: 0.0
doppler_bin: 8
bearing: -73.3007583618
intensity: 30.7224998474
---
header: 
  seq: 3066361
  stamp: 
    secs: 1561686090
    nsecs: 352379241
  frame_id: "ti_mmwave"
point_id: 1
x: 0.017578125
y: -0.080078125
z: -0.0078125
range: 0.0871539413929
velocity: 0.0
doppler_bin: 8
bearing: -77.6192398071
intensity: 31.9755630493
---
header: 
  seq: 3066362
  stamp: 
    secs: 1561686090
    nsecs: 352390134
  frame_id: "ti_mmwave"
point_id: 2
x: 0.029296875
y: -0.119140625
z: -0.00390625
range: 0.130730912089
velocity: 0.0
doppler_bin: 8
bearing: -76.1849746704
intensity: 30.2077541351
---
header: 
  seq: 3066363
  stamp: 
    secs: 1561686090
    nsecs: 352397894
  frame_id: "ti_mmwave"
point_id: 3
x: 0.056640625
y: -0.154296875
z: 0.005859375
range: 0.174307882786
velocity: 0.0
doppler_bin: 8
bearing: -69.8423843384
intensity: 25.5022830963
---
header: 
  seq: 3066364
  stamp: 
    secs: 1561686090
    nsecs: 352405777
  frame_id: "ti_mmwave"
point_id: 4
x: 0.341796875
y: -0.080078125
z: -1.21875
range: 1.35088610649
velocity: 0.0
doppler_bin: 8
bearing: -13.1857614517
intensity: 21.9589958191
---
header: 
  seq: 3066365
  stamp: 
    secs: 1561686090
    nsecs: 352413496
  frame_id: "ti_mmwave"
point_id: 5
x: 0.291015625
y: -0.041015625
z: 1.275390625
range: 1.39446306229
velocity: 0.0
doppler_bin: 8
bearing: -8.02240371704
intensity: 23.3041381836
---
header: 
  seq: 3066366
  stamp: 
    secs: 1561686090
    nsecs: 352421064
  frame_id: "ti_mmwave"
point_id: 6
x: 0.404296875
y: -0.0
z: 1.287109375
range: 1.43804001808
velocity: 0.0
doppler_bin: 8
bearing: -0.0
intensity: 22.0139713287
---
header: 
  seq: 3066367
  stamp: 
    secs: 1561686090
    nsecs: 352429301
  frame_id: "ti_mmwave"
point_id: 7
x: 2.55078125
y: -0.263671875
z: 1.177734375
range: 3.00681090355
velocity: 0.0
doppler_bin: 8
bearing: -5.90165042877
intensity: 29.4694328308
---
header: 
  seq: 3066368
  stamp: 
    secs: 1561686090
    nsecs: 352439682
  frame_id: "ti_mmwave"
point_id: 8
x: 2.625
y: -0.1796875
z: 1.126953125
range: 3.05038785934
velocity: 0.0
doppler_bin: 8
bearing: -3.91592383385
intensity: 32.7783851624
---
header: 
  seq: 3066369
  stamp: 
    secs: 1561686090
    nsecs: 352449075
  frame_id: "ti_mmwave"
point_id: 9
x: 2.67578125
y: -0.181640625
z: 1.115234375
range: 3.09396481514
velocity: 0.0
doppler_bin: 8
bearing: -3.88346338272
intensity: 31.9783172607
---
header: 
  seq: 3066370
  stamp: 
    secs: 1561686090
    nsecs: 352460131
  frame_id: "ti_mmwave"
point_id: 10
x: 4.416015625
y: -0.287109375
z: 1.18359375
range: 4.88062095642
velocity: 0.0
doppler_bin: 8
bearing: -3.71987724304
intensity: 30.8421859741
---
header: 
  seq: 3066371
  stamp: 
    secs: 1561686090
    nsecs: 352559474
  frame_id: "ti_mmwave"
point_id: 11
x: 4.453125
y: -0.2890625
z: 1.20703125
range: 4.9241976738
velocity: 0.0
doppler_bin: 8
bearing: -3.71398925781
intensity: 30.4060230255
---
header: 
  seq: 3066372
  stamp: 
    secs: 1561686090
    nsecs: 352568117
  frame_id: "ti_mmwave"
point_id: 12
x: 4.73828125
y: -0.44921875
z: -0.49609375
range: 5.09850549698
velocity: 0.0
doppler_bin: 8
bearing: -5.4158115387
intensity: 33.1618003845
---
header: 
  seq: 3066373
  stamp: 
    secs: 1561686090
    nsecs: 352576235
  frame_id: "ti_mmwave"
point_id: 13
x: 4.79296875
y: -0.453125
z: -0.34375
range: 5.14208269119
velocity: 0.0
doppler_bin: 8
bearing: -5.40066432953
intensity: 33.4360542297
---
header: 
  seq: 3066374
  stamp: 
    secs: 1561686090
    nsecs: 352584272
  frame_id: "ti_mmwave"
point_id: 14
x: 4.857421875
y: -0.3046875
z: 0.115234375
range: 5.18565940857
velocity: 0.0
doppler_bin: 8
bearing: -3.58924269676
intensity: 29.8855895996
---
header: 
  seq: 3066375
  stamp: 
    secs: 1561686090
    nsecs: 352604944
  frame_id: "ti_mmwave"
point_id: 15
x: 4.818359375
y: -0.4609375
z: 0.81640625
range: 5.22923660278
velocity: 0.0
doppler_bin: 8
bearing: -5.46444320679
intensity: 30.0987567902
---
header: 
  seq: 3066376
  stamp: 
    secs: 1561686090
    nsecs: 352613276
  frame_id: "ti_mmwave"
point_id: 16
x: 4.853515625
y: -0.46484375
z: 0.85546875
range: 5.27281332016
velocity: 0.0
doppler_bin: 8
bearing: -5.47079658508
intensity: 30.6520614624
---
header: 
  seq: 3066377
  stamp: 
    secs: 1561686090
    nsecs: 352623855
  frame_id: "ti_mmwave"
point_id: 18
x: 0.041015625
y: -0.033203125
z: 0.0625
range: 0.0871539413929
velocity: 0.0
doppler_bin: 8
bearing: -38.9909973145
intensity: 30.1535968781
---
header: 
  seq: 3066378
  stamp: 
    secs: 1561686090
    nsecs: 352631752
  frame_id: "ti_mmwave"
point_id: 19
x: 0.044921875
y: -0.046875
z: 0.103515625
range: 0.130730912089
velocity: 0.0
doppler_bin: 8
bearing: -46.218875885
intensity: 29.0525608063
---
header: 
  seq: 3066379
  stamp: 
    secs: 1561686090
    nsecs: 352641086
  frame_id: "ti_mmwave"
point_id: 21
x: 1.212890625
y: 0.357421875
z: 0.08984375
range: 1.35088610649
velocity: 0.0
doppler_bin: 8
bearing: 16.419506073
intensity: 19.2427921295
---
header: 
  seq: 3066380
  stamp: 
    secs: 1561686090
    nsecs: 352648741
  frame_id: "ti_mmwave"
point_id: 22
x: 3.021484375
y: -2.021484375
z: -2.853515625
range: 4.9241976738
velocity: 0.0
doppler_bin: 8
bearing: -33.7839813232
intensity: 27.4429302216
---
header: 
  seq: 3066381
  stamp: 
    secs: 1561686090
    nsecs: 353834743
  frame_id: "ti_mmwave"
point_id: 0
x: 0.01171875
y: -0.0390625
z: -0.0078125
range: 0.0435769706964
velocity: 0.0
doppler_bin: 8
bearing: -73.3007583618
intensity: 30.7335166931
---
header: 
  seq: 3066382
  stamp: 
    secs: 1561686090
    nsecs: 353878992
  frame_id: "ti_mmwave"
point_id: 1
x: 0.017578125
y: -0.080078125
z: -0.0078125
range: 0.0871539413929
velocity: 0.0
doppler_bin: 8
bearing: -77.6192398071
intensity: 31.9783172607
---
header: 
  seq: 3066383
  stamp: 
    secs: 1561686090
    nsecs: 353889730
  frame_id: "ti_mmwave"
point_id: 2
x: 0.029296875
y: -0.119140625
z: -0.00390625
range: 0.130730912089
velocity: 0.0
doppler_bin: 8
bearing: -76.1849746704
intensity: 30.2077541351
---
header: 
  seq: 3066384
  stamp: 
    secs: 1561686090
    nsecs: 353900393
  frame_id: "ti_mmwave"
point_id: 3
x: 0.056640625
y: -0.154296875
z: 0.005859375
range: 0.174307882786
velocity: 0.0
doppler_bin: 8
bearing: -69.8423843384
intensity: 25.5022830963
---
header: 
  seq: 3066385
  stamp: 
    secs: 1561686090
    nsecs: 353908431
  frame_id: "ti_mmwave"
point_id: 4
x: 0.37109375
y: -0.080078125
z: -1.2109375
range: 1.35088610649
velocity: 0.0
doppler_bin: 8
bearing: -12.177107811
intensity: 22.0139713287
---
header: 
  seq: 3066386
  stamp: 
    secs: 1561686090
    nsecs: 353917628
  frame_id: "ti_mmwave"
point_id: 5
x: 0.28515625
y: -0.041015625
z: 1.27734375
range: 1.39446306229
velocity: 0.0
doppler_bin: 8
bearing: -8.18503570557
intensity: 23.3041381836
---
header: 
  seq: 3066387
  stamp: 
    secs: 1561686090
    nsecs: 353926027
  frame_id: "ti_mmwave"
point_id: 6
x: 0.41015625
y: -0.0
z: 1.28515625
range: 1.43804001808
velocity: 0.0
doppler_bin: 8
bearing: -0.0
intensity: 21.9865703583
---
header: 
  seq: 3066388
  stamp: 
    secs: 1561686090
    nsecs: 353934529
  frame_id: "ti_mmwave"
point_id: 7
x: 1.830078125
y: 0.171875
z: -0.08203125
range: 1.96096372604
velocity: 0.0
doppler_bin: 8
bearing: 5.36529636383
intensity: 28.9872512817
---
header: 
  seq: 3066389
  stamp: 
    secs: 1561686090
    nsecs: 353945230
  frame_id: "ti_mmwave"
point_id: 8
x: 2.548828125
y: -0.263671875
z: 1.181640625
range: 3.00681090355
velocity: 0.0
doppler_bin: 8
bearing: -5.90614128113
intensity: 29.339931488
---
header: 
  seq: 3066390
  stamp: 
    secs: 1561686090
    nsecs: 354015988
  frame_id: "ti_mmwave"
point_id: 9
x: 2.603515625
y: -0.267578125
z: 1.16015625
range: 3.05038785934
velocity: 0.0
doppler_bin: 8
bearing: -5.8680100441
intensity: 32.7230567932
---
header: 
  seq: 3066391
  stamp: 
    secs: 1561686090
    nsecs: 354047847
  frame_id: "ti_mmwave"
point_id: 10
x: 2.66015625
y: -0.181640625
z: 1.15234375
range: 3.09396481514
velocity: 0.0
doppler_bin: 8
bearing: -3.90620398521
intensity: 32.0057678223
---
header: 
  seq: 3066392
  stamp: 
    secs: 1561686090
    nsecs: 354060719
  frame_id: "ti_mmwave"
point_id: 11
x: 4.41015625
y: -0.287109375
z: 1.205078125
range: 4.88062095642
velocity: 0.0
doppler_bin: 8
bearing: -3.72480559349
intensity: 30.8707122803
---
header: 
  seq: 3066393
  stamp: 
    secs: 1561686090
    nsecs: 354072914
  frame_id: "ti_mmwave"
point_id: 12
x: 4.46875
y: -0.2890625
z: 1.146484375
range: 4.9241976738
velocity: 0.0
doppler_bin: 8
bearing: -3.70103907585
intensity: 30.5499591827
---
header: 
  seq: 3066394
  stamp: 
    secs: 1561686090
    nsecs: 354081861
  frame_id: "ti_mmwave"
point_id: 13
x: 4.7421875
y: -0.44921875
z: -0.470703125
range: 5.09850549698
velocity: 0.0
doppler_bin: 8
bearing: -5.41137647629
intensity: 33.0663948059
---
header: 
  seq: 3066395
  stamp: 
    secs: 1561686090
    nsecs: 354089488
  frame_id: "ti_mmwave"
point_id: 14
x: 4.791015625
y: -0.453125
z: -0.3671875
range: 5.14208269119
velocity: 0.0
doppler_bin: 8
bearing: -5.40285253525
intensity: 33.3825721741
---
header: 
  seq: 3066396
  stamp: 
    secs: 1561686090
    nsecs: 354096873
  frame_id: "ti_mmwave"
point_id: 15
x: 4.845703125
y: -0.45703125
z: 0.04296875
range: 5.18565940857
velocity: 0.0
doppler_bin: 8
bearing: -5.38801622391
intensity: 29.7635002136
---
header: 
  seq: 3066397
  stamp: 
    secs: 1561686090
    nsecs: 354104206
  frame_id: "ti_mmwave"
point_id: 16
x: 4.818359375
y: -0.4609375
z: 0.81640625
range: 5.22923660278
velocity: 0.0
doppler_bin: 8
bearing: -5.46444320679
intensity: 30.064661026
---
header: 
  seq: 3066398
  stamp: 
    secs: 1561686090
    nsecs: 354113390
  frame_id: "ti_mmwave"
point_id: 17
x: 4.853515625
y: -0.46484375
z: 0.853515625
range: 5.27281332016
velocity: 0.0
doppler_bin: 8
bearing: -5.47079658508
intensity: 30.8026561737
---
header: 
  seq: 3066399
  stamp: 
    secs: 1561686090
    nsecs: 354123196
  frame_id: "ti_mmwave"
point_id: 19
x: 0.041015625
y: -0.033203125
z: 0.0625
range: 0.0871539413929
velocity: 0.0
doppler_bin: 8
bearing: -38.9909973145
intensity: 30.1535968781
---
header: 
  seq: 3066400
  stamp: 
    secs: 1561686090
    nsecs: 354132460
  frame_id: "ti_mmwave"
point_id: 20
x: 0.044921875
y: -0.046875
z: 0.103515625
range: 0.130730912089
velocity: 0.0
doppler_bin: 8
bearing: -46.218875885
intensity: 29.0579586029
---
header: 
  seq: 3066401
  stamp: 
    secs: 1561686090
    nsecs: 354141539
  frame_id: "ti_mmwave"
point_id: 22
x: 1.21484375
y: 0.357421875
z: 0.072265625
range: 1.35088610649
velocity: 0.0
doppler_bin: 8
bearing: 16.3945274353
intensity: 19.1381378174
---
header: 
  seq: 3066402
  stamp: 
    secs: 1561686090
    nsecs: 412536978
  frame_id: "ti_mmwave"
point_id: 0
x: 0.01171875
y: -0.0390625
z: -0.0078125
range: 0.0435769706964
velocity: 0.0
doppler_bin: 8
bearing: -73.3007583618
intensity: 30.7335166931
---
header: 
  seq: 3066403
  stamp: 
    secs: 1561686090
    nsecs: 412612050
  frame_id: "ti_mmwave"
point_id: 1
x: 0.017578125
y: -0.080078125
z: -0.0078125
range: 0.0871539413929
velocity: 0.0
doppler_bin: 8
bearing: -77.6192398071
intensity: 31.9783172607
---
header: 
  seq: 3066404
  stamp: 
    secs: 1561686090
    nsecs: 412625688
  frame_id: "ti_mmwave"
point_id: 2
x: 0.041015625
y: -0.115234375
z: -0.0078125
range: 0.130730912089
velocity: 0.0
doppler_bin: 8
bearing: -70.4077224731
