header: 
  seq: 787612
  stamp: 
    secs: 1561682509
    nsecs: 944202950
  frame_id: "ti_mmwave"
point_id: 0
x: 0.01171875
y: -0.0390625
z: -0.0078125
range: 0.0435769706964
velocity: 0.0
doppler_bin: 8
bearing: -73.3007583618
intensity: 30.7481651306
---
header: 
  seq: 787613
  stamp: 
    secs: 1561682509
    nsecs: 944282103
  frame_id: "ti_mmwave"
point_id: 1
x: 0.017578125
y: -0.080078125
z: -0.0078125
range: 0.0871539413929
velocity: 0.0
doppler_bin: 8
bearing: -77.6192398071
intensity: 31.9728050232
---
header: 
  seq: 787614
  stamp: 
    secs: 1561682509
    nsecs: 944295153
  frame_id: "ti_mmwave"
point_id: 2
x: 0.041015625
y: -0.115234375
z: -0.0078125
range: 0.130730912089
velocity: 0.0
doppler_bin: 8
bearing: -70.4077224731
intensity: 30.2325248718
---
header: 
  seq: 787615
  stamp: 
    secs: 1561682509
    nsecs: 944306638
  frame_id: "ti_mmwave"
point_id: 3
x: 0.056640625
y: -0.154296875
z: 0.005859375
range: 0.174307882786
velocity: 0.0
doppler_bin: 8
bearing: -69.8423843384
intensity: 25.4777469635
---
header: 
  seq: 787616
  stamp: 
    secs: 1561682509
    nsecs: 944319695
  frame_id: "ti_mmwave"
point_id: 4
x: 0.345703125
y: -0.080078125
z: -1.216796875
range: 1.35088610649
velocity: 0.0
doppler_bin: 8
bearing: -13.0418901443
intensity: 21.8469142914
---
header: 
  seq: 787617
  stamp: 
    secs: 1561682509
    nsecs: 944328427
  frame_id: "ti_mmwave"
point_id: 5
x: 0.28515625
y: -0.041015625
z: 1.27734375
range: 1.39446306229
velocity: 0.0
doppler_bin: 8
bearing: -8.18503570557
intensity: 23.1806335449
---
header: 
  seq: 787618
  stamp: 
    secs: 1561682509
    nsecs: 944336077
  frame_id: "ti_mmwave"
point_id: 6
x: 0.474609375
y: -0.04296875
z: 1.263671875
range: 1.43804001808
velocity: 0.0
doppler_bin: 8
bearing: -5.17316865921
intensity: 21.8469142914
---
header: 
  seq: 787619
  stamp: 
    secs: 1561682509
    nsecs: 944344514
  frame_id: "ti_mmwave"
point_id: 7
x: 2.537109375
y: -0.263671875
z: 1.208984375
range: 3.00681090355
velocity: 0.0
doppler_bin: 8
bearing: -5.93322753906
intensity: 29.5472488403
---
header: 
  seq: 787620
  stamp: 
    secs: 1561682509
    nsecs: 944353785
  frame_id: "ti_mmwave"
point_id: 8
x: 2.595703125
y: -0.267578125
z: 1.181640625
range: 3.05038785934
velocity: 0.0
doppler_bin: 8
bearing: -5.88554811478
intensity: 32.8330116272
---
header: 
  seq: 787621
  stamp: 
    secs: 1561682509
    nsecs: 944364545
  frame_id: "ti_mmwave"
point_id: 9
x: 2.65234375
y: -0.181640625
z: 1.16796875
range: 3.09396481514
velocity: 0.0
doppler_bin: 8
bearing: -3.9176735878
intensity: 32.0520439148
---
header: 
  seq: 787622
  stamp: 
    secs: 1561682509
    nsecs: 944374217
  frame_id: "ti_mmwave"
point_id: 10
x: 4.41015625
y: -0.287109375
z: 1.2109375
range: 4.88062095642
velocity: 0.0
doppler_bin: 8
bearing: -3.72480559349
intensity: 30.788192749
---
header: 
  seq: 787623
  stamp: 
    secs: 1561682509
    nsecs: 944383263
  frame_id: "ti_mmwave"
point_id: 11
x: 4.4609375
y: -0.2890625
z: 1.17578125
range: 4.9241976738
velocity: 0.0
doppler_bin: 8
bearing: -3.70750308037
intensity: 30.5153846741
---
header: 
  seq: 787624
  stamp: 
    secs: 1561682509
    nsecs: 944391933
  frame_id: "ti_mmwave"
point_id: 12
x: 4.685546875
y: -0.4453125
z: -0.60546875
range: 5.0549287796
velocity: 0.0
doppler_bin: 8
bearing: -5.42906141281
intensity: 29.5616836548
---
header: 
  seq: 787625
  stamp: 
    secs: 1561682509
    nsecs: 944400289
  frame_id: "ti_mmwave"
point_id: 13
x: 4.73828125
y: -0.44921875
z: -0.51171875
range: 5.09850549698
velocity: 0.0
doppler_bin: 8
bearing: -5.4158115387
intensity: 33.2428245544
---
header: 
  seq: 787626
  stamp: 
    secs: 1561682509
    nsecs: 944411554
  frame_id: "ti_mmwave"
point_id: 14
x: 4.787109375
y: -0.453125
z: -0.43359375
range: 5.14208269119
velocity: 0.0
doppler_bin: 8
bearing: -5.40723514557
intensity: 33.8093452454
---
header: 
  seq: 787627
  stamp: 
    secs: 1561682509
    nsecs: 944482920
  frame_id: "ti_mmwave"
point_id: 15
x: 4.841796875
y: -0.45703125
z: -0.20703125
range: 5.18565940857
velocity: 0.0
doppler_bin: 8
bearing: -5.39233732224
intensity: 30.5918464661
---
header: 
  seq: 787628
  stamp: 
    secs: 1561682509
    nsecs: 944493045
  frame_id: "ti_mmwave"
point_id: 16
x: 4.826171875
y: -0.4609375
z: 0.76953125
range: 5.22923660278
velocity: 0.0
doppler_bin: 8
bearing: -5.45565080643
intensity: 29.8091201782
---
header: 
  seq: 787629
  stamp: 
    secs: 1561682509
    nsecs: 944500687
  frame_id: "ti_mmwave"
point_id: 17
x: 4.880859375
y: -0.30859375
z: 0.7578125
range: 5.27281332016
velocity: 0.0
doppler_bin: 8
bearing: -3.61772704124
intensity: 30.7554702759
---
header: 
  seq: 787630
  stamp: 
    secs: 1561682509
    nsecs: 944508962
  frame_id: "ti_mmwave"
point_id: 18
x: 1.42578125
y: 0.322265625
z: -0.185546875
range: 1.56877088547
velocity: 0.614668667316
doppler_bin: 9
bearing: 12.7364006042
intensity: 27.1180725098
---
header: 
  seq: 787631
  stamp: 
    secs: 1561682509
    nsecs: 944516594
  frame_id: "ti_mmwave"
point_id: 19
x: 1.4609375
y: 0.33203125
z: -0.216796875
range: 1.61234796047
velocity: 0.614668667316
doppler_bin: 9
bearing: 12.804265976
intensity: 29.876663208
---
header: 
  seq: 787632
  stamp: 
    secs: 1561682509
    nsecs: 944525800
  frame_id: "ti_mmwave"
point_id: 20
x: 1.48046875
y: 0.388671875
z: -0.26953125
range: 1.65592491627
velocity: 0.614668667316
doppler_bin: 9
bearing: 14.71007061
intensity: 28.8366146088
---
header: 
  seq: 787633
  stamp: 
    secs: 1561682509
    nsecs: 944535903
  frame_id: "ti_mmwave"
point_id: 22
x: 0.041015625
y: -0.033203125
z: 0.0625
range: 0.0871539413929
velocity: 0.0
doppler_bin: 8
bearing: -38.9909973145
intensity: 30.141002655
---
header: 
  seq: 787634
  stamp: 
    secs: 1561682509
    nsecs: 944544594
  frame_id: "ti_mmwave"
point_id: 23
x: 0.052734375
y: -0.04296875
z: 0.1015625
range: 0.130730912089
velocity: 0.0
doppler_bin: 8
bearing: -39.1736602783
intensity: 28.9982051849
---
header: 
  seq: 787635
  stamp: 
    secs: 1561682509
    nsecs: 944554249
  frame_id: "ti_mmwave"
point_id: 25
x: 1.1171875
y: -0.515625
z: 0.310546875
range: 1.35088610649
velocity: 0.0
doppler_bin: 8
bearing: -24.7751407623
intensity: 19.0308990479
---
header: 
  seq: 787636
  stamp: 
    secs: 1561682509
    nsecs: 944561914
  frame_id: "ti_mmwave"
point_id: 26
x: 2.796875
y: -2.00390625
z: -3.025390625
range: 4.88062095642
velocity: 0.0
doppler_bin: 8
bearing: -35.6208572388
intensity: 27.8958072662
---
header: 
  seq: 787637
  stamp: 
    secs: 1561682510
    nsecs:   4206397
  frame_id: "ti_mmwave"
point_id: 0
x: 0.01171875
y: -0.0390625
z: -0.0078125
range: 0.0435769706964
velocity: 0.0
doppler_bin: 8
bearing: -73.3007583618
intensity: 30.7554702759
---
header: 
  seq: 787638
  stamp: 
    secs: 1561682510
    nsecs:   4282641
  frame_id: "ti_mmwave"
point_id: 1
x: 0.017578125
y: -0.080078125
z: -0.0078125
range: 0.0871539413929
velocity: 0.0
doppler_bin: 8
bearing: -77.6192398071
intensity: 31.9728050232
---
header: 
  seq: 787639
  stamp: 
    secs: 1561682510
    nsecs:   4293813
  frame_id: "ti_mmwave"
point_id: 2
x: 0.041015625
y: -0.115234375
z: -0.0078125
range: 0.130730912089
velocity: 0.0
doppler_bin: 8
bearing: -70.4077224731
intensity: 30.2325248718
---
header: 
  seq: 787640
  stamp: 
    secs: 1561682510
    nsecs:   4302076
  frame_id: "ti_mmwave"
point_id: 3
x: 0.056640625
y: -0.154296875
z: 0.005859375
range: 0.174307882786
velocity: 0.0
doppler_bin: 8
bearing: -69.8423843384
intensity: 25.490032196
---
header: 
  seq: 787641
  stamp: 
    secs: 1561682510
    nsecs:   4310900
  frame_id: "ti_mmwave"
point_id: 4
x: 0.345703125
y: -0.080078125
z: -1.216796875
range: 1.35088610649
velocity: 0.0
doppler_bin: 8
bearing: -13.0418901443
intensity: 21.9312458038
---
header: 
  seq: 787642
  stamp: 
    secs: 1561682510
    nsecs:   4322342
  frame_id: "ti_mmwave"
point_id: 5
x: 0.306640625
y: -0.041015625
z: 1.271484375
range: 1.39446306229
velocity: 0.0
doppler_bin: 8
bearing: -7.6185464859
intensity: 23.2633590698
---
header: 
  seq: 787643
  stamp: 
    secs: 1561682510
    nsecs:   4335659
  frame_id: "ti_mmwave"
point_id: 6
x: 0.498046875
y: -0.04296875
z: 1.25390625
range: 1.43804001808
velocity: 0.0
doppler_bin: 8
bearing: -4.93095541
intensity: 21.9589958191
---
header: 
  seq: 787644
  stamp: 
    secs: 1561682510
    nsecs:   4344843
  frame_id: "ti_mmwave"
point_id: 7
x: 1.423828125
y: 0.322265625
z: -0.19921875
range: 1.56877088547
velocity: 0.0
doppler_bin: 8
bearing: 12.7532997131
intensity: 25.6937389374
---
header: 
  seq: 787645
  stamp: 
    secs: 1561682510
    nsecs:   4354814
  frame_id: "ti_mmwave"
point_id: 8
x: 1.478515625
y: 0.283203125
z: -0.162109375
range: 1.61234796047
velocity: 0.0
doppler_bin: 8
bearing: 10.8434123993
intensity: 29.0794849396
---
header: 
  seq: 787646
  stamp: 
    secs: 1561682510
    nsecs:   4363592
  frame_id: "ti_mmwave"
point_id: 9
x: 1.521484375
y: 0.291015625
z: -0.134765625
range: 1.65592491627
velocity: 0.0
doppler_bin: 8
bearing: 10.8282279968
intensity: 29.020029068
---
header: 
  seq: 787647
  stamp: 
    secs: 1561682510
    nsecs:   4371722
  frame_id: "ti_mmwave"
point_id: 10
x: 1.6484375
y: 0.322265625
z: -0.361328125
range: 1.83023273945
velocity: 0.0
doppler_bin: 8
bearing: 11.061674118
intensity: 28.4633712769
---
header: 
  seq: 787648
  stamp: 
    secs: 1561682510
    nsecs:   4380093
  frame_id: "ti_mmwave"
point_id: 11
x: 1.67578125
y: 0.330078125
z: -0.421875
range: 1.87380969524
velocity: 0.0
doppler_bin: 8
bearing: 11.1428899765
intensity: 29.0794849396
---
header: 
  seq: 787649
  stamp: 
    secs: 1561682510
    nsecs:   4388602
  frame_id: "ti_mmwave"
point_id: 12
x: 2.552734375
y: -0.263671875
z: 1.173828125
range: 3.00681090355
velocity: 0.0
doppler_bin: 8
bearing: -5.89716720581
intensity: 29.5375976562
---
header: 
  seq: 787650
  stamp: 
    secs: 1561682510
    nsecs:   4399755
  frame_id: "ti_mmwave"
point_id: 13
x: 2.607421875
y: -0.267578125
z: 1.154296875
range: 3.05038785934
velocity: 0.0
doppler_bin: 8
bearing: -5.85928010941
intensity: 32.8194198608
---
header: 
  seq: 787651
  stamp: 
    secs: 1561682510
    nsecs:   4559372
  frame_id: "ti_mmwave"
point_id: 14
x: 2.6640625
y: -0.181640625
z: 1.142578125
range: 3.09396481514
velocity: 0.0
doppler_bin: 8
bearing: -3.90049386024
intensity: 32.0167007446
---
header: 
  seq: 787652
  stamp: 
    secs: 1561682510
    nsecs:   4582727
  frame_id: "ti_mmwave"
point_id: 15
x: 4.404296875
y: -0.287109375
z: 1.23046875
range: 4.88062095642
velocity: 0.0
doppler_bin: 8
bearing: -3.72974681854
intensity: 30.8206691742
---
header: 
  seq: 787653
  stamp: 
    secs: 1561682510
    nsecs:   4595735
  frame_id: "ti_mmwave"
point_id: 16
x: 4.4375
y: -0.2890625
z: 1.2578125
range: 4.9241976738
velocity: 0.0
doppler_bin: 8
bearing: -3.72702980042
intensity: 30.4805316925
---
header: 
  seq: 787654
  stamp: 
    secs: 1561682510
    nsecs:   4609527
  frame_id: "ti_mmwave"
point_id: 17
x: 4.736328125
y: -0.44921875
z: -0.52734375
range: 5.09850549698
velocity: 0.0
doppler_bin: 8
bearing: -5.41803121567
intensity: 33.2097663879
---
header: 
  seq: 787655
  stamp: 
    secs: 1561682510
    nsecs:   4617916
  frame_id: "ti_mmwave"
point_id: 18
x: 4.78515625
y: -0.453125
z: -0.44140625
range: 5.14208269119
velocity: 0.0
doppler_bin: 8
bearing: -5.40942907333
intensity: 33.8021125793
---
header: 
  seq: 787656
  stamp: 
    secs: 1561682510
    nsecs:   4625944
  frame_id: "ti_mmwave"
point_id: 19
x: 4.841796875
y: -0.45703125
z: -0.220703125
range: 5.18565940857
velocity: 0.0
doppler_bin: 8
bearing: -5.39233732224
intensity: 30.5690479279
---
header: 
  seq: 787657
  stamp: 
    secs: 1561682510
    nsecs:   4631129
  frame_id: "ti_mmwave"
point_id: 20
x: 4.8203125
y: -0.4609375
z: 0.802734375
range: 5.22923660278
velocity: 0.0
doppler_bin: 8
bearing: -5.46224212646
intensity: 29.6988162994
---
header: 
  seq: 787658
  stamp: 
    secs: 1561682510
    nsecs:   4656894
  frame_id: "ti_mmwave"
point_id: 21
x: 4.880859375
y: -0.30859375
z: 0.767578125
range: 5.27281332016
velocity: 0.0
doppler_bin: 8
bearing: -3.61772704124
intensity: 30.8134727478
---
header: 
  seq: 787659
  stamp: 
    secs: 1561682510
    nsecs:   4672889
  frame_id: "ti_mmwave"
point_id: 22
x: 1.5546875
y: 0.349609375
z: -0.068359375
range: 1.69950187206
velocity: 0.614668667316
doppler_bin: 9
bearing: 12.673532486
intensity: 25.15873909
---
header: 
  seq: 787660
  stamp: 
    secs: 1561682510
    nsecs:   4683355
  frame_id: "ti_mmwave"
point_id: 24
x: 0.041015625
y: -0.033203125
z: 0.0625
range: 0.0871539413929
velocity: 0.0
doppler_bin: 8
bearing: -38.9909973145
intensity: 30.1367969513
---
header: 
  seq: 787661
  stamp: 
    secs: 1561682510
    nsecs:   4702051
  frame_id: "ti_mmwave"
point_id: 25
x: 0.046875
y: -0.046875
z: 0.103515625
range: 0.130730912089
velocity: 0.0
doppler_bin: 8
bearing: -45.0
intensity: 28.9982051849
---
header: 
  seq: 787662
  stamp: 
    secs: 1561682510
    nsecs:   4758319
  frame_id: "ti_mmwave"
point_id: 27
x: 1.119140625
y: -0.515625
z: 0.30078125
range: 1.35088610649
velocity: 0.0
doppler_bin: 8
bearing: -24.7370834351
intensity: 19.0848503113
---
header: 
  seq: 787663
  stamp: 
    secs: 1561682510
    nsecs:   4768552
  frame_id: "ti_mmwave"
point_id: 28
x: 0.2578125
y: -0.2421875
z: -1.513671875
range: 1.65592491627
velocity: 0.0
doppler_bin: 8
bearing: -43.2100868225
intensity: 26.5609817505
---
header: 
  seq: 787664
  stamp: 
    secs: 1561682510
    nsecs:   4776685
  frame_id: "ti_mmwave"
point_id: 29
x: 0.28515625
y: -0.25
z: -1.55078125
range: 1.69950187206
velocity: 0.614668667316
doppler_bin: 9
bearing: -41.241443634
intensity: 23.344537735
---
header: 
  seq: 787665
  stamp: 
    secs: 1561682510
    nsecs:   5883652
  frame_id: "ti_mmwave"
point_id: 0
x: 0.01171875
y: -0.0390625
z: -0.0078125
range: 0.0435769706964
velocity: 0.0
doppler_bin: 8
bearing: -73.3007583618
intensity: 30.7591171265
---
header: 
  seq: 787666
  stamp: 
    secs: 1561682510
    nsecs:   5945318
  frame_id: "ti_mmwave"
point_id: 1
x: 0.017578125
y: -0.080078125
z: -0.0078125
range: 0.0871539413929
velocity: 0.0
doppler_bin: 8
bearing: -77.6192398071
intensity: 31.9755630493
---
header: 
  seq: 787667
  stamp: 
    secs: 1561682510
    nsecs:   5963300
  frame_id: "ti_mmwave"
point_id: 2
x: 0.041015625
y: -0.115234375
z: -0.0078125
range: 0.130730912089
velocity: 0.0
doppler_bin: 8
bearing: -70.4077224731
intensity: 30.2366390228
---
header: 
  seq: 787668
  stamp: 
    secs: 1561682510
    nsecs:   5975943
  frame_id: "ti_mmwave"
point_id: 3
x: 0.056640625
y: -0.154296875
z: 0.005859375
range: 0.174307882786
velocity: 0.0
doppler_bin: 8
bearing: -69.8423843384
intensity: 25.490032196
---
header: 
  seq: 787669
  stamp: 
    secs: 1561682510
    nsecs:   5989443
  frame_id: "ti_mmwave"
point_id: 4
x: 0.376953125
y: -0.080078125
z: -1.208984375
range: 1.35088610649
velocity: 0.0
doppler_bin: 8
bearing: -11.9933481216
intensity: 21.875207901
---
header: 
  seq: 787670
  stamp: 
    secs: 1561682510
    nsecs:   6060805
  frame_id: "ti_mmwave"
point_id: 5
x: 0.2578125
y: -0.041015625
z: 1.283203125
range: 1.39446306229
velocity: 0.0
doppler_bin: 8
bearing: -9.03948307037
intensity: 23.2221927643
---
header: 
  seq: 787671
  stamp: 
    secs: 1561682510
    nsecs:   6075541
  frame_id: "ti_mmwave"
point_id: 6
x: 0.40234375
y: -0.0
z: 1.2890625
range: 1.43804001808
velocity: 0.0
doppler_bin: 8
bearing: -0.0
intensity: 21.875207901
---
header: 
  seq: 787672
  stamp: 
    secs: 1561682510
    nsecs:   6088767
  frame_id: "ti_mmwave"
point_id: 7
x: 1.423828125
y: 0.322265625
z: -0.193359375
range: 1.56877088547
velocity: 0.0
doppler_bin: 8
bearing: 12.7532997131
intensity: 23.7474842072
---
header: 
  seq: 787673
  stamp: 
    secs: 1561682510
    nsecs:   6100005
  frame_id: "ti_mmwave"
point_id: 8
x: 1.455078125
y: 0.33203125
z: -0.255859375
range: 1.61234796047
velocity: 0.0
doppler_bin: 8
bearing: 12.8541173935
intensity: 27.2997436523
---
header: 
  seq: 787674
  stamp: 
    secs: 1561682510
    nsecs:   6110909
  frame_id: "ti_mmwave"
point_id: 9
x: 1.484375
y: 0.33984375
z: -0.314453125
range: 1.65592491627
velocity: 0.0
doppler_bin: 8
bearing: 12.8954706192
intensity: 27.1349048615
---
header: 
  seq: 787675
  stamp: 
    secs: 1561682510
    nsecs:   6122337
  frame_id: "ti_mmwave"
point_id: 10
x: 1.73046875
y: 0.275390625
z: 0.15234375
range: 1.87380969524
velocity: 0.0
doppler_bin: 8
bearing: 9.04234981537
intensity: 28.2930374146
---
header: 
  seq: 787676
  stamp: 
    secs: 1561682510
    nsecs:   6134448
  frame_id: "ti_mmwave"
point_id: 11
x: 1.716796875
y: 0.28125
z: 0.462890625
range: 1.91738677025
velocity: 0.0
doppler_bin: 8
bearing: 9.30369663239
intensity: 27.2181053162
---
header: 
  seq: 787677
  stamp: 
    secs: 1561682510
    nsecs:   6145819
  frame_id: "ti_mmwave"
point_id: 12
x: 2.546875
y: -0.263671875
z: 1.185546875
range: 3.00681090355
velocity: 0.0
doppler_bin: 8
bearing: -5.91063833237
intensity: 29.4987773895
---
header: 
  seq: 787678
  stamp: 
    secs: 1561682510
    nsecs:   6160055
  frame_id: "ti_mmwave"
point_id: 13
x: 2.599609375
y: -0.267578125
z: 1.171875
range: 3.05038785934
velocity: 0.0
doppler_bin: 8
bearing: -5.87676620483
intensity: 32.7943878174
---
header: 
  seq: 787679
  stamp: 
    secs: 1561682510
    nsecs:   6173776
  frame_id: "ti_mmwave"
point_id: 14
x: 2.650390625
y: -0.181640625
z: 1.173828125
range: 3.09396481514
velocity: 0.0
doppler_bin: 8
bearing: -3.92055153847
intensity: 31.9975509644
---
header: 
  seq: 787680
  stamp: 
    secs: 1561682510
    nsecs:   6254218
  frame_id: "ti_mmwave"
point_id: 15
x: 4.40625
y: -0.287109375
z: 1.220703125
range: 4.88062095642
velocity: 0.0
doppler_bin: 8
bearing: -3.72809815407
intensity: 30.7954292297
---
header: 
  seq: 787681
  stamp: 
    secs: 1561682510
    nsecs:   6269228
  frame_id: "ti_mmwave"
point_id: 16
x: 4.458984375
y: -0.2890625
z: 1.1875
range: 4.9241976738
velocity: 0.0
doppler_bin: 8
bearing: -3.70912218094
intensity: 30.4532299042
---
header: 
  seq: 787682
  stamp: 
    secs: 1561682510
    nsecs:   6280831
  frame_id: "ti_mmwave"
point_id: 17
x: 4.736328125
y: -0.44921875
z: -0.521484375
range: 5.09850549698
velocity: 0.0
doppler_bin: 8
bearing: -5.41803121567
intensity: 33.2159843445
---
header: 
  seq: 787683
  stamp: 
    secs: 1561682510
    nsecs:   6292401
  frame_id: "ti_mmwave"
point_id: 18
x: 4.787109375
y: -0.453125
z: -0.4296875
range: 5.14208269119
velocity: 0.0
doppler_bin: 8
bearing: -5.40723514557
intensity: 33.7748832703
---
header: 
  seq: 787684
  stamp: 
    secs: 1561682510
    nsecs:   6303051
  frame_id: "ti_mmwave"
point_id: 19
x: 4.841796875
y: -0.45703125
z: -0.19140625
range: 5.18565940857
velocity: 0.0
doppler_bin: 8
bearing: -5.39233732224
intensity: 30.4766426086
---
header: 
  seq: 787685
  stamp: 
    secs: 1561682510
    nsecs:   6315163
  frame_id: "ti_mmwave"
point_id: 20
x: 4.8203125
y: -0.4609375
z: 0.802734375
range: 5.22923660278
velocity: 0.0
doppler_bin: 8
bearing: -5.46224212646
intensity: 29.7589111328
---
header: 
  seq: 787686
  stamp: 
    secs: 1561682510
    nsecs:   6326576
  frame_id: "ti_mmwave"
point_id: 21
x: 4.8828125
y: -0.30859375
z: 0.744140625
range: 5.27281332016
velocity: 0.0
doppler_bin: 8
bearing: -3.61628341675
intensity: 30.8386077881
---
header: 
  seq: 787687
  stamp: 
    secs: 1561682510
    nsecs:   6341151
  frame_id: "ti_mmwave"
point_id: 23
x: 0.041015625
y: -0.033203125
z: 0.0625
range: 0.0871539413929
velocity: 0.0
doppler_bin: 8
bearing: -38.9909973145
intensity: 30.1367969513
---
header: 
  seq: 787688
  stamp: 
    secs: 1561682510
    nsecs:   6352760
  frame_id: "ti_mmwave"
point_id: 24
x: 0.052734375
y: -0.04296875
z: 0.1015625
range: 0.130730912089
velocity: 0.0
doppler_bin: 8
bearing: -39.1736602783
intensity: 28.9982051849
---
header: 
  seq: 787689
  stamp: 
    secs: 1561682510
    nsecs:   6368815
  frame_id: "ti_mmwave"
point_id: 26
x: 1.11328125
y: -0.515625
z: 0.318359375
range: 1.35088610649
velocity: 0.0
doppler_bin: 8
bearing: -24.8515853882
intensity: 19.0848503113
---
header: 
  seq: 787690
  stamp: 
    secs: 1561682510
    nsecs:   6380550
  frame_id: "ti_mmwave"
point_id: 27
x: 0.5078125
y: -0.236328125
z: -1.40625
range: 1.61234796047
velocity: 0.0
doppler_bin: 8
bearing: -24.9565429688
intensity: 24.393327713
---
header: 
  seq: 787691
  stamp: 
    secs: 1561682510
    nsecs:   6439117
  frame_id: "ti_mmwave"
point_id: 28
x: 0.6953125
y: -0.291015625
z: -1.359375
range: 1.65592491627
velocity: 0.0
doppler_bin: 8
bearing: -22.711227417
intensity: 25.1188335419
---
header: 
  seq: 787692
  stamp: 
    secs: 1561682510
    nsecs:  64258794
  frame_id: "ti_mmwave"
point_id: 0
x: 0.01171875
y: -0.0390625
z: -0.0078125
range: 0.0435769706964
velocity: 0.0
doppler_bin: 8
bearing: -73.3007583618
intensity: 30.7554702759
---
header: 
  seq: 787693
  stamp: 
    secs: 1561682510
    nsecs:  64385640
  frame_id: "ti_mmwave"
point_id: 1
x: 0.017578125
y: -0.080078125
z: -0.0078125
range: 0.0871539413929
velocity: 0.0
doppler_bin: 8
bearing: -77.6192398071
intensity: 31.9755630493
---
header: 
  seq: 787694
  stamp: 
    secs: 1561682510
    nsecs:  64403665
  frame_id: "ti_mmwave"
point_id: 2
x: 0.029296875
y: -0.119140625
z: -0.005859375
range: 0.130730912089
velocity: 0.0
doppler_bin: 8
bearing: -76.1849746704
intensity: 30.2366390228
---
header: 
  seq: 787695
  stamp: 
    secs: 1561682510
    nsecs:  64418634
  frame_id: "ti_mmwave"
point_id: 3
x: 0.056640625
y: -0.154296875
z: 0.005859375
range: 0.174307882786
velocity: 0.0
doppler_bin: 8
bearing: -69.8423843384
intensity: 25.490032196
---
header: 
  seq: 787696
  stamp: 
    secs: 1561682510
    nsecs:  64432765
  frame_id: "ti_mmwave"
point_id: 4
x: 0.37890625
y: -0.080078125
z: -1.20703125
range: 1.35088610649
velocity: 0.0
doppler_bin: 8
bearing: -11.933303833
intensity: 21.9312458038
---
header: 
  seq: 787697
  stamp: 
    secs: 1561682510
    nsecs:  64450204
  frame_id: "ti_mmwave"
point_id: 5
x: 0.27734375
y: -0.041015625
z: 1.279296875
range: 1.39446306229
velocity: 0.0
doppler_bin: 8
bearing: -8.41234493256
intensity: 23.2428245544
---
header: 
  seq: 787698
  stamp: 
    secs: 1561682510
    nsecs:  64463990
  frame_id: "ti_mmwave"
point_id: 6
x: 0.4453125
y: -0.04296875
z: 1.2734375
range: 1.43804001808
velocity: 0.0
doppler_bin: 8
bearing: -5.5114774704
intensity: 21.9033164978
---
header: 
  seq: 787699
  stamp: 
    secs: 1561682510
    nsecs:  64478419
  frame_id: "ti_mmwave"
point_id: 7
x: 1.392578125
y: 0.42578125
z: -0.412109375
range: 1.61234796047
velocity: 0.0
doppler_bin: 8
bearing: 17.0010299683
intensity: 25.2633934021
---
header: 
  seq: 787700
  stamp: 
    secs: 1561682510
    nsecs:  64493585
  frame_id: "ti_mmwave"
point_id: 8
x: 1.53515625
y: 0.2421875
z: 0.0390625
range: 1.65592491627
velocity: 0.0
doppler_bin: 8
bearing: 8.96513938904
intensity: 26.541765213
---
header: 
  seq: 787701
  stamp: 
    secs: 1561682510
    nsecs:  64593311
  frame_id: "ti_mmwave"
point_id: 9
x: 1.716796875
y: 0.28125
z: 0.458984375
range: 1.91738677025
velocity: 0.0
doppler_bin: 8
bearing: 9.30369663239
intensity: 27.2916469574
---
header: 
  seq: 787702
  stamp: 
    secs: 1561682510
    nsecs:  64615073
  frame_id: "ti_mmwave"
point_id: 10
x: 1.787109375
y: 0.345703125
z: 0.271484375
range: 1.96096372604
velocity: 0.0
doppler_bin: 8
bearing: 10.9482221603
intensity: 27.2509460449
---
header: 
  seq: 787703
  stamp: 
    secs: 1561682510
    nsecs:  64629795
  frame_id: "ti_mmwave"
point_id: 11
x: 2.556640625
y: -0.263671875
z: 1.166015625
range: 3.00681090355
velocity: 0.0
doppler_bin: 8
bearing: -5.88822031021
intensity: 29.4497585297
---
header: 
  seq: 787704
  stamp: 
    secs: 1561682510
    nsecs:  64651847
  frame_id: "ti_mmwave"
point_id: 12
x: 2.609375
y: -0.267578125
z: 1.150390625
range: 3.05038785934
velocity: 0.0
doppler_bin: 8
bearing: -5.85492515564
intensity: 32.7669143677
---
header: 
  seq: 787705
  stamp: 
    secs: 1561682510
    nsecs:  64669312
  frame_id: "ti_mmwave"
point_id: 13
x: 2.6640625
y: -0.181640625
z: 1.142578125
range: 3.09396481514
velocity: 0.0
doppler_bin: 8
bearing: -3.90049386024
intensity: 31.9975509644
---
header: 
  seq: 787706
  stamp: 
    secs: 1561682510
    nsecs:  64683910
  frame_id: "ti_mmwave"
point_id: 14
x: 4.40234375
y: -0.287109375
z: 1.236328125
range: 4.88062095642
velocity: 0.0
doppler_bin: 8
bearing: -3.73139691353
intensity: 30.8026561737
---
header: 
  seq: 787707
  stamp: 
    secs: 1561682510
    nsecs:  64697069
  frame_id: "ti_mmwave"
point_id: 15
x: 4.455078125
y: -0.2890625
z: 1.1953125
range: 4.9241976738
velocity: 0.0
doppler_bin: 8
bearing: -3.71236538887
intensity: 30.4178733826
---
header: 
  seq: 787708
  stamp: 
    secs: 1561682510
    nsecs:  64734183
  frame_id: "ti_mmwave"
point_id: 16
x: 4.73828125
y: -0.44921875
z: -0.5078125
range: 5.09850549698
velocity: 0.0
doppler_bin: 8
bearing: -5.4158115387
intensity: 33.2139129639
---
header: 
  seq: 787709
  stamp: 
    secs: 1561682510
    nsecs:  64794807
  frame_id: "ti_mmwave"
point_id: 17
x: 4.787109375
y: -0.453125
z: -0.416015625
range: 5.14208269119
velocity: 0.0
doppler_bin: 8
bearing: -5.40723514557
intensity: 33.7803421021
---
header: 
  seq: 787710
  stamp: 
    secs: 1561682510
    nsecs:  64812894
  frame_id: "ti_mmwave"
point_id: 18
x: 4.84375
y: -0.45703125
z: -0.16796875
range: 5.18565940857
velocity: 0.0
doppler_bin: 8
bearing: -5.3901758194
intensity: 30.5269393921
---
header: 
  seq: 787711
  stamp: 
    secs: 1561682510
    nsecs:  64828960
  frame_id: "ti_mmwave"
point_id: 19
x: 4.822265625
y: -0.4609375
z: 0.794921875
range: 5.22923660278
velocity: 0.0
doppler_bin: 8
bearing: -5.46004343033
intensity: 29.8181858063
---
header: 
  seq: 787712
  stamp: 
    secs: 1561682510
    nsecs:  64844871
  frame_id: "ti_mmwave"
point_id: 20
x: 4.880859375
y: -0.30859375
z: 0.759765625
range: 5.27281332016
velocity: 0.0
doppler_bin: 8
bearing: -3.61772704124
intensity: 30.7736797333
---
header: 
  seq: 787713
  stamp: 
    secs: 1561682510
    nsecs:  64866880
  frame_id: "ti_mmwave"
point_id: 22
x: 0.041015625
y: -0.033203125
z: 0.0625
range: 0.0871539413929
velocity: 0.0
doppler_bin: 8
bearing: -38.9909973145
intensity: 30.1452045441
---
header: 
  seq: 787714
  stamp: 
    secs: 1561682510
    nsecs:  64911850
  frame_id: "ti_mmwave"
point_id: 23
x: 0.052734375
y: -0.04296875
z: 0.1015625
range: 0.130730912089
velocity: 0.0
doppler_bin: 8
bearing: -39.1736602783
intensity: 28.9982051849
---
header: 
  seq: 787715
  stamp: 
    secs: 1561682510
    nsecs:  64930807
  frame_id: "ti_mmwave"
point_id: 25
x: 1.115234375
y: -0.515625
z: 0.314453125
range: 1.35088610649
velocity: 0.0
doppler_bin: 8
bearing: -24.8133087158
intensity: 19.0308990479
---
header: 
  seq: 787716
  stamp: 
    secs: 1561682510
    nsecs:  64944223
  frame_id: "ti_mmwave"
point_id: 26
x: 1.48046875
y: 0.283203125
z: -0.140625
range: 1.61234796047
velocity: 0.0
doppler_bin: 8
bearing: 10.8294458389
intensity: 25.1982803345
---
header: 
  seq: 787717
  stamp: 
    secs: 1561682510
    nsecs:  64956652
  frame_id: "ti_mmwave"
point_id: 27
x: 1.03515625
y: 0.6796875
z: -0.939453125
range: 1.65592491627
velocity: 0.0
doppler_bin: 8
bearing: 33.2890510559
intensity: 26.2221393585
---
header: 
  seq: 787718
  stamp: 
    secs: 1561682510
    nsecs:  65123775
  frame_id: "ti_mmwave"
point_id: 28
x: 2.828125
y: -2.00390625
z: -2.99609375
range: 4.88062095642
velocity: 0.0
doppler_bin: 8
bearing: -35.3199958801
intensity: 27.8532981873
---
header: 
  seq: 787719
  stamp: 
    secs: 1561682510
    nsecs:  66049475
  frame_id: "ti_mmwave"
point_id: 0
x: 0.01171875
y: -0.0390625
z: -0.0078125
range: 0.0435769706964
velocity: 0.0
doppler_bin: 8
bearing: -73.3007583618
intensity: 30.7554702759
---
header: 
  seq: 787720
  stamp: 
    secs: 1561682510
    nsecs:  66089665
  frame_id: "ti_mmwave"
point_id: 1
x: 0.017578125
y: -0.080078125
z: -0.0078125
range: 0.0871539413929
velocity: 0.0
doppler_bin: 8
bearing: -77.6192398071
intensity: 31.9700469971
---
header: 
  seq: 787721
  stamp: 
    secs: 1561682510
    nsecs:  66105944
  frame_id: "ti_mmwave"
point_id: 2
x: 0.041015625
y: -0.115234375
z: -0.0078125
range: 0.130730912089
velocity: 0.0
doppler_bin: 8
bearing: -70.4077224731
intensity: 30.2242832184
---
header: 
  seq: 787722
  stamp: 
    secs: 1561682510
    nsecs:  66128299
  frame_id: "ti_mmwave"
point_id: 3
x: 0.056640625
y: -0.154296875
z: 0.005859375
range: 0.174307882786
velocity: 0.0
doppler_bin: 8
bearing: -69.8423843384
intensity: 25.4654273987
---
header: 
  seq: 787723
  stamp: 
    secs: 1561682510
    nsecs:  66181082
  frame_id: "ti_mmwave"
point_id: 4
x: 0.375
y: -0.080078125
z: -1.208984375
range: 1.35088610649
velocity: 0.0
doppler_bin: 8
bearing: -12.0539922714
intensity: 21.8184356689
---
header: 
  seq: 787724
  stamp: 
    secs: 1561682510
    nsecs:  66198058
  frame_id: "ti_mmwave"
point_id: 5
x: 0.27734375
y: -0.041015625
z: 1.279296875
range: 1.39446306229
velocity: 0.0
doppler_bin: 8
bearing: -8.41234493256
intensity: 23.1806335449
---
header: 
  seq: 787725
  stamp: 
    secs: 1561682510
    nsecs:  66213652
  frame_id: "ti_mmwave"
point_id: 6
x: 0.37890625
y: -0.0
z: 1.294921875
range: 1.43804001808
velocity: 0.0
doppler_bin: 8
bearing: -0.0
intensity: 21.8469142914
---
header: 
  seq: 787726
  stamp: 
    secs: 1561682510
    nsecs:  66222907
  frame_id: "ti_mmwave"
point_id: 7
x: 1.46484375
y: 0.37890625
z: 0.04296875
range: 1.61234796047
velocity: 0.0
doppler_bin: 8
bearing: 14.5026359558
intensity: 28.2736930847
---
header: 
  seq: 787727
  stamp: 
    secs: 1561682510
    nsecs:  66265616
  frame_id: "ti_mmwave"
point_id: 8
x: 1.50390625
y: 0.388671875
z: 0.060546875
range: 1.65592491627
velocity: 0.0
doppler_bin: 8
bearing: 14.4905471802
intensity: 29.7772369385
---
header: 
  seq: 787728
  stamp: 
    secs: 1561682510
    nsecs:  66279670
  frame_id: "ti_mmwave"
point_id: 9
x: 1.544921875
y: 0.3984375
z: 0.02734375
range: 1.69950187206
velocity: 0.0
doppler_bin: 8
bearing: 14.4615325928
intensity: 27.7232170105
---
header: 
  seq: 787729
  stamp: 
    secs: 1561682510
    nsecs:  66292707
  frame_id: "ti_mmwave"
point_id: 10
x: 1.6953125
y: 0.267578125
z: -0.048828125
range: 1.83023273945
velocity: 0.0
doppler_bin: 8
bearing: 8.96923732758
intensity: 27.1516742706
---
header: 
  seq: 787730
  stamp: 
    secs: 1561682510
    nsecs:  66301986
  frame_id: "ti_mmwave"
point_id: 11
x: 1.736328125
y: 0.275390625
z: -0.072265625
range: 1.87380969524
velocity: 0.0
doppler_bin: 8
bearing: 9.01233768463
intensity: 29.3701610565
---
header: 
  seq: 787731
  stamp: 
    secs: 1561682510
    nsecs:  66352253
  frame_id: "ti_mmwave"
point_id: 12
x: 1.77734375
y: 0.28125
z: -0.0703125
range: 1.91738677025
velocity: 0.0
doppler_bin: 8
bearing: 8.99202537537
intensity: 28.5308952332
---
header: 
  seq: 787732
  stamp: 
    secs: 1561682510
    nsecs:  66366503
  frame_id: "ti_mmwave"
point_id: 13
x: 2.541015625
y: -0.263671875
z: 1.19921875
range: 3.00681090355
velocity: 0.0
doppler_bin: 8
bearing: -5.92417097092
intensity: 29.4890174866
---
header: 
  seq: 787733
  stamp: 
    secs: 1561682510
    nsecs:  66382016
  frame_id: "ti_mmwave"
point_id: 14
x: 2.6015625
y: -0.267578125
z: 1.1640625
range: 3.05038785934
velocity: 0.0
doppler_bin: 8
bearing: -5.87238502502
intensity: 32.810333252
---
header: 
  seq: 787734
  stamp: 
    secs: 1561682510
    nsecs:  66394525
  frame_id: "ti_mmwave"
point_id: 15
x: 2.662109375
y: -0.181640625
z: 1.146484375
range: 3.09396481514
velocity: 0.0
doppler_bin: 8
bearing: -3.90334677696
intensity: 32.0574569702
---
header: 
  seq: 787735
  stamp: 
    secs: 1561682510
    nsecs:  66408795
  frame_id: "ti_mmwave"
point_id: 16
x: 4.41015625
y: -0.287109375
z: 1.20703125
range: 4.88062095642
velocity: 0.0
doppler_bin: 8
bearing: -3.72480559349
intensity: 30.824262619
---
header: 
  seq: 787736
  stamp: 
    secs: 1561682510
    nsecs:  66490952
  frame_id: "ti_mmwave"
point_id: 17
x: 4.47265625
y: -0.2890625
z: 1.12890625
range: 4.9241976738
velocity: 0.0
doppler_bin: 8
bearing: -3.6978161335
intensity: 30.4257545471
---
header: 
  seq: 787737
  stamp: 
    secs: 1561682510
    nsecs:  66505316
  frame_id: "ti_mmwave"
point_id: 18
x: 4.736328125
y: -0.44921875
z: -0.521484375
range: 5.09850549698
velocity: 0.0
doppler_bin: 8
bearing: -5.41803121567
intensity: 33.2180557251
---
header: 
  seq: 787738
  stamp: 
    secs: 1561682510
    nsecs:  66532154
  frame_id: "ti_mmwave"
point_id: 19
x: 4.787109375
y: -0.453125
z: -0.419921875
range: 5.14208269119
velocity: 0.0
doppler_bin: 8
bearing: -5.40723514557
intensity: 33.7984924316
---
header: 
  seq: 787739
  stamp: 
    secs: 1561682510
    nsecs:  66552961
  frame_id: "ti_mmwave"
point_id: 20
x: 4.84375
y: -0.45703125
z: -0.173828125
range: 5.18565940857
velocity: 0.0
doppler_bin: 8
bearing: -5.3901758194
intensity: 30.588054657
---
header: 
  seq: 787740
  stamp: 
    secs: 1561682510
    nsecs:  66574294
  frame_id: "ti_mmwave"
point_id: 21
x: 4.818359375
y: -0.4609375
z: 0.8125
range: 5.22923660278
velocity: 0.0
doppler_bin: 8
bearing: -5.46444320679
intensity: 29.8900470734
---
header: 
  seq: 787741
  stamp: 
    secs: 1561682510
    nsecs:  66597832
  frame_id: "ti_mmwave"
point_id: 22
x: 4.876953125
y: -0.30859375
z: 0.787109375
range: 5.27281332016
velocity: 0.0
doppler_bin: 8
bearing: -3.62061715126
intensity: 30.8955192566
---
header: 
  seq: 787742
  stamp: 
    secs: 1561682510
    nsecs:  66621858
  frame_id: "ti_mmwave"
point_id: 24
x: 0.041015625
y: -0.033203125
z: 0.0625
range: 0.0871539413929
velocity: 0.0
doppler_bin: 8
bearing: -38.9909973145
intensity: 30.1367969513
---
header: 
  seq: 787743
  stamp: 
    secs: 1561682510
    nsecs:  66748937
  frame_id: "ti_mmwave"
point_id: 25
x: 0.052734375
y: -0.04296875
z: 0.1015625
range: 0.130730912089
velocity: 0.0
doppler_bin: 8
bearing: -39.1736602783
intensity: 28.9982051849
---
header: 
  seq: 787744
  stamp: 
    secs: 1561682510
    nsecs:  66779128
  frame_id: "ti_mmwave"
point_id: 27
x: 1.115234375
y: -0.515625
z: 0.31640625
range: 1.35088610649
velocity: 0.0
doppler_bin: 8
bearing: -24.8133087158
intensity: 19.0308990479
---
header: 
  seq: 787745
  stamp: 
    secs: 1561682510
    nsecs:  66832628
  frame_id: "ti_mmwave"
point_id: 28
x: 2.783203125
y: -2.00390625
z: -3.037109375
range: 4.88062095642
velocity: 0.0
doppler_bin: 8
bearing: -35.7538871765
intensity: 27.8390350342
---
header: 
  seq: 787746
  stamp: 
    secs: 1561682510
    nsecs: 124169004
  frame_id: "ti_mmwave"
point_id: 0
x: 0.01171875
y: -0.0390625
z: -0.0078125
range: 0.0435769706964
velocity: 0.0
doppler_bin: 8
bearing: -73.3007583618
intensity: 30.7591171265
---
header: 
  seq: 787747
  stamp: 
    secs: 1561682510
    nsecs: 124258721
  frame_id: "ti_mmwave"
point_id: 1
x: 0.017578125
y: -0.080078125
z: -0.0078125
range: 0.0871539413929
velocity: 0.0
doppler_bin: 8
bearing: -77.6192398071
intensity: 31.9755630493
---
header: 
  seq: 787748
  stamp: 
    secs: 1561682510
    nsecs: 124275712
  frame_id: "ti_mmwave"
point_id: 2
x: 0.041015625
y: -0.115234375
z: -0.0078125
range: 0.130730912089
velocity: 0.0
doppler_bin: 8
bearing: -70.4077224731
intensity: 30.2366390228
---
header: 
  seq: 787749
  stamp: 
    secs: 1561682510
    nsecs: 124292364
  frame_id: "ti_mmwave"
point_id: 3
x: 0.056640625
y: -0.154296875
z: 0.005859375
range: 0.174307882786
velocity: 0.0
doppler_bin: 8
bearing: -69.8423843384
intensity: 25.490032196
---
header: 
  seq: 787750
  stamp: 
    secs: 1561682510
    nsecs: 124305984
  frame_id: "ti_mmwave"
point_id: 4
x: 0.37109375
y: -0.080078125
z: -1.2109375
range: 1.35088610649
velocity: 0.0
doppler_bin: 8
bearing: -12.177107811
intensity: 21.9312458038
---
header: 
  seq: 787751
  stamp: 
    secs: 1561682510
    nsecs: 124321908
  frame_id: "ti_mmwave"
point_id: 5
x: 0.294921875
y: -0.041015625
z: 1.275390625
range: 1.39446306229
velocity: 0.0
doppler_bin: 8
bearing: -7.91750335693
intensity: 23.2428245544
---
header: 
  seq: 787752
  stamp: 
    secs: 1561682510
    nsecs: 124335495
  frame_id: "ti_mmwave"
point_id: 6
x: 0.486328125
y: -0.04296875
z: 1.2578125
range: 1.43804001808
velocity: 0.0
doppler_bin: 8
bearing: -5.04916620255
intensity: 21.9312458038
---
header: 
  seq: 787753
  stamp: 
    secs: 1561682510
    nsecs: 124349037
  frame_id: "ti_mmwave"
point_id: 7
x: 2.541015625
y: -0.263671875
z: 1.201171875
range: 3.00681090355
velocity: 0.0
doppler_bin: 8
bearing: -5.92417097092
intensity: 29.5085144043
---
header: 
  seq: 787754
  stamp: 
    secs: 1561682510
    nsecs: 124362611
  frame_id: "ti_mmwave"
point_id: 8
x: 2.6015625
y: -0.267578125
z: 1.166015625
range: 3.05038785934
velocity: 0.0
doppler_bin: 8
bearing: -5.87238502502
intensity: 32.8035087585
---
header: 
  seq: 787755
  stamp: 
    secs: 1561682510
    nsecs: 124376575
  frame_id: "ti_mmwave"
point_id: 9
x: 2.658203125
y: -0.181640625
z: 1.15625
range: 3.09396481514
velocity: 0.0
doppler_bin: 8
bearing: -3.90906453133
intensity: 32.0112380981
---
header: 
  seq: 787756
  stamp: 
    secs: 1561682510
    nsecs: 124458192
  frame_id: "ti_mmwave"
point_id: 10
x: 4.40234375
y: -0.287109375
z: 1.236328125
range: 4.88062095642
velocity: 0.0
doppler_bin: 8
bearing: -3.73139691353
intensity: 30.788192749
---
header: 
  seq: 787757
  stamp: 
    secs: 1561682510
    nsecs: 124477288
  frame_id: "ti_mmwave"
point_id: 11
x: 4.4609375
y: -0.2890625
z: 1.1796875
range: 4.9241976738
velocity: 0.0
doppler_bin: 8
bearing: -3.70750308037
intensity: 30.4766426086
---
header: 
  seq: 787758
  stamp: 
    secs: 1561682510
    nsecs: 124492092
  frame_id: "ti_mmwave"
point_id: 12
x: 4.67578125
y: -0.4453125
z: -0.677734375
range: 5.0549287796
velocity: 0.0
doppler_bin: 8
bearing: -5.44033241272
intensity: 29.4349460602
---
header: 
  seq: 787759
  stamp: 
    secs: 1561682510
    nsecs: 124505051
  frame_id: "ti_mmwave"
point_id: 13
x: 4.73828125
y: -0.44921875
z: -0.51171875
range: 5.09850549698
velocity: 0.0
doppler_bin: 8
bearing: -5.4158115387
intensity: 33.2325210571
---
header: 
  seq: 787760
  stamp: 
    secs: 1561682510
    nsecs: 124518322
  frame_id: "ti_mmwave"
point_id: 14
x: 4.787109375
y: -0.453125
z: -0.4140625
range: 5.14208269119
velocity: 0.0
doppler_bin: 8
bearing: -5.40723514557
intensity: 33.8021125793
---
header: 
  seq: 787761
  stamp: 
    secs: 1561682510
    nsecs: 124531622
  frame_id: "ti_mmwave"
point_id: 15
x: 4.84375
y: -0.45703125
z: -0.162109375
range: 5.18565940857
velocity: 0.0
doppler_bin: 8
bearing: -5.3901758194
intensity: 30.6258201599
---
header: 
  seq: 787762
  stamp: 
    secs: 1561682510
    nsecs: 124544671
  frame_id: "ti_mmwave"
point_id: 16
x: 4.8203125
y: -0.4609375
z: 0.8046875
range: 5.22923660278
velocity: 0.0
doppler_bin: 8
bearing: -5.46224212646
intensity: 29.8721923828
---
header: 
  seq: 787763
  stamp: 
    secs: 1561682510
    nsecs: 124557146
  frame_id: "ti_mmwave"
point_id: 17
x: 4.87890625
y: -0.30859375
z: 0.76953125
range: 5.27281332016
velocity: 0.0
doppler_bin: 8
bearing: -3.61917114258
intensity: 30.8742637634
---
header: 
  seq: 787764
  stamp: 
    secs: 1561682510
    nsecs: 124590208
  frame_id: "ti_mmwave"
point_id: 18
x: 1.40625
y: 0.4140625
z: -0.146484375
range: 1.56877088547
velocity: -0.614668667316
doppler_bin: 7
bearing: 16.4067726135
intensity: 23.138671875
---
header: 
  seq: 787765
  stamp: 
    secs: 1561682510
    nsecs: 124614329
  frame_id: "ti_mmwave"
point_id: 19
x: 1.46484375
y: 0.37890625
z: -0.052734375
range: 1.61234796047
velocity: -0.614668667316
doppler_bin: 7
bearing: 14.5026359558
intensity: 27.1349048615
---
header: 
  seq: 787766
  stamp: 
    secs: 1561682510
    nsecs: 124627925
  frame_id: "ti_mmwave"
point_id: 20
x: 1.4921875
y: 0.4375
z: -0.025390625
range: 1.65592491627
velocity: -0.614668667316
doppler_bin: 7
bearing: 16.3408050537
intensity: 27.6117572784
---
header: 
  seq: 787767
  stamp: 
    secs: 1561682510
    nsecs: 124652188
  frame_id: "ti_mmwave"
point_id: 22
x: 0.041015625
y: -0.033203125
z: 0.0625
range: 0.0871539413929
velocity: 0.0
doppler_bin: 8
bearing: -38.9909973145
intensity: 30.141002655
---
header: 
  seq: 787768
  stamp: 
    secs: 1561682510
    nsecs: 124728629
  frame_id: "ti_mmwave"
point_id: 23
x: 0.052734375
y: -0.04296875
z: 0.1015625
range: 0.130730912089
velocity: 0.0
doppler_bin: 8
bearing: -39.1736602783
intensity: 29.0036716461
---
header: 
  seq: 787769
  stamp: 
    secs: 1561682510
    nsecs: 124748817
  frame_id: "ti_mmwave"
point_id: 25
x: 1.1171875
y: -0.515625
z: 0.30859375
range: 1.35088610649
velocity: 0.0
doppler_bin: 8
bearing: -24.7751407623
intensity: 19.0848503113
---
header: 
  seq: 787770
  stamp: 
    secs: 1561682510
    nsecs: 125922651
  frame_id: "ti_mmwave"
point_id: 0
x: 0.01171875
y: -0.0390625
z: -0.0078125
range: 0.0435769706964
velocity: 0.0
doppler_bin: 8
bearing: -73.3007583618
intensity: 30.7481651306
---
header: 
  seq: 787771
  stamp: 
    secs: 1561682510
    nsecs: 125976624
  frame_id: "ti_mmwave"
point_id: 1
x: 0.017578125
y: -0.080078125
z: -0.0078125
range: 0.0871539413929
velocity: 0.0
doppler_bin: 8
bearing: -77.6192398071
intensity: 31.9728050232
---
header: 
  seq: 787772
  stamp: 
    secs: 1561682510
    nsecs: 125992537
  frame_id: "ti_mmwave"
point_id: 2
x: 0.041015625
y: -0.115234375
z: -0.0078125
range: 0.130730912089
velocity: 0.0
doppler_bin: 8
bearing: -70.4077224731
intensity: 30.2325248718
---
header: 
  seq: 787773
  stamp: 
    secs: 1561682510
    nsecs: 126006379
  frame_id: "ti_mmwave"
point_id: 3
x: 0.056640625
y: -0.154296875
z: 0.005859375
range: 0.174307882786
velocity: 0.0
doppler_bin: 8
bearing: -69.8423843384
intensity: 25.490032196
---
header: 
  seq: 787774
  stamp: 
    secs: 1561682510
    nsecs: 126066462
  frame_id: "ti_mmwave"
point_id: 4
x: 0.380859375
y: -0.080078125
z: -1.20703125
range: 1.35088610649
velocity: 0.0
doppler_bin: 8
bearing: -11.8738489151
intensity: 21.9312458038
---
header: 
  seq: 787775
  stamp: 
    secs: 1561682510
    nsecs: 126080866
  frame_id: "ti_mmwave"
point_id: 5
x: 0.2734375
y: -0.041015625
z: 1.279296875
range: 1.39446306229
velocity: 0.0
doppler_bin: 8
bearing: -8.53076648712
intensity: 23.2428245544
---
header: 
  seq: 787776
  stamp: 
    secs: 1561682510
    nsecs: 126094551
  frame_id: "ti_mmwave"
point_id: 6
x: 0.416015625
y: -0.0
z: 1.28515625
range: 1.43804001808
velocity: 0.0
doppler_bin: 8
bearing: -0.0
intensity: 21.9033164978
---
header: 
  seq: 787777
  stamp: 
    secs: 1561682510
    nsecs: 126108573
  frame_id: "ti_mmwave"
point_id: 7
x: 1.744140625
y: 0.220703125
z: 0.08203125
range: 1.87380969524
velocity: 0.0
doppler_bin: 8
bearing: 7.21186351776
intensity: 29.4001808167
---
header: 
  seq: 787778
  stamp: 
    secs: 1561682510
    nsecs: 126122783
  frame_id: "ti_mmwave"
point_id: 8
x: 1.76953125
y: 0.224609375
z: 0.24609375
range: 1.91738677025
velocity: 0.0
doppler_bin: 8
bearing: 7.23395824432
intensity: 29.4694328308
---
header: 
  seq: 787779
  stamp: 
    secs: 1561682510
    nsecs: 126134046
  frame_id: "ti_mmwave"
point_id: 9
x: 1.796875
y: 0.23046875
z: 0.32421875
range: 1.96096372604
velocity: 0.0
doppler_bin: 8
bearing: 7.3089017868
intensity: 27.0415058136
---
header: 
  seq: 787780
  stamp: 
    secs: 1561682510
    nsecs: 126177807
  frame_id: "ti_mmwave"
point_id: 10
x: 2.54296875
y: -0.263671875
z: 1.197265625
range: 3.00681090355
velocity: 0.0
doppler_bin: 8
bearing: -5.91965341568
intensity: 29.484128952
---
header: 
  seq: 787781
  stamp: 
    secs: 1561682510
    nsecs: 126192205
  frame_id: "ti_mmwave"
point_id: 11
x: 2.6015625
y: -0.267578125
z: 1.16796875
range: 3.05038785934
velocity: 0.0
doppler_bin: 8
bearing: -5.87238502502
intensity: 32.7829627991
---
header: 
  seq: 787782
  stamp: 
    secs: 1561682510
    nsecs: 126205296
  frame_id: "ti_mmwave"
point_id: 12
x: 2.658203125
y: -0.181640625
z: 1.15625
range: 3.09396481514
velocity: 0.0
doppler_bin: 8
bearing: -3.90906453133
intensity: 31.9783172607
---
header: 
  seq: 787783
  stamp: 
    secs: 1561682510
    nsecs: 126229526
  frame_id: "ti_mmwave"
point_id: 13
x: 4.40625
y: -0.287109375
z: 1.220703125
range: 4.88062095642
velocity: 0.0
doppler_bin: 8
bearing: -3.72809815407
intensity: 30.788192749
---
header: 
  seq: 787784
  stamp: 
    secs: 1561682510
    nsecs: 126276303
  frame_id: "ti_mmwave"
point_id: 14
x: 4.46484375
y: -0.2890625
z: 1.16015625
range: 4.9241976738
velocity: 0.0
doppler_bin: 8
bearing: -3.70426845551
intensity: 30.484418869
---
header: 
  seq: 787785
  stamp: 
    secs: 1561682510
    nsecs: 126292293
  frame_id: "ti_mmwave"
point_id: 15
x: 4.6875
y: -0.4453125
z: -0.59375
range: 5.0549287796
velocity: 0.0
doppler_bin: 8
bearing: -5.42681217194
intensity: 29.5424251556
---
header: 
  seq: 787786
  stamp: 
    secs: 1561682510
    nsecs: 126305432
  frame_id: "ti_mmwave"
point_id: 16
x: 4.73828125
y: -0.44921875
z: -0.501953125
range: 5.09850549698
velocity: 0.0
doppler_bin: 8
bearing: -5.4158115387
intensity: 33.2366447449
---
header: 
  seq: 787787
  stamp: 
    secs: 1561682510
    nsecs: 126320521
  frame_id: "ti_mmwave"
point_id: 17
x: 4.787109375
y: -0.453125
z: -0.419921875
range: 5.14208269119
velocity: 0.0
doppler_bin: 8
bearing: -5.40723514557
intensity: 33.8219718933
---
header: 
  seq: 787788
  stamp: 
    secs: 1561682510
    nsecs: 126329759
  frame_id: "ti_mmwave"
point_id: 18
x: 4.84375
y: -0.45703125
z: -0.17578125
range: 5.18565940857
velocity: 0.0
doppler_bin: 8
bearing: -5.3901758194
intensity: 30.6445808411
---
header: 
  seq: 787789
  stamp: 
    secs: 1561682510
    nsecs: 126370945
  frame_id: "ti_mmwave"
point_id: 19
x: 4.84375
y: -0.306640625
z: 0.7421875
range: 5.22923660278
velocity: 0.0
doppler_bin: 8
bearing: -3.62235832214
intensity: 29.8181858063
---
header: 
  seq: 787790
  stamp: 
    secs: 1561682510
    nsecs: 126384388
  frame_id: "ti_mmwave"
point_id: 20
x: 4.87890625
y: -0.30859375
z: 0.77734375
range: 5.27281332016
velocity: 0.0
doppler_bin: 8
bearing: -3.61917114258
intensity: 30.8707122803
---
header: 
  seq: 787791
  stamp: 
    secs: 1561682510
    nsecs: 126397572
  frame_id: "ti_mmwave"
point_id: 21
x: 1.46484375
y: 0.37890625
z: -0.048828125
range: 1.61234796047
velocity: -1.22933733463
doppler_bin: 6
bearing: 14.5026359558
intensity: 24.440448761
---
header: 
  seq: 787792
  stamp: 
    secs: 1561682510
    nsecs: 126441734
  frame_id: "ti_mmwave"
point_id: 22
x: 1.42578125
y: 0.3671875
z: 0.009765625
range: 1.56877088547
velocity: -0.614668667316
doppler_bin: 7
bearing: 14.4418048859
intensity: 23.344537735
---
header: 
  seq: 787793
  stamp: 
    secs: 1561682510
    nsecs: 126496496
  frame_id: "ti_mmwave"
point_id: 24
x: 0.041015625
y: -0.033203125
z: 0.0625
range: 0.0871539413929
velocity: 0.0
doppler_bin: 8
bearing: -38.9909973145
intensity: 30.141002655
---
header: 
  seq: 787794
  stamp: 
    secs: 1561682510
    nsecs: 126511443
  frame_id: "ti_mmwave"
point_id: 25
x: 0.052734375
y: -0.04296875
z: 0.1015625
range: 0.130730912089
velocity: 0.0
doppler_bin: 8
bearing: -39.1736602783
intensity: 28.9982051849
---
header: 
  seq: 787795
  stamp: 
    secs: 1561682510
    nsecs: 126529530
  frame_id: "ti_mmwave"
point_id: 27
x: 1.203125
y: 0.357421875
z: 0.17578125
range: 1.35088610649
velocity: 0.0
doppler_bin: 8
bearing: 16.5455226898
intensity: 19.1381378174
---
header: 
  seq: 787796
  stamp: 
    secs: 1561682510
    nsecs: 126542687
  frame_id: "ti_mmwave"
point_id: 28
x: 2.80859375
y: -2.00390625
z: -3.013671875
range: 4.88062095642
velocity: 0.0
doppler_bin: 8
bearing: -35.5075149536
intensity: 27.8746051788
---
header: 
  seq: 787797
  stamp: 
    secs: 1561682510
    nsecs: 126565594
  frame_id: "ti_mmwave"
point_id: 29
x: 2.75390625
y: -2.021484375
z: -3.11328125
range: 4.9241976738
velocity: 0.0
doppler_bin: 8
bearing: -36.2802505493
intensity: 27.5358314514
---
header: 
  seq: 787798
  stamp: 
    secs: 1561682510
    nsecs: 184154223
  frame_id: "ti_mmwave"
point_id: 0
x: 0.01171875
y: -0.0390625
z: -0.0078125
range: 0.0435769706964
velocity: 0.0
doppler_bin: 8
bearing: -73.3007583618
intensity: 30.7554702759
---
header: 
  seq: 787799
  stamp: 
    secs: 1561682510
    nsecs: 184228597
  frame_id: "ti_mmwave"
point_id: 1
x: 0.017578125
y: -0.080078125
z: -0.0078125
range: 0.0871539413929
velocity: 0.0
doppler_bin: 8
bearing: -77.6192398071
intensity: 31.9728050232
---
header: 
  seq: 787800
  stamp: 
    secs: 1561682510
    nsecs: 184239497
  frame_id: "ti_mmwave"
point_id: 2
x: 0.041015625
y: -0.115234375
z: -0.0078125
range: 0.130730912089
velocity: 0.0
doppler_bin: 8
bearing: -70.4077224731
intensity: 30.2284069061
---
header: 
  seq: 787801
  stamp: 
    secs: 1561682510
    nsecs: 184248187
  frame_id: "ti_mmwave"
point_id: 3
x: 0.056640625
y: -0.154296875
z: 0.005859375
range: 0.174307882786
velocity: 0.0
doppler_bin: 8
bearing: -69.8423843384
intensity: 25.4654273987
---
header: 
  seq: 787802
  stamp: 
    secs: 1561682510
    nsecs: 184256651
  frame_id: "ti_mmwave"
point_id: 4
x: 0.375
y: -0.080078125
z: -1.208984375
range: 1.35088610649
velocity: 0.0
doppler_bin: 8
bearing: -12.0539922714
intensity: 21.9033164978
---
header: 
  seq: 787803
  stamp: 
    secs: 1561682510
    nsecs: 184266463
  frame_id: "ti_mmwave"
point_id: 5
x: 0.2734375
y: -0.041015625
z: 1.279296875
range: 1.39446306229
velocity: 0.0
doppler_bin: 8
bearing: -8.53076648712
intensity: 23.2633590698
---
header: 
  seq: 787804
  stamp: 
    secs: 1561682510
    nsecs: 184274609
  frame_id: "ti_mmwave"
point_id: 6
x: 0.369140625
y: -0.0
z: 1.298828125
range: 1.43804001808
velocity: 0.0
doppler_bin: 8
bearing: -0.0
intensity: 21.9865703583
---
header: 
  seq: 787805
  stamp: 
    secs: 1561682510
    nsecs: 184283984
  frame_id: "ti_mmwave"
point_id: 7
x: 1.658203125
y: 0.267578125
z: -0.361328125
range: 1.83023273945
velocity: 0.0
doppler_bin: 8
bearing: 9.16659069061
intensity: 26.4048137665
---
header: 
  seq: 787806
  stamp: 
    secs: 1561682510
    nsecs: 184292295
  frame_id: "ti_mmwave"
point_id: 8
x: 1.71484375
y: 0.275390625
z: -0.27734375
range: 1.87380969524
velocity: 0.0
doppler_bin: 8
bearing: 9.12336063385
intensity: 30.5269393921
---
header: 
  seq: 787807
  stamp: 
    secs: 1561682510
    nsecs: 184302805
  frame_id: "ti_mmwave"
point_id: 9
x: 1.763671875
y: 0.28125
z: -0.220703125
range: 1.91738677025
velocity: 0.0
doppler_bin: 8
bearing: 9.06057929993
intensity: 30.561422348
---
header: 
  seq: 787808
  stamp: 
    secs: 1561682510
    nsecs: 184311385
  frame_id: "ti_mmwave"
point_id: 10
x: 1.810546875
y: 0.287109375
z: -0.169921875
range: 1.96096372604
velocity: 0.0
doppler_bin: 8
bearing: 9.01070976257
intensity: 27.032913208
---
header: 
  seq: 787809
  stamp: 
    secs: 1561682510
    nsecs: 184320343
  frame_id: "ti_mmwave"
point_id: 11
x: 2.55859375
y: -0.263671875
z: 1.16015625
range: 3.00681090355
velocity: 0.0
doppler_bin: 8
bearing: -5.88375711441
intensity: 29.484128952
---
header: 
  seq: 787810
  stamp: 
    secs: 1561682510
    nsecs: 184329005
  frame_id: "ti_mmwave"
point_id: 12
x: 2.60546875
y: -0.267578125
z: 1.158203125
range: 3.05038785934
velocity: 0.0
doppler_bin: 8
bearing: -5.86364221573
intensity: 32.7989501953
---
header: 
  seq: 787811
  stamp: 
    secs: 1561682510
    nsecs: 184337235
  frame_id: "ti_mmwave"
point_id: 13
x: 2.658203125
y: -0.181640625
z: 1.15625
range: 3.09396481514
velocity: 0.0
doppler_bin: 8
bearing: -3.90906453133
intensity: 32.0085067749
---
header: 
  seq: 787812
  stamp: 
    secs: 1561682510
    nsecs: 184346626
  frame_id: "ti_mmwave"
point_id: 14
x: 4.412109375
y: -0.287109375
z: 1.201171875
range: 4.88062095642
velocity: 0.0
doppler_bin: 8
bearing: -3.72316122055
intensity: 30.7664051056
---
header: 
  seq: 787813
  stamp: 
    secs: 1561682510
    nsecs: 184355619
  frame_id: "ti_mmwave"
point_id: 15
x: 4.474609375
y: -0.2890625
z: 1.123046875
range: 4.9241976738
velocity: 0.0
doppler_bin: 8
bearing: -3.69620633125
intensity: 30.3702793121
---
header: 
  seq: 787814
  stamp: 
    secs: 1561682510
    nsecs: 184376127
  frame_id: "ti_mmwave"
point_id: 16
x: 4.669921875
y: -0.4453125
z: -0.720703125
range: 5.0549287796
velocity: 0.0
doppler_bin: 8
bearing: -5.44711685181
intensity: 29.4101428986
---
header: 
  seq: 787815
  stamp: 
    secs: 1561682510
    nsecs: 184391825
  frame_id: "ti_mmwave"
point_id: 17
x: 4.734375
y: -0.44921875
z: -0.537109375
range: 5.09850549698
velocity: 0.0
doppler_bin: 8
bearing: -5.42025327682
intensity: 33.2592582703
---
header: 
  seq: 787816
  stamp: 
    secs: 1561682510
    nsecs: 184400825
  frame_id: "ti_mmwave"
point_id: 18
x: 4.787109375
y: -0.453125
z: -0.4296875
range: 5.14208269119
velocity: 0.0
doppler_bin: 8
bearing: -5.40723514557
intensity: 33.8524856567
---
header: 
  seq: 787817
  stamp: 
    secs: 1561682510
    nsecs: 184558409
  frame_id: "ti_mmwave"
point_id: 19
x: 4.84375
y: -0.45703125
z: -0.177734375
range: 5.18565940857
velocity: 0.0
doppler_bin: 8
bearing: -5.3901758194
intensity: 30.6632595062
---
header: 
  seq: 787818
  stamp: 
    secs: 1561682510
    nsecs: 184585104
  frame_id: "ti_mmwave"
point_id: 20
x: 4.81640625
y: -0.4609375
z: 0.826171875
range: 5.22923660278
velocity: 0.0
doppler_bin: 8
bearing: -5.46664571762
intensity: 29.7772369385
---
header: 
  seq: 787819
  stamp: 
    secs: 1561682510
    nsecs: 184600781
  frame_id: "ti_mmwave"
point_id: 21
x: 4.875
y: -0.30859375
z: 0.802734375
range: 5.27281332016
velocity: 0.0
doppler_bin: 8
bearing: -3.62206339836
intensity: 30.8170719147
---
header: 
  seq: 787820
  stamp: 
    secs: 1561682510
    nsecs: 184615544
  frame_id: "ti_mmwave"
point_id: 23
x: 0.041015625
y: -0.033203125
z: 0.0625
range: 0.0871539413929
velocity: 0.0
doppler_bin: 8
bearing: -38.9909973145
intensity: 30.1325874329
---
header: 
  seq: 787821
  stamp: 
    secs: 1561682510
    nsecs: 184627390
  frame_id: "ti_mmwave"
point_id: 24
x: 0.052734375
y: -0.04296875
z: 0.1015625
range: 0.130730912089
velocity: 0.0
doppler_bin: 8
bearing: -39.1736602783
intensity: 28.9927310944
---
header: 
  seq: 787822
  stamp: 
    secs: 1561682510
    nsecs: 184647735
  frame_id: "ti_mmwave"
point_id: 26
x: 1.11328125
y: -0.515625
z: 0.318359375
range: 1.35088610649
velocity: 0.0
doppler_bin: 8
bearing: -24.8515853882
intensity: 18.9762706757
---
header: 
  seq: 787823
  stamp: 
    secs: 1561682510
    nsecs: 184660146
  frame_id: "ti_mmwave"
point_id: 27
x: 2.779296875
y: -2.00390625
z: -3.041015625
range: 4.88062095642
velocity: 0.0
doppler_bin: 8
bearing: -35.7920532227
intensity: 27.8746051788
---
header: 
  seq: 787824
  stamp: 
    secs: 1561682510
    nsecs: 184671635
  frame_id: "ti_mmwave"
point_id: 28
x: 2.572265625
y: -2.021484375
z: -3.265625
range: 4.9241976738
velocity: 0.0
doppler_bin: 8
bearing: -38.1629905701
intensity: 27.5434837341
---
header: 
  seq: 787825
  stamp: 
    secs: 1561682510
    nsecs: 185648170
  frame_id: "ti_mmwave"
point_id: 0
x: 0.01171875
y: -0.0390625
z: -0.0078125
range: 0.0435769706964
velocity: 0.0
doppler_bin: 8
bearing: -73.3007583618
intensity: 30.7445068359
---
header: 
  seq: 787826
  stamp: 
    secs: 1561682510
    nsecs: 185713140
  frame_id: "ti_mmwave"
point_id: 1
x: 0.017578125
y: -0.080078125
z: -0.0078125
range: 0.0871539413929
velocity: 0.0
doppler_bin: 8
bearing: -77.6192398071
intensity: 31.9700469971
---
header: 
  seq: 787827
  stamp: 
    secs: 1561682510
    nsecs: 185730045
  frame_id: "ti_mmwave"
point_id: 2
x: 0.041015625
y: -0.115234375
z: -0.0078125
range: 0.130730912089
velocity: 0.0
doppler_bin: 8
bearing: -70.4077224731
intensity: 30.2284069061
---
header: 
  seq: 787828
  stamp: 
    secs: 1561682510
    nsecs: 185746930
  frame_id: "ti_mmwave"
point_id: 3
x: 0.056640625
y: -0.154296875
z: 0.005859375
range: 0.174307882786
velocity: 0.0
doppler_bin: 8
bearing: -69.8423843384
intensity: 25.4654273987
---
header: 
  seq: 787829
  stamp: 
    secs: 1561682510
    nsecs: 185772412
  frame_id: "ti_mmwave"
point_id: 4
x: 0.3828125
y: -0.080078125
z: -1.20703125
range: 1.35088610649
velocity: 0.0
doppler_bin: 8
bearing: -11.8149757385
intensity: 21.875207901
---
header: 
  seq: 787830
  stamp: 
    secs: 1561682510
    nsecs: 185849688
  frame_id: "ti_mmwave"
point_id: 5
x: 0.259765625
y: -0.041015625
z: 1.28125
range: 1.39446306229
velocity: 0.0
doppler_bin: 8
bearing: -8.9726266861
intensity: 23.2428245544
---
header: 
  seq: 787831
  stamp: 
    secs: 1561682510
    nsecs: 185864536
  frame_id: "ti_mmwave"
point_id: 6
x: 0.46484375
y: -0.04296875
z: 1.265625
range: 1.43804001808
velocity: 0.0
doppler_bin: 8
bearing: -5.28124046326
intensity: 21.9312458038
---
header: 
  seq: 787832
  stamp: 
    secs: 1561682510
    nsecs: 185877769
  frame_id: "ti_mmwave"
point_id: 7
x: 1.6484375
y: 0.375
z: 0.306640625
range: 1.83023273945
velocity: 0.0
doppler_bin: 8
bearing: 12.8160018921
intensity: 26.0205993652
---
header: 
  seq: 787833
  stamp: 
    secs: 1561682510
    nsecs: 185891223
  frame_id: "ti_mmwave"
point_id: 8
x: 1.7265625
y: 0.275390625
z: 0.185546875
range: 1.87380969524
velocity: 0.0
doppler_bin: 8
bearing: 9.06246852875
intensity: 28.9097957611
---
header: 
  seq: 787834
  stamp: 
    secs: 1561682510
    nsecs: 185904264
  frame_id: "ti_mmwave"
point_id: 9
x: 1.76953125
y: 0.28125
z: 0.177734375
range: 1.91738677025
velocity: 0.0
doppler_bin: 8
bearing: 9.03107261658
intensity: 29.1592712402
---
header: 
  seq: 787835
  stamp: 
    secs: 1561682510
    nsecs: 185916298
  frame_id: "ti_mmwave"
point_id: 10
x: 1.8125
y: 0.287109375
z: 0.146484375
range: 1.96096372604
velocity: 0.0
doppler_bin: 8
bearing: 9.00115871429
intensity: 26.9460525513
---
header: 
  seq: 787836
  stamp: 
    secs: 1561682510
    nsecs: 185940523
  frame_id: "ti_mmwave"
point_id: 11
x: 2.546875
y: -0.263671875
z: 1.189453125
range: 3.00681090355
velocity: 0.0
doppler_bin: 8
bearing: -5.91063833237
intensity: 29.4743366241
---
header: 
  seq: 787837
  stamp: 
    secs: 1561682510
    nsecs: 185962365
  frame_id: "ti_mmwave"
point_id: 12
x: 2.599609375
y: -0.267578125
z: 1.171875
range: 3.05038785934
velocity: 0.0
doppler_bin: 8
bearing: -5.87676620483
intensity: 32.7989501953
---
header: 
  seq: 787838
  stamp: 
    secs: 1561682510
    nsecs: 186031135
  frame_id: "ti_mmwave"
point_id: 13
x: 2.650390625
y: -0.181640625
z: 1.171875
range: 3.09396481514
velocity: 0.0
doppler_bin: 8
bearing: -3.92055153847
intensity: 32.0248832703
---
header: 
  seq: 787839
  stamp: 
    secs: 1561682510
    nsecs: 186046162
  frame_id: "ti_mmwave"
point_id: 14
x: 4.40625
y: -0.287109375
z: 1.220703125
range: 4.88062095642
velocity: 0.0
doppler_bin: 8
bearing: -3.72809815407
intensity: 30.7809410095
---
header: 
  seq: 787840
  stamp: 
    secs: 1561682510
    nsecs: 186060382
  frame_id: "ti_mmwave"
point_id: 15
x: 4.44921875
y: -0.2890625
z: 1.21875
range: 4.9241976738
velocity: 0.0
doppler_bin: 8
bearing: -3.71724081039
intensity: 30.3782482147
---
header: 
  seq: 787841
  stamp: 
    secs: 1561682510
    nsecs: 186073105
  frame_id: "ti_mmwave"
point_id: 16
x: 4.73828125
y: -0.44921875
z: -0.51171875
range: 5.09850549698
velocity: 0.0
doppler_bin: 8
bearing: -5.4158115387
intensity: 33.155506134
---
header: 
  seq: 787842
  stamp: 
    secs: 1561682510
    nsecs: 186088824
  frame_id: "ti_mmwave"
point_id: 17
x: 4.787109375
y: -0.453125
z: -0.427734375
range: 5.14208269119
velocity: 0.0
doppler_bin: 8
bearing: -5.40723514557
intensity: 33.7383117676
---
header: 
  seq: 787843
  stamp: 
    secs: 1561682510
    nsecs: 186103194
  frame_id: "ti_mmwave"
point_id: 18
x: 4.841796875
y: -0.45703125
z: -0.19921875
range: 5.18565940857
velocity: 0.0
doppler_bin: 8
bearing: -5.39233732224
intensity: 30.5346260071
---
header: 
  seq: 787844
  stamp: 
    secs: 1561682510
    nsecs: 186116776
  frame_id: "ti_mmwave"
point_id: 19
x: 4.853515625
y: -0.306640625
z: 0.6640625
