header: 
  seq: 3115431
  stamp: 
    secs: 1561686159
    nsecs: 232300813
  frame_id: "ti_mmwave"
point_id: 0
x: 0.01171875
y: -0.0390625
z: -0.0078125
range: 0.0435769706964
velocity: 0.0
doppler_bin: 8
bearing: -73.3007583618
intensity: 30.7408466339
---
header: 
  seq: 3115432
  stamp: 
    secs: 1561686159
    nsecs: 232377869
  frame_id: "ti_mmwave"
point_id: 1
x: 0.017578125
y: -0.080078125
z: -0.0078125
range: 0.0871539413929
velocity: 0.0
doppler_bin: 8
bearing: -77.6192398071
intensity: 31.9783172607
---
header: 
  seq: 3115433
  stamp: 
    secs: 1561686159
    nsecs: 232396183
  frame_id: "ti_mmwave"
point_id: 2
x: 0.029296875
y: -0.119140625
z: -0.00390625
range: 0.130730912089
velocity: 0.0
doppler_bin: 8
bearing: -76.1849746704
intensity: 30.2077541351
---
header: 
  seq: 3115434
  stamp: 
    secs: 1561686159
    nsecs: 232405528
  frame_id: "ti_mmwave"
point_id: 3
x: 0.056640625
y: -0.154296875
z: 0.005859375
range: 0.174307882786
velocity: 0.0
doppler_bin: 8
bearing: -69.8423843384
intensity: 25.5022830963
---
header: 
  seq: 3115435
  stamp: 
    secs: 1561686159
    nsecs: 232414149
  frame_id: "ti_mmwave"
point_id: 4
x: 0.384765625
y: -0.080078125
z: -1.205078125
range: 1.35088610649
velocity: 0.0
doppler_bin: 8
bearing: -11.7566738129
intensity: 22.1748390198
---
header: 
  seq: 3115436
  stamp: 
    secs: 1561686159
    nsecs: 232422786
  frame_id: "ti_mmwave"
point_id: 5
x: 0.248046875
y: -0.041015625
z: 1.28515625
range: 1.39446306229
velocity: 0.0
doppler_bin: 8
bearing: -9.38914775848
intensity: 23.344537735
---
header: 
  seq: 3115437
  stamp: 
    secs: 1561686159
    nsecs: 232432006
  frame_id: "ti_mmwave"
point_id: 6
x: 1.498046875
y: 0.291015625
z: 0.296875
range: 1.65592491627
velocity: 0.0
doppler_bin: 8
bearing: 10.9935436249
intensity: 26.8033542633
---
header: 
  seq: 3115438
  stamp: 
    secs: 1561686159
    nsecs: 232440198
  frame_id: "ti_mmwave"
point_id: 7
x: 1.572265625
y: 0.25
z: 0.103515625
range: 1.69950187206
velocity: 0.0
doppler_bin: 8
bearing: 9.03474998474
intensity: 29.2890777588
---
header: 
  seq: 3115439
  stamp: 
    secs: 1561686159
    nsecs: 232448349
  frame_id: "ti_mmwave"
point_id: 8
x: 1.623046875
y: 0.205078125
z: -0.044921875
range: 1.74307882786
velocity: 0.0
doppler_bin: 8
bearing: 7.20137643814
intensity: 30.8350257874
---
header: 
  seq: 3115440
  stamp: 
    secs: 1561686159
    nsecs: 232457668
  frame_id: "ti_mmwave"
point_id: 9
x: 1.662109375
y: 0.208984375
z: -0.08984375
range: 1.78665578365
velocity: 0.0
doppler_bin: 8
bearing: 7.16644525528
intensity: 29.9475688934
---
header: 
  seq: 3115441
  stamp: 
    secs: 1561686159
    nsecs: 232465946
  frame_id: "ti_mmwave"
point_id: 10
x: 2.556640625
y: -0.263671875
z: 1.166015625
range: 3.00681090355
velocity: 0.0
doppler_bin: 8
bearing: -5.88822031021
intensity: 29.350030899
---
header: 
  seq: 3115442
  stamp: 
    secs: 1561686159
    nsecs: 232475350
  frame_id: "ti_mmwave"
point_id: 11
x: 2.607421875
y: -0.267578125
z: 1.15234375
range: 3.05038785934
velocity: 0.0
doppler_bin: 8
bearing: -5.85928010941
intensity: 32.7392692566
---
header: 
  seq: 3115443
  stamp: 
    secs: 1561686159
    nsecs: 232486205
  frame_id: "ti_mmwave"
point_id: 12
x: 2.66796875
y: -0.181640625
z: 1.134765625
range: 3.09396481514
velocity: 0.0
doppler_bin: 8
bearing: -3.89480042458
intensity: 32.0248832703
---
header: 
  seq: 3115444
  stamp: 
    secs: 1561686159
    nsecs: 232567632
  frame_id: "ti_mmwave"
point_id: 13
x: 4.408203125
y: -0.287109375
z: 1.216796875
range: 4.88062095642
velocity: 0.0
doppler_bin: 8
bearing: -3.72645139694
intensity: 30.9131507874
---
header: 
  seq: 3115445
  stamp: 
    secs: 1561686159
    nsecs: 232578799
  frame_id: "ti_mmwave"
point_id: 14
x: 4.439453125
y: -0.2890625
z: 1.251953125
range: 4.9241976738
velocity: 0.0
doppler_bin: 8
bearing: -3.7253947258
intensity: 30.5230903625
---
header: 
  seq: 3115446
  stamp: 
    secs: 1561686159
    nsecs: 232587516
  frame_id: "ti_mmwave"
point_id: 15
x: 4.740234375
y: -0.44921875
z: -0.490234375
range: 5.09850549698
velocity: 0.0
doppler_bin: 8
bearing: -5.41359329224
intensity: 33.1534042358
---
header: 
  seq: 3115447
  stamp: 
    secs: 1561686159
    nsecs: 232595209
  frame_id: "ti_mmwave"
point_id: 16
x: 4.79296875
y: -0.453125
z: -0.3515625
range: 5.14208269119
velocity: 0.0
doppler_bin: 8
bearing: -5.40066432953
intensity: 33.4301452637
---
header: 
  seq: 3115448
  stamp: 
    secs: 1561686159
    nsecs: 232603545
  frame_id: "ti_mmwave"
point_id: 17
x: 4.845703125
y: -0.45703125
z: 0.06640625
range: 5.18565940857
velocity: 0.0
doppler_bin: 8
bearing: -5.38801622391
intensity: 29.7818050385
---
header: 
  seq: 3115449
  stamp: 
    secs: 1561686159
    nsecs: 232611062
  frame_id: "ti_mmwave"
point_id: 18
x: 4.818359375
y: -0.4609375
z: 0.81640625
range: 5.22923660278
velocity: 0.0
doppler_bin: 8
bearing: -5.46444320679
intensity: 29.9387683868
---
header: 
  seq: 3115450
  stamp: 
    secs: 1561686159
    nsecs: 232619607
  frame_id: "ti_mmwave"
point_id: 19
x: 4.8515625
y: -0.46484375
z: 0.859375
range: 5.27281332016
velocity: 0.0
doppler_bin: 8
bearing: -5.47298574448
intensity: 30.7040729523
---
header: 
  seq: 3115451
  stamp: 
    secs: 1561686159
    nsecs: 232627615
  frame_id: "ti_mmwave"
point_id: 20
x: 1.021484375
y: 0.345703125
z: 0.240234375
range: 1.1765781641
velocity: 1.22933733463
doppler_bin: 10
bearing: 18.6974697113
intensity: 19.8227119446
---
header: 
  seq: 3115452
  stamp: 
    secs: 1561686159
    nsecs: 232635854
  frame_id: "ti_mmwave"
point_id: 21
x: 1.0546875
y: 0.357421875
z: 0.26953125
range: 1.22015523911
velocity: 1.22933733463
doppler_bin: 10
bearing: 18.720949173
intensity: 20.2530593872
---
header: 
  seq: 3115453
  stamp: 
    secs: 1561686159
    nsecs: 232646590
  frame_id: "ti_mmwave"
point_id: 23
x: 0.041015625
y: -0.033203125
z: 0.0625
range: 0.0871539413929
velocity: 0.0
doppler_bin: 8
bearing: -38.9909973145
intensity: 30.1494026184
---
header: 
  seq: 3115454
  stamp: 
    secs: 1561686159
    nsecs: 232655066
  frame_id: "ti_mmwave"
point_id: 24
x: 0.044921875
y: -0.046875
z: 0.103515625
range: 0.130730912089
velocity: 0.0
doppler_bin: 8
bearing: -46.218875885
intensity: 29.0525608063
---
header: 
  seq: 3115455
  stamp: 
    secs: 1561686159
    nsecs: 232664684
  frame_id: "ti_mmwave"
point_id: 26
x: 1.2109375
y: 0.357421875
z: 0.119140625
range: 1.35088610649
velocity: 0.0
doppler_bin: 8
bearing: 16.4445590973
intensity: 20.4532299042
---
header: 
  seq: 3115456
  stamp: 
    secs: 1561686159
    nsecs: 232672912
  frame_id: "ti_mmwave"
point_id: 27
x: 1.244140625
y: 0.408203125
z: 0.01953125
range: 1.39446306229
velocity: 0.0
doppler_bin: 8
bearing: 18.1646881104
intensity: 20.3742656708
---
header: 
  seq: 3115457
  stamp: 
    secs: 1561686159
    nsecs: 233903975
  frame_id: "ti_mmwave"
point_id: 0
x: 0.01171875
y: -0.0390625
z: -0.0078125
range: 0.0435769706964
velocity: 0.0
doppler_bin: 8
bearing: -73.3007583618
intensity: 30.7445068359
---
header: 
  seq: 3115458
  stamp: 
    secs: 1561686159
    nsecs: 233964062
  frame_id: "ti_mmwave"
point_id: 1
x: 0.017578125
y: -0.080078125
z: -0.0078125
range: 0.0871539413929
velocity: 0.0
doppler_bin: 8
bearing: -77.6192398071
intensity: 31.9810695648
---
header: 
  seq: 3115459
  stamp: 
    secs: 1561686159
    nsecs: 233981399
  frame_id: "ti_mmwave"
point_id: 2
x: 0.041015625
y: -0.115234375
z: -0.0078125
range: 0.130730912089
velocity: 0.0
doppler_bin: 8
bearing: -70.4077224731
intensity: 30.2077541351
---
header: 
  seq: 3115460
  stamp: 
    secs: 1561686159
    nsecs: 233997549
  frame_id: "ti_mmwave"
point_id: 3
x: 0.056640625
y: -0.154296875
z: 0.005859375
range: 0.174307882786
velocity: 0.0
doppler_bin: 8
bearing: -69.8423843384
intensity: 25.5022830963
---
header: 
  seq: 3115461
  stamp: 
    secs: 1561686159
    nsecs: 234011914
  frame_id: "ti_mmwave"
point_id: 4
x: 0.353515625
y: -0.080078125
z: -1.21484375
range: 1.35088610649
velocity: 0.0
doppler_bin: 8
bearing: -12.7632131577
intensity: 21.9865703583
---
header: 
  seq: 3115462
  stamp: 
    secs: 1561686159
    nsecs: 234166090
  frame_id: "ti_mmwave"
point_id: 5
x: 0.30078125
y: -0.041015625
z: 1.2734375
range: 1.39446306229
velocity: 0.0
doppler_bin: 8
bearing: -7.76516628265
intensity: 23.2428245544
---
header: 
  seq: 3115463
  stamp: 
    secs: 1561686159
    nsecs: 234229459
  frame_id: "ti_mmwave"
point_id: 6
x: 0.4140625
y: -0.0
z: 1.28515625
range: 1.43804001808
velocity: 0.0
doppler_bin: 8
bearing: -0.0
intensity: 21.9033164978
---
header: 
  seq: 3115464
  stamp: 
    secs: 1561686159
    nsecs: 234239445
  frame_id: "ti_mmwave"
point_id: 7
x: 1.529296875
y: 0.193359375
z: 0.203125
range: 1.65592491627
velocity: 0.0
doppler_bin: 8
bearing: 7.20605707169
intensity: 28.9431610107
---
header: 
  seq: 3115465
  stamp: 
    secs: 1561686159
    nsecs: 234250202
  frame_id: "ti_mmwave"
point_id: 8
x: 1.57421875
y: 0.25
z: 0.072265625
range: 1.69950187206
velocity: 0.0
doppler_bin: 8
bearing: 9.02372455597
intensity: 32.04662323
---
header: 
  seq: 3115466
  stamp: 
    secs: 1561686159
    nsecs: 234260679
  frame_id: "ti_mmwave"
point_id: 9
x: 1.615234375
y: 0.255859375
z: -0.033203125
range: 1.74307882786
velocity: 0.0
doppler_bin: 8
bearing: 9.00108623505
intensity: 32.5551376343
---
header: 
  seq: 3115467
  stamp: 
    secs: 1561686159
    nsecs: 234326369
  frame_id: "ti_mmwave"
point_id: 10
x: 1.65234375
y: 0.26171875
z: -0.107421875
range: 1.78665578365
velocity: 0.0
doppler_bin: 8
bearing: 9.00044631958
intensity: 30.1029987335
---
header: 
  seq: 3115468
  stamp: 
    secs: 1561686159
    nsecs: 234336377
  frame_id: "ti_mmwave"
point_id: 11
x: 2.556640625
y: -0.263671875
z: 1.166015625
range: 3.00681090355
velocity: 0.0
doppler_bin: 8
bearing: -5.88822031021
intensity: 29.3951931
---
header: 
  seq: 3115469
  stamp: 
    secs: 1561686159
    nsecs: 234347982
  frame_id: "ti_mmwave"
point_id: 12
x: 2.619140625
y: -0.1796875
z: 1.142578125
range: 3.05038785934
velocity: 0.0
doppler_bin: 8
bearing: -3.9246571064
intensity: 32.7737998962
---
header: 
  seq: 3115470
  stamp: 
    secs: 1561686159
    nsecs: 234407690
  frame_id: "ti_mmwave"
point_id: 13
x: 2.666015625
y: -0.181640625
z: 1.13671875
range: 3.09396481514
velocity: 0.0
doppler_bin: 8
bearing: -3.89764523506
intensity: 32.0709571838
---
header: 
  seq: 3115471
  stamp: 
    secs: 1561686159
    nsecs: 234416929
  frame_id: "ti_mmwave"
point_id: 14
x: 4.41796875
y: -0.287109375
z: 1.1796875
range: 4.88062095642
velocity: 0.0
doppler_bin: 8
bearing: -3.71823716164
intensity: 30.7335166931
---
header: 
  seq: 3115472
  stamp: 
    secs: 1561686159
    nsecs: 234424429
  frame_id: "ti_mmwave"
point_id: 15
x: 4.470703125
y: -0.2890625
z: 1.134765625
range: 4.9241976738
velocity: 0.0
doppler_bin: 8
bearing: -3.69942688942
intensity: 30.4218158722
---
header: 
  seq: 3115473
  stamp: 
    secs: 1561686159
    nsecs: 234455554
  frame_id: "ti_mmwave"
point_id: 16
x: 4.740234375
y: -0.44921875
z: -0.478515625
range: 5.09850549698
velocity: 0.0
doppler_bin: 8
bearing: -5.41359329224
intensity: 33.1659927368
---
header: 
  seq: 3115474
  stamp: 
    secs: 1561686159
    nsecs: 234464912
  frame_id: "ti_mmwave"
point_id: 17
x: 4.79296875
y: -0.453125
z: -0.345703125
range: 5.14208269119
velocity: 0.0
doppler_bin: 8
bearing: -5.40066432953
intensity: 33.4262008667
---
header: 
  seq: 3115475
  stamp: 
    secs: 1561686159
    nsecs: 234490507
  frame_id: "ti_mmwave"
point_id: 18
x: 4.845703125
y: -0.45703125
z: 0.025390625
range: 5.18565940857
velocity: 0.0
doppler_bin: 8
bearing: -5.38801622391
intensity: 29.7127590179
---
header: 
  seq: 3115476
  stamp: 
    secs: 1561686159
    nsecs: 234513396
  frame_id: "ti_mmwave"
point_id: 19
x: 4.82421875
y: -0.4609375
z: 0.78515625
range: 5.22923660278
velocity: 0.0
doppler_bin: 8
bearing: -5.4578461647
intensity: 29.854265213
---
header: 
  seq: 3115477
  stamp: 
    secs: 1561686159
    nsecs: 234526198
  frame_id: "ti_mmwave"
point_id: 20
x: 4.849609375
y: -0.46484375
z: 0.875
range: 5.27281332016
velocity: 0.0
doppler_bin: 8
bearing: -5.47517633438
intensity: 30.6929798126
---
header: 
  seq: 3115478
  stamp: 
    secs: 1561686159
    nsecs: 234607407
  frame_id: "ti_mmwave"
point_id: 22
x: 0.041015625
y: -0.033203125
z: 0.0625
range: 0.0871539413929
velocity: 0.0
doppler_bin: 8
bearing: -38.9909973145
intensity: 30.1535968781
---
header: 
  seq: 3115479
  stamp: 
    secs: 1561686159
    nsecs: 234623726
  frame_id: "ti_mmwave"
point_id: 23
x: 0.044921875
y: -0.046875
z: 0.10546875
range: 0.130730912089
velocity: 0.0
doppler_bin: 8
bearing: -46.218875885
intensity: 29.0525608063
---
header: 
  seq: 3115480
  stamp: 
    secs: 1561686159
    nsecs: 234639716
  frame_id: "ti_mmwave"
point_id: 25
x: 1.21484375
y: 0.357421875
z: 0.072265625
range: 1.35088610649
velocity: 0.0
doppler_bin: 8
bearing: 16.3945274353
intensity: 19.2427921295
---
header: 
  seq: 3115481
  stamp: 
    secs: 1561686159
    nsecs: 234653571
  frame_id: "ti_mmwave"
point_id: 27
x: 2.69140625
y: -2.021484375
z: -3.16796875
range: 4.9241976738
velocity: 0.0
doppler_bin: 8
bearing: -36.9097976685
intensity: 27.4193916321
---
header: 
  seq: 3115482
  stamp: 
    secs: 1561686159
    nsecs: 292322934
  frame_id: "ti_mmwave"
point_id: 0
x: 0.01171875
y: -0.0390625
z: -0.0078125
range: 0.0435769706964
velocity: 0.0
doppler_bin: 8
bearing: -73.3007583618
intensity: 30.7335166931
---
header: 
  seq: 3115483
  stamp: 
    secs: 1561686159
    nsecs: 292410507
  frame_id: "ti_mmwave"
point_id: 1
x: 0.017578125
y: -0.080078125
z: -0.0078125
range: 0.0871539413929
velocity: 0.0
doppler_bin: 8
bearing: -77.6192398071
intensity: 31.9810695648
---
header: 
  seq: 3115484
  stamp: 
    secs: 1561686159
    nsecs: 292422421
  frame_id: "ti_mmwave"
point_id: 2
x: 0.029296875
y: -0.119140625
z: -0.00390625
range: 0.130730912089
velocity: 0.0
doppler_bin: 8
bearing: -76.1849746704
intensity: 30.2160263062
---
header: 
  seq: 3115485
  stamp: 
    secs: 1561686159
    nsecs: 292432787
  frame_id: "ti_mmwave"
point_id: 3
x: 0.056640625
y: -0.154296875
z: 0.005859375
range: 0.174307882786
velocity: 0.0
doppler_bin: 8
bearing: -69.8423843384
intensity: 25.5144996643
---
header: 
  seq: 3115486
  stamp: 
    secs: 1561686159
    nsecs: 292441466
  frame_id: "ti_mmwave"
point_id: 4
x: 0.33203125
y: -0.080078125
z: -1.220703125
range: 1.35088610649
velocity: 0.0
doppler_bin: 8
bearing: -13.5594520569
intensity: 22.0412006378
---
header: 
  seq: 3115487
  stamp: 
    secs: 1561686159
    nsecs: 292449954
  frame_id: "ti_mmwave"
point_id: 5
x: 0.291015625
y: -0.041015625
z: 1.275390625
range: 1.39446306229
velocity: 0.0
doppler_bin: 8
bearing: -8.02240371704
intensity: 23.3041381836
---
header: 
  seq: 3115488
  stamp: 
    secs: 1561686159
    nsecs: 292457987
  frame_id: "ti_mmwave"
point_id: 6
x: 0.416015625
y: -0.0
z: 1.283203125
range: 1.43804001808
velocity: 0.0
doppler_bin: 8
bearing: -0.0
intensity: 21.9312458038
---
header: 
  seq: 3115489
  stamp: 
    secs: 1561686159
    nsecs: 292466481
  frame_id: "ti_mmwave"
point_id: 7
x: 1.57421875
y: 0.25
z: -0.0625
range: 1.69950187206
velocity: 0.0
doppler_bin: 8
bearing: 9.02372455597
intensity: 30.0475120544
---
header: 
  seq: 3115490
  stamp: 
    secs: 1561686159
    nsecs: 292475103
  frame_id: "ti_mmwave"
point_id: 8
x: 1.6171875
y: 0.205078125
z: -0.140625
range: 1.74307882786
velocity: 0.0
doppler_bin: 8
bearing: 7.22719287872
intensity: 32.474822998
---
header: 
  seq: 3115491
  stamp: 
    secs: 1561686159
    nsecs: 292494167
  frame_id: "ti_mmwave"
point_id: 9
x: 1.654296875
y: 0.208984375
z: -0.177734375
range: 1.78665578365
velocity: 0.0
doppler_bin: 8
bearing: 7.19993448257
intensity: 31.2807598114
---
header: 
  seq: 3115492
  stamp: 
    secs: 1561686159
    nsecs: 292511444
  frame_id: "ti_mmwave"
point_id: 10
x: 1.69921875
y: 0.16015625
z: -0.19921875
range: 1.83023273945
velocity: 0.0
doppler_bin: 8
bearing: 5.38438558578
intensity: 26.7302093506
---
header: 
  seq: 3115493
  stamp: 
    secs: 1561686159
    nsecs: 292628863
  frame_id: "ti_mmwave"
point_id: 11
x: 2.560546875
y: -0.263671875
z: 1.158203125
range: 3.00681090355
velocity: 0.0
doppler_bin: 8
bearing: -5.87930107117
intensity: 29.3348731995
---
header: 
  seq: 3115494
  stamp: 
    secs: 1561686159
    nsecs: 292645095
  frame_id: "ti_mmwave"
point_id: 12
x: 2.609375
y: -0.267578125
z: 1.150390625
range: 3.05038785934
velocity: 0.0
doppler_bin: 8
bearing: -5.85492515564
intensity: 32.7323265076
---
header: 
  seq: 3115495
  stamp: 
    secs: 1561686159
    nsecs: 292678928
  frame_id: "ti_mmwave"
point_id: 13
x: 2.6640625
y: -0.181640625
z: 1.142578125
range: 3.09396481514
velocity: 0.0
doppler_bin: 8
bearing: -3.90049386024
intensity: 31.9975509644
---
header: 
  seq: 3115496
  stamp: 
    secs: 1561686159
    nsecs: 292694336
  frame_id: "ti_mmwave"
point_id: 14
x: 4.408203125
y: -0.287109375
z: 1.21484375
range: 4.88062095642
velocity: 0.0
doppler_bin: 8
bearing: -3.72645139694
intensity: 30.8884449005
---
header: 
  seq: 3115497
  stamp: 
    secs: 1561686159
    nsecs: 292706333
  frame_id: "ti_mmwave"
point_id: 15
x: 4.447265625
y: -0.2890625
z: 1.224609375
range: 4.9241976738
velocity: 0.0
doppler_bin: 8
bearing: -3.71886897087
intensity: 30.6258201599
---
header: 
  seq: 3115498
  stamp: 
    secs: 1561686159
    nsecs: 292716443
  frame_id: "ti_mmwave"
point_id: 16
x: 4.73828125
y: -0.44921875
z: -0.501953125
range: 5.09850549698
velocity: 0.0
doppler_bin: 8
bearing: -5.4158115387
intensity: 33.159702301
---
header: 
  seq: 3115499
  stamp: 
    secs: 1561686159
    nsecs: 292725928
  frame_id: "ti_mmwave"
point_id: 17
x: 4.79296875
y: -0.453125
z: -0.35546875
range: 5.14208269119
velocity: 0.0
doppler_bin: 8
bearing: -5.40066432953
intensity: 33.4439239502
---
header: 
  seq: 3115500
  stamp: 
    secs: 1561686159
    nsecs: 292733522
  frame_id: "ti_mmwave"
point_id: 18
x: 4.857421875
y: -0.3046875
z: 0.05078125
range: 5.18565940857
velocity: 0.0
doppler_bin: 8
bearing: -3.58924269676
intensity: 29.8452739716
---
header: 
  seq: 3115501
  stamp: 
    secs: 1561686159
    nsecs: 292741215
  frame_id: "ti_mmwave"
point_id: 19
x: 4.853515625
y: -0.306640625
z: 0.669921875
range: 5.22923660278
velocity: 0.0
doppler_bin: 8
bearing: -3.6150894165
intensity: 30.0902576447
---
header: 
  seq: 3115502
  stamp: 
    secs: 1561686159
    nsecs: 292748548
  frame_id: "ti_mmwave"
point_id: 20
x: 4.884765625
y: -0.30859375
z: 0.73828125
range: 5.27281332016
velocity: 0.0
doppler_bin: 8
bearing: -3.6148416996
intensity: 30.6892757416
---
header: 
  seq: 3115503
  stamp: 
    secs: 1561686159
    nsecs: 292756405
  frame_id: "ti_mmwave"
point_id: 21
x: 1.1796875
y: 0.267578125
z: 0.20703125
range: 1.3073091507
velocity: 1.84400606155
doppler_bin: 11
bearing: 12.7796640396
intensity: 21.5836257935
---
header: 
  seq: 3115504
  stamp: 
    secs: 1561686159
    nsecs: 292767639
  frame_id: "ti_mmwave"
point_id: 23
x: 0.041015625
y: -0.033203125
z: 0.0625
range: 0.0871539413929
velocity: 0.0
doppler_bin: 8
bearing: -38.9909973145
intensity: 30.1494026184
---
header: 
  seq: 3115505
  stamp: 
    secs: 1561686159
    nsecs: 292777487
  frame_id: "ti_mmwave"
point_id: 24
x: 0.044921875
y: -0.046875
z: 0.103515625
range: 0.130730912089
velocity: 0.0
doppler_bin: 8
bearing: -46.218875885
intensity: 29.0579586029
---
header: 
  seq: 3115506
  stamp: 
    secs: 1561686159
    nsecs: 292787429
  frame_id: "ti_mmwave"
point_id: 26
x: 1.212890625
y: 0.357421875
z: 0.1015625
range: 1.35088610649
velocity: 0.0
doppler_bin: 8
bearing: 16.419506073
intensity: 19.2427921295
---
header: 
  seq: 3115507
  stamp: 
    secs: 1561686159
    nsecs: 292797228
  frame_id: "ti_mmwave"
point_id: 27
x: 0.248046875
y: -0.482421875
z: 1.62890625
range: 1.83023273945
velocity: 0.0
doppler_bin: 8
bearing: -62.7891311646
intensity: 24.1161975861
---
header: 
  seq: 3115508
  stamp: 
    secs: 1561686159
    nsecs: 292805408
  frame_id: "ti_mmwave"
point_id: 28
x: 2.89453125
y: -1.861328125
z: -3.0234375
range: 4.88062095642
velocity: 0.0
doppler_bin: 8
bearing: -32.7430419922
intensity: 28.0277366638
---
header: 
  seq: 3115509
  stamp: 
    secs: 1561686159
    nsecs: 292813542
  frame_id: "ti_mmwave"
point_id: 29
x: 2.91015625
y: -2.021484375
z: -2.966796875
range: 4.9241976738
velocity: 0.0
doppler_bin: 8
bearing: -34.7850379944
intensity: 27.7085208893
---
header: 
  seq: 3115510
  stamp: 
    secs: 1561686159
    nsecs: 294063393
  frame_id: "ti_mmwave"
point_id: 0
x: 0.01171875
y: -0.0390625
z: -0.0078125
range: 0.0435769706964
velocity: 0.0
doppler_bin: 8
bearing: -73.3007583618
intensity: 30.7408466339
---
header: 
  seq: 3115511
  stamp: 
    secs: 1561686159
    nsecs: 294107860
  frame_id: "ti_mmwave"
point_id: 1
x: 0.017578125
y: -0.080078125
z: -0.0078125
range: 0.0871539413929
velocity: 0.0
doppler_bin: 8
bearing: -77.6192398071
intensity: 31.9783172607
---
header: 
  seq: 3115512
  stamp: 
    secs: 1561686159
    nsecs: 294125667
  frame_id: "ti_mmwave"
point_id: 2
x: 0.029296875
y: -0.119140625
z: -0.00390625
range: 0.130730912089
velocity: 0.0
doppler_bin: 8
bearing: -76.1849746704
intensity: 30.2118930817
---
header: 
  seq: 3115513
  stamp: 
    secs: 1561686159
    nsecs: 294137579
  frame_id: "ti_mmwave"
point_id: 3
x: 0.056640625
y: -0.154296875
z: 0.005859375
range: 0.174307882786
velocity: 0.0
doppler_bin: 8
bearing: -69.8423843384
intensity: 25.5266819
---
header: 
  seq: 3115514
  stamp: 
    secs: 1561686159
    nsecs: 294145980
  frame_id: "ti_mmwave"
point_id: 4
x: 0.326171875
y: -0.080078125
z: -1.22265625
range: 1.35088610649
velocity: 0.0
doppler_bin: 8
bearing: -13.7938089371
intensity: 21.9589958191
---
header: 
  seq: 3115515
  stamp: 
    secs: 1561686159
    nsecs: 294155197
  frame_id: "ti_mmwave"
point_id: 5
x: 0.33203125
y: -0.041015625
z: 1.265625
range: 1.39446306229
velocity: 0.0
doppler_bin: 8
bearing: -7.04203891754
intensity: 23.2221927643
---
header: 
  seq: 3115516
  stamp: 
    secs: 1561686159
    nsecs: 294163663
  frame_id: "ti_mmwave"
point_id: 6
x: 0.44921875
y: -0.0
z: 1.2734375
range: 1.43804001808
velocity: 0.0
doppler_bin: 8
bearing: -0.0
intensity: 21.9033164978
---
header: 
  seq: 3115517
  stamp: 
    secs: 1561686159
    nsecs: 294179690
  frame_id: "ti_mmwave"
point_id: 7
x: 1.568359375
y: 0.25
z: -0.14453125
range: 1.69950187206
velocity: 0.0
doppler_bin: 8
bearing: 9.05687904358
intensity: 27.6566848755
---
header: 
  seq: 3115518
  stamp: 
    secs: 1561686159
    nsecs: 294192814
  frame_id: "ti_mmwave"
point_id: 8
x: 1.6015625
y: 0.306640625
z: -0.1328125
range: 1.74307882786
velocity: 0.0
doppler_bin: 8
bearing: 10.8388710022
intensity: 29.7726612091
---
header: 
  seq: 3115519
  stamp: 
    secs: 1561686159
    nsecs: 294205826
  frame_id: "ti_mmwave"
point_id: 9
x: 1.623046875
y: 0.419921875
z: -0.015625
range: 1.78665578365
velocity: 0.0
doppler_bin: 8
bearing: 14.5057373047
intensity: 28.6272754669
---
header: 
  seq: 3115520
  stamp: 
    secs: 1561686159
    nsecs: 294265721
  frame_id: "ti_mmwave"
point_id: 10
x: 2.55078125
y: -0.263671875
z: 1.177734375
range: 3.00681090355
velocity: 0.0
doppler_bin: 8
bearing: -5.90165042877
intensity: 29.3901977539
---
header: 
  seq: 3115521
  stamp: 
    secs: 1561686159
    nsecs: 294274875
  frame_id: "ti_mmwave"
point_id: 11
x: 2.6171875
y: -0.1796875
z: 1.146484375
range: 3.05038785934
velocity: 0.0
doppler_bin: 8
bearing: -3.9275765419
intensity: 32.7461967468
---
header: 
  seq: 3115522
  stamp: 
    secs: 1561686159
    nsecs: 294283642
  frame_id: "ti_mmwave"
point_id: 12
x: 2.66015625
y: -0.181640625
z: 1.154296875
range: 3.09396481514
velocity: 0.0
doppler_bin: 8
bearing: -3.90620398521
intensity: 31.9534606934
---
header: 
  seq: 3115523
  stamp: 
    secs: 1561686159
    nsecs: 294293185
  frame_id: "ti_mmwave"
point_id: 13
x: 4.3984375
y: -0.287109375
z: 1.251953125
range: 4.88062095642
velocity: 0.0
doppler_bin: 8
bearing: -3.73470139503
intensity: 31.05169487
---
header: 
  seq: 3115524
  stamp: 
    secs: 1561686159
    nsecs: 294301507
  frame_id: "ti_mmwave"
point_id: 14
x: 4.42578125
y: -0.2890625
z: 1.3046875
range: 4.9241976738
velocity: 0.0
doppler_bin: 8
bearing: -3.73687028885
intensity: 30.8026561737
---
header: 
  seq: 3115525
  stamp: 
    secs: 1561686159
    nsecs: 294309155
  frame_id: "ti_mmwave"
point_id: 15
x: 4.669921875
y: -0.4453125
z: -0.712890625
range: 5.0549287796
velocity: 0.0
doppler_bin: 8
bearing: -5.44711685181
intensity: 29.5182304382
---
header: 
  seq: 3115526
  stamp: 
    secs: 1561686159
    nsecs: 294318192
  frame_id: "ti_mmwave"
point_id: 16
x: 4.736328125
y: -0.44921875
z: -0.51953125
range: 5.09850549698
velocity: 0.0
doppler_bin: 8
bearing: -5.41803121567
intensity: 33.203540802
---
header: 
  seq: 3115527
  stamp: 
    secs: 1561686159
    nsecs: 294330478
  frame_id: "ti_mmwave"
point_id: 17
x: 4.794921875
y: -0.453125
z: -0.33203125
range: 5.14208269119
velocity: 0.0
doppler_bin: 8
bearing: -5.39847755432
intensity: 33.5218238831
---
header: 
  seq: 3115528
  stamp: 
    secs: 1561686159
    nsecs: 294342108
  frame_id: "ti_mmwave"
point_id: 18
x: 4.845703125
y: -0.45703125
z: 0.11328125
range: 5.18565940857
velocity: 0.0
doppler_bin: 8
bearing: -5.38801622391
intensity: 30.1072387695
---
header: 
  seq: 3115529
  stamp: 
    secs: 1561686159
    nsecs: 294353944
  frame_id: "ti_mmwave"
point_id: 19
x: 4.826171875
y: -0.4609375
z: 0.76953125
range: 5.22923660278
velocity: 0.0
doppler_bin: 8
bearing: -5.45565080643
intensity: 30.1661548615
---
header: 
  seq: 3115530
  stamp: 
    secs: 1561686159
    nsecs: 294364862
  frame_id: "ti_mmwave"
point_id: 20
x: 4.85546875
y: -0.46484375
z: 0.841796875
range: 5.27281332016
velocity: 0.0
doppler_bin: 8
bearing: -5.46860933304
intensity: 30.8635978699
---
header: 
  seq: 3115531
  stamp: 
    secs: 1561686159
    nsecs: 294378208
  frame_id: "ti_mmwave"
point_id: 22
x: 0.041015625
y: -0.033203125
z: 0.0625
range: 0.0871539413929
velocity: 0.0
doppler_bin: 8
bearing: -38.9909973145
intensity: 30.1452045441
---
header: 
  seq: 3115532
  stamp: 
    secs: 1561686159
    nsecs: 294430485
  frame_id: "ti_mmwave"
point_id: 23
x: 0.044921875
y: -0.046875
z: 0.103515625
range: 0.130730912089
velocity: 0.0
doppler_bin: 8
bearing: -46.218875885
intensity: 29.0471553802
---
header: 
  seq: 3115533
  stamp: 
    secs: 1561686159
    nsecs: 294450317
  frame_id: "ti_mmwave"
point_id: 25
x: 1.216796875
y: 0.357421875
z: 0.046875
range: 1.35088610649
velocity: 0.0
doppler_bin: 8
bearing: 16.3696231842
intensity: 19.2427921295
---
header: 
  seq: 3115534
  stamp: 
    secs: 1561686159
    nsecs: 352485237
  frame_id: "ti_mmwave"
point_id: 0
x: 0.01171875
y: -0.0390625
z: -0.0078125
range: 0.0435769706964
velocity: 0.0
doppler_bin: 8
bearing: -73.3007583618
intensity: 30.7445068359
---
header: 
  seq: 3115535
  stamp: 
    secs: 1561686159
    nsecs: 352574619
  frame_id: "ti_mmwave"
point_id: 1
x: 0.017578125
y: -0.080078125
z: -0.0078125
range: 0.0871539413929
velocity: 0.0
doppler_bin: 8
bearing: -77.6192398071
intensity: 31.9783172607
---
header: 
  seq: 3115536
  stamp: 
    secs: 1561686159
    nsecs: 352586640
  frame_id: "ti_mmwave"
point_id: 2
x: 0.029296875
y: -0.119140625
z: -0.00390625
range: 0.130730912089
velocity: 0.0
doppler_bin: 8
bearing: -76.1849746704
intensity: 30.2077541351
---
header: 
  seq: 3115537
  stamp: 
    secs: 1561686159
    nsecs: 352595618
  frame_id: "ti_mmwave"
point_id: 3
x: 0.056640625
y: -0.154296875
z: 0.005859375
range: 0.174307882786
velocity: 0.0
doppler_bin: 8
bearing: -69.8423843384
intensity: 25.5022830963
---
header: 
  seq: 3115538
  stamp: 
    secs: 1561686159
    nsecs: 352605944
  frame_id: "ti_mmwave"
point_id: 4
x: 0.373046875
y: -0.080078125
z: -1.208984375
range: 1.35088610649
velocity: 0.0
doppler_bin: 8
bearing: -12.1152420044
intensity: 22.0139713287
---
header: 
  seq: 3115539
  stamp: 
    secs: 1561686159
    nsecs: 352615531
  frame_id: "ti_mmwave"
point_id: 5
x: 0.294921875
y: -0.041015625
z: 1.275390625
range: 1.39446306229
velocity: 0.0
doppler_bin: 8
bearing: -7.91750335693
intensity: 23.2633590698
---
header: 
  seq: 3115540
  stamp: 
    secs: 1561686159
    nsecs: 352623768
  frame_id: "ti_mmwave"
point_id: 6
x: 0.42578125
y: -0.0
z: 1.28125
range: 1.43804001808
velocity: 0.0
doppler_bin: 8
bearing: -0.0
intensity: 21.9312458038
---
header: 
  seq: 3115541
  stamp: 
    secs: 1561686159
    nsecs: 352632107
  frame_id: "ti_mmwave"
point_id: 7
x: 2.544921875
y: -0.263671875
z: 1.19140625
range: 3.00681090355
velocity: 0.0
doppler_bin: 8
bearing: -5.91514253616
intensity: 29.2992954254
---
header: 
  seq: 3115542
  stamp: 
    secs: 1561686159
    nsecs: 352640761
  frame_id: "ti_mmwave"
point_id: 8
x: 2.6015625
y: -0.267578125
z: 1.16796875
range: 3.05038785934
velocity: 0.0
doppler_bin: 8
bearing: -5.87238502502
intensity: 32.73695755
---
header: 
  seq: 3115543
  stamp: 
    secs: 1561686159
    nsecs: 352663576
  frame_id: "ti_mmwave"
point_id: 9
x: 2.66015625
y: -0.181640625
z: 1.150390625
range: 3.09396481514
velocity: 0.0
doppler_bin: 8
bearing: -3.90620398521
intensity: 31.9810695648
---
header: 
  seq: 3115544
  stamp: 
    secs: 1561686159
    nsecs: 352673069
  frame_id: "ti_mmwave"
point_id: 10
x: 4.392578125
y: -0.287109375
z: 1.271484375
range: 4.88062095642
velocity: 0.0
doppler_bin: 8
bearing: -3.73966956139
intensity: 30.979511261
---
header: 
  seq: 3115545
  stamp: 
    secs: 1561686159
    nsecs: 352683067
  frame_id: "ti_mmwave"
point_id: 11
x: 4.4140625
y: -0.2890625
z: 1.34375
range: 4.9241976738
velocity: 0.0
doppler_bin: 8
bearing: -3.74676346779
intensity: 30.6744289398
---
header: 
  seq: 3115546
  stamp: 
    secs: 1561686159
    nsecs: 352694175
  frame_id: "ti_mmwave"
point_id: 12
x: 4.740234375
y: -0.44921875
z: -0.4921875
range: 5.09850549698
velocity: 0.0
doppler_bin: 8
bearing: -5.41359329224
intensity: 33.2056159973
---
header: 
  seq: 3115547
  stamp: 
    secs: 1561686159
    nsecs: 352870319
  frame_id: "ti_mmwave"
point_id: 13
x: 4.791015625
y: -0.453125
z: -0.376953125
range: 5.14208269119
velocity: 0.0
doppler_bin: 8
bearing: -5.40285253525
intensity: 33.5198936462
---
header: 
  seq: 3115548
  stamp: 
    secs: 1561686159
    nsecs: 352890226
  frame_id: "ti_mmwave"
point_id: 14
x: 4.857421875
y: -0.3046875
z: 0.001953125
range: 5.18565940857
velocity: 0.0
doppler_bin: 8
bearing: -3.58924269676
intensity: 30.1535968781
---
header: 
  seq: 3115549
  stamp: 
    secs: 1561686159
    nsecs: 352898340
  frame_id: "ti_mmwave"
point_id: 15
x: 4.859375
y: -0.306640625
z: 0.619140625
range: 5.22923660278
velocity: 0.0
doppler_bin: 8
bearing: -3.61074185371
intensity: 30.2284069061
---
header: 
  seq: 3115550
  stamp: 
    secs: 1561686159
    nsecs: 352906993
  frame_id: "ti_mmwave"
point_id: 16
x: 4.865234375
y: -0.46484375
z: 0.78125
range: 5.27281332016
velocity: 0.0
doppler_bin: 8
bearing: -5.45769834518
intensity: 30.8026561737
---
header: 
  seq: 3115551
  stamp: 
    secs: 1561686159
    nsecs: 352960381
  frame_id: "ti_mmwave"
point_id: 17
x: 1.583984375
y: 0.306640625
z: 0.2734375
range: 1.74307882786
velocity: 0.614668667316
doppler_bin: 9
bearing: 10.9562597275
intensity: 26.3245735168
---
header: 
  seq: 3115552
  stamp: 
    secs: 1561686159
    nsecs: 352972107
  frame_id: "ti_mmwave"
point_id: 18
x: 1.6171875
y: 0.314453125
z: 0.310546875
range: 1.78665578365
velocity: 0.614668667316
doppler_bin: 9
bearing: 11.0035409927
intensity: 26.180480957
---
header: 
  seq: 3115553
  stamp: 
    secs: 1561686159
    nsecs: 352980564
  frame_id: "ti_mmwave"
point_id: 19
x: 1.298828125
y: 0.294921875
z: 0.21875
range: 1.43804001808
velocity: 1.84400606155
doppler_bin: 11
bearing: 12.7930936813
intensity: 20.2530593872
---
header: 
  seq: 3115554
  stamp: 
    secs: 1561686159
    nsecs: 352990606
  frame_id: "ti_mmwave"
point_id: 21
x: 0.041015625
y: -0.033203125
z: 0.0625
range: 0.0871539413929
velocity: 0.0
doppler_bin: 8
bearing: -38.9909973145
intensity: 30.1452045441
---
header: 
  seq: 3115555
  stamp: 
    secs: 1561686159
    nsecs: 353000247
  frame_id: "ti_mmwave"
point_id: 22
x: 0.044921875
y: -0.046875
z: 0.103515625
range: 0.130730912089
velocity: 0.0
doppler_bin: 8
bearing: -46.218875885
intensity: 29.0525608063
---
header: 
  seq: 3115556
  stamp: 
    secs: 1561686159
    nsecs: 353009846
  frame_id: "ti_mmwave"
point_id: 24
x: 1.21484375
y: 0.357421875
z: 0.06640625
range: 1.35088610649
velocity: 0.0
doppler_bin: 8
bearing: 16.3945274353
intensity: 19.2941894531
---
header: 
  seq: 3115557
  stamp: 
    secs: 1561686159
    nsecs: 354047166
  frame_id: "ti_mmwave"
point_id: 0
x: 0.01171875
y: -0.0390625
z: -0.0078125
range: 0.0435769706964
velocity: 0.0
doppler_bin: 8
bearing: -73.3007583618
intensity: 30.7371826172
---
header: 
  seq: 3115558
  stamp: 
    secs: 1561686159
    nsecs: 354093429
  frame_id: "ti_mmwave"
point_id: 1
x: 0.017578125
y: -0.080078125
z: -0.0078125
range: 0.0871539413929
velocity: 0.0
doppler_bin: 8
bearing: -77.6192398071
intensity: 31.9783172607
---
header: 
  seq: 3115559
  stamp: 
    secs: 1561686159
    nsecs: 354109535
  frame_id: "ti_mmwave"
point_id: 2
x: 0.029296875
y: -0.119140625
z: -0.005859375
range: 0.130730912089
velocity: 0.0
doppler_bin: 8
bearing: -76.1849746704
intensity: 30.2036132812
---
header: 
  seq: 3115560
  stamp: 
    secs: 1561686159
    nsecs: 354122675
  frame_id: "ti_mmwave"
point_id: 3
x: 0.056640625
y: -0.154296875
z: 0.005859375
range: 0.174307882786
velocity: 0.0
doppler_bin: 8
bearing: -69.8423843384
intensity: 25.5022830963
---
header: 
  seq: 3115561
  stamp: 
    secs: 1561686159
    nsecs: 354185023
  frame_id: "ti_mmwave"
point_id: 4
x: 0.36328125
y: -0.080078125
z: -1.212890625
range: 1.35088610649
velocity: 0.0
doppler_bin: 8
bearing: -12.4309225082
intensity: 22.0139713287
---
header: 
  seq: 3115562
  stamp: 
    secs: 1561686159
    nsecs: 354198422
  frame_id: "ti_mmwave"
point_id: 5
x: 0.29296875
y: -0.041015625
z: 1.275390625
range: 1.39446306229
velocity: 0.0
doppler_bin: 8
bearing: -7.96961069107
intensity: 23.2633590698
---
header: 
  seq: 3115563
  stamp: 
    secs: 1561686159
    nsecs: 354211627
  frame_id: "ti_mmwave"
point_id: 6
x: 0.451171875
y: -0.0
z: 1.271484375
range: 1.43804001808
velocity: 0.0
doppler_bin: 8
bearing: -0.0
intensity: 21.9589958191
---
header: 
  seq: 3115564
  stamp: 
    secs: 1561686159
    nsecs: 354223435
  frame_id: "ti_mmwave"
point_id: 7
x: 1.603515625
y: 0.26171875
z: -0.4140625
range: 1.78665578365
velocity: 0.0
doppler_bin: 8
bearing: 9.26982784271
intensity: 26.532125473
---
header: 
  seq: 3115565
  stamp: 
    secs: 1561686159
    nsecs: 354238411
  frame_id: "ti_mmwave"
point_id: 8
x: 2.544921875
y: -0.263671875
z: 1.189453125
range: 3.00681090355
velocity: 0.0
doppler_bin: 8
bearing: -5.91514253616
intensity: 29.3751792908
---
header: 
  seq: 3115566
  stamp: 
    secs: 1561686159
    nsecs: 354251614
  frame_id: "ti_mmwave"
point_id: 9
x: 2.60546875
y: -0.267578125
z: 1.15625
range: 3.05038785934
velocity: 0.0
doppler_bin: 8
bearing: -5.86364221573
intensity: 32.7300109863
---
header: 
  seq: 3115567
  stamp: 
    secs: 1561686159
    nsecs: 354260811
  frame_id: "ti_mmwave"
point_id: 10
x: 2.662109375
y: -0.181640625
z: 1.14453125
range: 3.09396481514
velocity: 0.0
doppler_bin: 8
bearing: -3.90334677696
intensity: 31.9755630493
---
header: 
  seq: 3115568
  stamp: 
    secs: 1561686159
    nsecs: 354279612
  frame_id: "ti_mmwave"
point_id: 11
x: 4.408203125
y: -0.287109375
z: 1.21875
range: 4.88062095642
velocity: 0.0
doppler_bin: 8
bearing: -3.72645139694
intensity: 30.8707122803
---
header: 
  seq: 3115569
  stamp: 
    secs: 1561686159
    nsecs: 354337894
  frame_id: "ti_mmwave"
point_id: 12
x: 4.435546875
y: -0.2890625
z: 1.265625
range: 4.9241976738
velocity: 0.0
doppler_bin: 8
bearing: -3.72866654396
intensity: 30.4649524689
---
header: 
  seq: 3115570
  stamp: 
    secs: 1561686159
    nsecs: 354355310
  frame_id: "ti_mmwave"
point_id: 13
x: 4.748046875
y: -0.44921875
z: -0.40234375
range: 5.09850549698
velocity: 0.0
doppler_bin: 8
bearing: -5.40473842621
intensity: 33.1513023376
---
header: 
  seq: 3115571
  stamp: 
    secs: 1561686159
    nsecs: 354367243
  frame_id: "ti_mmwave"
point_id: 14
x: 4.794921875
y: -0.453125
z: -0.3359375
range: 5.14208269119
velocity: 0.0
doppler_bin: 8
bearing: -5.39847755432
intensity: 33.4596138
---
header: 
  seq: 3115572
  stamp: 
    secs: 1561686159
    nsecs: 354381632
  frame_id: "ti_mmwave"
point_id: 15
x: 4.845703125
y: -0.45703125
z: 0.017578125
range: 5.18565940857
velocity: 0.0
doppler_bin: 8
bearing: -5.38801622391
intensity: 29.7680835724
---
header: 
  seq: 3115573
  stamp: 
    secs: 1561686159
    nsecs: 354395335
  frame_id: "ti_mmwave"
point_id: 16
x: 4.83984375
y: -0.306640625
z: 0.755859375
range: 5.22923660278
velocity: 0.0
doppler_bin: 8
bearing: -3.62527441978
intensity: 30.1367969513
---
header: 
  seq: 3115574
  stamp: 
    secs: 1561686159
    nsecs: 354407511
  frame_id: "ti_mmwave"
point_id: 17
x: 4.87109375
y: -0.30859375
z: 0.822265625
range: 5.27281332016
velocity: 0.0
doppler_bin: 8
bearing: -3.62496066093
intensity: 30.7990455627
---
header: 
  seq: 3115575
  stamp: 
    secs: 1561686159
    nsecs: 354420114
  frame_id: "ti_mmwave"
point_id: 18
x: 1.3046875
y: 0.294921875
z: 0.18359375
range: 1.43804001808
velocity: 1.22933733463
doppler_bin: 10
bearing: 12.7375183105
intensity: 22.900346756
---
header: 
  seq: 3115576
  stamp: 
    secs: 1561686159
    nsecs: 354432031
  frame_id: "ti_mmwave"
point_id: 19
x: 1.34765625
y: 0.3046875
z: 0.162109375
range: 1.48161697388
velocity: 1.22933733463
doppler_bin: 10
bearing: 12.7396469116
intensity: 26.1909332275
---
header: 
  seq: 3115577
  stamp: 
    secs: 1561686159
    nsecs: 354445361
  frame_id: "ti_mmwave"
point_id: 20
x: 1.388671875
y: 0.3125
z: 0.15625
range: 1.52519392967
velocity: 1.22933733463
doppler_bin: 10
bearing: 12.6823015213
intensity: 25.7287158966
---
header: 
  seq: 3115578
  stamp: 
    secs: 1561686159
    nsecs: 354460994
  frame_id: "ti_mmwave"
point_id: 21
x: 1.427734375
y: 0.322265625
z: 0.154296875
range: 1.56877088547
velocity: 1.22933733463
doppler_bin: 10
bearing: 12.7195444107
intensity: 21.6435279846
---
header: 
  seq: 3115579
  stamp: 
    secs: 1561686159
    nsecs: 354563305
  frame_id: "ti_mmwave"
point_id: 23
x: 0.041015625
y: -0.033203125
z: 0.0625
range: 0.0871539413929
velocity: 0.0
doppler_bin: 8
bearing: -38.9909973145
intensity: 30.1494026184
---
header: 
  seq: 3115580
  stamp: 
    secs: 1561686159
    nsecs: 354592197
  frame_id: "ti_mmwave"
point_id: 24
x: 0.044921875
y: -0.046875
z: 0.103515625
range: 0.130730912089
velocity: 0.0
doppler_bin: 8
bearing: -46.218875885
intensity: 29.0525608063
---
header: 
  seq: 3115581
  stamp: 
    secs: 1561686159
    nsecs: 354605403
  frame_id: "ti_mmwave"
point_id: 26
x: 1.216796875
y: 0.357421875
z: 0.037109375
range: 1.35088610649
velocity: 0.0
doppler_bin: 8
bearing: 16.3696231842
intensity: 19.2941894531
---
header: 
  seq: 3115582
  stamp: 
    secs: 1561686159
    nsecs: 412479691
  frame_id: "ti_mmwave"
point_id: 0
x: 0.01171875
y: -0.0390625
z: -0.0078125
range: 0.0435769706964
velocity: 0.0
doppler_bin: 8
bearing: -73.3007583618
intensity: 30.7408466339
---
header: 
  seq: 3115583
  stamp: 
    secs: 1561686159
    nsecs: 412555411
  frame_id: "ti_mmwave"
point_id: 1
x: 0.017578125
y: -0.080078125
z: -0.0078125
range: 0.0871539413929
velocity: 0.0
doppler_bin: 8
bearing: -77.6192398071
intensity: 31.9783172607
---
header: 
  seq: 3115584
  stamp: 
    secs: 1561686159
    nsecs: 412566887
  frame_id: "ti_mmwave"
point_id: 2
x: 0.029296875
y: -0.119140625
z: -0.00390625
range: 0.130730912089
velocity: 0.0
doppler_bin: 8
bearing: -76.1849746704
intensity: 30.2077541351
---
header: 
  seq: 3115585
  stamp: 
    secs: 1561686159
    nsecs: 412577749
  frame_id: "ti_mmwave"
point_id: 3
x: 0.056640625
y: -0.154296875
z: 0.005859375
range: 0.174307882786
velocity: 0.0
doppler_bin: 8
bearing: -69.8423843384
intensity: 25.5144996643
---
header: 
  seq: 3115586
  stamp: 
    secs: 1561686159
    nsecs: 412585829
  frame_id: "ti_mmwave"
point_id: 4
x: 0.328125
y: -0.080078125
z: -1.22265625
range: 1.35088610649
velocity: 0.0
doppler_bin: 8
bearing: -13.7148113251
intensity: 21.9865703583
---
header: 
  seq: 3115587
  stamp: 
    secs: 1561686159
    nsecs: 412595955
  frame_id: "ti_mmwave"
point_id: 5
x: 0.306640625
y: -0.041015625
z: 1.271484375
range: 1.39446306229
velocity: 0.0
doppler_bin: 8
bearing: -7.6185464859
intensity: 23.2633590698
---
header: 
  seq: 3115588
  stamp: 
    secs: 1561686159
    nsecs: 412603966
  frame_id: "ti_mmwave"
point_id: 6
x: 0.412109375
y: -0.0
z: 1.28515625
range: 1.43804001808
velocity: 0.0
doppler_bin: 8
bearing: -0.0
intensity: 21.9312458038
---
header: 
  seq: 3115589
  stamp: 
    secs: 1561686159
    nsecs: 412612284
  frame_id: "ti_mmwave"
point_id: 7
x: 1.67578125
y: 0.052734375
z: -0.017578125
range: 1.78665578365
velocity: 0.0
doppler_bin: 8
bearing: 1.80241930485
intensity: 26.9284687042
---
header: 
  seq: 3115590
  stamp: 
    secs: 1561686159
    nsecs: 412620247
  frame_id: "ti_mmwave"
point_id: 8
x: 1.7109375
y: 0.16015625
z: 0.0390625
range: 1.83023273945
velocity: 0.0
doppler_bin: 8
bearing: 5.34772062302
intensity: 27.5434837341
---
header: 
  seq: 3115591
  stamp: 
    secs: 1561686159
    nsecs: 412628317
  frame_id: "ti_mmwave"
point_id: 9
x: 2.5546875
y: -0.263671875
z: 1.171875
range: 3.00681090355
velocity: 0.0
doppler_bin: 8
bearing: -5.89269018173
intensity: 29.4101428986
---
header: 
  seq: 3115592
  stamp: 
    secs: 1561686159
    nsecs: 412637966
  frame_id: "ti_mmwave"
point_id: 10
x: 2.619140625
y: -0.1796875
z: 1.14453125
range: 3.05038785934
velocity: 0.0
doppler_bin: 8
bearing: -3.9246571064
intensity: 32.7623214722
---
header: 
  seq: 3115593
  stamp: 
    secs: 1561686159
    nsecs: 412646395
  frame_id: "ti_mmwave"
point_id: 11
x: 2.66015625
y: -0.181640625
z: 1.150390625
range: 3.09396481514
velocity: 0.0
doppler_bin: 8
bearing: -3.90620398521
intensity: 31.994808197
---
header: 
  seq: 3115594
  stamp: 
    secs: 1561686159
    nsecs: 412654499
  frame_id: "ti_mmwave"
point_id: 12
x: 4.392578125
y: -0.287109375
z: 1.267578125
range: 4.88062095642
velocity: 0.0
doppler_bin: 8
bearing: -3.73966956139
intensity: 30.8026561737
---
header: 
  seq: 3115595
  stamp: 
    secs: 1561686159
    nsecs: 412663637
  frame_id: "ti_mmwave"
point_id: 13
x: 4.41015625
y: -0.2890625
z: 1.35546875
range: 4.9241976738
velocity: 0.0
doppler_bin: 8
bearing: -3.75007224083
intensity: 30.4414768219
---
header: 
  seq: 3115596
  stamp: 
    secs: 1561686159
    nsecs: 412672098
  frame_id: "ti_mmwave"
point_id: 14
x: 4.697265625
y: -0.296875
z: -0.603515625
range: 5.0549287796
velocity: 0.0
doppler_bin: 8
bearing: -3.61637854576
intensity: 29.4546852112
---
header: 
  seq: 3115597
  stamp: 
    secs: 1561686159
    nsecs: 412680583
  frame_id: "ti_mmwave"
point_id: 15
x: 4.740234375
y: -0.44921875
z: -0.494140625
range: 5.09850549698
velocity: 0.0
doppler_bin: 8
bearing: -5.41359329224
intensity: 33.0920410156
---
header: 
  seq: 3115598
  stamp: 
    secs: 1561686159
    nsecs: 412691648
  frame_id: "ti_mmwave"
point_id: 16
x: 4.794921875
y: -0.453125
z: -0.328125
range: 5.14208269119
velocity: 0.0
doppler_bin: 8
bearing: -5.39847755432
intensity: 33.3284225464
---
header: 
  seq: 3115599
  stamp: 
    secs: 1561686159
    nsecs: 412868862
  frame_id: "ti_mmwave"
point_id: 17
x: 4.85546875
y: -0.3046875
z: 0.138671875
range: 5.18565940857
velocity: 0.0
doppler_bin: 8
bearing: -3.59068250656
intensity: 29.7543182373
---
header: 
  seq: 3115600
  stamp: 
    secs: 1561686159
    nsecs: 412887804
  frame_id: "ti_mmwave"
point_id: 18
x: 4.806640625
y: -0.4609375
z: 0.880859375
range: 5.22923660278
velocity: 0.0
doppler_bin: 8
bearing: -5.47768449783
intensity: 30.1072387695
---
header: 
  seq: 3115601
  stamp: 
    secs: 1561686159
    nsecs: 412896278
  frame_id: "ti_mmwave"
point_id: 19
x: 4.833984375
y: -0.46484375
z: 0.95703125
range: 5.27281332016
velocity: 0.0
doppler_bin: 8
bearing: -5.49276590347
intensity: 30.9236965179
---
header: 
  seq: 3115602
  stamp: 
    secs: 1561686159
    nsecs: 412904435
  frame_id: "ti_mmwave"
point_id: 20
x: 1.7265625
y: 0.220703125
z: 0.251953125
range: 1.87380969524
velocity: 0.614668667316
doppler_bin: 9
bearing: 7.28450345993
intensity: 26.0745506287
---
header: 
  seq: 3115603
  stamp: 
    secs: 1561686159
    nsecs: 412914320
  frame_id: "ti_mmwave"
point_id: 22
x: 0.041015625
y: -0.033203125
z: 0.0625
range: 0.0871539413929
velocity: 0.0
doppler_bin: 8
bearing: -38.9909973145
intensity: 30.1494026184
---
header: 
  seq: 3115604
  stamp: 
    secs: 1561686159
    nsecs: 412940674
  frame_id: "ti_mmwave"
point_id: 23
x: 0.044921875
y: -0.046875
z: 0.103515625
range: 0.130730912089
velocity: 0.0
doppler_bin: 8
bearing: -46.218875885
intensity: 29.0525608063
---
header: 
  seq: 3115605
  stamp: 
    secs: 1561686159
    nsecs: 412957734
  frame_id: "ti_mmwave"
point_id: 25
x: 1.216796875
y: 0.357421875
z: 0.04296875
range: 1.35088610649
velocity: 0.0
doppler_bin: 8
bearing: 16.3696231842
intensity: 19.2427921295
---
header: 
  seq: 3115606
  stamp: 
    secs: 1561686159
    nsecs: 472387590
  frame_id: "ti_mmwave"
point_id: 0
x: 0.01171875
y: -0.0390625
z: -0.0078125
range: 0.0435769706964
velocity: 0.0
doppler_bin: 8
bearing: -73.3007583618
intensity: 30.7408466339
---
header: 
  seq: 3115607
  stamp: 
    secs: 1561686159
    nsecs: 472461089
  frame_id: "ti_mmwave"
point_id: 1
x: 0.017578125
y: -0.080078125
z: -0.0078125
range: 0.0871539413929
velocity: 0.0
doppler_bin: 8
bearing: -77.6192398071
intensity: 31.9783172607
---
header: 
  seq: 3115608
  stamp: 
    secs: 1561686159
    nsecs: 472471892
  frame_id: "ti_mmwave"
point_id: 2
x: 0.029296875
y: -0.119140625
z: -0.00390625
range: 0.130730912089
velocity: 0.0
doppler_bin: 8
bearing: -76.1849746704
intensity: 30.2077541351
---
header: 
  seq: 3115609
  stamp: 
    secs: 1561686159
    nsecs: 472480555
  frame_id: "ti_mmwave"
point_id: 3
x: 0.056640625
y: -0.154296875
z: 0.005859375
range: 0.174307882786
velocity: 0.0
doppler_bin: 8
bearing: -69.8423843384
intensity: 25.5022830963
---
header: 
  seq: 3115610
  stamp: 
    secs: 1561686159
    nsecs: 472491274
  frame_id: "ti_mmwave"
point_id: 4
x: 0.37109375
y: -0.080078125
z: -1.208984375
range: 1.35088610649
velocity: 0.0
doppler_bin: 8
bearing: -12.177107811
intensity: 21.9865703583
---
header: 
  seq: 3115611
  stamp: 
    secs: 1561686159
    nsecs: 472500838
  frame_id: "ti_mmwave"
point_id: 5
x: 0.28515625
y: -0.041015625
z: 1.27734375
range: 1.39446306229
velocity: 0.0
doppler_bin: 8
bearing: -8.18503570557
intensity: 23.2633590698
---
header: 
  seq: 3115612
  stamp: 
    secs: 1561686159
    nsecs: 472508909
  frame_id: "ti_mmwave"
point_id: 6
x: 0.404296875
y: -0.0
z: 1.2890625
range: 1.43804001808
velocity: 0.0
doppler_bin: 8
bearing: -0.0
intensity: 21.9312458038
---
header: 
  seq: 3115613
  stamp: 
    secs: 1561686159
    nsecs: 472517888
  frame_id: "ti_mmwave"
point_id: 7
x: 1.6328125
y: 0.05078125
z: -0.091796875
range: 1.74307882786
velocity: 0.0
doppler_bin: 8
bearing: 1.78135192394
intensity: 29.0902080536
---
header: 
  seq: 3115614
  stamp: 
    secs: 1561686159
    nsecs: 472526055
  frame_id: "ti_mmwave"
point_id: 8
x: 1.673828125
y: 0.052734375
z: -0.107421875
range: 1.78665578365
velocity: 0.0
doppler_bin: 8
bearing: 1.80452108383
intensity: 28.5913829803
---
header: 
  seq: 3115615
  stamp: 
    secs: 1561686159
    nsecs: 472533832
  frame_id: "ti_mmwave"
point_id: 9
x: 2.544921875
y: -0.263671875
z: 1.19140625
range: 3.00681090355
velocity: 0.0
doppler_bin: 8
bearing: -5.91514253616
intensity: 29.3449840546
---
header: 
  seq: 3115616
  stamp: 
    secs: 1561686159
    nsecs: 472542947
  frame_id: "ti_mmwave"
point_id: 10
x: 2.607421875
y: -0.267578125
z: 1.15234375
range: 3.05038785934
velocity: 0.0
doppler_bin: 8
bearing: -5.85928010941
intensity: 32.704460144
---
header: 
  seq: 3115617
  stamp: 
    secs: 1561686159
    nsecs: 472552601
  frame_id: "ti_mmwave"
point_id: 11
x: 2.662109375
y: -0.271484375
z: 1.126953125
range: 3.09396481514
velocity: 0.0
doppler_bin: 8
bearing: -5.82294607162
intensity: 31.8920955658
---
header: 
  seq: 3115618
  stamp: 
    secs: 1561686159
    nsecs: 472561310
  frame_id: "ti_mmwave"
point_id: 12
x: 4.396484375
y: -0.287109375
z: 1.25390625
range: 4.88062095642
velocity: 0.0
doppler_bin: 8
bearing: -3.73635601997
intensity: 30.979511261
---
header: 
  seq: 3115619
  stamp: 
    secs: 1561686159
    nsecs: 472570880
  frame_id: "ti_mmwave"
point_id: 13
x: 4.38671875
y: -0.2890625
z: 1.4296875
range: 4.9241976738
velocity: 0.0
doppler_bin: 8
bearing: -3.77005052567
intensity: 30.5076637268
---
header: 
  seq: 3115620
  stamp: 
    secs: 1561686159
    nsecs: 472579846
  frame_id: "ti_mmwave"
point_id: 14
x: 4.740234375
y: -0.44921875
z: -0.486328125
range: 5.09850549698
velocity: 0.0
doppler_bin: 8
bearing: -5.41359329224
intensity: 33.1701812744
---
header: 
  seq: 3115621
  stamp: 
    secs: 1561686159
    nsecs: 472591034
  frame_id: "ti_mmwave"
point_id: 15
x: 4.79296875
y: -0.453125
z: -0.35546875
range: 5.14208269119
velocity: 0.0
doppler_bin: 8
bearing: -5.40066432953
intensity: 33.4752502441
---
header: 
  seq: 3115622
  stamp: 
    secs: 1561686159
    nsecs: 472750881
  frame_id: "ti_mmwave"
point_id: 16
x: 4.857421875
y: -0.3046875
z: 0.08984375
range: 5.18565940857
velocity: 0.0
doppler_bin: 8
bearing: -3.58924269676
intensity: 30.0689373016
---
header: 
  seq: 3115623
  stamp: 
    secs: 1561686159
    nsecs: 472769999
  frame_id: "ti_mmwave"
point_id: 17
x: 4.84765625
y: -0.306640625
z: 0.70703125
range: 5.22923660278
velocity: 0.0
doppler_bin: 8
bearing: -3.61944746971
intensity: 30.3662891388
---
header: 
  seq: 3115624
  stamp: 
    secs: 1561686159
    nsecs: 472781684
  frame_id: "ti_mmwave"
point_id: 18
x: 4.876953125
y: -0.30859375
z: 0.783203125
range: 5.27281332016
velocity: 0.0
doppler_bin: 8
bearing: -3.62061715126
intensity: 30.8884449005
---
header: 
  seq: 3115625
  stamp: 
    secs: 1561686159
    nsecs: 472790535
  frame_id: "ti_mmwave"
point_id: 19
x: 1.396484375
y: 0.3125
z: 0.064453125
range: 1.52519392967
velocity: 0.614668667316
doppler_bin: 9
bearing: 12.6136274338
intensity: 23.2221927643
---
header: 
  seq: 3115626
  stamp: 
    secs: 1561686159
    nsecs: 472798534
  frame_id: "ti_mmwave"
point_id: 20
x: 1.43359375
y: 0.322265625
z: 0.091796875
range: 1.56877088547
velocity: 0.614668667316
doppler_bin: 9
bearing: 12.6692380905
intensity: 24.014005661
---
header: 
  seq: 3115627
  stamp: 
    secs: 1561686159
    nsecs: 472808601
  frame_id: "ti_mmwave"
point_id: 21
x: 1.681640625
y: 0.267578125
z: 0.232421875
range: 1.83023273945
velocity: 0.614668667316
doppler_bin: 9
bearing: 9.04095840454
intensity: 28.1090431213
---
header: 
  seq: 3115628
  stamp: 
    secs: 1561686159
    nsecs: 472848805
  frame_id: "ti_mmwave"
point_id: 22
x: 1.73046875
y: 0.220703125
z: 0.228515625
range: 1.87380969524
velocity: 0.614668667316
doppler_bin: 9
bearing: 7.26823568344
intensity: 26.6558094025
---
header: 
  seq: 3115629
  stamp: 
    secs: 1561686159
    nsecs: 472860476
  frame_id: "ti_mmwave"
point_id: 24
x: 0.041015625
y: -0.033203125
z: 0.0625
range: 0.0871539413929
velocity: 0.0
doppler_bin: 8
bearing: -38.9909973145
intensity: 30.1535968781
---
header: 
  seq: 3115630
  stamp: 
    secs: 1561686159
    nsecs: 472868555
  frame_id: "ti_mmwave"
point_id: 25
x: 0.044921875
y: -0.046875
z: 0.103515625
range: 0.130730912089
velocity: 0.0
doppler_bin: 8
bearing: -46.218875885
intensity: 29.0579586029
---
header: 
  seq: 3115631
  stamp: 
    secs: 1561686159
    nsecs: 472880263
  frame_id: "ti_mmwave"
point_id: 27
x: 1.21484375
y: 0.357421875
z: 0.0625
range: 1.35088610649
velocity: 0.0
doppler_bin: 8
bearing: 16.3945274353
intensity: 19.2427921295
---
header: 
  seq: 3115632
  stamp: 
    secs: 1561686159
    nsecs: 473942767
  frame_id: "ti_mmwave"
point_id: 0
x: 0.01171875
y: -0.0390625
z: -0.0078125
range: 0.0435769706964
velocity: 0.0
doppler_bin: 8
bearing: -73.3007583618
intensity: 30.7371826172
---
header: 
  seq: 3115633
  stamp: 
    secs: 1561686159
    nsecs: 474010233
  frame_id: "ti_mmwave"
point_id: 1
x: 0.017578125
y: -0.080078125
z: -0.0078125
range: 0.0871539413929
velocity: 0.0
doppler_bin: 8
bearing: -77.6192398071
intensity: 31.9755630493
---
header: 
  seq: 3115634
  stamp: 
    secs: 1561686159
    nsecs: 474030548
  frame_id: "ti_mmwave"
point_id: 2
x: 0.029296875
y: -0.119140625
z: -0.00390625
range: 0.130730912089
velocity: 0.0
doppler_bin: 8
bearing: -76.1849746704
intensity: 30.2036132812
---
header: 
  seq: 3115635
  stamp: 
    secs: 1561686159
    nsecs: 474056121
  frame_id: "ti_mmwave"
point_id: 3
x: 0.056640625
y: -0.154296875
z: 0.005859375
range: 0.174307882786
velocity: 0.0
doppler_bin: 8
bearing: -69.8423843384
intensity: 25.490032196
---
header: 
  seq: 3115636
  stamp: 
    secs: 1561686159
    nsecs: 474111696
  frame_id: "ti_mmwave"
point_id: 4
x: 0.341796875
y: -0.080078125
z: -1.21875
range: 1.35088610649
velocity: 0.0
doppler_bin: 8
bearing: -13.1857614517
intensity: 21.9865703583
---
header: 
  seq: 3115637
  stamp: 
    secs: 1561686159
    nsecs: 474127226
  frame_id: "ti_mmwave"
point_id: 5
x: 0.2890625
y: -0.041015625
z: 1.275390625
range: 1.39446306229
velocity: 0.0
doppler_bin: 8
bearing: -8.0758972168
intensity: 23.2633590698
---
header: 
  seq: 3115638
  stamp: 
    secs: 1561686159
    nsecs: 474138963
  frame_id: "ti_mmwave"
point_id: 6
x: 0.48828125
y: -0.04296875
z: 1.2578125
range: 1.43804001808
velocity: 0.0
doppler_bin: 8
bearing: -5.02907323837
intensity: 21.9865703583
---
header: 
  seq: 3115639
  stamp: 
    secs: 1561686159
    nsecs: 474150284
  frame_id: "ti_mmwave"
point_id: 7
x: 2.54296875
y: -0.263671875
z: 1.1953125
range: 3.00681090355
velocity: 0.0
doppler_bin: 8
bearing: -5.91965341568
intensity: 29.4001808167
---
header: 
  seq: 3115640
  stamp: 
    secs: 1561686159
    nsecs: 474161456
  frame_id: "ti_mmwave"
point_id: 8
x: 2.599609375
y: -0.267578125
z: 1.169921875
range: 3.05038785934
velocity: 0.0
doppler_bin: 8
bearing: -5.87676620483
intensity: 32.7230567932
---
header: 
  seq: 3115641
  stamp: 
    secs: 1561686159
    nsecs: 474172942
  frame_id: "ti_mmwave"
point_id: 9
x: 2.65625
y: -0.181640625
z: 1.16015625
range: 3.09396481514
velocity: 0.0
doppler_bin: 8
bearing: -3.91193032265
intensity: 31.9200954437
---
header: 
  seq: 3115642
  stamp: 
    secs: 1561686159
    nsecs: 474185197
  frame_id: "ti_mmwave"
point_id: 10
x: 4.39453125
y: -0.287109375
z: 1.26171875
range: 4.88062095642
velocity: 0.0
doppler_bin: 8
bearing: -3.73801183701
intensity: 31.020904541
---
header: 
  seq: 3115643
  stamp: 
    secs: 1561686159
    nsecs: 474198914
  frame_id: "ti_mmwave"
point_id: 11
x: 4.37890625
y: -0.2890625
z: 1.451171875
range: 4.9241976738
velocity: 0.0
doppler_bin: 8
bearing: -3.77675747871
intensity: 30.5804615021
---
header: 
  seq: 3115644
  stamp: 
    secs: 1561686159
    nsecs: 474327906
  frame_id: "ti_mmwave"
point_id: 12
x: 4.73828125
y: -0.44921875
z: -0.498046875
range: 5.09850549698
velocity: 0.0
doppler_bin: 8
bearing: -5.4158115387
intensity: 33.203540802
---
header: 
  seq: 3115645
  stamp: 
    secs: 1561686159
    nsecs: 474346476
  frame_id: "ti_mmwave"
point_id: 13
x: 4.79296875
y: -0.453125
z: -0.359375
range: 5.14208269119
velocity: 0.0
doppler_bin: 8
bearing: -5.40066432953
intensity: 33.6361198425
---
header: 
  seq: 3115646
  stamp: 
    secs: 1561686159
    nsecs: 474355767
  frame_id: "ti_mmwave"
point_id: 14
x: 4.857421875
y: -0.3046875
z: 0.052734375
range: 5.18565940857
velocity: 0.0
doppler_bin: 8
bearing: -3.58924269676
intensity: 30.6370849609
---
header: 
  seq: 3115647
  stamp: 
    secs: 1561686159
    nsecs: 474415384
  frame_id: "ti_mmwave"
point_id: 15
x: 4.8515625
y: -0.306640625
z: 0.67578125
range: 5.22923660278
velocity: 0.0
doppler_bin: 8
bearing: -3.61654114723
intensity: 30.5576038361
---
header: 
  seq: 3115648
  stamp: 
    secs: 1561686159
    nsecs: 474468024
  frame_id: "ti_mmwave"
point_id: 16
x: 4.84375
y: -0.46484375
z: 0.912109375
range: 5.27281332016
velocity: 0.0
doppler_bin: 8
bearing: -5.48175907135
intensity: 31.0105934143
---
header: 
  seq: 3115649
  stamp: 
    secs: 1561686159
    nsecs: 474482802
  frame_id: "ti_mmwave"
point_id: 17
x: 1.615234375
y: 0.05078125
z: 0.25390625
range: 1.74307882786
velocity: 0.614668667316
doppler_bin: 9
bearing: 1.80072510242
intensity: 26.1172332764
---
header: 
  seq: 3115650
  stamp: 
    secs: 1561686159
    nsecs: 474509172
  frame_id: "ti_mmwave"
point_id: 19
x: 0.041015625
y: -0.033203125
z: 0.0625
range: 0.0871539413929
velocity: 0.0
doppler_bin: 8
bearing: -38.9909973145
intensity: 30.1494026184
---
header: 
  seq: 3115651
  stamp: 
    secs: 1561686159
    nsecs: 474570770
  frame_id: "ti_mmwave"
point_id: 20
x: 0.044921875
y: -0.046875
z: 0.103515625
range: 0.130730912089
velocity: 0.0
doppler_bin: 8
bearing: -46.218875885
intensity: 29.0525608063
---
header: 
  seq: 3115652
  stamp: 
    secs: 1561686159
    nsecs: 474589668
  frame_id: "ti_mmwave"
point_id: 22
x: 1.21484375
y: 0.357421875
z: 0.078125
range: 1.35088610649
velocity: 0.0
doppler_bin: 8
bearing: 16.3945274353
intensity: 19.2941894531
---
header: 
  seq: 3115653
  stamp: 
    secs: 1561686159
    nsecs: 532383048
  frame_id: "ti_mmwave"
point_id: 0
x: 0.01171875
y: -0.0390625
z: -0.0078125
range: 0.0435769706964
velocity: 0.0
doppler_bin: 8
bearing: -73.3007583618
intensity: 30.7371826172
---
header: 
  seq: 3115654
  stamp: 
    secs: 1561686159
    nsecs: 532460921
  frame_id: "ti_mmwave"
point_id: 1
x: 0.017578125
y: -0.080078125
z: -0.0078125
range: 0.0871539413929
velocity: 0.0
doppler_bin: 8
bearing: -77.6192398071
intensity: 31.9783172607
---
header: 
  seq: 3115655
  stamp: 
    secs: 1561686159
    nsecs: 532477686
  frame_id: "ti_mmwave"
point_id: 2
x: 0.029296875
y: -0.119140625
z: -0.005859375
range: 0.130730912089
velocity: 0.0
doppler_bin: 8
bearing: -76.1849746704
intensity: 30.2118930817
---
header: 
  seq: 3115656
  stamp: 
    secs: 1561686159
    nsecs: 532492356
  frame_id: "ti_mmwave"
point_id: 3
x: 0.056640625
y: -0.154296875
z: 0.005859375
range: 0.174307882786
velocity: 0.0
doppler_bin: 8
bearing: -69.8423843384
intensity: 25.5144996643
---
header: 
  seq: 3115657
  stamp: 
    secs: 1561686159
    nsecs: 532506727
  frame_id: "ti_mmwave"
point_id: 4
x: 0.3515625
y: -0.080078125
z: -1.216796875
range: 1.35088610649
velocity: 0.0
doppler_bin: 8
bearing: -12.83177948
intensity: 22.0412006378
---
header: 
  seq: 3115658
  stamp: 
    secs: 1561686159
    nsecs: 532581548
  frame_id: "ti_mmwave"
point_id: 5
x: 0.3125
y: -0.041015625
z: 1.271484375
range: 1.39446306229
velocity: 0.0
doppler_bin: 8
bearing: -7.47732973099
intensity: 23.3041381836
---
header: 
  seq: 3115659
  stamp: 
    secs: 1561686159
    nsecs: 532598474
  frame_id: "ti_mmwave"
point_id: 6
x: 0.427734375
y: -0.0
z: 1.279296875
range: 1.43804001808
velocity: 0.0
doppler_bin: 8
bearing: -0.0
intensity: 21.9312458038
---
header: 
  seq: 3115660
  stamp: 
    secs: 1561686159
    nsecs: 532609624
  frame_id: "ti_mmwave"
point_id: 7
x: 2.556640625
y: -0.263671875
z: 1.16796875
range: 3.00681090355
velocity: 0.0
doppler_bin: 8
bearing: -5.88822031021
intensity: 29.4743366241
---
header: 
  seq: 3115661
  stamp: 
    secs: 1561686159
    nsecs: 532620374
  frame_id: "ti_mmwave"
point_id: 8
x: 2.6171875
y: -0.1796875
z: 1.150390625
range: 3.05038785934
velocity: 0.0
doppler_bin: 8
bearing: -3.9275765419
intensity: 32.7623214722
---
header: 
  seq: 3115662
  stamp: 
    secs: 1561686159
    nsecs: 532631151
  frame_id: "ti_mmwave"
point_id: 9
x: 2.65625
