header: 
  seq: 3098007
  stamp: 
    secs: 1561686135
    nsecs: 292276863
  frame_id: "ti_mmwave"
point_id: 0
x: 0.01171875
y: -0.0390625
z: -0.0078125
range: 0.0435769706964
velocity: 0.0
doppler_bin: 8
bearing: -73.3007583618
intensity: 30.7335166931
---
header: 
  seq: 3098008
  stamp: 
    secs: 1561686135
    nsecs: 292351189
  frame_id: "ti_mmwave"
point_id: 1
x: 0.017578125
y: -0.080078125
z: -0.0078125
range: 0.0871539413929
velocity: 0.0
doppler_bin: 8
bearing: -77.6192398071
intensity: 31.9783172607
---
header: 
  seq: 3098009
  stamp: 
    secs: 1561686135
    nsecs: 292364735
  frame_id: "ti_mmwave"
point_id: 2
x: 0.029296875
y: -0.119140625
z: -0.00390625
range: 0.130730912089
velocity: 0.0
doppler_bin: 8
bearing: -76.1849746704
intensity: 30.2077541351
---
header: 
  seq: 3098010
  stamp: 
    secs: 1561686135
    nsecs: 292374413
  frame_id: "ti_mmwave"
point_id: 3
x: 0.056640625
y: -0.154296875
z: 0.005859375
range: 0.174307882786
velocity: 0.0
doppler_bin: 8
bearing: -69.8423843384
intensity: 25.5022830963
---
header: 
  seq: 3098011
  stamp: 
    secs: 1561686135
    nsecs: 292383206
  frame_id: "ti_mmwave"
point_id: 4
x: 0.337890625
y: -0.080078125
z: -1.220703125
range: 1.35088610649
velocity: 0.0
doppler_bin: 8
bearing: -13.332783699
intensity: 22.0682582855
---
header: 
  seq: 3098012
  stamp: 
    secs: 1561686135
    nsecs: 292392502
  frame_id: "ti_mmwave"
point_id: 5
x: 0.30078125
y: -0.041015625
z: 1.2734375
range: 1.39446306229
velocity: 0.0
doppler_bin: 8
bearing: -7.76516628265
intensity: 23.3041381836
---
header: 
  seq: 3098013
  stamp: 
    secs: 1561686135
    nsecs: 292401184
  frame_id: "ti_mmwave"
point_id: 6
x: 0.42578125
y: -0.0
z: 1.28125
range: 1.43804001808
velocity: 0.0
doppler_bin: 8
bearing: -0.0
intensity: 21.9589958191
---
header: 
  seq: 3098014
  stamp: 
    secs: 1561686135
    nsecs: 292409899
  frame_id: "ti_mmwave"
point_id: 7
x: 1.654296875
y: -0.26171875
z: -0.076171875
range: 1.78665578365
velocity: 0.0
doppler_bin: 8
bearing: -8.98999404907
intensity: 26.3748970032
---
header: 
  seq: 3098015
  stamp: 
    secs: 1561686135
    nsecs: 292418676
  frame_id: "ti_mmwave"
point_id: 8
x: 1.7421875
y: -0.44921875
z: 0.064453125
range: 1.91738677025
velocity: 0.0
doppler_bin: 8
bearing: -14.4586381912
intensity: 27.3559894562
---
header: 
  seq: 3098016
  stamp: 
    secs: 1561686135
    nsecs: 292430105
  frame_id: "ti_mmwave"
point_id: 9
x: 2.537109375
y: -0.263671875
z: 1.208984375
range: 3.00681090355
velocity: 0.0
doppler_bin: 8
bearing: -5.93322753906
intensity: 29.3751792908
---
header: 
  seq: 3098017
  stamp: 
    secs: 1561686135
    nsecs: 292611505
  frame_id: "ti_mmwave"
point_id: 10
x: 2.6015625
y: -0.267578125
z: 1.166015625
range: 3.05038785934
velocity: 0.0
doppler_bin: 8
bearing: -5.87238502502
intensity: 32.7806739807
---
header: 
  seq: 3098018
  stamp: 
    secs: 1561686135
    nsecs: 292639439
  frame_id: "ti_mmwave"
point_id: 11
x: 2.6640625
y: -0.181640625
z: 1.14453125
range: 3.09396481514
velocity: 0.0
doppler_bin: 8
bearing: -3.90049386024
intensity: 32.04662323
---
header: 
  seq: 3098019
  stamp: 
    secs: 1561686135
    nsecs: 292652976
  frame_id: "ti_mmwave"
point_id: 12
x: 4.419921875
y: -0.287109375
z: 1.173828125
range: 4.88062095642
velocity: 0.0
doppler_bin: 8
bearing: -3.71659874916
intensity: 31.3703746796
---
header: 
  seq: 3098020
  stamp: 
    secs: 1561686135
    nsecs: 292666467
  frame_id: "ti_mmwave"
point_id: 13
x: 4.462890625
y: -0.2890625
z: 1.169921875
range: 4.9241976738
velocity: 0.0
doppler_bin: 8
bearing: -3.70588517189
intensity: 31.0448703766
---
header: 
  seq: 3098021
  stamp: 
    secs: 1561686135
    nsecs: 292678471
  frame_id: "ti_mmwave"
point_id: 14
x: 4.8515625
y: -0.46484375
z: 0.865234375
range: 5.27281332016
velocity: 0.0
doppler_bin: 8
bearing: -5.47298574448
intensity: 30.1452045441
---
header: 
  seq: 3098022
  stamp: 
    secs: 1561686135
    nsecs: 292695441
  frame_id: "ti_mmwave"
point_id: 16
x: 0.041015625
y: -0.033203125
z: 0.0625
range: 0.0871539413929
velocity: 0.0
doppler_bin: 8
bearing: -38.9909973145
intensity: 30.1452045441
---
header: 
  seq: 3098023
  stamp: 
    secs: 1561686135
    nsecs: 292708919
  frame_id: "ti_mmwave"
point_id: 17
x: 0.044921875
y: -0.046875
z: 0.103515625
range: 0.130730912089
velocity: 0.0
doppler_bin: 8
bearing: -46.218875885
intensity: 29.0525608063
---
header: 
  seq: 3098024
  stamp: 
    secs: 1561686135
    nsecs: 292722524
  frame_id: "ti_mmwave"
point_id: 19
x: 1.216796875
y: 0.357421875
z: 0.041015625
range: 1.35088610649
velocity: 0.0
doppler_bin: 8
bearing: 16.3696231842
intensity: 19.3449840546
---
header: 
  seq: 3098025
  stamp: 
    secs: 1561686135
    nsecs: 293669779
  frame_id: "ti_mmwave"
point_id: 0
x: 0.01171875
y: -0.0390625
z: -0.0078125
range: 0.0435769706964
velocity: 0.0
doppler_bin: 8
bearing: -73.3007583618
intensity: 30.7335166931
---
header: 
  seq: 3098026
  stamp: 
    secs: 1561686135
    nsecs: 293740627
  frame_id: "ti_mmwave"
point_id: 1
x: 0.017578125
y: -0.080078125
z: -0.0078125
range: 0.0871539413929
velocity: 0.0
doppler_bin: 8
bearing: -77.6192398071
intensity: 31.9783172607
---
header: 
  seq: 3098027
  stamp: 
    secs: 1561686135
    nsecs: 293758351
  frame_id: "ti_mmwave"
point_id: 2
x: 0.029296875
y: -0.119140625
z: -0.00390625
range: 0.130730912089
velocity: 0.0
doppler_bin: 8
bearing: -76.1849746704
intensity: 30.2118930817
---
header: 
  seq: 3098028
  stamp: 
    secs: 1561686135
    nsecs: 293772044
  frame_id: "ti_mmwave"
point_id: 3
x: 0.056640625
y: -0.154296875
z: 0.005859375
range: 0.174307882786
velocity: 0.0
doppler_bin: 8
bearing: -69.8423843384
intensity: 25.5022830963
---
header: 
  seq: 3098029
  stamp: 
    secs: 1561686135
    nsecs: 293881101
  frame_id: "ti_mmwave"
point_id: 4
x: 0.318359375
y: -0.080078125
z: -1.224609375
range: 1.35088610649
velocity: 0.0
doppler_bin: 8
bearing: -14.1189212799
intensity: 21.9865703583
---
header: 
  seq: 3098030
  stamp: 
    secs: 1561686135
    nsecs: 293906294
  frame_id: "ti_mmwave"
point_id: 5
x: 0.30859375
y: -0.041015625
z: 1.271484375
range: 1.39446306229
velocity: 0.0
doppler_bin: 8
bearing: -7.57088899612
intensity: 23.2428245544
---
header: 
  seq: 3098031
  stamp: 
    secs: 1561686135
    nsecs: 293918747
  frame_id: "ti_mmwave"
point_id: 6
x: 0.50390625
y: -0.04296875
z: 1.251953125
range: 1.43804001808
velocity: 0.0
doppler_bin: 8
bearing: -4.87389659882
intensity: 21.9033164978
---
header: 
  seq: 3098032
  stamp: 
    secs: 1561686135
    nsecs: 293930945
  frame_id: "ti_mmwave"
point_id: 7
x: 2.53515625
y: -0.263671875
z: 1.212890625
range: 3.00681090355
velocity: 0.0
doppler_bin: 8
bearing: -5.9377655983
intensity: 29.2324409485
---
header: 
  seq: 3098033
  stamp: 
    secs: 1561686135
    nsecs: 293943321
  frame_id: "ti_mmwave"
point_id: 8
x: 2.6015625
y: -0.267578125
z: 1.166015625
range: 3.05038785934
velocity: 0.0
doppler_bin: 8
bearing: -5.87238502502
intensity: 32.6834373474
---
header: 
  seq: 3098034
  stamp: 
    secs: 1561686135
    nsecs: 293956880
  frame_id: "ti_mmwave"
point_id: 9
x: 2.658203125
y: -0.181640625
z: 1.15625
range: 3.09396481514
velocity: 0.0
doppler_bin: 8
bearing: -3.90906453133
intensity: 31.8497524261
---
header: 
  seq: 3098035
  stamp: 
    secs: 1561686135
    nsecs: 294100096
  frame_id: "ti_mmwave"
point_id: 10
x: 4.427734375
y: -0.287109375
z: 1.14453125
range: 4.88062095642
velocity: 0.0
doppler_bin: 8
bearing: -3.71005964279
intensity: 31.4019374847
---
header: 
  seq: 3098036
  stamp: 
    secs: 1561686135
    nsecs: 294125463
  frame_id: "ti_mmwave"
point_id: 11
x: 4.4765625
y: -0.43359375
z: 1.06640625
range: 4.9241976738
velocity: 0.0
doppler_bin: 8
bearing: -5.53233337402
intensity: 31.2548122406
---
header: 
  seq: 3098037
  stamp: 
    secs: 1561686135
    nsecs: 294136960
  frame_id: "ti_mmwave"
point_id: 12
x: 4.845703125
y: -0.46484375
z: 0.8984375
range: 5.27281332016
velocity: 0.0
doppler_bin: 8
bearing: -5.47956323624
intensity: 30.4375514984
---
header: 
  seq: 3098038
  stamp: 
    secs: 1561686135
    nsecs: 294150492
  frame_id: "ti_mmwave"
point_id: 13
x: 1.171875
y: -0.1484375
z: 0.115234375
range: 1.2637321949
velocity: -1.84400606155
doppler_bin: 5
bearing: -7.21902084351
intensity: 20.9691009521
---
header: 
  seq: 3098039
  stamp: 
    secs: 1561686135
    nsecs: 294157557
  frame_id: "ti_mmwave"
point_id: 14
x: 1.212890625
y: -0.154296875
z: 0.111328125
range: 1.3073091507
velocity: -1.84400606155
doppler_bin: 5
bearing: -7.2498922348
intensity: 23.6548805237
---
header: 
  seq: 3098040
  stamp: 
    secs: 1561686135
    nsecs: 294184077
  frame_id: "ti_mmwave"
point_id: 15
x: 1.2578125
y: -0.119140625
z: 0.1015625
range: 1.35088610649
velocity: -1.84400606155
doppler_bin: 5
bearing: -5.41094112396
intensity: 22.900346756
---
header: 
  seq: 3098041
  stamp: 
    secs: 1561686135
    nsecs: 294204088
  frame_id: "ti_mmwave"
point_id: 16
x: 1.30078125
y: -0.123046875
z: 0.076171875
range: 1.39446306229
velocity: -1.84400606155
doppler_bin: 5
bearing: -5.40379190445
intensity: 20.3742656708
---
header: 
  seq: 3098042
  stamp: 
    secs: 1561686135
    nsecs: 294314941
  frame_id: "ti_mmwave"
point_id: 18
x: 0.041015625
y: -0.033203125
z: 0.0625
range: 0.0871539413929
velocity: 0.0
doppler_bin: 8
bearing: -38.9909973145
intensity: 30.1452045441
---
header: 
  seq: 3098043
  stamp: 
    secs: 1561686135
    nsecs: 294335326
  frame_id: "ti_mmwave"
point_id: 19
x: 0.044921875
y: -0.046875
z: 0.103515625
range: 0.130730912089
velocity: 0.0
doppler_bin: 8
bearing: -46.218875885
intensity: 29.0525608063
---
header: 
  seq: 3098044
  stamp: 
    secs: 1561686135
    nsecs: 294421518
  frame_id: "ti_mmwave"
point_id: 21
x: 1.21484375
y: 0.357421875
z: 0.056640625
range: 1.35088610649
velocity: 0.0
doppler_bin: 8
bearing: 16.3945274353
intensity: 19.3951931
---
header: 
  seq: 3098045
  stamp: 
    secs: 1561686135
    nsecs: 352391670
  frame_id: "ti_mmwave"
point_id: 0
x: 0.01171875
y: -0.0390625
z: -0.0078125
range: 0.0435769706964
velocity: 0.0
doppler_bin: 8
bearing: -73.3007583618
intensity: 30.7371826172
---
header: 
  seq: 3098046
  stamp: 
    secs: 1561686135
    nsecs: 352472201
  frame_id: "ti_mmwave"
point_id: 1
x: 0.017578125
y: -0.080078125
z: -0.0078125
range: 0.0871539413929
velocity: 0.0
doppler_bin: 8
bearing: -77.6192398071
intensity: 31.9810695648
---
header: 
  seq: 3098047
  stamp: 
    secs: 1561686135
    nsecs: 352488129
  frame_id: "ti_mmwave"
point_id: 2
x: 0.029296875
y: -0.119140625
z: -0.00390625
range: 0.130730912089
velocity: 0.0
doppler_bin: 8
bearing: -76.1849746704
intensity: 30.2118930817
---
header: 
  seq: 3098048
  stamp: 
    secs: 1561686135
    nsecs: 352501690
  frame_id: "ti_mmwave"
point_id: 3
x: 0.056640625
y: -0.154296875
z: 0.005859375
range: 0.174307882786
velocity: 0.0
doppler_bin: 8
bearing: -69.8423843384
intensity: 25.5144996643
---
header: 
  seq: 3098049
  stamp: 
    secs: 1561686135
    nsecs: 352514289
  frame_id: "ti_mmwave"
point_id: 4
x: 0.341796875
y: -0.080078125
z: -1.21875
range: 1.35088610649
velocity: 0.0
doppler_bin: 8
bearing: -13.1857614517
intensity: 22.0412006378
---
header: 
  seq: 3098050
  stamp: 
    secs: 1561686135
    nsecs: 352575682
  frame_id: "ti_mmwave"
point_id: 5
x: 0.326171875
y: -0.041015625
z: 1.267578125
range: 1.39446306229
velocity: 0.0
doppler_bin: 8
bearing: -7.16723871231
intensity: 23.2221927643
---
header: 
  seq: 3098051
  stamp: 
    secs: 1561686135
    nsecs: 352661381
  frame_id: "ti_mmwave"
point_id: 6
x: 0.48828125
y: -0.04296875
z: 1.2578125
range: 1.43804001808
velocity: 0.0
doppler_bin: 8
bearing: -5.02907323837
intensity: 21.8469142914
---
header: 
  seq: 3098052
  stamp: 
    secs: 1561686135
    nsecs: 352676387
  frame_id: "ti_mmwave"
point_id: 7
x: 1.638671875
y: -0.26171875
z: -0.23828125
range: 1.78665578365
velocity: 0.0
doppler_bin: 8
bearing: -9.07429599762
intensity: 30.064661026
---
header: 
  seq: 3098053
  stamp: 
    secs: 1561686135
    nsecs: 352687164
  frame_id: "ti_mmwave"
point_id: 8
x: 1.658203125
y: -0.267578125
z: -0.357421875
range: 1.83023273945
velocity: 0.0
doppler_bin: 8
bearing: -9.16659069061
intensity: 29.1169013977
---
header: 
  seq: 3098054
  stamp: 
    secs: 1561686135
    nsecs: 352697940
  frame_id: "ti_mmwave"
point_id: 9
x: 1.720703125
y: -0.505859375
z: -0.150390625
range: 1.91738677025
velocity: 0.0
doppler_bin: 8
bearing: -16.3824996948
intensity: 27.9587993622
---
header: 
  seq: 3098055
  stamp: 
    secs: 1561686135
    nsecs: 352710217
  frame_id: "ti_mmwave"
point_id: 10
x: 2.541015625
y: -0.263671875
z: 1.201171875
range: 3.00681090355
velocity: 0.0
doppler_bin: 8
bearing: -5.92417097092
intensity: 29.3751792908
---
header: 
  seq: 3098056
  stamp: 
    secs: 1561686135
    nsecs: 352723574
  frame_id: "ti_mmwave"
point_id: 11
x: 2.603515625
y: -0.267578125
z: 1.162109375
range: 3.05038785934
velocity: 0.0
doppler_bin: 8
bearing: -5.8680100441
intensity: 32.7508087158
---
header: 
  seq: 3098057
  stamp: 
    secs: 1561686135
    nsecs: 352736819
  frame_id: "ti_mmwave"
point_id: 12
x: 2.66796875
y: -0.181640625
z: 1.1328125
range: 3.09396481514
velocity: 0.0
doppler_bin: 8
bearing: -3.89480042458
intensity: 32.0411987305
---
header: 
  seq: 3098058
  stamp: 
    secs: 1561686135
    nsecs: 352750253
  frame_id: "ti_mmwave"
point_id: 13
x: 4.421875
y: -0.287109375
z: 1.166015625
range: 4.88062095642
velocity: 0.0
doppler_bin: 8
bearing: -3.7149617672
intensity: 30.4296913147
---
header: 
  seq: 3098059
  stamp: 
    secs: 1561686135
    nsecs: 352763895
  frame_id: "ti_mmwave"
point_id: 14
x: 4.51171875
y: -0.2890625
z: 0.96484375
range: 4.9241976738
velocity: 0.0
doppler_bin: 8
bearing: -3.66588807106
intensity: 30.1703338623
---
header: 
  seq: 3098060
  stamp: 
    secs: 1561686135
    nsecs: 352777409
  frame_id: "ti_mmwave"
point_id: 15
x: 4.8515625
y: -0.46484375
z: 0.86328125
range: 5.27281332016
velocity: 0.0
doppler_bin: 8
bearing: -5.47298574448
intensity: 30.7481651306
---
header: 
  seq: 3098061
  stamp: 
    secs: 1561686135
    nsecs: 352786831
  frame_id: "ti_mmwave"
point_id: 16
x: 1.1328125
y: -0.142578125
z: 0.091796875
range: 1.22015523911
velocity: -1.22933733463
doppler_bin: 6
bearing: -7.17364358902
intensity: 22.0412006378
---
header: 
  seq: 3098062
  stamp: 
    secs: 1561686135
    nsecs: 352858685
  frame_id: "ti_mmwave"
point_id: 17
x: 1.16796875
y: -0.185546875
z: 0.095703125
range: 1.2637321949
velocity: -1.22933733463
doppler_bin: 6
bearing: -9.02673912048
intensity: 21.9865703583
---
header: 
  seq: 3098063
  stamp: 
    secs: 1561686135
    nsecs: 352880494
  frame_id: "ti_mmwave"
point_id: 19
x: 0.041015625
y: -0.033203125
z: 0.0625
range: 0.0871539413929
velocity: 0.0
doppler_bin: 8
bearing: -38.9909973145
intensity: 30.1494026184
---
header: 
  seq: 3098064
  stamp: 
    secs: 1561686135
    nsecs: 352894879
  frame_id: "ti_mmwave"
point_id: 20
x: 0.044921875
y: -0.046875
z: 0.103515625
range: 0.130730912089
velocity: 0.0
doppler_bin: 8
bearing: -46.218875885
intensity: 29.0525608063
---
header: 
  seq: 3098065
  stamp: 
    secs: 1561686135
    nsecs: 352910369
  frame_id: "ti_mmwave"
point_id: 22
x: 1.21484375
y: 0.357421875
z: 0.080078125
range: 1.35088610649
velocity: 0.0
doppler_bin: 8
bearing: 16.3945274353
intensity: 19.3449840546
---
header: 
  seq: 3098066
  stamp: 
    secs: 1561686135
    nsecs: 352925822
  frame_id: "ti_mmwave"
point_id: 23
x: 2.798828125
y: -2.00390625
z: -3.0234375
range: 4.88062095642
velocity: 0.0
doppler_bin: 8
bearing: -35.6019248962
intensity: 27.5587482452
---
header: 
  seq: 3098067
  stamp: 
    secs: 1561686135
    nsecs: 352939690
  frame_id: "ti_mmwave"
point_id: 24
x: 2.51171875
y: -2.021484375
z: -3.3125
range: 4.9241976738
velocity: 0.0
doppler_bin: 8
bearing: -38.8278465271
intensity: 27.283536911
---
header: 
  seq: 3098068
  stamp: 
    secs: 1561686135
    nsecs: 353636894
  frame_id: "ti_mmwave"
point_id: 0
x: 0.01171875
y: -0.0390625
z: -0.0078125
range: 0.0435769706964
velocity: 0.0
doppler_bin: 8
bearing: -73.3007583618
intensity: 30.7371826172
---
header: 
  seq: 3098069
  stamp: 
    secs: 1561686135
    nsecs: 353703987
  frame_id: "ti_mmwave"
point_id: 1
x: 0.017578125
y: -0.080078125
z: -0.0078125
range: 0.0871539413929
velocity: 0.0
doppler_bin: 8
bearing: -77.6192398071
intensity: 31.9838218689
---
header: 
  seq: 3098070
  stamp: 
    secs: 1561686135
    nsecs: 353722445
  frame_id: "ti_mmwave"
point_id: 2
x: 0.029296875
y: -0.119140625
z: -0.00390625
range: 0.130730912089
velocity: 0.0
doppler_bin: 8
bearing: -76.1849746704
intensity: 30.2118930817
---
header: 
  seq: 3098071
  stamp: 
    secs: 1561686135
    nsecs: 353734812
  frame_id: "ti_mmwave"
point_id: 3
x: 0.056640625
y: -0.154296875
z: 0.005859375
range: 0.174307882786
velocity: 0.0
doppler_bin: 8
bearing: -69.8423843384
intensity: 25.5022830963
---
header: 
  seq: 3098072
  stamp: 
    secs: 1561686135
    nsecs: 353750119
  frame_id: "ti_mmwave"
point_id: 4
x: 0.505859375
y: -0.080078125
z: -1.16015625
range: 1.35088610649
velocity: 0.0
doppler_bin: 8
bearing: -8.99534511566
intensity: 21.0037059784
---
header: 
  seq: 3098073
  stamp: 
    secs: 1561686135
    nsecs: 353758773
  frame_id: "ti_mmwave"
point_id: 5
x: 0.306640625
y: -0.041015625
z: 1.271484375
range: 1.39446306229
velocity: 0.0
doppler_bin: 8
bearing: -7.6185464859
intensity: 22.3044891357
---
header: 
  seq: 3098074
  stamp: 
    secs: 1561686135
    nsecs: 353767069
  frame_id: "ti_mmwave"
point_id: 6
x: 1.587890625
y: -0.357421875
z: -0.158203125
range: 1.74307882786
velocity: 0.0
doppler_bin: 8
bearing: -12.6854143143
intensity: 26.812412262
---
header: 
  seq: 3098075
  stamp: 
    secs: 1561686135
    nsecs: 353775927
  frame_id: "ti_mmwave"
point_id: 7
x: 1.634765625
y: -0.314453125
z: -0.197265625
range: 1.78665578365
velocity: 0.0
doppler_bin: 8
bearing: -10.8880662918
intensity: 31.6672611237
---
header: 
  seq: 3098076
  stamp: 
    secs: 1561686135
    nsecs: 353784648
  frame_id: "ti_mmwave"
point_id: 8
x: 1.671875
y: -0.322265625
z: -0.22265625
range: 1.83023273945
velocity: 0.0
doppler_bin: 8
bearing: -10.9103507996
intensity: 32.5767860413
---
header: 
  seq: 3098077
  stamp: 
    secs: 1561686135
    nsecs: 353792749
  frame_id: "ti_mmwave"
point_id: 9
x: 1.7109375
y: -0.330078125
z: -0.240234375
range: 1.87380969524
velocity: 0.0
doppler_bin: 8
bearing: -10.9194860458
intensity: 30.081741333
---
header: 
  seq: 3098078
  stamp: 
    secs: 1561686135
    nsecs: 353801036
  frame_id: "ti_mmwave"
point_id: 10
x: 2.54296875
y: -0.263671875
z: 1.197265625
range: 3.00681090355
velocity: 0.0
doppler_bin: 8
bearing: -5.91965341568
intensity: 29.4349460602
---
header: 
  seq: 3098079
  stamp: 
    secs: 1561686135
    nsecs: 353821004
  frame_id: "ti_mmwave"
point_id: 11
x: 2.6015625
y: -0.267578125
z: 1.166015625
range: 3.05038785934
velocity: 0.0
doppler_bin: 8
bearing: -5.87238502502
intensity: 32.7715072632
---
header: 
  seq: 3098080
  stamp: 
    secs: 1561686135
    nsecs: 353843357
  frame_id: "ti_mmwave"
point_id: 12
x: 2.658203125
y: -0.181640625
z: 1.15625
range: 3.09396481514
velocity: 0.0
doppler_bin: 8
bearing: -3.90906453133
intensity: 31.9755630493
---
header: 
  seq: 3098081
  stamp: 
    secs: 1561686135
    nsecs: 353865142
  frame_id: "ti_mmwave"
point_id: 13
x: 4.4140625
y: -0.287109375
z: 1.1953125
range: 4.88062095642
velocity: 0.0
doppler_bin: 8
bearing: -3.72151875496
intensity: 30.8919830322
---
header: 
  seq: 3098082
  stamp: 
    secs: 1561686135
    nsecs: 353888035
  frame_id: "ti_mmwave"
point_id: 14
x: 4.478515625
y: -0.2890625
z: 1.10546875
range: 4.9241976738
velocity: 0.0
doppler_bin: 8
bearing: -3.69299149513
intensity: 30.7481651306
---
header: 
  seq: 3098083
  stamp: 
    secs: 1561686135
    nsecs: 353908618
  frame_id: "ti_mmwave"
point_id: 15
x: 4.857421875
y: -0.46484375
z: 0.833984375
range: 5.27281332016
velocity: 0.0
doppler_bin: 8
bearing: -5.46642303467
intensity: 30.1367969513
---
header: 
  seq: 3098084
  stamp: 
    secs: 1561686135
    nsecs: 353932482
  frame_id: "ti_mmwave"
point_id: 17
x: 0.041015625
y: -0.033203125
z: 0.0625
range: 0.0871539413929
velocity: 0.0
doppler_bin: 8
bearing: -38.9909973145
intensity: 30.1619739532
---
header: 
  seq: 3098085
  stamp: 
    secs: 1561686135
    nsecs: 353968611
  frame_id: "ti_mmwave"
point_id: 18
x: 0.044921875
y: -0.046875
z: 0.103515625
range: 0.130730912089
velocity: 0.0
doppler_bin: 8
bearing: -46.218875885
intensity: 29.0633506775
---
header: 
  seq: 3098086
  stamp: 
    secs: 1561686135
    nsecs: 354081881
  frame_id: "ti_mmwave"
point_id: 20
x: 1.212890625
y: 0.357421875
z: 0.109375
range: 1.35088610649
velocity: 0.0
doppler_bin: 8
bearing: 16.419506073
intensity: 19.0308990479
---
header: 
  seq: 3098087
  stamp: 
    secs: 1561686135
    nsecs: 354097794
  frame_id: "ti_mmwave"
point_id: 21
x: 1.2421875
y: 0.408203125
z: -0.03125
range: 1.39446306229
velocity: 0.0
doppler_bin: 8
bearing: 18.191368103
intensity: 19.4939002991
---
header: 
  seq: 3098088
  stamp: 
    secs: 1561686135
    nsecs: 412386386
  frame_id: "ti_mmwave"
point_id: 0
x: 0.01171875
y: -0.0390625
z: -0.0078125
range: 0.0435769706964
velocity: 0.0
doppler_bin: 8
bearing: -73.3007583618
intensity: 30.7335166931
---
header: 
  seq: 3098089
  stamp: 
    secs: 1561686135
    nsecs: 412465671
  frame_id: "ti_mmwave"
point_id: 1
x: 0.017578125
y: -0.080078125
z: -0.0078125
range: 0.0871539413929
velocity: 0.0
doppler_bin: 8
bearing: -77.6192398071
intensity: 31.9810695648
---
header: 
  seq: 3098090
  stamp: 
    secs: 1561686135
    nsecs: 412477305
  frame_id: "ti_mmwave"
point_id: 2
x: 0.029296875
y: -0.119140625
z: -0.00390625
range: 0.130730912089
velocity: 0.0
doppler_bin: 8
bearing: -76.1849746704
intensity: 30.2118930817
---
header: 
  seq: 3098091
  stamp: 
    secs: 1561686135
    nsecs: 412485404
  frame_id: "ti_mmwave"
point_id: 3
x: 0.056640625
y: -0.154296875
z: 0.0078125
range: 0.174307882786
velocity: 0.0
doppler_bin: 8
bearing: -69.8423843384
intensity: 25.5144996643
---
header: 
  seq: 3098092
  stamp: 
    secs: 1561686135
    nsecs: 412493446
  frame_id: "ti_mmwave"
point_id: 4
x: 0.615234375
y: -0.080078125
z: -1.107421875
range: 1.35088610649
velocity: 0.0
doppler_bin: 8
bearing: -7.41585588455
intensity: 21.5533599854
---
header: 
  seq: 3098093
  stamp: 
    secs: 1561686135
    nsecs: 412501494
  frame_id: "ti_mmwave"
point_id: 5
x: 0.32421875
y: -0.041015625
z: -1.267578125
range: 1.39446306229
velocity: 0.0
doppler_bin: 8
bearing: -7.20996236801
intensity: 22.6951293945
---
header: 
  seq: 3098094
  stamp: 
    secs: 1561686135
    nsecs: 412509487
  frame_id: "ti_mmwave"
point_id: 6
x: 1.646484375
y: -0.314453125
z: -0.0625
range: 1.78665578365
velocity: 0.0
doppler_bin: 8
bearing: -10.8124036789
intensity: 27.8318862915
---
header: 
  seq: 3098095
  stamp: 
    secs: 1561686135
    nsecs: 412517213
  frame_id: "ti_mmwave"
point_id: 7
x: 1.68359375
y: -0.322265625
z: -0.115234375
range: 1.83023273945
velocity: 0.0
doppler_bin: 8
bearing: -10.8362131119
intensity: 27.6042251587
---
header: 
  seq: 3098096
  stamp: 
    secs: 1561686135
    nsecs: 412527526
  frame_id: "ti_mmwave"
point_id: 8
x: 2.54296875
y: -0.263671875
z: 1.197265625
range: 3.00681090355
velocity: 0.0
doppler_bin: 8
bearing: -5.91965341568
intensity: 29.4743366241
---
header: 
  seq: 3098097
  stamp: 
    secs: 1561686135
    nsecs: 412537053
  frame_id: "ti_mmwave"
point_id: 9
x: 2.611328125
y: -0.1796875
z: 1.16015625
range: 3.05038785934
velocity: 0.0
doppler_bin: 8
bearing: -3.9363617897
intensity: 32.753112793
---
header: 
  seq: 3098098
  stamp: 
    secs: 1561686135
    nsecs: 412545208
  frame_id: "ti_mmwave"
point_id: 10
x: 2.65625
y: -0.181640625
z: 1.16015625
range: 3.09396481514
velocity: 0.0
doppler_bin: 8
bearing: -3.91193032265
intensity: 31.9755630493
---
header: 
  seq: 3098099
  stamp: 
    secs: 1561686135
    nsecs: 412553800
  frame_id: "ti_mmwave"
point_id: 11
x: 4.42578125
y: -0.287109375
z: 1.1484375
range: 4.88062095642
velocity: 0.0
doppler_bin: 8
bearing: -3.7116920948
intensity: 31.2287101746
---
header: 
  seq: 3098100
  stamp: 
    secs: 1561686135
    nsecs: 412561992
  frame_id: "ti_mmwave"
point_id: 12
x: 4.451171875
y: -0.43359375
z: 1.169921875
range: 4.9241976738
velocity: 0.0
doppler_bin: 8
bearing: -5.56369400024
intensity: 30.8813610077
---
header: 
  seq: 3098101
  stamp: 
    secs: 1561686135
    nsecs: 412569810
  frame_id: "ti_mmwave"
point_id: 13
x: 4.853515625
y: -0.46484375
z: 0.857421875
range: 5.27281332016
velocity: 0.0
doppler_bin: 8
bearing: -5.47079658508
intensity: 30.3059978485
---
header: 
  seq: 3098102
  stamp: 
    secs: 1561686135
    nsecs: 412577904
  frame_id: "ti_mmwave"
point_id: 14
x: 1.08984375
y: -0.171875
z: 0.056640625
range: 1.1765781641
velocity: 0.614668667316
doppler_bin: 9
bearing: -8.96208095551
intensity: 21.6435279846
---
header: 
  seq: 3098103
  stamp: 
    secs: 1561686135
    nsecs: 412587321
  frame_id: "ti_mmwave"
point_id: 15
x: 1.12890625
y: -0.1796875
z: 0.07421875
range: 1.22015523911
velocity: 0.614668667316
doppler_bin: 9
bearing: -9.04387760162
intensity: 23.031961441
---
header: 
  seq: 3098104
  stamp: 
    secs: 1561686135
    nsecs: 412599217
  frame_id: "ti_mmwave"
point_id: 16
x: 1.154296875
y: -0.22265625
z: 0.158203125
range: 1.2637321949
velocity: 0.614668667316
doppler_bin: 9
bearing: -10.9178848267
intensity: 20.6069774628
---
header: 
  seq: 3098105
  stamp: 
    secs: 1561686135
    nsecs: 412768112
  frame_id: "ti_mmwave"
point_id: 18
x: 0.041015625
y: -0.033203125
z: 0.0625
range: 0.0871539413929
velocity: 0.0
doppler_bin: 8
bearing: -38.9909973145
intensity: 30.1494026184
---
header: 
  seq: 3098106
  stamp: 
    secs: 1561686135
    nsecs: 412787258
  frame_id: "ti_mmwave"
point_id: 19
x: 0.044921875
y: -0.046875
z: 0.103515625
range: 0.130730912089
velocity: 0.0
doppler_bin: 8
bearing: -46.218875885
intensity: 29.0525608063
---
header: 
  seq: 3098107
  stamp: 
    secs: 1561686135
    nsecs: 412797654
  frame_id: "ti_mmwave"
point_id: 21
x: 1.208984375
y: 0.357421875
z: 0.1328125
range: 1.35088610649
velocity: 0.0
doppler_bin: 8
bearing: 16.4696884155
intensity: 19.0308990479
---
header: 
  seq: 3098108
  stamp: 
    secs: 1561686135
    nsecs: 472509223
  frame_id: "ti_mmwave"
point_id: 0
x: 0.01171875
y: -0.0390625
z: -0.0078125
range: 0.0435769706964
velocity: 0.0
doppler_bin: 8
bearing: -73.3007583618
intensity: 30.7261753082
---
header: 
  seq: 3098109
  stamp: 
    secs: 1561686135
    nsecs: 472606743
  frame_id: "ti_mmwave"
point_id: 1
x: 0.017578125
y: -0.080078125
z: -0.0078125
range: 0.0871539413929
velocity: 0.0
doppler_bin: 8
bearing: -77.6192398071
intensity: 31.9755630493
---
header: 
  seq: 3098110
  stamp: 
    secs: 1561686135
    nsecs: 472624956
  frame_id: "ti_mmwave"
point_id: 2
x: 0.029296875
y: -0.119140625
z: -0.00390625
range: 0.130730912089
velocity: 0.0
doppler_bin: 8
bearing: -76.1849746704
intensity: 30.2077541351
---
header: 
  seq: 3098111
  stamp: 
    secs: 1561686135
    nsecs: 472639910
  frame_id: "ti_mmwave"
point_id: 3
x: 0.056640625
y: -0.154296875
z: 0.005859375
range: 0.174307882786
velocity: 0.0
doppler_bin: 8
bearing: -69.8423843384
intensity: 25.5144996643
---
header: 
  seq: 3098112
  stamp: 
    secs: 1561686135
    nsecs: 472654227
  frame_id: "ti_mmwave"
point_id: 4
x: 0.263671875
y: -0.080078125
z: -1.23828125
range: 1.35088610649
velocity: 0.0
doppler_bin: 8
bearing: -16.8937301636
intensity: 22.1484394073
---
header: 
  seq: 3098113
  stamp: 
    secs: 1561686135
    nsecs: 472669397
  frame_id: "ti_mmwave"
point_id: 5
x: 0.408203125
y: -0.041015625
z: 1.2421875
range: 1.39446306229
velocity: 0.0
doppler_bin: 8
bearing: -5.73773479462
intensity: 23.3243846893
---
header: 
  seq: 3098114
  stamp: 
    secs: 1561686135
    nsecs: 472686514
  frame_id: "ti_mmwave"
point_id: 6
x: 0.57421875
y: -0.04296875
z: 1.220703125
range: 1.43804001808
velocity: 0.0
doppler_bin: 8
bearing: -4.27946329117
intensity: 21.9312458038
---
header: 
  seq: 3098115
  stamp: 
    secs: 1561686135
    nsecs: 472701622
  frame_id: "ti_mmwave"
point_id: 7
x: 1.615234375
y: -0.3671875
z: -0.26171875
range: 1.78665578365
velocity: 0.0
doppler_bin: 8
bearing: -12.8072605133
intensity: 29.5760726929
---
header: 
  seq: 3098116
  stamp: 
    secs: 1561686135
    nsecs: 472726754
  frame_id: "ti_mmwave"
point_id: 8
x: 1.6484375
y: -0.375
z: -0.302734375
range: 1.83023273945
velocity: 0.0
doppler_bin: 8
bearing: -12.8160018921
intensity: 29.4743366241
---
header: 
  seq: 3098117
  stamp: 
    secs: 1561686135
    nsecs: 472751415
  frame_id: "ti_mmwave"
point_id: 9
x: 1.6953125
y: -0.384765625
z: -0.271484375
range: 1.87380969524
velocity: 0.0
doppler_bin: 8
bearing: -12.787147522
intensity: 27.5434837341
---
header: 
  seq: 3098118
  stamp: 
    secs: 1561686135
    nsecs: 472765243
  frame_id: "ti_mmwave"
point_id: 10
x: 2.556640625
y: -0.263671875
z: 1.16796875
range: 3.00681090355
velocity: 0.0
doppler_bin: 8
bearing: -5.88822031021
intensity: 29.5036487579
---
header: 
  seq: 3098119
  stamp: 
    secs: 1561686135
    nsecs: 472864426
  frame_id: "ti_mmwave"
point_id: 11
x: 2.607421875
y: -0.267578125
z: 1.15234375
range: 3.05038785934
velocity: 0.0
doppler_bin: 8
bearing: -5.85928010941
intensity: 32.7966690063
---
header: 
  seq: 3098120
  stamp: 
    secs: 1561686135
    nsecs: 472882415
  frame_id: "ti_mmwave"
point_id: 12
x: 2.66796875
y: -0.181640625
z: 1.1328125
range: 3.09396481514
velocity: 0.0
doppler_bin: 8
bearing: -3.89480042458
intensity: 32.0384864807
---
header: 
  seq: 3098121
  stamp: 
    secs: 1561686135
    nsecs: 472899576
  frame_id: "ti_mmwave"
point_id: 13
x: 4.408203125
y: -0.287109375
z: 1.21484375
range: 4.88062095642
velocity: 0.0
doppler_bin: 8
bearing: -3.72645139694
intensity: 30.9096298218
---
header: 
  seq: 3098122
  stamp: 
    secs: 1561686135
    nsecs: 472915219
  frame_id: "ti_mmwave"
point_id: 14
x: 4.439453125
y: -0.2890625
z: 1.25390625
range: 4.9241976738
velocity: 0.0
doppler_bin: 8
bearing: -3.7253947258
intensity: 30.2530593872
---
header: 
  seq: 3098123
  stamp: 
    secs: 1561686135
    nsecs: 472928269
  frame_id: "ti_mmwave"
point_id: 15
x: 4.85546875
y: -0.46484375
z: 0.845703125
range: 5.27281332016
velocity: 0.0
doppler_bin: 8
bearing: -5.46860933304
intensity: 30.5346260071
---
header: 
  seq: 3098124
  stamp: 
    secs: 1561686135
    nsecs: 472942665
  frame_id: "ti_mmwave"
point_id: 16
x: 1.12890625
y: -0.1796875
z: 0.060546875
range: 1.22015523911
velocity: 1.22933733463
doppler_bin: 10
bearing: -9.04387760162
intensity: 21.172712326
---
header: 
  seq: 3098125
  stamp: 
    secs: 1561686135
    nsecs: 472960035
  frame_id: "ti_mmwave"
point_id: 17
x: 1.169921875
y: -0.185546875
z: 0.06640625
range: 1.2637321949
velocity: 1.22933733463
doppler_bin: 10
bearing: -9.01191711426
intensity: 22.4303798676
---
header: 
  seq: 3098126
  stamp: 
    secs: 1561686135
    nsecs: 472974587
  frame_id: "ti_mmwave"
point_id: 18
x: 1.2109375
y: -0.19140625
z: 0.072265625
range: 1.3073091507
velocity: 1.22933733463
doppler_bin: 10
bearing: -8.98211669922
intensity: 20.2530593872
---
header: 
  seq: 3098127
  stamp: 
    secs: 1561686135
    nsecs: 473031557
  frame_id: "ti_mmwave"
point_id: 20
x: 0.041015625
y: -0.033203125
z: 0.0625
range: 0.0871539413929
velocity: 0.0
doppler_bin: 8
bearing: -38.9909973145
intensity: 30.1494026184
---
header: 
  seq: 3098128
  stamp: 
    secs: 1561686135
    nsecs: 473051872
  frame_id: "ti_mmwave"
point_id: 21
x: 0.044921875
y: -0.046875
z: 0.103515625
range: 0.130730912089
velocity: 0.0
doppler_bin: 8
bearing: -46.218875885
intensity: 29.0525608063
---
header: 
  seq: 3098129
  stamp: 
    secs: 1561686135
    nsecs: 473069076
  frame_id: "ti_mmwave"
point_id: 23
x: 1.216796875
y: 0.357421875
z: 0.013671875
range: 1.35088610649
velocity: 0.0
doppler_bin: 8
bearing: 16.3696231842
intensity: 19.3449840546
---
header: 
  seq: 3098130
  stamp: 
    secs: 1561686135
    nsecs: 473085081
  frame_id: "ti_mmwave"
point_id: 24
x: 2.7109375
y: -1.861328125
z: -3.19140625
range: 4.88062095642
velocity: 0.0
doppler_bin: 8
bearing: -34.4734725952
intensity: 28.2477645874
---
header: 
  seq: 3098131
  stamp: 
    secs: 1561686135
    nsecs: 473113039
  frame_id: "ti_mmwave"
point_id: 25
x: 2.61328125
y: -2.021484375
z: -3.232421875
range: 4.9241976738
velocity: 0.0
doppler_bin: 8
bearing: -37.7234764099
intensity: 27.774269104
---
header: 
  seq: 3098132
  stamp: 
    secs: 1561686135
    nsecs: 474123290
  frame_id: "ti_mmwave"
point_id: 0
x: 0.01171875
y: -0.0390625
z: -0.0078125
range: 0.0435769706964
velocity: 0.0
doppler_bin: 8
bearing: -73.3007583618
intensity: 30.7261753082
---
header: 
  seq: 3098133
  stamp: 
    secs: 1561686135
    nsecs: 474186422
  frame_id: "ti_mmwave"
point_id: 1
x: 0.017578125
y: -0.080078125
z: -0.0078125
range: 0.0871539413929
velocity: 0.0
doppler_bin: 8
bearing: -77.6192398071
intensity: 31.9783172607
---
header: 
  seq: 3098134
  stamp: 
    secs: 1561686135
    nsecs: 474215629
  frame_id: "ti_mmwave"
point_id: 2
x: 0.029296875
y: -0.119140625
z: -0.00390625
range: 0.130730912089
velocity: 0.0
doppler_bin: 8
bearing: -76.1849746704
intensity: 30.2077541351
---
header: 
  seq: 3098135
  stamp: 
    secs: 1561686135
    nsecs: 474271047
  frame_id: "ti_mmwave"
point_id: 3
x: 0.056640625
y: -0.154296875
z: 0.005859375
range: 0.174307882786
velocity: 0.0
doppler_bin: 8
bearing: -69.8423843384
intensity: 25.5022830963
---
header: 
  seq: 3098136
  stamp: 
    secs: 1561686135
    nsecs: 474289172
  frame_id: "ti_mmwave"
point_id: 4
x: 0.294921875
y: -0.080078125
z: -1.23046875
range: 1.35088610649
velocity: 0.0
doppler_bin: 8
bearing: -15.1908855438
intensity: 22.0412006378
---
header: 
  seq: 3098137
  stamp: 
    secs: 1561686135
    nsecs: 474304569
  frame_id: "ti_mmwave"
point_id: 5
x: 0.357421875
y: -0.041015625
z: 1.2578125
range: 1.39446306229
velocity: 0.0
doppler_bin: 8
bearing: -6.54629087448
intensity: 23.2837963104
---
header: 
  seq: 3098138
  stamp: 
    secs: 1561686135
    nsecs: 474346302
  frame_id: "ti_mmwave"
point_id: 6
x: 0.55859375
y: -0.04296875
z: 1.228515625
range: 1.43804001808
velocity: 0.0
doppler_bin: 8
bearing: -4.39870548248
intensity: 22.0139713287
---
header: 
  seq: 3098139
  stamp: 
    secs: 1561686135
    nsecs: 474366648
  frame_id: "ti_mmwave"
point_id: 7
x: 1.580078125
y: -0.255859375
z: -0.341796875
range: 1.74307882786
velocity: 0.0
doppler_bin: 8
bearing: -9.19797039032
intensity: 26.570558548
---
header: 
  seq: 3098140
  stamp: 
    secs: 1561686135
    nsecs: 474404922
  frame_id: "ti_mmwave"
point_id: 8
x: 1.63671875
y: -0.26171875
z: -0.25390625
range: 1.78665578365
velocity: 0.0
doppler_bin: 8
bearing: -9.08494377136
intensity: 30.561422348
---
header: 
  seq: 3098141
  stamp: 
    secs: 1561686135
    nsecs: 474421169
  frame_id: "ti_mmwave"
point_id: 9
x: 1.685546875
y: -0.267578125
z: -0.201171875
range: 1.83023273945
velocity: 0.0
doppler_bin: 8
bearing: -9.02035045624
intensity: 31.1660766602
---
header: 
  seq: 3098142
  stamp: 
    secs: 1561686135
    nsecs: 474460296
  frame_id: "ti_mmwave"
point_id: 10
x: 1.7265625
y: -0.275390625
z: -0.1953125
range: 1.87380969524
velocity: 0.0
doppler_bin: 8
bearing: -9.06246852875
intensity: 28.767950058
---
header: 
  seq: 3098143
  stamp: 
    secs: 1561686135
    nsecs: 474478219
  frame_id: "ti_mmwave"
point_id: 11
x: 2.529296875
y: -0.263671875
z: 1.22265625
range: 3.00681090355
velocity: 0.0
doppler_bin: 8
bearing: -5.95142221451
intensity: 29.380191803
---
header: 
  seq: 3098144
  stamp: 
    secs: 1561686135
    nsecs: 474503264
  frame_id: "ti_mmwave"
point_id: 12
x: 2.6015625
y: -0.267578125
z: 1.166015625
range: 3.05038785934
velocity: 0.0
doppler_bin: 8
bearing: -5.87238502502
intensity: 32.7508087158
---
header: 
  seq: 3098145
  stamp: 
    secs: 1561686135
    nsecs: 474552561
  frame_id: "ti_mmwave"
point_id: 13
x: 2.666015625
y: -0.181640625
z: 1.13671875
range: 3.09396481514
velocity: 0.0
doppler_bin: 8
bearing: -3.89764523506
intensity: 32.0547485352
---
header: 
  seq: 3098146
  stamp: 
    secs: 1561686135
    nsecs: 474567514
  frame_id: "ti_mmwave"
point_id: 14
x: 4.388671875
y: -0.287109375
z: 1.28125
range: 4.88062095642
velocity: 0.0
doppler_bin: 8
bearing: -3.74298858643
intensity: 30.358297348
---
header: 
  seq: 3098147
  stamp: 
    secs: 1561686135
    nsecs: 474580502
  frame_id: "ti_mmwave"
point_id: 15
x: 4.435546875
y: -0.2890625
z: 1.265625
range: 4.9241976738
velocity: 0.0
doppler_bin: 8
bearing: -3.72866654396
intensity: 29.5327625275
---
header: 
  seq: 3098148
  stamp: 
    secs: 1561686135
    nsecs: 474607678
  frame_id: "ti_mmwave"
point_id: 16
x: 4.853515625
y: -0.46484375
z: 0.8515625
range: 5.27281332016
velocity: 0.0
doppler_bin: 8
bearing: -5.47079658508
intensity: 30.5115261078
---
header: 
  seq: 3098149
  stamp: 
    secs: 1561686135
    nsecs: 474665373
  frame_id: "ti_mmwave"
point_id: 17
x: 1.1640625
y: -0.22265625
z: 0.0703125
range: 1.2637321949
velocity: 1.84400606155
doppler_bin: 11
bearing: -10.8284664154
intensity: 21.430147171
---
header: 
  seq: 3098150
  stamp: 
    secs: 1561686135
    nsecs: 474680469
  frame_id: "ti_mmwave"
point_id: 18
x: 1.208984375
y: -0.19140625
z: 0.08203125
range: 1.3073091507
velocity: 1.84400606155
doppler_bin: 11
bearing: -8.99639129639
intensity: 23.5983543396
---
header: 
  seq: 3098151
  stamp: 
    secs: 1561686135
    nsecs: 474692880
  frame_id: "ti_mmwave"
point_id: 19
x: 1.25
y: -0.197265625
z: 0.078125
range: 1.35088610649
velocity: 1.84400606155
doppler_bin: 11
bearing: -8.96802997589
intensity: 22.3804607391
---
header: 
  seq: 3098152
  stamp: 
    secs: 1561686135
    nsecs: 474714599
  frame_id: "ti_mmwave"
point_id: 21
x: 0.041015625
y: -0.033203125
z: 0.0625
range: 0.0871539413929
velocity: 0.0
doppler_bin: 8
bearing: -38.9909973145
intensity: 30.1535968781
---
header: 
  seq: 3098153
  stamp: 
    secs: 1561686135
    nsecs: 474752660
  frame_id: "ti_mmwave"
point_id: 22
x: 0.044921875
y: -0.046875
z: 0.103515625
range: 0.130730912089
velocity: 0.0
doppler_bin: 8
bearing: -46.218875885
intensity: 29.0525608063
---
header: 
  seq: 3098154
  stamp: 
    secs: 1561686135
    nsecs: 474772452
  frame_id: "ti_mmwave"
point_id: 24
x: 1.21484375
y: 0.357421875
z: 0.052734375
range: 1.35088610649
velocity: 0.0
doppler_bin: 8
bearing: 16.3945274353
intensity: 19.2941894531
---
header: 
  seq: 3098155
  stamp: 
    secs: 1561686135
    nsecs: 474789702
  frame_id: "ti_mmwave"
point_id: 25
x: 2.845703125
y: -1.861328125
z: -3.0703125
range: 4.88062095642
velocity: 0.0
doppler_bin: 8
bearing: -33.1880455017
intensity: 27.9448795319
---
header: 
  seq: 3098156
  stamp: 
    secs: 1561686135
    nsecs: 474815743
  frame_id: "ti_mmwave"
point_id: 26
x: 2.759765625
y: -1.876953125
z: -3.197265625
range: 4.9241976738
velocity: 0.0
doppler_bin: 8
bearing: -34.2201385498
intensity: 27.3878059387
---
header: 
  seq: 3098157
  stamp: 
    secs: 1561686135
    nsecs: 532350038
  frame_id: "ti_mmwave"
point_id: 0
x: 0.01171875
y: -0.0390625
z: -0.0078125
range: 0.0435769706964
velocity: 0.0
doppler_bin: 8
bearing: -73.3007583618
intensity: 30.7371826172
---
header: 
  seq: 3098158
  stamp: 
    secs: 1561686135
    nsecs: 532425350
  frame_id: "ti_mmwave"
point_id: 1
x: 0.017578125
y: -0.080078125
z: -0.0078125
range: 0.0871539413929
velocity: 0.0
doppler_bin: 8
bearing: -77.6192398071
intensity: 31.9810695648
---
header: 
  seq: 3098159
  stamp: 
    secs: 1561686135
    nsecs: 532436942
  frame_id: "ti_mmwave"
point_id: 2
x: 0.029296875
y: -0.119140625
z: -0.00390625
range: 0.130730912089
velocity: 0.0
doppler_bin: 8
bearing: -76.1849746704
intensity: 30.2118930817
---
header: 
  seq: 3098160
  stamp: 
    secs: 1561686135
    nsecs: 532447817
  frame_id: "ti_mmwave"
point_id: 3
x: 0.056640625
y: -0.154296875
z: 0.005859375
range: 0.174307882786
velocity: 0.0
doppler_bin: 8
bearing: -69.8423843384
intensity: 25.5022830963
---
header: 
  seq: 3098161
  stamp: 
    secs: 1561686135
    nsecs: 532465724
  frame_id: "ti_mmwave"
point_id: 4
x: 0.37109375
y: -0.080078125
z: -1.208984375
range: 1.35088610649
velocity: 0.0
doppler_bin: 8
bearing: -12.177107811
intensity: 22.0139713287
---
header: 
  seq: 3098162
  stamp: 
    secs: 1561686135
    nsecs: 532474641
  frame_id: "ti_mmwave"
point_id: 5
x: 0.310546875
y: -0.041015625
z: 1.271484375
range: 1.39446306229
velocity: 0.0
doppler_bin: 8
bearing: -7.52382040024
intensity: 23.2633590698
---
header: 
  seq: 3098163
  stamp: 
    secs: 1561686135
    nsecs: 532482932
  frame_id: "ti_mmwave"
point_id: 6
x: 0.427734375
y: -0.0
z: 1.279296875
range: 1.43804001808
velocity: 0.0
doppler_bin: 8
bearing: -0.0
intensity: 21.9312458038
---
header: 
  seq: 3098164
  stamp: 
    secs: 1561686135
    nsecs: 532491183
  frame_id: "ti_mmwave"
point_id: 7
x: 1.603515625
y: -0.306640625
z: -0.10546875
range: 1.74307882786
velocity: 0.0
doppler_bin: 8
bearing: -10.8259811401
intensity: 28.7448177338
---
header: 
  seq: 3098165
  stamp: 
    secs: 1561686135
    nsecs: 532501374
  frame_id: "ti_mmwave"
point_id: 8
x: 1.64453125
y: -0.314453125
z: -0.08984375
range: 1.78665578365
velocity: 0.0
doppler_bin: 8
bearing: -10.8249425888
intensity: 31.8440742493
---
header: 
  seq: 3098166
  stamp: 
    secs: 1561686135
    nsecs: 532509582
  frame_id: "ti_mmwave"
point_id: 9
x: 1.6875
y: -0.322265625
z: -0.05859375
range: 1.83023273945
velocity: 0.0
doppler_bin: 8
bearing: -10.8117208481
intensity: 31.2872219086
---
header: 
  seq: 3098167
  stamp: 
    secs: 1561686135
    nsecs: 532517830
  frame_id: "ti_mmwave"
point_id: 10
x: 1.736328125
y: -0.275390625
z: 0.05859375
range: 1.87380969524
velocity: 0.0
doppler_bin: 8
bearing: -9.01233768463
intensity: 27.1096305847
---
header: 
  seq: 3098168
  stamp: 
    secs: 1561686135
    nsecs: 532527224
  frame_id: "ti_mmwave"
point_id: 11
x: 2.55078125
y: -0.263671875
z: 1.1796875
range: 3.00681090355
velocity: 0.0
doppler_bin: 8
bearing: -5.90165042877
intensity: 29.4398880005
---
header: 
  seq: 3098169
  stamp: 
    secs: 1561686135
    nsecs: 532538624
  frame_id: "ti_mmwave"
point_id: 12
x: 2.615234375
y: -0.1796875
z: 1.154296875
range: 3.05038785934
velocity: 0.0
doppler_bin: 8
bearing: -3.93050074577
intensity: 32.7207374573
---
header: 
  seq: 3098170
  stamp: 
    secs: 1561686135
    nsecs: 532711284
  frame_id: "ti_mmwave"
point_id: 13
x: 2.654296875
y: -0.181640625
z: 1.166015625
range: 3.09396481514
velocity: 0.0
doppler_bin: 8
bearing: -3.91479969025
intensity: 31.9005146027
---
header: 
  seq: 3098171
  stamp: 
    secs: 1561686135
    nsecs: 532735429
  frame_id: "ti_mmwave"
point_id: 14
x: 4.396484375
y: -0.287109375
z: 1.255859375
range: 4.88062095642
velocity: 0.0
doppler_bin: 8
bearing: -3.73635601997
intensity: 30.358297348
---
header: 
  seq: 3098172
  stamp: 
    secs: 1561686135
    nsecs: 532763192
  frame_id: "ti_mmwave"
point_id: 15
x: 4.45703125
y: -0.2890625
z: 1.193359375
range: 4.9241976738
velocity: 0.0
doppler_bin: 8
bearing: -3.71074318886
intensity: 29.7081165314
---
header: 
  seq: 3098173
  stamp: 
    secs: 1561686135
    nsecs: 532786429
  frame_id: "ti_mmwave"
point_id: 16
x: 4.8828125
y: -0.30859375
z: 0.75390625
range: 5.27281332016
velocity: 0.0
doppler_bin: 8
bearing: -3.61628341675
intensity: 30.2407493591
---
header: 
  seq: 3098174
  stamp: 
    secs: 1561686135
    nsecs: 532799837
  frame_id: "ti_mmwave"
point_id: 17
x: 1.25
y: -0.197265625
z: 0.076171875
range: 1.35088610649
velocity: 1.84400606155
doppler_bin: 11
bearing: -8.96802997589
intensity: 19.9563522339
---
header: 
  seq: 3098175
  stamp: 
    secs: 1561686135
    nsecs: 532963887
  frame_id: "ti_mmwave"
point_id: 19
x: 0.041015625
y: -0.033203125
z: 0.0625
range: 0.0871539413929
velocity: 0.0
doppler_bin: 8
bearing: -38.9909973145
intensity: 30.1535968781
---
header: 
  seq: 3098176
  stamp: 
    secs: 1561686135
    nsecs: 532996016
  frame_id: "ti_mmwave"
point_id: 20
x: 0.044921875
y: -0.046875
z: 0.103515625
range: 0.130730912089
velocity: 0.0
doppler_bin: 8
bearing: -46.218875885
intensity: 29.0579586029
---
header: 
  seq: 3098177
  stamp: 
    secs: 1561686135
    nsecs: 533014529
  frame_id: "ti_mmwave"
point_id: 22
x: 1.21484375
y: 0.357421875
z: 0.08203125
range: 1.35088610649
velocity: 0.0
doppler_bin: 8
bearing: 16.3945274353
intensity: 19.2941894531
---
header: 
  seq: 3098178
  stamp: 
    secs: 1561686135
    nsecs: 533071867
  frame_id: "ti_mmwave"
point_id: 23
x: 3.125
y: -1.861328125
z: -2.78515625
range: 4.88062095642
velocity: 0.0
doppler_bin: 8
bearing: -30.7790870667
intensity: 27.7011528015
---
header: 
  seq: 3098179
  stamp: 
    secs: 1561686135
    nsecs: 533144416
  frame_id: "ti_mmwave"
point_id: 24
x: 3.13671875
y: -2.021484375
z: -2.7265625
range: 4.9241976738
velocity: 0.0
doppler_bin: 8
bearing: -32.8000907898
intensity: 27.2098579407
---
header: 
  seq: 3098180
  stamp: 
    secs: 1561686135
    nsecs: 533952474
  frame_id: "ti_mmwave"
point_id: 0
x: 0.01171875
y: -0.0390625
z: -0.0078125
range: 0.0435769706964
velocity: 0.0
doppler_bin: 8
bearing: -73.3007583618
intensity: 30.7371826172
---
header: 
  seq: 3098181
  stamp: 
    secs: 1561686135
    nsecs: 533987869
  frame_id: "ti_mmwave"
point_id: 1
x: 0.017578125
y: -0.080078125
z: -0.0078125
range: 0.0871539413929
velocity: 0.0
doppler_bin: 8
bearing: -77.6192398071
intensity: 31.9810695648
---
header: 
  seq: 3098182
  stamp: 
    secs: 1561686135
    nsecs: 533997611
  frame_id: "ti_mmwave"
point_id: 2
x: 0.029296875
y: -0.119140625
z: -0.00390625
range: 0.130730912089
velocity: 0.0
doppler_bin: 8
bearing: -76.1849746704
intensity: 30.2118930817
---
header: 
  seq: 3098183
  stamp: 
    secs: 1561686135
    nsecs: 534006037
  frame_id: "ti_mmwave"
point_id: 3
x: 0.056640625
y: -0.154296875
z: 0.005859375
range: 0.174307882786
velocity: 0.0
doppler_bin: 8
bearing: -69.8423843384
intensity: 25.5266819
---
header: 
  seq: 3098184
  stamp: 
    secs: 1561686135
    nsecs: 534014724
  frame_id: "ti_mmwave"
point_id: 4
x: 0.33203125
y: -0.080078125
z: -1.220703125
range: 1.35088610649
velocity: 0.0
doppler_bin: 8
bearing: -13.5594520569
intensity: 22.0139713287
---
header: 
  seq: 3098185
  stamp: 
    secs: 1561686135
    nsecs: 534023532
  frame_id: "ti_mmwave"
point_id: 5
x: 0.341796875
y: -0.041015625
z: 1.263671875
range: 1.39446306229
velocity: 0.0
doppler_bin: 8
bearing: -6.8427734375
intensity: 23.2633590698
---
header: 
  seq: 3098186
  stamp: 
    secs: 1561686135
    nsecs: 534078579
  frame_id: "ti_mmwave"
point_id: 6
x: 1.591796875
y: -0.357421875
z: -0.119140625
range: 1.74307882786
velocity: 0.0
doppler_bin: 8
bearing: -12.6552877426
intensity: 27.466342926
---
header: 
  seq: 3098187
  stamp: 
    secs: 1561686135
    nsecs: 534087646
  frame_id: "ti_mmwave"
point_id: 7
x: 1.62890625
y: -0.3671875
z: -0.1484375
range: 1.78665578365
velocity: 0.0
doppler_bin: 8
bearing: -12.7032680511
intensity: 30.6632595062
---
header: 
  seq: 3098188
  stamp: 
    secs: 1561686135
    nsecs: 534097113
  frame_id: "ti_mmwave"
point_id: 8
x: 1.67578125
y: -0.375
z: 0.009765625
range: 1.83023273945
velocity: 0.0
doppler_bin: 8
bearing: -12.6136274338
intensity: 31.1092624664
---
header: 
  seq: 3098189
  stamp: 
    secs: 1561686135
    nsecs: 534105670
  frame_id: "ti_mmwave"
point_id: 9
x: 1.71484375
y: -0.384765625
z: 0.044921875
range: 1.87380969524
velocity: 0.0
doppler_bin: 8
bearing: -12.6462173462
intensity: 29.1960105896
---
header: 
  seq: 3098190
  stamp: 
    secs: 1561686135
    nsecs: 534113171
  frame_id: "ti_mmwave"
point_id: 10
x: 2.5625
y: -0.263671875
z: 1.154296875
range: 3.00681090355
velocity: 0.0
doppler_bin: 8
bearing: -5.87485074997
intensity: 29.484128952
---
header: 
  seq: 3098191
  stamp: 
    secs: 1561686135
    nsecs: 534121166
  frame_id: "ti_mmwave"
point_id: 11
x: 2.609375
y: -0.267578125
z: 1.1484375
range: 3.05038785934
velocity: 0.0
doppler_bin: 8
bearing: -5.85492515564
intensity: 32.7600212097
---
header: 
  seq: 3098192
  stamp: 
    secs: 1561686135
    nsecs: 534128908
  frame_id: "ti_mmwave"
point_id: 12
x: 2.671875
y: -0.181640625
z: 1.126953125
range: 3.09396481514
velocity: 0.0
doppler_bin: 8
bearing: -3.88912391663
intensity: 32.0790367126
---
header: 
  seq: 3098193
  stamp: 
    secs: 1561686135
    nsecs: 534136490
  frame_id: "ti_mmwave"
point_id: 13
x: 4.388671875
y: -0.287109375
z: 1.283203125
range: 4.88062095642
velocity: 0.0
doppler_bin: 8
bearing: -3.74298858643
intensity: 30.310043335
---
header: 
  seq: 3098194
  stamp: 
    secs: 1561686135
    nsecs: 534143895
  frame_id: "ti_mmwave"
point_id: 14
x: 4.423828125
y: -0.2890625
z: 1.30859375
range: 4.9241976738
velocity: 0.0
doppler_bin: 8
bearing: -3.73851561546
intensity: 29.5951843262
---
header: 
  seq: 3098195
  stamp: 
    secs: 1561686135
    nsecs: 534151242
  frame_id: "ti_mmwave"
point_id: 15
x: 4.875
y: -0.30859375
z: 0.80078125
range: 5.27281332016
velocity: 0.0
doppler_bin: 8
bearing: -3.62206339836
intensity: 30.1953163147
---
header: 
  seq: 3098196
  stamp: 
    secs: 1561686135
    nsecs: 534169212
  frame_id: "ti_mmwave"
point_id: 16
x: 1.24609375
y: -0.23828125
z: 0.0234375
range: 1.35088610649
velocity: 1.22933733463
doppler_bin: 10
bearing: -10.8255586624
intensity: 21.5228843689
---
header: 
  seq: 3098197
  stamp: 
    secs: 1561686135
    nsecs: 534183733
  frame_id: "ti_mmwave"
point_id: 17
x: 1.28515625
y: -0.24609375
z: 0.03515625
range: 1.39446306229
velocity: 1.22933733463
doppler_bin: 10
bearing: -10.840306282
intensity: 25.7403125763
---
header: 
  seq: 3098198
  stamp: 
    secs: 1561686135
    nsecs: 534197173
  frame_id: "ti_mmwave"
point_id: 18
x: 1.326171875
y: -0.25390625
z: 0.03515625
range: 1.43804001808
velocity: 1.22933733463
doppler_bin: 10
bearing: -10.8385734558
intensity: 26.2013607025
---
header: 
  seq: 3098199
  stamp: 
    secs: 1561686135
    nsecs: 534204696
  frame_id: "ti_mmwave"
point_id: 19
x: 1.373046875
y: -0.216796875
z: 0.025390625
range: 1.48161697388
velocity: 1.22933733463
doppler_bin: 10
bearing: -8.9726266861
intensity: 23.8738975525
---
header: 
  seq: 3098200
  stamp: 
    secs: 1561686135
    nsecs: 534212111
  frame_id: "ti_mmwave"
point_id: 20
x: 1.419921875
y: -0.1796875
z: -0.033203125
range: 1.52519392967
velocity: 1.22933733463
doppler_bin: 10
bearing: -7.21229791641
intensity: 20.7188205719
---
header: 
  seq: 3098201
  stamp: 
    secs: 1561686135
    nsecs: 534221358
  frame_id: "ti_mmwave"
point_id: 22
x: 0.041015625
y: -0.033203125
z: 0.0625
range: 0.0871539413929
velocity: 0.0
doppler_bin: 8
bearing: -38.9909973145
intensity: 30.1535968781
---
header: 
  seq: 3098202
  stamp: 
    secs: 1561686135
    nsecs: 534232284
  frame_id: "ti_mmwave"
point_id: 23
x: 0.044921875
y: -0.046875
z: 0.103515625
range: 0.130730912089
velocity: 0.0
doppler_bin: 8
bearing: -46.218875885
intensity: 29.0579586029
---
header: 
  seq: 3098203
  stamp: 
    secs: 1561686135
    nsecs: 534248103
  frame_id: "ti_mmwave"
point_id: 25
x: 1.216796875
y: 0.357421875
z: 0.01171875
range: 1.35088610649
velocity: 0.0
doppler_bin: 8
bearing: 16.3696231842
intensity: 19.2427921295
---
header: 
  seq: 3098204
  stamp: 
    secs: 1561686135
    nsecs: 534299714
  frame_id: "ti_mmwave"
point_id: 26
x: 3.20703125
y: -1.861328125
z: -2.689453125
range: 4.88062095642
velocity: 0.0
doppler_bin: 8
bearing: -30.130443573
intensity: 27.6492290497
---
header: 
  seq: 3098205
  stamp: 
    secs: 1561686135
    nsecs: 534310962
  frame_id: "ti_mmwave"
point_id: 27
x: 3.337890625
y: -2.021484375
z: -2.478515625
range: 4.9241976738
velocity: 0.0
doppler_bin: 8
bearing: -31.1998252869
intensity: 27.1933135986
---
header: 
  seq: 3098206
  stamp: 
    secs: 1561686135
    nsecs: 592401729
  frame_id: "ti_mmwave"
point_id: 0
x: 0.01171875
y: -0.0390625
z: -0.0078125
range: 0.0435769706964
velocity: 0.0
doppler_bin: 8
bearing: -73.3007583618
intensity: 30.7371826172
---
header: 
  seq: 3098207
  stamp: 
    secs: 1561686135
    nsecs: 592480847
  frame_id: "ti_mmwave"
point_id: 1
x: 0.017578125
y: -0.080078125
z: -0.0078125
range: 0.0871539413929
velocity: 0.0
doppler_bin: 8
bearing: -77.6192398071
intensity: 31.9810695648
---
header: 
  seq: 3098208
  stamp: 
    secs: 1561686135
    nsecs: 592492682
  frame_id: "ti_mmwave"
point_id: 2
x: 0.029296875
y: -0.119140625
z: -0.00390625
range: 0.130730912089
velocity: 0.0
doppler_bin: 8
bearing: -76.1849746704
intensity: 30.2118930817
---
header: 
  seq: 3098209
  stamp: 
    secs: 1561686135
    nsecs: 592501231
  frame_id: "ti_mmwave"
point_id: 3
x: 0.056640625
y: -0.154296875
z: 0.005859375
range: 0.174307882786
velocity: 0.0
doppler_bin: 8
bearing: -69.8423843384
intensity: 25.5022830963
---
header: 
  seq: 3098210
  stamp: 
    secs: 1561686135
    nsecs: 592509234
  frame_id: "ti_mmwave"
point_id: 4
x: 0.37890625
y: -0.080078125
z: -1.20703125
range: 1.35088610649
velocity: 0.0
doppler_bin: 8
bearing: -11.933303833
intensity: 22.0139713287
---
header: 
  seq: 3098211
  stamp: 
    secs: 1561686135
    nsecs: 592517213
  frame_id: "ti_mmwave"
point_id: 5
x: 0.197265625
y: -0.041015625
z: 1.29296875
range: 1.39446306229
velocity: 0.0
doppler_bin: 8
bearing: -11.7456331253
intensity: 23.3041381836
---
header: 
  seq: 3098212
  stamp: 
    secs: 1561686135
    nsecs: 592525777
  frame_id: "ti_mmwave"
point_id: 6
x: 1.591796875
y: -0.357421875
z: -0.130859375
range: 1.74307882786
velocity: 0.0
doppler_bin: 8
bearing: -12.6552877426
intensity: 29.7635002136
---
header: 
  seq: 3098213
  stamp: 
    secs: 1561686135
    nsecs: 592533789
  frame_id: "ti_mmwave"
point_id: 7
x: 1.6328125
y: -0.3671875
z: -0.119140625
range: 1.78665578365
velocity: 0.0
doppler_bin: 8
bearing: -12.6738595963
intensity: 32.8936576843
---
header: 
  seq: 3098214
  stamp: 
    secs: 1561686135
    nsecs: 592544338
  frame_id: "ti_mmwave"
point_id: 8
x: 1.673828125
y: -0.375
z: -0.1015625
range: 1.83023273945
velocity: 0.0
doppler_bin: 8
bearing: -12.6278743744
intensity: 32.6150093079
---
header: 
  seq: 3098215
  stamp: 
    secs: 1561686135
    nsecs: 592554359
  frame_id: "ti_mmwave"
point_id: 9
x: 1.716796875
y: -0.384765625
z: 0.005859375
range: 1.87380969524
velocity: 0.0
doppler_bin: 8
bearing: -12.6322927475
intensity: 29.6567192078
---
header: 
  seq: 3098216
  stamp: 
    secs: 1561686135
    nsecs: 592562573
  frame_id: "ti_mmwave"
point_id: 10
x: 2.541015625
y: -0.263671875
z: 1.201171875
range: 3.00681090355
velocity: 0.0
doppler_bin: 8
bearing: -5.92417097092
intensity: 29.31457901
---
header: 
  seq: 3098217
  stamp: 
    secs: 1561686135
    nsecs: 592570717
  frame_id: "ti_mmwave"
point_id: 11
x: 2.60546875
y: -0.267578125
z: 1.158203125
range: 3.05038785934
velocity: 0.0
doppler_bin: 8
bearing: -5.86364221573
intensity: 32.7114448547
---
header: 
  seq: 3098218
  stamp: 
    secs: 1561686135
    nsecs: 592578812
  frame_id: "ti_mmwave"
point_id: 12
x: 2.662109375
y: -0.181640625
z: 1.14453125
range: 3.09396481514
velocity: 0.0
doppler_bin: 8
bearing: -3.90334677696
intensity: 31.9200954437
---
header: 
  seq: 3098219
  stamp: 
    secs: 1561686135
    nsecs: 592587391
  frame_id: "ti_mmwave"
point_id: 13
x: 4.384765625
y: -0.287109375
z: 1.294921875
range: 4.88062095642
velocity: 0.0
doppler_bin: 8
bearing: -3.74631309509
intensity: 30.2366390228
---
header: 
  seq: 3098220
  stamp: 
    secs: 1561686135
    nsecs: 592595817
  frame_id: "ti_mmwave"
point_id: 14
x: 4.439453125
y: -0.2890625
z: 1.2578125
range: 4.9241976738
velocity: 0.0
doppler_bin: 8
bearing: -3.7253947258
intensity: 29.5375976562
---
header: 
  seq: 3098221
  stamp: 
    secs: 1561686135
    nsecs: 592620356
  frame_id: "ti_mmwave"
point_id: 15
x: 4.861328125
y: -0.30859375
z: 0.875
range: 5.27281332016
velocity: 0.0
doppler_bin: 8
bearing: -3.63222289085
intensity: 30.3181228638
---
header: 
  seq: 3098222
  stamp: 
    secs: 1561686135
    nsecs: 592640580
  frame_id: "ti_mmwave"
point_id: 16
x: 1.33203125
y: -0.2109375
z: 0.05078125
range: 1.43804001808
velocity: 1.22933733463
doppler_bin: 10
bearing: -8.99850940704
intensity: 22.8330116272
---
header: 
  seq: 3098223
  stamp: 
    secs: 1561686135
    nsecs: 592650467
  frame_id: "ti_mmwave"
point_id: 17
x: 1.37890625
y: -0.173828125
z: 0.06640625
range: 1.48161697388
velocity: 1.22933733463
doppler_bin: 10
bearing: -7.18493795395
intensity: 22.9225616455
---
header: 
  seq: 3098224
  stamp: 
    secs: 1561686135
    nsecs: 592658271
  frame_id: "ti_mmwave"
point_id: 18
x: 1.41796875
y: -0.1796875
z: 0.080078125
range: 1.52519392967
velocity: 1.22933733463
doppler_bin: 10
bearing: -7.22212839127
intensity: 21.5533599854
---
header: 
  seq: 3098225
  stamp: 
    secs: 1561686135
    nsecs: 592672789
  frame_id: "ti_mmwave"
point_id: 19
x: 1.458984375
y: -0.18359375
z: 0.06640625
range: 1.56877088547
velocity: 1.22933733463
doppler_bin: 10
bearing: -7.17221260071
intensity: 21.0037059784
---
header: 
  seq: 3098226
  stamp: 
    secs: 1561686135
    nsecs: 592688118
  frame_id: "ti_mmwave"
point_id: 21
x: 0.041015625
y: -0.033203125
z: 0.0625
range: 0.0871539413929
velocity: 0.0
doppler_bin: 8
bearing: -38.9909973145
intensity: 30.1535968781
---
header: 
  seq: 3098227
  stamp: 
    secs: 1561686135
    nsecs: 592698700
  frame_id: "ti_mmwave"
point_id: 22
x: 0.044921875
y: -0.046875
z: 0.103515625
range: 0.130730912089
velocity: 0.0
doppler_bin: 8
bearing: -46.218875885
intensity: 29.0471553802
---
header: 
  seq: 3098228
  stamp: 
    secs: 1561686135
    nsecs: 592875182
  frame_id: "ti_mmwave"
point_id: 24
x: 1.21484375
y: 0.357421875
z: 0.068359375
range: 1.35088610649
velocity: 0.0
doppler_bin: 8
bearing: 16.3945274353
intensity: 19.1381378174
---
header: 
  seq: 3098229
  stamp: 
    secs: 1561686135
    nsecs: 592897713
  frame_id: "ti_mmwave"
point_id: 25
x: 3.216796875
y: -1.861328125
z: -2.6796875
range: 4.88062095642
velocity: 0.0
doppler_bin: 8
bearing: -30.0548667908
intensity: 27.7451705933
---
header: 
  seq: 3098230
  stamp: 
    secs: 1561686135
    nsecs: 592906692
  frame_id: "ti_mmwave"
point_id: 26
x: 3.255859375
y: -1.876953125
z: -2.69140625
range: 4.9241976738
velocity: 0.0
doppler_bin: 8
bearing: -29.9627895355
intensity: 27.2754135132
---
header: 
  seq: 3098231
  stamp: 
    secs: 1561686135
    nsecs: 593990990
  frame_id: "ti_mmwave"
point_id: 0
x: 0.01171875
y: -0.0390625
z: -0.0078125
range: 0.0435769706964
velocity: 0.0
doppler_bin: 8
bearing: -73.3007583618
intensity: 30.7335166931
---
header: 
  seq: 3098232
  stamp: 
    secs: 1561686135
    nsecs: 594044088
  frame_id: "ti_mmwave"
point_id: 1
x: 0.017578125
y: -0.080078125
z: -0.0078125
range: 0.0871539413929
velocity: 0.0
doppler_bin: 8
bearing: -77.6192398071
intensity: 31.9783172607
---
header: 
  seq: 3098233
  stamp: 
    secs: 1561686135
    nsecs: 594060470
  frame_id: "ti_mmwave"
point_id: 2
x: 0.029296875
y: -0.119140625
z: -0.00390625
range: 0.130730912089
velocity: 0.0
doppler_bin: 8
bearing: -76.1849746704
intensity: 30.2118930817
---
header: 
  seq: 3098234
  stamp: 
    secs: 1561686135
    nsecs: 594074453
  frame_id: "ti_mmwave"
point_id: 3
x: 0.056640625
y: -0.154296875
z: 0.0078125
range: 0.174307882786
velocity: 0.0
doppler_bin: 8
bearing: -69.8423843384
intensity: 25.5144996643
---
header: 
  seq: 3098235
  stamp: 
    secs: 1561686135
    nsecs: 594167460
  frame_id: "ti_mmwave"
point_id: 4
x: 0.359375
y: -0.080078125
z: -1.212890625
range: 1.35088610649
velocity: 0.0
doppler_bin: 8
bearing: -12.5617752075
intensity: 22.0412006378
---
header: 
  seq: 3098236
  stamp: 
    secs: 1561686135
    nsecs: 594184974
  frame_id: "ti_mmwave"
point_id: 5
x: 0.330078125
y: -0.041015625
z: 1.265625
range: 1.39446306229
velocity: 0.0
doppler_bin: 8
bearing: -7.0832862854
intensity: 23.2633590698
---
header: 
  seq: 3098237
  stamp: 
    secs: 1561686135
    nsecs: 594198349
