header: 
  seq: 3082074
  stamp: 
    secs: 1561686112
    nsecs: 612795315
  frame_id: "ti_mmwave"
point_id: 0
x: 0.01171875
y: -0.0390625
z: -0.0078125
range: 0.0435769706964
velocity: 0.0
doppler_bin: 8
bearing: -73.3007583618
intensity: 30.7408466339
---
header: 
  seq: 3082075
  stamp: 
    secs: 1561686112
    nsecs: 612888624
  frame_id: "ti_mmwave"
point_id: 1
x: 0.017578125
y: -0.080078125
z: -0.0078125
range: 0.0871539413929
velocity: 0.0
doppler_bin: 8
bearing: -77.6192398071
intensity: 31.9810695648
---
header: 
  seq: 3082076
  stamp: 
    secs: 1561686112
    nsecs: 612913109
  frame_id: "ti_mmwave"
point_id: 2
x: 0.029296875
y: -0.119140625
z: -0.00390625
range: 0.130730912089
velocity: 0.0
doppler_bin: 8
bearing: -76.1849746704
intensity: 30.2077541351
---
header: 
  seq: 3082077
  stamp: 
    secs: 1561686112
    nsecs: 612927392
  frame_id: "ti_mmwave"
point_id: 3
x: 0.056640625
y: -0.154296875
z: 0.005859375
range: 0.174307882786
velocity: 0.0
doppler_bin: 8
bearing: -69.8423843384
intensity: 25.5022830963
---
header: 
  seq: 3082078
  stamp: 
    secs: 1561686112
    nsecs: 612939943
  frame_id: "ti_mmwave"
point_id: 4
x: 0.33984375
y: -0.080078125
z: -1.21875
range: 1.35088610649
velocity: 0.0
doppler_bin: 8
bearing: -13.2588720322
intensity: 22.0139713287
---
header: 
  seq: 3082079
  stamp: 
    secs: 1561686112
    nsecs: 612952124
  frame_id: "ti_mmwave"
point_id: 5
x: 0.34375
y: -0.041015625
z: 1.26171875
range: 1.39446306229
velocity: 0.0
doppler_bin: 8
bearing: -6.80425977707
intensity: 23.2428245544
---
header: 
  seq: 3082080
  stamp: 
    secs: 1561686112
    nsecs: 612964302
  frame_id: "ti_mmwave"
point_id: 6
x: 0.45703125
y: -0.0
z: 1.26953125
range: 1.43804001808
velocity: 0.0
doppler_bin: 8
bearing: -0.0
intensity: 21.9312458038
---
header: 
  seq: 3082081
  stamp: 
    secs: 1561686112
    nsecs: 612977563
  frame_id: "ti_mmwave"
point_id: 7
x: 1.634765625
y: 0.26171875
z: 0.265625
range: 1.78665578365
velocity: 0.0
doppler_bin: 8
bearing: 9.09561634064
intensity: 27.7232170105
---
header: 
  seq: 3082082
  stamp: 
    secs: 1561686112
    nsecs: 612989761
  frame_id: "ti_mmwave"
point_id: 8
x: 1.66015625
y: 0.267578125
z: 0.353515625
range: 1.83023273945
velocity: 0.0
doppler_bin: 8
bearing: 9.15598869324
intensity: 28.7737140656
---
header: 
  seq: 3082083
  stamp: 
    secs: 1561686112
    nsecs: 613083809
  frame_id: "ti_mmwave"
point_id: 9
x: 1.689453125
y: 0.275390625
z: 0.40234375
range: 1.87380969524
velocity: 0.0
doppler_bin: 8
bearing: 9.25811767578
intensity: 27.7815132141
---
header: 
  seq: 3082084
  stamp: 
    secs: 1561686112
    nsecs: 613103725
  frame_id: "ti_mmwave"
point_id: 10
x: 2.5625
y: -0.263671875
z: 1.15234375
range: 3.00681090355
velocity: 0.0
doppler_bin: 8
bearing: -5.87485074997
intensity: 29.4051647186
---
header: 
  seq: 3082085
  stamp: 
    secs: 1561686112
    nsecs: 613118432
  frame_id: "ti_mmwave"
point_id: 11
x: 2.619140625
y: -0.1796875
z: 1.14453125
range: 3.05038785934
velocity: 0.0
doppler_bin: 8
bearing: -3.9246571064
intensity: 32.7737998962
---
header: 
  seq: 3082086
  stamp: 
    secs: 1561686112
    nsecs: 613132421
  frame_id: "ti_mmwave"
point_id: 12
x: 2.66015625
y: -0.181640625
z: 1.15234375
range: 3.09396481514
velocity: 0.0
doppler_bin: 8
bearing: -3.90620398521
intensity: 32.04662323
---
header: 
  seq: 3082087
  stamp: 
    secs: 1561686112
    nsecs: 613146321
  frame_id: "ti_mmwave"
point_id: 13
x: 4.412109375
y: -0.287109375
z: 1.203125
range: 4.88062095642
velocity: 0.0
doppler_bin: 8
bearing: -3.72316122055
intensity: 30.8278541565
---
header: 
  seq: 3082088
  stamp: 
    secs: 1561686112
    nsecs: 613160427
  frame_id: "ti_mmwave"
point_id: 14
x: 4.431640625
y: -0.2890625
z: 1.28515625
range: 4.9241976738
velocity: 0.0
doppler_bin: 8
bearing: -3.73194360733
intensity: 30.2734966278
---
header: 
  seq: 3082089
  stamp: 
    secs: 1561686112
    nsecs: 613173583
  frame_id: "ti_mmwave"
point_id: 15
x: 4.73828125
y: -0.44921875
z: -0.5078125
range: 5.09850549698
velocity: 0.0
doppler_bin: 8
bearing: -5.4158115387
intensity: 33.1827201843
---
header: 
  seq: 3082090
  stamp: 
    secs: 1561686112
    nsecs: 613186164
  frame_id: "ti_mmwave"
point_id: 16
x: 4.79296875
y: -0.453125
z: -0.349609375
range: 5.14208269119
velocity: 0.0
doppler_bin: 8
bearing: -5.40066432953
intensity: 33.562171936
---
header: 
  seq: 3082091
  stamp: 
    secs: 1561686112
    nsecs: 613198604
  frame_id: "ti_mmwave"
point_id: 17
x: 4.857421875
y: -0.3046875
z: 0.076171875
range: 5.18565940857
velocity: 0.0
doppler_bin: 8
bearing: -3.58924269676
intensity: 30.157787323
---
header: 
  seq: 3082092
  stamp: 
    secs: 1561686112
    nsecs: 613212121
  frame_id: "ti_mmwave"
point_id: 18
x: 4.853515625
y: -0.306640625
z: 0.666015625
range: 5.22923660278
velocity: 0.0
doppler_bin: 8
bearing: -3.6150894165
intensity: 30.2448558807
---
header: 
  seq: 3082093
  stamp: 
    secs: 1561686112
    nsecs: 613223929
  frame_id: "ti_mmwave"
point_id: 19
x: 4.861328125
y: -0.46484375
z: 0.810546875
range: 5.27281332016
velocity: 0.0
doppler_bin: 8
bearing: -5.46205759048
intensity: 30.8278541565
---
header: 
  seq: 3082094
  stamp: 
    secs: 1561686112
    nsecs: 613235575
  frame_id: "ti_mmwave"
point_id: 20
x: 1.353515625
y: 0.3046875
z: 0.107421875
range: 1.48161697388
velocity: 1.22933733463
doppler_bin: 10
bearing: 12.6862850189
intensity: 24.0483379364
---
header: 
  seq: 3082095
  stamp: 
    secs: 1561686112
    nsecs: 613247692
  frame_id: "ti_mmwave"
point_id: 21
x: 1.392578125
y: 0.3125
z: 0.10546875
range: 1.52519392967
velocity: 1.22933733463
doppler_bin: 10
bearing: 12.6478729248
intensity: 25.6229286194
---
header: 
  seq: 3082096
  stamp: 
    secs: 1561686112
    nsecs: 613259526
  frame_id: "ti_mmwave"
point_id: 22
x: 1.431640625
y: 0.322265625
z: 0.115234375
range: 1.56877088547
velocity: 1.22933733463
doppler_bin: 10
bearing: 12.685962677
intensity: 23.3243846893
---
header: 
  seq: 3082097
  stamp: 
    secs: 1561686112
    nsecs: 613271855
  frame_id: "ti_mmwave"
point_id: 23
x: 1.255859375
y: 0.119140625
z: -0.123046875
range: 1.35088610649
velocity: -2.45867466927
doppler_bin: 4
bearing: 5.41930627823
intensity: 23.9619941711
---
header: 
  seq: 3082098
  stamp: 
    secs: 1561686112
    nsecs: 613283242
  frame_id: "ti_mmwave"
point_id: 24
x: 1.298828125
y: 0.123046875
z: -0.109375
range: 1.39446306229
velocity: -2.45867466927
doppler_bin: 4
bearing: 5.41186904907
intensity: 25.7170886993
---
header: 
  seq: 3082099
  stamp: 
    secs: 1561686112
    nsecs: 613294891
  frame_id: "ti_mmwave"
point_id: 25
x: 1.33984375
y: 0.126953125
z: -0.111328125
range: 1.43804001808
velocity: -2.45867466927
doppler_bin: 4
bearing: 5.4127407074
intensity: 24.2651119232
---
header: 
  seq: 3082100
  stamp: 
    secs: 1561686112
    nsecs: 613377177
  frame_id: "ti_mmwave"
point_id: 26
x: 1.380859375
y: 0.087890625
z: -0.14453125
range: 1.48161697388
velocity: -2.45867466927
doppler_bin: 4
bearing: 3.64191913605
intensity: 21.5533599854
---
header: 
  seq: 3082101
  stamp: 
    secs: 1561686112
    nsecs: 613397412
  frame_id: "ti_mmwave"
point_id: 28
x: 0.041015625
y: -0.033203125
z: 0.0625
range: 0.0871539413929
velocity: 0.0
doppler_bin: 8
bearing: -38.9909973145
intensity: 30.1494026184
---
header: 
  seq: 3082102
  stamp: 
    secs: 1561686112
    nsecs: 613410923
  frame_id: "ti_mmwave"
point_id: 29
x: 0.044921875
y: -0.046875
z: 0.103515625
range: 0.130730912089
velocity: 0.0
doppler_bin: 8
bearing: -46.218875885
intensity: 29.0525608063
---
header: 
  seq: 3082103
  stamp: 
    secs: 1561686112
    nsecs: 613426909
  frame_id: "ti_mmwave"
point_id: 31
x: 1.21484375
y: 0.357421875
z: 0.0703125
range: 1.35088610649
velocity: 0.0
doppler_bin: 8
bearing: 16.3945274353
intensity: 19.2941894531
---
header: 
  seq: 3082104
  stamp: 
    secs: 1561686112
    nsecs: 613441068
  frame_id: "ti_mmwave"
point_id: 32
x: 2.990234375
y: -2.021484375
z: -2.88671875
range: 4.9241976738
velocity: 0.0
doppler_bin: 8
bearing: -34.0598258972
intensity: 27.3078231812
---
header: 
  seq: 3082105
  stamp: 
    secs: 1561686112
    nsecs: 672290022
  frame_id: "ti_mmwave"
point_id: 0
x: 0.01171875
y: -0.0390625
z: -0.0078125
range: 0.0435769706964
velocity: 0.0
doppler_bin: 8
bearing: -73.3007583618
intensity: 30.7408466339
---
header: 
  seq: 3082106
  stamp: 
    secs: 1561686112
    nsecs: 672408172
  frame_id: "ti_mmwave"
point_id: 1
x: 0.017578125
y: -0.080078125
z: -0.0078125
range: 0.0871539413929
velocity: 0.0
doppler_bin: 8
bearing: -77.6192398071
intensity: 31.9783172607
---
header: 
  seq: 3082107
  stamp: 
    secs: 1561686112
    nsecs: 672446323
  frame_id: "ti_mmwave"
point_id: 2
x: 0.029296875
y: -0.119140625
z: -0.00390625
range: 0.130730912089
velocity: 0.0
doppler_bin: 8
bearing: -76.1849746704
intensity: 30.2077541351
---
header: 
  seq: 3082108
  stamp: 
    secs: 1561686112
    nsecs: 672554434
  frame_id: "ti_mmwave"
point_id: 3
x: 0.056640625
y: -0.154296875
z: 0.005859375
range: 0.174307882786
velocity: 0.0
doppler_bin: 8
bearing: -69.8423843384
intensity: 25.5022830963
---
header: 
  seq: 3082109
  stamp: 
    secs: 1561686112
    nsecs: 672572771
  frame_id: "ti_mmwave"
point_id: 4
x: 0.421875
y: -0.080078125
z: -1.193359375
range: 1.35088610649
velocity: 0.0
doppler_bin: 8
bearing: -10.7477264404
intensity: 21.875207901
---
header: 
  seq: 3082110
  stamp: 
    secs: 1561686112
    nsecs: 672585577
  frame_id: "ti_mmwave"
point_id: 5
x: 0.234375
y: -0.041015625
z: 1.287109375
range: 1.39446306229
velocity: 0.0
doppler_bin: 8
bearing: -9.92624568939
intensity: 23.138671875
---
header: 
  seq: 3082111
  stamp: 
    secs: 1561686112
    nsecs: 672623185
  frame_id: "ti_mmwave"
point_id: 6
x: 0.37109375
y: -0.0
z: 1.298828125
range: 1.43804001808
velocity: 0.0
doppler_bin: 8
bearing: -0.0
intensity: 21.7609119415
---
header: 
  seq: 3082112
  stamp: 
    secs: 1561686112
    nsecs: 672642076
  frame_id: "ti_mmwave"
point_id: 7
x: 1.623046875
y: 0.205078125
z: 0.0078125
range: 1.74307882786
velocity: 0.0
doppler_bin: 8
bearing: 7.20137643814
intensity: 28.0071716309
---
header: 
  seq: 3082113
  stamp: 
    secs: 1561686112
    nsecs: 672657387
  frame_id: "ti_mmwave"
point_id: 8
x: 1.662109375
y: 0.208984375
z: 0.08203125
range: 1.78665578365
velocity: 0.0
doppler_bin: 8
bearing: 7.16644525528
intensity: 31.2742881775
---
header: 
  seq: 3082114
  stamp: 
    secs: 1561686112
    nsecs: 672674581
  frame_id: "ti_mmwave"
point_id: 9
x: 1.6953125
y: 0.21484375
z: 0.171875
range: 1.83023273945
velocity: 0.0
doppler_bin: 8
bearing: 7.22248601913
intensity: 30.8990516663
---
header: 
  seq: 3082115
  stamp: 
    secs: 1561686112
    nsecs: 672716714
  frame_id: "ti_mmwave"
point_id: 10
x: 1.701171875
y: 0.220703125
z: 0.38671875
range: 1.87380969524
velocity: 0.0
doppler_bin: 8
bearing: 7.39203262329
intensity: 28.2151355743
---
header: 
  seq: 3082116
  stamp: 
    secs: 1561686112
    nsecs: 672731558
  frame_id: "ti_mmwave"
point_id: 11
x: 2.548828125
y: -0.263671875
z: 1.18359375
range: 3.00681090355
velocity: 0.0
doppler_bin: 8
bearing: -5.90614128113
intensity: 29.3701610565
---
header: 
  seq: 3082117
  stamp: 
    secs: 1561686112
    nsecs: 672744255
  frame_id: "ti_mmwave"
point_id: 12
x: 2.6015625
y: -0.267578125
z: 1.1640625
range: 3.05038785934
velocity: 0.0
doppler_bin: 8
bearing: -5.87238502502
intensity: 32.7346420288
---
header: 
  seq: 3082118
  stamp: 
    secs: 1561686112
    nsecs: 672777460
  frame_id: "ti_mmwave"
point_id: 13
x: 2.66015625
y: -0.181640625
z: 1.15234375
range: 3.09396481514
velocity: 0.0
doppler_bin: 8
bearing: -3.90620398521
intensity: 31.9479179382
---
header: 
  seq: 3082119
  stamp: 
    secs: 1561686112
    nsecs: 672792771
  frame_id: "ti_mmwave"
point_id: 14
x: 4.404296875
y: -0.287109375
z: 1.2265625
range: 4.88062095642
velocity: 0.0
doppler_bin: 8
bearing: -3.72974681854
intensity: 30.9272060394
---
header: 
  seq: 3082120
  stamp: 
    secs: 1561686112
    nsecs: 672806897
  frame_id: "ti_mmwave"
point_id: 15
x: 4.419921875
y: -0.2890625
z: 1.3203125
range: 4.9241976738
velocity: 0.0
doppler_bin: 8
bearing: -3.74181032181
intensity: 30.5076637268
---
header: 
  seq: 3082121
  stamp: 
    secs: 1561686112
    nsecs: 672818873
  frame_id: "ti_mmwave"
point_id: 16
x: 4.73828125
y: -0.44921875
z: -0.498046875
range: 5.09850549698
velocity: 0.0
doppler_bin: 8
bearing: -5.4158115387
intensity: 32.997253418
---
header: 
  seq: 3082122
  stamp: 
    secs: 1561686112
    nsecs: 672833225
  frame_id: "ti_mmwave"
point_id: 17
x: 4.791015625
y: -0.453125
z: -0.369140625
range: 5.14208269119
velocity: 0.0
doppler_bin: 8
bearing: -5.40285253525
intensity: 33.3385009766
---
header: 
  seq: 3082123
  stamp: 
    secs: 1561686112
    nsecs: 672845767
  frame_id: "ti_mmwave"
point_id: 18
x: 4.857421875
y: -0.3046875
z: 0.09765625
range: 5.18565940857
velocity: 0.0
doppler_bin: 8
bearing: -3.58924269676
intensity: 29.9211139679
---
header: 
  seq: 3082124
  stamp: 
    secs: 1561686112
    nsecs: 672857643
  frame_id: "ti_mmwave"
point_id: 19
x: 4.814453125
y: -0.4609375
z: 0.8359375
range: 5.22923660278
velocity: 0.0
doppler_bin: 8
bearing: -5.46884965897
intensity: 30.2118930817
---
header: 
  seq: 3082125
  stamp: 
    secs: 1561686112
    nsecs: 672866606
  frame_id: "ti_mmwave"
point_id: 20
x: 4.8515625
y: -0.46484375
z: 0.865234375
range: 5.27281332016
velocity: 0.0
doppler_bin: 8
bearing: -5.47298574448
intensity: 30.7736797333
---
header: 
  seq: 3082126
  stamp: 
    secs: 1561686112
    nsecs: 672909646
  frame_id: "ti_mmwave"
point_id: 21
x: 1.39453125
y: 0.3125
z: 0.095703125
range: 1.52519392967
velocity: 1.22933733463
doppler_bin: 10
bearing: 12.6307277679
intensity: 22.718416214
---
header: 
  seq: 3082127
  stamp: 
    secs: 1561686112
    nsecs: 672926339
  frame_id: "ti_mmwave"
point_id: 22
x: 1.43359375
y: 0.322265625
z: 0.09375
range: 1.56877088547
velocity: 1.22933733463
doppler_bin: 10
bearing: 12.6692380905
intensity: 23.8021125793
---
header: 
  seq: 3082128
  stamp: 
    secs: 1561686112
    nsecs: 672938887
  frame_id: "ti_mmwave"
point_id: 23
x: 1.470703125
y: 0.33203125
z: 0.12890625
range: 1.61234796047
velocity: 1.22933733463
doppler_bin: 10
bearing: 12.7220201492
intensity: 20.8278541565
---
header: 
  seq: 3082129
  stamp: 
    secs: 1561686112
    nsecs: 672951415
  frame_id: "ti_mmwave"
point_id: 24
x: 1.17578125
y: 0.037109375
z: -0.16015625
range: 1.2637321949
velocity: -1.22933733463
doppler_bin: 6
bearing: 1.80773854256
intensity: 21.4612808228
---
header: 
  seq: 3082130
  stamp: 
    secs: 1561686112
    nsecs: 672965909
  frame_id: "ti_mmwave"
point_id: 25
x: 1.216796875
y: 0.076171875
z: -0.14453125
range: 1.3073091507
velocity: -1.22933733463
doppler_bin: 6
bearing: 3.58205986023
intensity: 24.5939254761
---
header: 
  seq: 3082131
  stamp: 
    secs: 1561686112
    nsecs: 672974490
  frame_id: "ti_mmwave"
point_id: 26
x: 1.259765625
y: 0.080078125
z: -0.123046875
range: 1.35088610649
velocity: -1.22933733463
doppler_bin: 6
bearing: 3.63716411591
intensity: 24.5331840515
---
header: 
  seq: 3082132
  stamp: 
    secs: 1561686112
    nsecs: 673080736
  frame_id: "ti_mmwave"
point_id: 27
x: 1.302734375
y: 0.041015625
z: -0.12890625
range: 1.39446306229
velocity: -1.22933733463
doppler_bin: 6
bearing: 1.80331933498
intensity: 23.4830493927
---
header: 
  seq: 3082133
  stamp: 
    secs: 1561686112
    nsecs: 673100339
  frame_id: "ti_mmwave"
point_id: 28
x: 1.33984375
y: 0.04296875
z: -0.1640625
range: 1.43804001808
velocity: -1.22933733463
doppler_bin: 6
bearing: 1.83684444427
intensity: 23.2633590698
---
header: 
  seq: 3082134
  stamp: 
    secs: 1561686112
    nsecs: 673115719
  frame_id: "ti_mmwave"
point_id: 29
x: 1.587890625
y: 0.05078125
z: -0.1484375
range: 1.69950187206
velocity: -1.22933733463
doppler_bin: 6
bearing: 1.83171308041
intensity: 23.6548805237
---
header: 
  seq: 3082135
  stamp: 
    secs: 1561686112
    nsecs: 673127618
  frame_id: "ti_mmwave"
point_id: 31
x: 0.041015625
y: -0.033203125
z: 0.0625
range: 0.0871539413929
velocity: 0.0
doppler_bin: 8
bearing: -38.9909973145
intensity: 30.1494026184
---
header: 
  seq: 3082136
  stamp: 
    secs: 1561686112
    nsecs: 673340115
  frame_id: "ti_mmwave"
point_id: 32
x: 0.044921875
y: -0.046875
z: 0.103515625
range: 0.130730912089
velocity: 0.0
doppler_bin: 8
bearing: -46.218875885
intensity: 29.0579586029
---
header: 
  seq: 3082137
  stamp: 
    secs: 1561686112
    nsecs: 673364730
  frame_id: "ti_mmwave"
point_id: 34
x: 1.21484375
y: 0.357421875
z: 0.08203125
range: 1.35088610649
velocity: 0.0
doppler_bin: 8
bearing: 16.3945274353
intensity: 19.3449840546
---
header: 
  seq: 3082138
  stamp: 
    secs: 1561686112
    nsecs: 674276611
  frame_id: "ti_mmwave"
point_id: 0
x: 0.01171875
y: -0.0390625
z: -0.0078125
range: 0.0435769706964
velocity: 0.0
doppler_bin: 8
bearing: -73.3007583618
intensity: 30.7408466339
---
header: 
  seq: 3082139
  stamp: 
    secs: 1561686112
    nsecs: 674341401
  frame_id: "ti_mmwave"
point_id: 1
x: 0.017578125
y: -0.080078125
z: -0.0078125
range: 0.0871539413929
velocity: 0.0
doppler_bin: 8
bearing: -77.6192398071
intensity: 31.9810695648
---
header: 
  seq: 3082140
  stamp: 
    secs: 1561686112
    nsecs: 674359255
  frame_id: "ti_mmwave"
point_id: 2
x: 0.029296875
y: -0.119140625
z: -0.00390625
range: 0.130730912089
velocity: 0.0
doppler_bin: 8
bearing: -76.1849746704
intensity: 30.2118930817
---
header: 
  seq: 3082141
  stamp: 
    secs: 1561686112
    nsecs: 674372198
  frame_id: "ti_mmwave"
point_id: 3
x: 0.056640625
y: -0.154296875
z: 0.005859375
range: 0.174307882786
velocity: 0.0
doppler_bin: 8
bearing: -69.8423843384
intensity: 25.5144996643
---
header: 
  seq: 3082142
  stamp: 
    secs: 1561686112
    nsecs: 674385857
  frame_id: "ti_mmwave"
point_id: 4
x: 0.681640625
y: -0.080078125
z: 1.06640625
range: 1.35088610649
velocity: 0.0
doppler_bin: 8
bearing: -6.70031118393
intensity: 22.5767860413
---
header: 
  seq: 3082143
  stamp: 
    secs: 1561686112
    nsecs: 674397740
  frame_id: "ti_mmwave"
point_id: 5
x: 0.2265625
y: -0.041015625
z: 1.2890625
range: 1.39446306229
velocity: 0.0
doppler_bin: 8
bearing: -10.2613735199
intensity: 24.2813472748
---
header: 
  seq: 3082144
  stamp: 
    secs: 1561686112
    nsecs: 674504427
  frame_id: "ti_mmwave"
point_id: 6
x: 0.443359375
y: -0.0
z: -1.275390625
range: 1.43804001808
velocity: 0.0
doppler_bin: 8
bearing: -0.0
intensity: 23.031961441
---
header: 
  seq: 3082145
  stamp: 
    secs: 1561686112
    nsecs: 674560797
  frame_id: "ti_mmwave"
point_id: 7
x: 1.623046875
y: 0.205078125
z: -0.001953125
range: 1.74307882786
velocity: 0.0
doppler_bin: 8
bearing: 7.20137643814
intensity: 27.5511226654
---
header: 
  seq: 3082146
  stamp: 
    secs: 1561686112
    nsecs: 674574157
  frame_id: "ti_mmwave"
point_id: 8
x: 1.662109375
y: 0.208984375
z: 0.0625
range: 1.78665578365
velocity: 0.0
doppler_bin: 8
bearing: 7.16644525528
intensity: 30.4020671844
---
header: 
  seq: 3082147
  stamp: 
    secs: 1561686112
    nsecs: 674607790
  frame_id: "ti_mmwave"
point_id: 9
x: 1.6953125
y: 0.267578125
z: 0.09375
range: 1.83023273945
velocity: 0.0
doppler_bin: 8
bearing: 8.96923732758
intensity: 31.0482845306
---
header: 
  seq: 3082148
  stamp: 
    secs: 1561686112
    nsecs: 674633327
  frame_id: "ti_mmwave"
point_id: 10
x: 1.7421875
y: 0.220703125
z: 0.095703125
range: 1.87380969524
velocity: 0.0
doppler_bin: 8
bearing: 7.21986341476
intensity: 29.8811283112
---
header: 
  seq: 3082149
  stamp: 
    secs: 1561686112
    nsecs: 674663385
  frame_id: "ti_mmwave"
point_id: 11
x: 1.765625
y: 0.337890625
z: -0.087890625
range: 1.91738677025
velocity: 0.0
doppler_bin: 8
bearing: 10.8338012695
intensity: 27.2754135132
---
header: 
  seq: 3082150
  stamp: 
    secs: 1561686112
    nsecs: 674693802
  frame_id: "ti_mmwave"
point_id: 12
x: 2.55078125
y: -0.263671875
z: 1.1796875
range: 3.00681090355
velocity: 0.0
doppler_bin: 8
bearing: -5.90165042877
intensity: 29.3851966858
---
header: 
  seq: 3082151
  stamp: 
    secs: 1561686112
    nsecs: 674755552
  frame_id: "ti_mmwave"
point_id: 13
x: 2.60546875
y: -0.267578125
z: 1.15625
range: 3.05038785934
velocity: 0.0
doppler_bin: 8
bearing: -5.86364221573
intensity: 32.7392692566
---
header: 
  seq: 3082152
  stamp: 
    secs: 1561686112
    nsecs: 674782389
  frame_id: "ti_mmwave"
point_id: 14
x: 2.662109375
y: -0.181640625
z: 1.1484375
range: 3.09396481514
velocity: 0.0
doppler_bin: 8
bearing: -3.90334677696
intensity: 32.0112380981
---
header: 
  seq: 3082153
  stamp: 
    secs: 1561686112
    nsecs: 674795922
  frame_id: "ti_mmwave"
point_id: 15
x: 4.404296875
y: -0.287109375
z: 1.2265625
range: 4.88062095642
velocity: 0.0
doppler_bin: 8
bearing: -3.72974681854
intensity: 30.8564720154
---
header: 
  seq: 3082154
  stamp: 
    secs: 1561686112
    nsecs: 674817490
  frame_id: "ti_mmwave"
point_id: 16
x: 4.4375
y: -0.2890625
z: 1.2578125
range: 4.9241976738
velocity: 0.0
doppler_bin: 8
bearing: -3.72702980042
intensity: 30.5652370453
---
header: 
  seq: 3082155
  stamp: 
    secs: 1561686112
    nsecs: 674914457
  frame_id: "ti_mmwave"
point_id: 17
x: 4.681640625
y: -0.4453125
z: -0.63671875
range: 5.0549287796
velocity: 0.0
doppler_bin: 8
bearing: -5.43356370926
intensity: 29.6189556122
---
header: 
  seq: 3082156
  stamp: 
    secs: 1561686112
    nsecs: 674937929
  frame_id: "ti_mmwave"
point_id: 18
x: 4.73828125
y: -0.44921875
z: -0.5
range: 5.09850549698
velocity: 0.0
doppler_bin: 8
bearing: -5.4158115387
intensity: 33.3344726562
---
header: 
  seq: 3082157
  stamp: 
    secs: 1561686112
    nsecs: 674952897
  frame_id: "ti_mmwave"
point_id: 19
x: 4.79296875
y: -0.453125
z: -0.353515625
range: 5.14208269119
velocity: 0.0
doppler_bin: 8
bearing: -5.40066432953
intensity: 33.6380004883
---
header: 
  seq: 3082158
  stamp: 
    secs: 1561686112
    nsecs: 674965593
  frame_id: "ti_mmwave"
point_id: 20
x: 4.857421875
y: -0.3046875
z: 0.083984375
range: 5.18565940857
velocity: 0.0
doppler_bin: 8
bearing: -3.58924269676
intensity: 30.2857131958
---
header: 
  seq: 3082159
  stamp: 
    secs: 1561686112
    nsecs: 674980041
  frame_id: "ti_mmwave"
point_id: 21
x: 4.830078125
y: -0.4609375
z: 0.740234375
range: 5.22923660278
velocity: 0.0
doppler_bin: 8
bearing: -5.45126533508
intensity: 30.2694168091
---
header: 
  seq: 3082160
  stamp: 
    secs: 1561686112
    nsecs: 674991494
  frame_id: "ti_mmwave"
point_id: 22
x: 4.861328125
y: -0.46484375
z: 0.8046875
range: 5.27281332016
velocity: 0.0
doppler_bin: 8
bearing: -5.46205759048
intensity: 30.6220588684
---
header: 
  seq: 3082161
  stamp: 
    secs: 1561686112
    nsecs: 675041439
  frame_id: "ti_mmwave"
point_id: 23
x: 1.453125
y: 0.42578125
z: -0.01171875
range: 1.61234796047
velocity: 0.614668667316
doppler_bin: 9
bearing: 16.3311519623
intensity: 24.1995582581
---
header: 
  seq: 3082162
  stamp: 
    secs: 1561686112
    nsecs: 675055761
  frame_id: "ti_mmwave"
point_id: 24
x: 1.431640625
y: 0.322265625
z: 0.1171875
range: 1.56877088547
velocity: 1.22933733463
doppler_bin: 10
bearing: 12.685962677
intensity: 22.900346756
---
header: 
  seq: 3082163
  stamp: 
    secs: 1561686112
    nsecs: 675069231
  frame_id: "ti_mmwave"
point_id: 25
x: 1.1328125
y: 0.107421875
z: -0.13671875
range: 1.22015523911
velocity: -0.614668667316
doppler_bin: 7
bearing: 5.41702222824
intensity: 20.4921798706
---
header: 
  seq: 3082164
  stamp: 
    secs: 1561686112
    nsecs: 675082791
  frame_id: "ti_mmwave"
point_id: 26
x: 1.173828125
y: 0.111328125
z: -0.134765625
range: 1.2637321949
velocity: -0.614668667316
doppler_bin: 7
bearing: 5.41783666611
intensity: 25.1188335419
---
header: 
  seq: 3082165
  stamp: 
    secs: 1561686112
    nsecs: 675111124
  frame_id: "ti_mmwave"
point_id: 27
x: 1.21484375
y: 0.115234375
z: -0.134765625
range: 1.3073091507
velocity: -0.614668667316
doppler_bin: 7
bearing: 5.41859674454
intensity: 25.7863922119
---
header: 
  seq: 3082166
  stamp: 
    secs: 1561686112
    nsecs: 675130302
  frame_id: "ti_mmwave"
point_id: 29
x: 0.041015625
y: -0.033203125
z: 0.0625
range: 0.0871539413929
velocity: 0.0
doppler_bin: 8
bearing: -38.9909973145
intensity: 30.1535968781
---
header: 
  seq: 3082167
  stamp: 
    secs: 1561686112
    nsecs: 675224023
  frame_id: "ti_mmwave"
point_id: 30
x: 0.044921875
y: -0.046875
z: 0.103515625
range: 0.130730912089
velocity: 0.0
doppler_bin: 8
bearing: -46.218875885
intensity: 29.0579586029
---
header: 
  seq: 3082168
  stamp: 
    secs: 1561686112
    nsecs: 732255690
  frame_id: "ti_mmwave"
point_id: 0
x: 0.01171875
y: -0.0390625
z: -0.0078125
range: 0.0435769706964
velocity: 0.0
doppler_bin: 8
bearing: -73.3007583618
intensity: 30.7408466339
---
header: 
  seq: 3082169
  stamp: 
    secs: 1561686112
    nsecs: 732332640
  frame_id: "ti_mmwave"
point_id: 1
x: 0.017578125
y: -0.080078125
z: -0.0078125
range: 0.0871539413929
velocity: 0.0
doppler_bin: 8
bearing: -77.6192398071
intensity: 31.9783172607
---
header: 
  seq: 3082170
  stamp: 
    secs: 1561686112
    nsecs: 732343803
  frame_id: "ti_mmwave"
point_id: 2
x: 0.029296875
y: -0.119140625
z: -0.00390625
range: 0.130730912089
velocity: 0.0
doppler_bin: 8
bearing: -76.1849746704
intensity: 30.2118930817
---
header: 
  seq: 3082171
  stamp: 
    secs: 1561686112
    nsecs: 732352235
  frame_id: "ti_mmwave"
point_id: 3
x: 0.056640625
y: -0.154296875
z: 0.005859375
range: 0.174307882786
velocity: 0.0
doppler_bin: 8
bearing: -69.8423843384
intensity: 25.5022830963
---
header: 
  seq: 3082172
  stamp: 
    secs: 1561686112
    nsecs: 732361518
  frame_id: "ti_mmwave"
point_id: 4
x: 1.12890625
y: 0.072265625
z: -0.181640625
range: 1.22015523911
velocity: 0.0
doppler_bin: 8
bearing: 3.66272521019
intensity: 24.5178642273
---
header: 
  seq: 3082173
  stamp: 
    secs: 1561686112
    nsecs: 732369855
  frame_id: "ti_mmwave"
point_id: 5
x: 1.173828125
y: 0.07421875
z: -0.158203125
range: 1.2637321949
velocity: 0.0
doppler_bin: 8
bearing: 3.61787867546
intensity: 26.9372692108
---
header: 
  seq: 3082174
  stamp: 
    secs: 1561686112
    nsecs: 732378217
  frame_id: "ti_mmwave"
point_id: 6
x: 1.212890625
y: 0.154296875
z: -0.107421875
range: 1.3073091507
velocity: 0.0
doppler_bin: 8
bearing: 7.2498922348
intensity: 25.3275432587
---
header: 
  seq: 3082175
  stamp: 
    secs: 1561686112
    nsecs: 732388141
  frame_id: "ti_mmwave"
point_id: 7
x: 0.87109375
y: -0.080078125
z: -0.91796875
range: 1.35088610649
velocity: 0.0
doppler_bin: 8
bearing: -5.25233840942
intensity: 24.3616256714
---
header: 
  seq: 3082176
  stamp: 
    secs: 1561686112
    nsecs: 732397127
  frame_id: "ti_mmwave"
point_id: 8
x: 1.169921875
y: -0.041015625
z: -0.587890625
range: 1.39446306229
velocity: 0.0
doppler_bin: 8
bearing: -2.00787782669
intensity: 26.394865036
---
header: 
  seq: 3082177
  stamp: 
    secs: 1561686112
    nsecs: 732404598
  frame_id: "ti_mmwave"
point_id: 9
x: 1.623046875
y: 0.205078125
z: 0.013671875
range: 1.74307882786
velocity: 0.0
doppler_bin: 8
bearing: 7.20137643814
intensity: 27.774269104
---
header: 
  seq: 3082178
  stamp: 
    secs: 1561686112
    nsecs: 732421976
  frame_id: "ti_mmwave"
point_id: 10
x: 1.666015625
y: 0.158203125
z: -0.095703125
range: 1.78665578365
velocity: 0.0
doppler_bin: 8
bearing: 5.42448234558
intensity: 28.3821926117
---
header: 
  seq: 3082179
  stamp: 
    secs: 1561686112
    nsecs: 732432256
  frame_id: "ti_mmwave"
point_id: 11
x: 2.53515625
y: -0.263671875
z: 1.2109375
range: 3.00681090355
velocity: 0.0
doppler_bin: 8
bearing: -5.9377655983
intensity: 29.2992954254
---
header: 
  seq: 3082180
  stamp: 
    secs: 1561686112
    nsecs: 732608954
  frame_id: "ti_mmwave"
point_id: 12
x: 2.59765625
y: -0.267578125
z: 1.173828125
range: 3.05038785934
velocity: 0.0
doppler_bin: 8
bearing: -5.88115358353
intensity: 32.6857795715
---
header: 
  seq: 3082181
  stamp: 
    secs: 1561686112
    nsecs: 732629582
  frame_id: "ti_mmwave"
point_id: 13
x: 2.654296875
y: -0.181640625
z: 1.166015625
range: 3.09396481514
velocity: 0.0
doppler_bin: 8
bearing: -3.91479969025
intensity: 31.9284610748
---
header: 
  seq: 3082182
  stamp: 
    secs: 1561686112
    nsecs: 732638707
  frame_id: "ti_mmwave"
point_id: 14
x: 4.4140625
y: -0.287109375
z: 1.1953125
range: 4.88062095642
velocity: 0.0
doppler_bin: 8
bearing: -3.72151875496
intensity: 30.7627620697
---
header: 
  seq: 3082183
  stamp: 
    secs: 1561686112
    nsecs: 732648480
  frame_id: "ti_mmwave"
point_id: 15
x: 4.474609375
y: -0.2890625
z: 1.12109375
range: 4.9241976738
velocity: 0.0
doppler_bin: 8
bearing: -3.69620633125
intensity: 30.4883003235
---
header: 
  seq: 3082184
  stamp: 
    secs: 1561686112
    nsecs: 732657390
  frame_id: "ti_mmwave"
point_id: 16
x: 4.740234375
y: -0.44921875
z: -0.494140625
range: 5.09850549698
velocity: 0.0
doppler_bin: 8
bearing: -5.41359329224
intensity: 33.1680870056
---
header: 
  seq: 3082185
  stamp: 
    secs: 1561686112
    nsecs: 732665162
  frame_id: "ti_mmwave"
point_id: 17
x: 4.79296875
y: -0.453125
z: -0.361328125
range: 5.14208269119
velocity: 0.0
doppler_bin: 8
bearing: -5.40066432953
intensity: 33.5850601196
---
header: 
  seq: 3082186
  stamp: 
    secs: 1561686112
    nsecs: 732674829
  frame_id: "ti_mmwave"
point_id: 18
x: 4.857421875
y: -0.3046875
z: -0.005859375
range: 5.18565940857
velocity: 0.0
doppler_bin: 8
bearing: -3.58924269676
intensity: 30.5842609406
---
header: 
  seq: 3082187
  stamp: 
    secs: 1561686112
    nsecs: 732682445
  frame_id: "ti_mmwave"
point_id: 19
x: 4.837890625
y: -0.4609375
z: 0.697265625
range: 5.22923660278
velocity: 0.0
doppler_bin: 8
bearing: -5.44251489639
intensity: 30.3782482147
---
header: 
  seq: 3082188
  stamp: 
    secs: 1561686112
    nsecs: 732691332
  frame_id: "ti_mmwave"
point_id: 20
x: 4.865234375
y: -0.46484375
z: 0.7890625
range: 5.27281332016
velocity: 0.0
doppler_bin: 8
bearing: -5.45769834518
intensity: 30.8635978699
---
header: 
  seq: 3082189
  stamp: 
    secs: 1561686112
    nsecs: 732701075
  frame_id: "ti_mmwave"
point_id: 22
x: 0.041015625
y: -0.033203125
z: 0.0625
range: 0.0871539413929
velocity: 0.0
doppler_bin: 8
bearing: -38.9909973145
intensity: 30.1452045441
---
header: 
  seq: 3082190
  stamp: 
    secs: 1561686112
    nsecs: 732707527
  frame_id: "ti_mmwave"
point_id: 23
x: 0.044921875
y: -0.046875
z: 0.103515625
range: 0.130730912089
velocity: 0.0
doppler_bin: 8
bearing: -46.218875885
intensity: 29.0525608063
---
header: 
  seq: 3082191
  stamp: 
    secs: 1561686112
    nsecs: 732719533
  frame_id: "ti_mmwave"
point_id: 25
x: 2.689453125
y: -2.021484375
z: -3.169921875
range: 4.9241976738
velocity: 0.0
doppler_bin: 8
bearing: -36.9297676086
intensity: 27.5127906799
---
header: 
  seq: 3082192
  stamp: 
    secs: 1561686112
    nsecs: 733718457
  frame_id: "ti_mmwave"
point_id: 0
x: 0.01171875
y: -0.0390625
z: -0.0078125
range: 0.0435769706964
velocity: 0.0
doppler_bin: 8
bearing: -73.3007583618
intensity: 30.7408466339
---
header: 
  seq: 3082193
  stamp: 
    secs: 1561686112
    nsecs: 733782393
  frame_id: "ti_mmwave"
point_id: 1
x: 0.017578125
y: -0.080078125
z: -0.0078125
range: 0.0871539413929
velocity: 0.0
doppler_bin: 8
bearing: -77.6192398071
intensity: 31.9810695648
---
header: 
  seq: 3082194
  stamp: 
    secs: 1561686112
    nsecs: 733800974
  frame_id: "ti_mmwave"
point_id: 2
x: 0.029296875
y: -0.119140625
z: -0.00390625
range: 0.130730912089
velocity: 0.0
doppler_bin: 8
bearing: -76.1849746704
intensity: 30.2118930817
---
header: 
  seq: 3082195
  stamp: 
    secs: 1561686112
    nsecs: 733815329
  frame_id: "ti_mmwave"
point_id: 3
x: 0.056640625
y: -0.154296875
z: 0.005859375
range: 0.174307882786
velocity: 0.0
doppler_bin: 8
bearing: -69.8423843384
intensity: 25.5144996643
---
header: 
  seq: 3082196
  stamp: 
    secs: 1561686112
    nsecs: 733827629
  frame_id: "ti_mmwave"
point_id: 4
x: 1.130859375
y: 0.072265625
z: -0.1640625
range: 1.22015523911
velocity: 0.0
doppler_bin: 8
bearing: 3.65641617775
intensity: 25.0379066467
---
header: 
  seq: 3082197
  stamp: 
    secs: 1561686112
    nsecs: 733840028
  frame_id: "ti_mmwave"
point_id: 5
x: 1.173828125
y: 0.07421875
z: -0.15625
range: 1.2637321949
velocity: 0.0
doppler_bin: 8
bearing: 3.61787867546
intensity: 27.4973640442
---
header: 
  seq: 3082198
  stamp: 
    secs: 1561686112
    nsecs: 733852837
  frame_id: "ti_mmwave"
point_id: 6
x: 1.21875
y: 0.076171875
z: -0.12890625
range: 1.3073091507
velocity: 0.0
doppler_bin: 8
bearing: 3.57633447647
intensity: 26.4640369415
---
header: 
  seq: 3082199
  stamp: 
    secs: 1561686112
    nsecs: 733865473
  frame_id: "ti_mmwave"
point_id: 7
x: 1.248046875
y: 0.197265625
z: -0.10546875
range: 1.35088610649
velocity: 0.0
doppler_bin: 8
bearing: 8.98183441162
intensity: 22.1484394073
---
header: 
  seq: 3082200
  stamp: 
    secs: 1561686112
    nsecs: 733879928
  frame_id: "ti_mmwave"
point_id: 8
x: 0.783203125
y: -0.123046875
z: 1.041015625
range: 1.39446306229
velocity: 0.0
doppler_bin: 8
bearing: -8.92859840393
intensity: 20.4139270782
---
header: 
  seq: 3082201
  stamp: 
    secs: 1561686112
    nsecs: 733888982
  frame_id: "ti_mmwave"
point_id: 9
x: 2.5546875
y: -0.263671875
z: 1.171875
range: 3.00681090355
velocity: 0.0
doppler_bin: 8
bearing: -5.89269018173
intensity: 29.3951931
---
header: 
  seq: 3082202
  stamp: 
    secs: 1561686112
    nsecs: 733897829
  frame_id: "ti_mmwave"
point_id: 10
x: 2.62109375
y: -0.1796875
z: 1.138671875
range: 3.05038785934
velocity: 0.0
doppler_bin: 8
bearing: -3.9217414856
intensity: 32.7577171326
---
header: 
  seq: 3082203
  stamp: 
    secs: 1561686112
    nsecs: 733906261
  frame_id: "ti_mmwave"
point_id: 11
x: 2.6640625
y: -0.181640625
z: 1.14453125
range: 3.09396481514
velocity: 0.0
doppler_bin: 8
bearing: -3.90049386024
intensity: 32.0221595764
---
header: 
  seq: 3082204
  stamp: 
    secs: 1561686112
    nsecs: 733913587
  frame_id: "ti_mmwave"
point_id: 12
x: 4.4140625
y: -0.287109375
z: 1.193359375
range: 4.88062095642
velocity: 0.0
doppler_bin: 8
bearing: -3.72151875496
intensity: 30.962146759
---
header: 
  seq: 3082205
  stamp: 
    secs: 1561686112
    nsecs: 733921371
  frame_id: "ti_mmwave"
point_id: 13
x: 4.5
y: -0.2890625
z: 1.015625
range: 4.9241976738
velocity: 0.0
doppler_bin: 8
bearing: -3.67540836334
intensity: 30.9201850891
---
header: 
  seq: 3082206
  stamp: 
    secs: 1561686112
    nsecs: 733929037
  frame_id: "ti_mmwave"
point_id: 14
x: 4.740234375
y: -0.44921875
z: -0.4765625
range: 5.09850549698
velocity: 0.0
doppler_bin: 8
bearing: -5.41359329224
intensity: 33.0621032715
---
header: 
  seq: 3082207
  stamp: 
    secs: 1561686112
    nsecs: 733939333
  frame_id: "ti_mmwave"
point_id: 15
x: 4.79296875
y: -0.453125
z: -0.353515625
range: 5.14208269119
velocity: 0.0
doppler_bin: 8
bearing: -5.40066432953
intensity: 33.350566864
---
header: 
  seq: 3082208
  stamp: 
    secs: 1561686112
    nsecs: 733948511
  frame_id: "ti_mmwave"
point_id: 16
x: 4.857421875
y: -0.3046875
z: 0.046875
range: 5.18565940857
velocity: 0.0
doppler_bin: 8
bearing: -3.58924269676
intensity: 29.9166908264
---
header: 
  seq: 3082209
  stamp: 
    secs: 1561686112
    nsecs: 733957454
  frame_id: "ti_mmwave"
point_id: 17
x: 4.798828125
y: -0.4609375
z: 0.927734375
range: 5.22923660278
velocity: 0.0
doppler_bin: 8
bearing: -5.48654794693
intensity: 30.064661026
---
header: 
  seq: 3082210
  stamp: 
    secs: 1561686112
    nsecs: 733965969
  frame_id: "ti_mmwave"
point_id: 18
x: 4.833984375
y: -0.46484375
z: 0.958984375
range: 5.27281332016
velocity: 0.0
doppler_bin: 8
bearing: -5.49276590347
intensity: 30.8635978699
---
header: 
  seq: 3082211
  stamp: 
    secs: 1561686112
    nsecs: 733976842
  frame_id: "ti_mmwave"
point_id: 20
x: 0.041015625
y: -0.033203125
z: 0.0625
range: 0.0871539413929
velocity: 0.0
doppler_bin: 8
bearing: -38.9909973145
intensity: 30.1494026184
---
header: 
  seq: 3082212
  stamp: 
    secs: 1561686112
    nsecs: 733986412
  frame_id: "ti_mmwave"
point_id: 21
x: 0.044921875
y: -0.046875
z: 0.103515625
range: 0.130730912089
velocity: 0.0
doppler_bin: 8
bearing: -46.218875885
intensity: 29.0525608063
---
header: 
  seq: 3082213
  stamp: 
    secs: 1561686112
    nsecs: 733997053
  frame_id: "ti_mmwave"
point_id: 23
x: 0.9765625
y: -0.197265625
z: 0.78515625
range: 1.35088610649
velocity: 0.0
doppler_bin: 8
bearing: -11.4200744629
intensity: 19.8677177429
---
header: 
  seq: 3082214
  stamp: 
    secs: 1561686112
    nsecs: 734113136
  frame_id: "ti_mmwave"
point_id: 24
x: 1.25
y: 0.328125
z: -0.21484375
range: 1.39446306229
velocity: 0.0
doppler_bin: 8
bearing: 14.7083034515
intensity: 19.4939002991
---
header: 
  seq: 3082215
  stamp: 
    secs: 1561686112
    nsecs: 792369925
  frame_id: "ti_mmwave"
point_id: 0
x: 0.01171875
y: -0.0390625
z: -0.0078125
range: 0.0435769706964
velocity: 0.0
doppler_bin: 8
bearing: -73.3007583618
intensity: 30.7408466339
---
header: 
  seq: 3082216
  stamp: 
    secs: 1561686112
    nsecs: 792445676
  frame_id: "ti_mmwave"
point_id: 1
x: 0.017578125
y: -0.080078125
z: -0.0078125
range: 0.0871539413929
velocity: 0.0
doppler_bin: 8
bearing: -77.6192398071
intensity: 31.9783172607
---
header: 
  seq: 3082217
  stamp: 
    secs: 1561686112
    nsecs: 792457050
  frame_id: "ti_mmwave"
point_id: 2
x: 0.029296875
y: -0.119140625
z: -0.00390625
range: 0.130730912089
velocity: 0.0
doppler_bin: 8
bearing: -76.1849746704
intensity: 30.2077541351
---
header: 
  seq: 3082218
  stamp: 
    secs: 1561686112
    nsecs: 792465296
  frame_id: "ti_mmwave"
point_id: 3
x: 0.056640625
y: -0.154296875
z: 0.005859375
range: 0.174307882786
velocity: 0.0
doppler_bin: 8
bearing: -69.8423843384
intensity: 25.5022830963
---
header: 
  seq: 3082219
  stamp: 
    secs: 1561686112
    nsecs: 792473446
  frame_id: "ti_mmwave"
point_id: 4
x: 2.560546875
y: -0.263671875
z: 1.158203125
range: 3.00681090355
velocity: 0.0
doppler_bin: 8
bearing: -5.87930107117
intensity: 29.4200801849
---
header: 
  seq: 3082220
  stamp: 
    secs: 1561686112
    nsecs: 792481379
  frame_id: "ti_mmwave"
point_id: 5
x: 2.609375
y: -0.267578125
z: 1.146484375
range: 3.05038785934
velocity: 0.0
doppler_bin: 8
bearing: -5.85492515564
intensity: 32.73695755
---
header: 
  seq: 3082221
  stamp: 
    secs: 1561686112
    nsecs: 792489371
  frame_id: "ti_mmwave"
point_id: 6
x: 2.666015625
y: -0.181640625
z: 1.138671875
range: 3.09396481514
velocity: 0.0
doppler_bin: 8
bearing: -3.89764523506
intensity: 31.9920654297
---
header: 
  seq: 3082222
  stamp: 
    secs: 1561686112
    nsecs: 792497187
  frame_id: "ti_mmwave"
point_id: 7
x: 4.412109375
y: -0.287109375
z: 1.19921875
range: 4.88062095642
velocity: 0.0
doppler_bin: 8
bearing: -3.72316122055
intensity: 31.172712326
---
header: 
  seq: 3082223
  stamp: 
    secs: 1561686112
    nsecs: 792506596
  frame_id: "ti_mmwave"
point_id: 8
x: 4.484375
y: -0.2890625
z: 1.08203125
range: 4.9241976738
velocity: 0.0
doppler_bin: 8
bearing: -3.68817925453
intensity: 31.1327476501
---
header: 
  seq: 3082224
  stamp: 
    secs: 1561686112
    nsecs: 792516688
  frame_id: "ti_mmwave"
point_id: 9
x: 4.697265625
y: -0.4453125
z: -0.5078125
range: 5.0549287796
velocity: 0.0
doppler_bin: 8
bearing: -5.41559743881
intensity: 29.6988162994
---
header: 
  seq: 3082225
  stamp: 
    secs: 1561686112
    nsecs: 792524163
  frame_id: "ti_mmwave"
point_id: 10
x: 4.740234375
y: -0.44921875
z: -0.4765625
range: 5.09850549698
velocity: 0.0
doppler_bin: 8
bearing: -5.41359329224
intensity: 33.2221946716
---
header: 
  seq: 3082226
  stamp: 
    secs: 1561686112
    nsecs: 792533137
  frame_id: "ti_mmwave"
point_id: 11
x: 4.791015625
y: -0.453125
z: -0.37109375
range: 5.14208269119
velocity: 0.0
doppler_bin: 8
bearing: -5.40285253525
intensity: 33.4811019897
---
header: 
  seq: 3082227
  stamp: 
    secs: 1561686112
    nsecs: 792541033
  frame_id: "ti_mmwave"
point_id: 12
x: 4.857421875
y: -0.3046875
z: 0.021484375
range: 5.18565940857
velocity: 0.0
doppler_bin: 8
bearing: -3.58924269676
intensity: 29.9343624115
---
header: 
  seq: 3082228
  stamp: 
    secs: 1561686112
    nsecs: 792549039
  frame_id: "ti_mmwave"
point_id: 13
x: 4.82421875
y: -0.4609375
z: 0.78125
range: 5.22923660278
velocity: 0.0
doppler_bin: 8
bearing: -5.4578461647
intensity: 30.1786766052
---
header: 
  seq: 3082229
  stamp: 
    secs: 1561686112
    nsecs: 792557169
  frame_id: "ti_mmwave"
point_id: 14
x: 4.8671875
y: -0.46484375
z: 0.7734375
range: 5.27281332016
velocity: 0.0
doppler_bin: 8
bearing: -5.45552158356
intensity: 30.8170719147
---
header: 
  seq: 3082230
  stamp: 
    secs: 1561686112
    nsecs: 792567151
  frame_id: "ti_mmwave"
point_id: 15
x: 1.13671875
y: 0.072265625
z: -0.123046875
range: 1.22015523911
velocity: 0.614668667316
doppler_bin: 9
bearing: 3.63761949539
intensity: 24.3616256714
---
header: 
  seq: 3082231
  stamp: 
    secs: 1561686112
    nsecs: 792575451
  frame_id: "ti_mmwave"
point_id: 16
x: 1.173828125
y: 0.111328125
z: -0.1328125
range: 1.2637321949
velocity: 0.614668667316
doppler_bin: 9
bearing: 5.41783666611
intensity: 27.5739593506
---
header: 
  seq: 3082232
  stamp: 
    secs: 1561686112
    nsecs: 792584913
  frame_id: "ti_mmwave"
point_id: 17
x: 1.216796875
y: 0.076171875
z: -0.134765625
range: 1.3073091507
velocity: 0.614668667316
doppler_bin: 9
bearing: 3.58205986023
intensity: 27.5204849243
---
header: 
  seq: 3082233
  stamp: 
    secs: 1561686112
    nsecs: 792634771
  frame_id: "ti_mmwave"
point_id: 18
x: 1.263671875
y: 0.0390625
z: -0.091796875
range: 1.35088610649
velocity: 0.614668667316
doppler_bin: 9
bearing: 1.77055776119
intensity: 26.1278381348
---
header: 
  seq: 3082234
  stamp: 
    secs: 1561686112
    nsecs: 792650586
  frame_id: "ti_mmwave"
point_id: 19
x: 1.30859375
y: -0.0
z: 0.052734375
range: 1.39446306229
velocity: 0.614668667316
doppler_bin: 9
bearing: -0.0
intensity: 25.7287158966
---
header: 
  seq: 3082235
  stamp: 
    secs: 1561686112
    nsecs: 792668752
  frame_id: "ti_mmwave"
point_id: 20
x: 1.345703125
y: -0.0
z: 0.09765625
range: 1.43804001808
velocity: 0.614668667316
doppler_bin: 9
bearing: -0.0
intensity: 23.7106781006
---
header: 
  seq: 3082236
  stamp: 
    secs: 1561686112
    nsecs: 792679336
  frame_id: "ti_mmwave"
point_id: 22
x: 0.041015625
y: -0.033203125
z: 0.0625
range: 0.0871539413929
velocity: 0.0
doppler_bin: 8
bearing: -38.9909973145
intensity: 30.1494026184
---
header: 
  seq: 3082237
  stamp: 
    secs: 1561686112
    nsecs: 792869881
  frame_id: "ti_mmwave"
point_id: 23
x: 0.044921875
y: -0.046875
z: 0.103515625
range: 0.130730912089
velocity: 0.0
doppler_bin: 8
bearing: -46.218875885
intensity: 29.0525608063
---
header: 
  seq: 3082238
  stamp: 
    secs: 1561686112
    nsecs: 793734021
  frame_id: "ti_mmwave"
point_id: 0
x: 0.01171875
y: -0.0390625
z: -0.0078125
range: 0.0435769706964
velocity: 0.0
doppler_bin: 8
bearing: -73.3007583618
intensity: 30.7371826172
---
header: 
  seq: 3082239
  stamp: 
    secs: 1561686112
    nsecs: 793791919
  frame_id: "ti_mmwave"
point_id: 1
x: 0.017578125
y: -0.080078125
z: -0.0078125
range: 0.0871539413929
velocity: 0.0
doppler_bin: 8
bearing: -77.6192398071
intensity: 31.9783172607
---
header: 
  seq: 3082240
  stamp: 
    secs: 1561686112
    nsecs: 793810230
  frame_id: "ti_mmwave"
point_id: 2
x: 0.029296875
y: -0.119140625
z: -0.00390625
range: 0.130730912089
velocity: 0.0
doppler_bin: 8
bearing: -76.1849746704
intensity: 30.2077541351
---
header: 
  seq: 3082241
  stamp: 
    secs: 1561686112
    nsecs: 793823563
  frame_id: "ti_mmwave"
point_id: 3
x: 0.056640625
y: -0.154296875
z: 0.005859375
range: 0.174307882786
velocity: 0.0
doppler_bin: 8
bearing: -69.8423843384
intensity: 25.5144996643
---
header: 
  seq: 3082242
  stamp: 
    secs: 1561686112
    nsecs: 793941064
  frame_id: "ti_mmwave"
point_id: 4
x: 1.6484375
y: 0.16015625
z: 0.458984375
range: 1.83023273945
velocity: 0.0
doppler_bin: 8
bearing: 5.5492348671
intensity: 27.3798732758
---
header: 
  seq: 3082243
  stamp: 
    secs: 1561686112
    nsecs: 793972938
  frame_id: "ti_mmwave"
point_id: 5
x: 2.548828125
y: -0.263671875
z: 1.18359375
range: 3.00681090355
velocity: 0.0
doppler_bin: 8
bearing: -5.90614128113
intensity: 29.4497585297
---
header: 
  seq: 3082244
  stamp: 
    secs: 1561686112
    nsecs: 793987607
  frame_id: "ti_mmwave"
point_id: 6
x: 2.6015625
y: -0.267578125
z: 1.1640625
range: 3.05038785934
velocity: 0.0
doppler_bin: 8
bearing: -5.87238502502
intensity: 32.7737998962
---
header: 
  seq: 3082245
  stamp: 
    secs: 1561686112
    nsecs: 794090475
  frame_id: "ti_mmwave"
point_id: 7
x: 2.658203125
y: -0.181640625
z: 1.154296875
range: 3.09396481514
velocity: 0.0
doppler_bin: 8
bearing: -3.90906453133
intensity: 31.9920654297
---
header: 
  seq: 3082246
  stamp: 
    secs: 1561686112
    nsecs: 794154258
  frame_id: "ti_mmwave"
point_id: 8
x: 4.404296875
y: -0.287109375
z: 1.23046875
range: 4.88062095642
velocity: 0.0
doppler_bin: 8
bearing: -3.72974681854
intensity: 31.1226978302
---
header: 
  seq: 3082247
  stamp: 
    secs: 1561686112
    nsecs: 794172333
  frame_id: "ti_mmwave"
point_id: 9
x: 4.4375
y: -0.2890625
z: 1.263671875
range: 4.9241976738
velocity: 0.0
doppler_bin: 8
bearing: -3.72702980042
intensity: 30.8421859741
---
header: 
  seq: 3082248
  stamp: 
    secs: 1561686112
    nsecs: 794186159
  frame_id: "ti_mmwave"
point_id: 10
x: 4.69140625
y: -0.4453125
z: -0.560546875
range: 5.0549287796
velocity: 0.0
doppler_bin: 8
bearing: -5.42232084274
intensity: 29.4448261261
---
header: 
  seq: 3082249
  stamp: 
    secs: 1561686112
    nsecs: 794211046
  frame_id: "ti_mmwave"
point_id: 11
x: 4.740234375
y: -0.44921875
z: -0.494140625
range: 5.09850549698
velocity: 0.0
doppler_bin: 8
bearing: -5.41359329224
intensity: 33.3666000366
---
header: 
  seq: 3082250
  stamp: 
    secs: 1561686112
    nsecs: 794303501
  frame_id: "ti_mmwave"
point_id: 12
x: 4.791015625
y: -0.453125
z: -0.3828125
range: 5.14208269119
velocity: 0.0
doppler_bin: 8
bearing: -5.40285253525
intensity: 33.8075370789
---
header: 
  seq: 3082251
  stamp: 
    secs: 1561686112
    nsecs: 794450238
  frame_id: "ti_mmwave"
point_id: 13
x: 4.857421875
y: -0.3046875
z: -0.0703125
range: 5.18565940857
velocity: 0.0
doppler_bin: 8
bearing: -3.58924269676
intensity: 30.5652370453
---
header: 
  seq: 3082252
  stamp: 
    secs: 1561686112
    nsecs: 794472590
  frame_id: "ti_mmwave"
point_id: 14
x: 4.828125
y: -0.4609375
z: 0.76171875
range: 5.22923660278
velocity: 0.0
doppler_bin: 8
bearing: -5.4534573555
intensity: 30.1241531372
---
header: 
  seq: 3082253
  stamp: 
    secs: 1561686112
    nsecs: 794488796
  frame_id: "ti_mmwave"
point_id: 15
x: 4.857421875
y: -0.46484375
z: 0.826171875
range: 5.27281332016
velocity: 0.0
doppler_bin: 8
bearing: -5.46642303467
intensity: 30.7918128967
---
header: 
  seq: 3082254
  stamp: 
    secs: 1561686112
    nsecs: 794566723
  frame_id: "ti_mmwave"
point_id: 16
x: 1.275390625
y: 0.041015625
z: -0.29296875
range: 1.39446306229
velocity: 0.614668667316
doppler_bin: 9
bearing: 1.84195542336
intensity: 24.9136161804
---
header: 
  seq: 3082255
  stamp: 
    secs: 1561686112
    nsecs: 794584354
  frame_id: "ti_mmwave"
point_id: 17
x: 1.283203125
y: 0.04296875
z: -0.41796875
range: 1.43804001808
velocity: 0.614668667316
doppler_bin: 9
bearing: 1.9178634882
intensity: 23.3041381836
---
header: 
  seq: 3082256
  stamp: 
    secs: 1561686112
    nsecs: 794596126
  frame_id: "ti_mmwave"
point_id: 18
x: 1.1796875
y: 0.111328125
z: -0.041015625
range: 1.2637321949
velocity: 1.22933733463
doppler_bin: 10
bearing: 5.39108562469
intensity: 22.6007137299
---
header: 
  seq: 3082257
  stamp: 
    secs: 1561686112
    nsecs: 794606827
  frame_id: "ti_mmwave"
point_id: 19
x: 1.216796875
y: 0.154296875
z: -0.044921875
range: 1.3073091507
velocity: 1.22933733463
doppler_bin: 10
bearing: 7.2268652916
intensity: 25.2762985229
---
header: 
  seq: 3082258
  stamp: 
    secs: 1561686112
    nsecs: 794617008
  frame_id: "ti_mmwave"
point_id: 20
x: 1.2578125
y: 0.158203125
z: -0.0546875
range: 1.35088610649
velocity: 1.22933733463
doppler_bin: 10
bearing: 7.1688117981
intensity: 24.7421627045
---
header: 
  seq: 3082259
  stamp: 
    secs: 1561686112
    nsecs: 794630630
  frame_id: "ti_mmwave"
point_id: 22
x: 0.041015625
y: -0.033203125
z: 0.0625
range: 0.0871539413929
velocity: 0.0
doppler_bin: 8
bearing: -38.9909973145
intensity: 30.1452045441
---
header: 
  seq: 3082260
  stamp: 
    secs: 1561686112
    nsecs: 794645732
  frame_id: "ti_mmwave"
point_id: 23
x: 0.044921875
y: -0.046875
z: 0.103515625
range: 0.130730912089
velocity: 0.0
doppler_bin: 8
bearing: -46.218875885
intensity: 29.0525608063
---
header: 
  seq: 3082261
  stamp: 
    secs: 1561686112
    nsecs: 852331806
  frame_id: "ti_mmwave"
point_id: 0
x: 0.01171875
y: -0.0390625
z: -0.0078125
range: 0.0435769706964
velocity: 0.0
doppler_bin: 8
bearing: -73.3007583618
intensity: 30.7408466339
---
header: 
  seq: 3082262
  stamp: 
    secs: 1561686112
    nsecs: 852405382
  frame_id: "ti_mmwave"
point_id: 1
x: 0.017578125
y: -0.080078125
z: -0.0078125
range: 0.0871539413929
velocity: 0.0
doppler_bin: 8
bearing: -77.6192398071
intensity: 31.9783172607
---
header: 
  seq: 3082263
  stamp: 
    secs: 1561686112
    nsecs: 852418360
  frame_id: "ti_mmwave"
point_id: 2
x: 0.029296875
y: -0.119140625
z: -0.00390625
range: 0.130730912089
velocity: 0.0
doppler_bin: 8
bearing: -76.1849746704
intensity: 30.2077541351
---
header: 
  seq: 3082264
  stamp: 
    secs: 1561686112
    nsecs: 852427277
  frame_id: "ti_mmwave"
point_id: 3
x: 0.056640625
y: -0.154296875
z: 0.0078125
range: 0.174307882786
velocity: 0.0
doppler_bin: 8
bearing: -69.8423843384
intensity: 25.5144996643
---
header: 
  seq: 3082265
  stamp: 
    secs: 1561686112
    nsecs: 852435085
  frame_id: "ti_mmwave"
point_id: 4
x: 0.3125
y: -0.041015625
z: 1.271484375
range: 1.39446306229
velocity: 0.0
doppler_bin: 8
bearing: -7.47732973099
intensity: 23.2221927643
---
header: 
  seq: 3082266
  stamp: 
    secs: 1561686112
    nsecs: 852444806
  frame_id: "ti_mmwave"
point_id: 5
x: 0.439453125
y: -0.04296875
z: 1.275390625
range: 1.43804001808
velocity: 0.0
doppler_bin: 8
bearing: -5.58450222015
intensity: 21.6136798859
---
header: 
  seq: 3082267
  stamp: 
    secs: 1561686112
    nsecs: 852453054
  frame_id: "ti_mmwave"
point_id: 6
x: 1.626953125
y: 0.154296875
z: -0.09765625
range: 1.74307882786
velocity: 0.0
doppler_bin: 8
bearing: 5.41760969162
intensity: 28.2477645874
---
header: 
  seq: 3082268
  stamp: 
    secs: 1561686112
    nsecs: 852461064
  frame_id: "ti_mmwave"
point_id: 7
x: 1.6640625
y: 0.158203125
z: -0.1484375
range: 1.78665578365
velocity: 0.0
doppler_bin: 8
bearing: 5.43081092834
intensity: 28.7157287598
---
header: 
  seq: 3082269
  stamp: 
    secs: 1561686112
    nsecs: 852468853
  frame_id: "ti_mmwave"
point_id: 8
x: 1.701171875
y: 0.21484375
z: -0.09765625
range: 1.83023273945
velocity: 0.0
doppler_bin: 8
bearing: 7.19787025452
intensity: 27.8103694916
---
header: 
  seq: 3082270
  stamp: 
    secs: 1561686112
    nsecs: 852476575
  frame_id: "ti_mmwave"
point_id: 9
x: 2.556640625
y: -0.263671875
z: 1.16796875
range: 3.00681090355
velocity: 0.0
doppler_bin: 8
bearing: -5.88822031021
intensity: 29.4051647186
---
header: 
  seq: 3082271
  stamp: 
    secs: 1561686112
    nsecs: 852486040
  frame_id: "ti_mmwave"
point_id: 10
x: 2.60546875
y: -0.267578125
z: 1.158203125
range: 3.05038785934
velocity: 0.0
doppler_bin: 8
bearing: -5.86364221573
intensity: 32.7921066284
---
header: 
  seq: 3082272
  stamp: 
    secs: 1561686112
    nsecs: 852493818
  frame_id: "ti_mmwave"
point_id: 11
x: 2.658203125
y: -0.181640625
z: 1.15625
range: 3.09396481514
velocity: 0.0
doppler_bin: 8
bearing: -3.90906453133
intensity: 32.0951499939
---
header: 
  seq: 3082273
  stamp: 
    secs: 1561686112
    nsecs: 852504189
  frame_id: "ti_mmwave"
point_id: 12
x: 4.4140625
y: -0.287109375
z: 1.1953125
range: 4.88062095642
velocity: 0.0
doppler_bin: 8
bearing: -3.72151875496
intensity: 30.8421859741
---
header: 
  seq: 3082274
  stamp: 
    secs: 1561686112
    nsecs: 852513189
  frame_id: "ti_mmwave"
point_id: 13
x: 4.4140625
y: -0.2890625
z: 1.34375
range: 4.9241976738
velocity: 0.0
doppler_bin: 8
bearing: -3.74676346779
intensity: 30.2530593872
---
header: 
  seq: 3082275
  stamp: 
    secs: 1561686112
    nsecs: 852521319
  frame_id: "ti_mmwave"
point_id: 14
x: 4.7421875
y: -0.44921875
z: -0.474609375
range: 5.09850549698
velocity: 0.0
doppler_bin: 8
bearing: -5.41137647629
intensity: 33.1323432922
---
header: 
  seq: 3082276
  stamp: 
    secs: 1561686112
    nsecs: 852530890
  frame_id: "ti_mmwave"
point_id: 15
x: 4.79296875
y: -0.453125
z: -0.345703125
range: 5.14208269119
velocity: 0.0
doppler_bin: 8
bearing: -5.40066432953
intensity: 33.5736312866
---
header: 
  seq: 3082277
  stamp: 
    secs: 1561686112
    nsecs: 852540696
  frame_id: "ti_mmwave"
point_id: 16
x: 4.857421875
y: -0.3046875
z: 0.0546875
range: 5.18565940857
velocity: 0.0
doppler_bin: 8
bearing: -3.58924269676
intensity: 30.4178733826
---
header: 
  seq: 3082278
  stamp: 
    secs: 1561686112
    nsecs: 852548981
  frame_id: "ti_mmwave"
point_id: 17
x: 4.828125
y: -0.4609375
z: 0.751953125
range: 5.22923660278
velocity: 0.0
doppler_bin: 8
bearing: -5.4534573555
intensity: 30.293838501
---
header: 
  seq: 3082279
  stamp: 
    secs: 1561686112
    nsecs: 852560444
  frame_id: "ti_mmwave"
point_id: 18
x: 4.85546875
y: -0.46484375
z: 0.837890625
range: 5.27281332016
velocity: 0.0
doppler_bin: 8
bearing: -5.46860933304
intensity: 30.8350257874
---
header: 
  seq: 3082280
  stamp: 
    secs: 1561686112
    nsecs: 852739045
  frame_id: "ti_mmwave"
point_id: 19
x: 1.21484375
y: 0.154296875
z: -0.0859375
range: 1.3073091507
velocity: 1.22933733463
doppler_bin: 10
bearing: 7.23836135864
intensity: 22.9446620941
---
header: 
  seq: 3082281
  stamp: 
    secs: 1561686112
    nsecs: 852759253
  frame_id: "ti_mmwave"
point_id: 20
x: 1.255859375
y: 0.158203125
z: -0.068359375
range: 1.35088610649
velocity: 1.22933733463
doppler_bin: 10
bearing: 7.17984437943
intensity: 24.9136161804
---
header: 
  seq: 3082282
  stamp: 
    secs: 1561686112
    nsecs: 852767640
  frame_id: "ti_mmwave"
point_id: 21
x: 1.291015625
y: 0.205078125
z: -0.05859375
range: 1.39446306229
velocity: 1.22933733463
doppler_bin: 10
bearing: 9.02603244781
intensity: 23.3243846893
---
header: 
  seq: 3082283
  stamp: 
    secs: 1561686112
    nsecs: 852778032
  frame_id: "ti_mmwave"
point_id: 23
x: 0.041015625
y: -0.033203125
z: 0.0625
range: 0.0871539413929
velocity: 0.0
doppler_bin: 8
bearing: -38.9909973145
intensity: 30.1494026184
---
header: 
  seq: 3082284
  stamp: 
    secs: 1561686112
    nsecs: 852785950
  frame_id: "ti_mmwave"
point_id: 24
x: 0.044921875
y: -0.046875
z: 0.103515625
range: 0.130730912089
velocity: 0.0
doppler_bin: 8
bearing: -46.218875885
intensity: 29.0525608063
---
header: 
  seq: 3082285
  stamp: 
    secs: 1561686112
    nsecs: 852798420
  frame_id: "ti_mmwave"
point_id: 26
x: 3.08203125
y: -2.021484375
z: -2.7890625
range: 4.9241976738
velocity: 0.0
doppler_bin: 8
bearing: -33.2606086731
intensity: 27.4193916321
---
header: 
  seq: 3082286
  stamp: 
    secs: 1561686112
    nsecs: 853745582
  frame_id: "ti_mmwave"
point_id: 0
x: 0.01171875
y: -0.0390625
z: -0.0078125
range: 0.0435769706964
velocity: 0.0
doppler_bin: 8
bearing: -73.3007583618
intensity: 30.7335166931
---
header: 
  seq: 3082287
  stamp: 
    secs: 1561686112
    nsecs: 853817148
  frame_id: "ti_mmwave"
point_id: 1
x: 0.017578125
y: -0.080078125
z: -0.0078125
range: 0.0871539413929
velocity: 0.0
doppler_bin: 8
bearing: -77.6192398071
intensity: 31.9755630493
---
header: 
  seq: 3082288
  stamp: 
    secs: 1561686112
    nsecs: 853836398
  frame_id: "ti_mmwave"
point_id: 2
x: 0.029296875
y: -0.119140625
z: -0.00390625
range: 0.130730912089
velocity: 0.0
doppler_bin: 8
bearing: -76.1849746704
intensity: 30.2077541351
---
header: 
  seq: 3082289
  stamp: 
    secs: 1561686112
    nsecs: 853851914
  frame_id: "ti_mmwave"
point_id: 3
x: 0.056640625
y: -0.154296875
z: 0.005859375
range: 0.174307882786
velocity: 0.0
doppler_bin: 8
bearing: -69.8423843384
intensity: 25.5022830963
---
header: 
  seq: 3082290
  stamp: 
    secs: 1561686112
    nsecs: 853867773
  frame_id: "ti_mmwave"
point_id: 4
x: 0.365234375
y: -0.080078125
z: -1.2109375
range: 1.35088610649
velocity: 0.0
doppler_bin: 8
bearing: -12.3664970398
intensity: 22.0139713287
---
header: 
  seq: 3082291
  stamp: 
    secs: 1561686112
    nsecs: 853966687
  frame_id: "ti_mmwave"
point_id: 5
x: 0.283203125
y: -0.041015625
z: 1.27734375
range: 1.39446306229
velocity: 0.0
doppler_bin: 8
bearing: -8.24071216583
intensity: 23.3041381836
---
header: 
  seq: 3082292
  stamp: 
    secs: 1561686112
    nsecs: 853993390
  frame_id: "ti_mmwave"
point_id: 6
x: 0.361328125
y: -0.0
z: 1.30078125
range: 1.43804001808
velocity: 0.0
doppler_bin: 8
bearing: -0.0
intensity: 22.0139713287
---
header: 
  seq: 3082293
  stamp: 
    secs: 1561686112
    nsecs: 854010425
  frame_id: "ti_mmwave"
point_id: 7
x: 2.546875
y: -0.263671875
z: 1.1875
range: 3.00681090355
velocity: 0.0
doppler_bin: 8
bearing: -5.91063833237
intensity: 29.4299964905
---
header: 
  seq: 3082294
  stamp: 
    secs: 1561686112
    nsecs: 854054450
  frame_id: "ti_mmwave"
point_id: 8
x: 2.60546875
y: -0.267578125
z: 1.158203125
range: 3.05038785934
velocity: 0.0
doppler_bin: 8
bearing: -5.86364221573
intensity: 32.7346420288
---
header: 
  seq: 3082295
  stamp: 
    secs: 1561686112
    nsecs: 854071096
  frame_id: "ti_mmwave"
point_id: 9
x: 2.666015625
y: -0.181640625
z: 1.138671875
range: 3.09396481514
velocity: 0.0
doppler_bin: 8
bearing: -3.89764523506
intensity: 31.9755630493
---
header: 
  seq: 3082296
  stamp: 
    secs: 1561686112
    nsecs: 854083289
  frame_id: "ti_mmwave"
point_id: 10
x: 4.421875
y: -0.287109375
z: 1.1640625
range: 4.88062095642
velocity: 0.0
doppler_bin: 8
bearing: -3.7149617672
intensity: 30.7335166931
---
header: 
  seq: 3082297
  stamp: 
    secs: 1561686112
    nsecs: 854110284
  frame_id: "ti_mmwave"
point_id: 11
x: 4.4765625
y: -0.2890625
z: 1.11328125
range: 4.9241976738
velocity: 0.0
doppler_bin: 8
bearing: -3.69459795952
intensity: 30.3981056213
---
header: 
  seq: 3082298
  stamp: 
    secs: 1561686112
    nsecs: 854126719
  frame_id: "ti_mmwave"
point_id: 12
x: 4.7421875
y: -0.44921875
z: -0.466796875
range: 5.09850549698
velocity: 0.0
doppler_bin: 8
bearing: -5.41137647629
intensity: 33.1428871155
---
header: 
  seq: 3082299
  stamp: 
    secs: 1561686112
    nsecs: 854209623
  frame_id: "ti_mmwave"
point_id: 13
x: 4.794921875
y: -0.453125
z: -0.310546875
range: 5.14208269119
velocity: 0.0
doppler_bin: 8
bearing: -5.39847755432
intensity: 33.4674415588
---
header: 
  seq: 3082300
  stamp: 
    secs: 1561686112
    nsecs: 854225761
  frame_id: "ti_mmwave"
point_id: 14
x: 4.845703125
y: -0.45703125
z: 0.087890625
range: 5.18565940857
velocity: 0.0
doppler_bin: 8
bearing: -5.38801622391
intensity: 30.0432128906
---
header: 
  seq: 3082301
  stamp: 
    secs: 1561686112
    nsecs: 854240415
  frame_id: "ti_mmwave"
point_id: 15
x: 4.845703125
y: -0.4609375
z: 0.626953125
range: 5.22923660278
velocity: 0.0
doppler_bin: 8
bearing: -5.43379306793
intensity: 30.2201576233
---
header: 
  seq: 3082302
  stamp: 
    secs: 1561686112
    nsecs: 854253535
  frame_id: "ti_mmwave"
point_id: 16
x: 4.875
y: -0.46484375
z: 0.71484375
range: 5.27281332016
velocity: 0.0
doppler_bin: 8
bearing: -5.44683170319
intensity: 30.678144455
---
header: 
  seq: 3082303
  stamp: 
    secs: 1561686112
    nsecs: 854265564
  frame_id: "ti_mmwave"
point_id: 17
x: 1.365234375
y: 0.04296875
z: -0.26171875
range: 1.48161697388
velocity: 1.22933733463
doppler_bin: 10
bearing: 1.80270552635
intensity: 20.4921798706
---
header: 
  seq: 3082304
  stamp: 
    secs: 1561686112
    nsecs: 854281244
  frame_id: "ti_mmwave"
point_id: 19
x: 0.041015625
y: -0.033203125
z: 0.0625
range: 0.0871539413929
velocity: 0.0
