header: 
  seq: 810351
  stamp: 
    secs: 1561682538
    nsecs: 294101838
  frame_id: "ti_mmwave"
point_id: 0
x: 0.01171875
y: -0.0390625
z: -0.0078125
range: 0.0435769706964
velocity: 0.0
doppler_bin: 8
bearing: -73.3007583618
intensity: 30.7554702759
---
header: 
  seq: 810352
  stamp: 
    secs: 1561682538
    nsecs: 294192056
  frame_id: "ti_mmwave"
point_id: 1
x: 0.017578125
y: -0.080078125
z: -0.0078125
range: 0.0871539413929
velocity: 0.0
doppler_bin: 8
bearing: -77.6192398071
intensity: 31.9700469971
---
header: 
  seq: 810353
  stamp: 
    secs: 1561682538
    nsecs: 294211068
  frame_id: "ti_mmwave"
point_id: 2
x: 0.041015625
y: -0.115234375
z: -0.0078125
range: 0.130730912089
velocity: 0.0
doppler_bin: 8
bearing: -70.4077224731
intensity: 30.2284069061
---
header: 
  seq: 810354
  stamp: 
    secs: 1561682538
    nsecs: 294225364
  frame_id: "ti_mmwave"
point_id: 3
x: 0.056640625
y: -0.154296875
z: 0.005859375
range: 0.174307882786
velocity: 0.0
doppler_bin: 8
bearing: -69.8423843384
intensity: 25.490032196
---
header: 
  seq: 810355
  stamp: 
    secs: 1561682538
    nsecs: 294241433
  frame_id: "ti_mmwave"
point_id: 4
x: 1.078125
y: 0.4453125
z: 0.216796875
range: 1.2637321949
velocity: 0.0
doppler_bin: 8
bearing: 22.4427528381
intensity: 21.0037059784
---
header: 
  seq: 810356
  stamp: 
    secs: 1561682538
    nsecs: 294334271
  frame_id: "ti_mmwave"
point_id: 5
x: 1.11328125
y: 0.4609375
z: 0.236328125
range: 1.3073091507
velocity: 0.0
doppler_bin: 8
bearing: 22.4912719727
intensity: 23.9967365265
---
header: 
  seq: 810357
  stamp: 
    secs: 1561682538
    nsecs: 294352631
  frame_id: "ti_mmwave"
point_id: 6
x: 1.15625
y: 0.474609375
z: 0.216796875
range: 1.35088610649
velocity: 0.0
doppler_bin: 8
bearing: 22.3168239594
intensity: 23.6735591888
---
header: 
  seq: 810358
  stamp: 
    secs: 1561682538
    nsecs: 294368210
  frame_id: "ti_mmwave"
point_id: 7
x: 1.34375
y: 0.4921875
z: -0.0625
range: 1.52519392967
velocity: 0.0
doppler_bin: 8
bearing: 20.1167259216
intensity: 29.0091304779
---
header: 
  seq: 810359
  stamp: 
    secs: 1561682538
    nsecs: 294383556
  frame_id: "ti_mmwave"
point_id: 8
x: 2.55859375
y: -0.263671875
z: 1.16015625
range: 3.00681090355
velocity: 0.0
doppler_bin: 8
bearing: -5.88375711441
intensity: 29.5133743286
---
header: 
  seq: 810360
  stamp: 
    secs: 1561682538
    nsecs: 294398293
  frame_id: "ti_mmwave"
point_id: 9
x: 2.60546875
y: -0.267578125
z: 1.15625
range: 3.05038785934
velocity: 0.0
doppler_bin: 8
bearing: -5.86364221573
intensity: 32.8035087585
---
header: 
  seq: 810361
  stamp: 
    secs: 1561682538
    nsecs: 294415426
  frame_id: "ti_mmwave"
point_id: 10
x: 2.654296875
y: -0.181640625
z: 1.1640625
range: 3.09396481514
velocity: 0.0
doppler_bin: 8
bearing: -3.91479969025
intensity: 31.994808197
---
header: 
  seq: 810362
  stamp: 
    secs: 1561682538
    nsecs: 294430626
  frame_id: "ti_mmwave"
point_id: 11
x: 4.41015625
y: -0.287109375
z: 1.205078125
range: 4.88062095642
velocity: 0.0
doppler_bin: 8
bearing: -3.72480559349
intensity: 30.7954292297
---
header: 
  seq: 810363
  stamp: 
    secs: 1561682538
    nsecs: 294446062
  frame_id: "ti_mmwave"
point_id: 12
x: 4.474609375
y: -0.2890625
z: 1.125
range: 4.9241976738
velocity: 0.0
doppler_bin: 8
bearing: -3.69620633125
intensity: 30.4999294281
---
header: 
  seq: 810364
  stamp: 
    secs: 1561682538
    nsecs: 294460540
  frame_id: "ti_mmwave"
point_id: 13
x: 4.734375
y: -0.44921875
z: -0.53515625
range: 5.09850549698
velocity: 0.0
doppler_bin: 8
bearing: -5.42025327682
intensity: 33.138671875
---
header: 
  seq: 810365
  stamp: 
    secs: 1561682538
    nsecs: 294513467
  frame_id: "ti_mmwave"
point_id: 14
x: 4.78515625
y: -0.453125
z: -0.435546875
range: 5.14208269119
velocity: 0.0
doppler_bin: 8
bearing: -5.40942907333
intensity: 33.7235946655
---
header: 
  seq: 810366
  stamp: 
    secs: 1561682538
    nsecs: 294530276
  frame_id: "ti_mmwave"
point_id: 15
x: 4.841796875
y: -0.45703125
z: -0.189453125
range: 5.18565940857
velocity: 0.0
doppler_bin: 8
bearing: -5.39233732224
intensity: 30.4060230255
---
header: 
  seq: 810367
  stamp: 
    secs: 1561682538
    nsecs: 294547535
  frame_id: "ti_mmwave"
point_id: 16
x: 4.828125
y: -0.4609375
z: 0.755859375
range: 5.22923660278
velocity: 0.0
doppler_bin: 8
bearing: -5.4534573555
intensity: 29.5712814331
---
header: 
  seq: 810368
  stamp: 
    secs: 1561682538
    nsecs: 294562626
  frame_id: "ti_mmwave"
point_id: 17
x: 4.880859375
y: -0.30859375
z: 0.765625
range: 5.27281332016
velocity: 0.0
doppler_bin: 8
bearing: -3.61772704124
intensity: 30.6295776367
---
header: 
  seq: 810369
  stamp: 
    secs: 1561682538
    nsecs: 294578251
  frame_id: "ti_mmwave"
point_id: 18
x: 1.306640625
y: 0.64453125
z: -0.212890625
range: 1.56877088547
velocity: 1.22933733463
doppler_bin: 10
bearing: 26.2559051514
intensity: 26.9019603729
---
header: 
  seq: 810370
  stamp: 
    secs: 1561682538
    nsecs: 294593650
  frame_id: "ti_mmwave"
point_id: 19
x: 1.3203125
y: 0.708984375
z: -0.2109375
range: 1.61234796047
velocity: 1.22933733463
doppler_bin: 10
bearing: 28.2350082397
intensity: 25.5990657806
---
header: 
  seq: 810371
  stamp: 
    secs: 1561682538
    nsecs: 294608724
  frame_id: "ti_mmwave"
point_id: 20
x: 1.0390625
y: 0.61328125
z: -0.2265625
range: 1.3073091507
velocity: 1.84400606155
doppler_bin: 11
bearing: 30.5501899719
intensity: 19.8227119446
---
header: 
  seq: 810372
  stamp: 
    secs: 1561682538
    nsecs: 294625781
  frame_id: "ti_mmwave"
point_id: 21
x: 1.263671875
y: 0.328125
z: -0.09375
range: 1.39446306229
velocity: -0.614668667316
doppler_bin: 7
bearing: 14.5559663773
intensity: 23.8381538391
---
header: 
  seq: 810373
  stamp: 
    secs: 1561682538
    nsecs: 294641001
  frame_id: "ti_mmwave"
point_id: 22
x: 1.294921875
y: 0.37890625
z: -0.037109375
range: 1.43804001808
velocity: -0.614668667316
doppler_bin: 7
bearing: 16.3099689484
intensity: 28.0753498077
---
header: 
  seq: 810374
  stamp: 
    secs: 1561682538
    nsecs: 294655401
  frame_id: "ti_mmwave"
point_id: 23
x: 1.333984375
y: 0.390625
z: -0.044921875
range: 1.48161697388
velocity: -0.614668667316
doppler_bin: 7
bearing: 16.321390152
intensity: 29.7818050385
---
header: 
  seq: 810375
  stamp: 
    secs: 1561682538
    nsecs: 294674822
  frame_id: "ti_mmwave"
point_id: 25
x: 0.041015625
y: -0.033203125
z: 0.0625
range: 0.0871539413929
velocity: 0.0
doppler_bin: 8
bearing: -38.9909973145
intensity: 30.1367969513
---
header: 
  seq: 810376
  stamp: 
    secs: 1561682538
    nsecs: 294689707
  frame_id: "ti_mmwave"
point_id: 26
x: 0.052734375
y: -0.04296875
z: 0.1015625
range: 0.130730912089
velocity: 0.0
doppler_bin: 8
bearing: -39.1736602783
intensity: 28.9982051849
---
header: 
  seq: 810377
  stamp: 
    secs: 1561682538
    nsecs: 294710134
  frame_id: "ti_mmwave"
point_id: 28
x: 0.55859375
y: -0.0390625
z: -1.13671875
range: 1.35088610649
velocity: 0.0
doppler_bin: 8
bearing: -4.00018548965
intensity: 22.9885311127
---
header: 
  seq: 810378
  stamp: 
    secs: 1561682538
    nsecs: 294725150
  frame_id: "ti_mmwave"
point_id: 29
x: 2.86328125
y: -2.00390625
z: -2.962890625
range: 4.88062095642
velocity: 0.0
doppler_bin: 8
bearing: -34.9867744446
intensity: 27.7959651947
---
header: 
  seq: 810379
  stamp: 
    secs: 1561682538
    nsecs: 294736504
  frame_id: "ti_mmwave"
point_id: 30
x: 0.46875
y: -0.1640625
z: 1.2109375
range: 1.39446306229
velocity: -0.614668667316
doppler_bin: 7
bearing: -19.2900447845
intensity: 22.2271652222
---
header: 
  seq: 810380
  stamp: 
    secs: 1561682538
    nsecs: 296176614
  frame_id: "ti_mmwave"
point_id: 0
x: 0.01171875
y: -0.0390625
z: -0.0078125
range: 0.0435769706964
velocity: 0.0
doppler_bin: 8
bearing: -73.3007583618
intensity: 30.7481651306
---
header: 
  seq: 810381
  stamp: 
    secs: 1561682538
    nsecs: 296275025
  frame_id: "ti_mmwave"
point_id: 1
x: 0.017578125
y: -0.080078125
z: -0.0078125
range: 0.0871539413929
velocity: 0.0
doppler_bin: 8
bearing: -77.6192398071
intensity: 31.9700469971
---
header: 
  seq: 810382
  stamp: 
    secs: 1561682538
    nsecs: 296288221
  frame_id: "ti_mmwave"
point_id: 2
x: 0.041015625
y: -0.115234375
z: -0.0078125
range: 0.130730912089
velocity: 0.0
doppler_bin: 8
bearing: -70.4077224731
intensity: 30.2284069061
---
header: 
  seq: 810383
  stamp: 
    secs: 1561682538
    nsecs: 296297101
  frame_id: "ti_mmwave"
point_id: 3
x: 0.056640625
y: -0.154296875
z: 0.005859375
range: 0.174307882786
velocity: 0.0
doppler_bin: 8
bearing: -69.8423843384
intensity: 25.4777469635
---
header: 
  seq: 810384
  stamp: 
    secs: 1561682538
    nsecs: 296305777
  frame_id: "ti_mmwave"
point_id: 4
x: 1.0625
y: 0.482421875
z: 0.2109375
range: 1.2637321949
velocity: 0.0
doppler_bin: 8
bearing: 24.4201431274
intensity: 24.1161975861
---
header: 
  seq: 810385
  stamp: 
    secs: 1561682538
    nsecs: 296314488
  frame_id: "ti_mmwave"
point_id: 5
x: 1.095703125
y: 0.498046875
z: 0.240234375
range: 1.3073091507
velocity: 0.0
doppler_bin: 8
bearing: 24.4439563751
intensity: 26.5801143646
---
header: 
  seq: 810386
  stamp: 
    secs: 1561682538
    nsecs: 296323780
  frame_id: "ti_mmwave"
point_id: 6
x: 1.1171875
y: 0.515625
z: 0.310546875
range: 1.35088610649
velocity: 0.0
doppler_bin: 8
bearing: 24.7751407623
intensity: 24.1664047241
---
header: 
  seq: 810387
  stamp: 
    secs: 1561682538
    nsecs: 296334609
  frame_id: "ti_mmwave"
point_id: 7
x: 2.54296875
y: -0.263671875
z: 1.197265625
range: 3.00681090355
velocity: 0.0
doppler_bin: 8
bearing: -5.91965341568
intensity: 29.484128952
---
header: 
  seq: 810388
  stamp: 
    secs: 1561682538
    nsecs: 296507547
  frame_id: "ti_mmwave"
point_id: 8
x: 2.599609375
y: -0.267578125
z: 1.16796875
range: 3.05038785934
velocity: 0.0
doppler_bin: 8
bearing: -5.87676620483
intensity: 32.7921066284
---
header: 
  seq: 810389
  stamp: 
    secs: 1561682538
    nsecs: 296540840
  frame_id: "ti_mmwave"
point_id: 9
x: 2.65234375
y: -0.181640625
z: 1.16796875
range: 3.09396481514
velocity: 0.0
doppler_bin: 8
bearing: -3.9176735878
intensity: 32.0276069641
---
header: 
  seq: 810390
  stamp: 
    secs: 1561682538
    nsecs: 296605520
  frame_id: "ti_mmwave"
point_id: 10
x: 4.41796875
y: -0.287109375
z: 1.181640625
range: 4.88062095642
velocity: 0.0
doppler_bin: 8
bearing: -3.71823716164
intensity: 30.7481651306
---
header: 
  seq: 810391
  stamp: 
    secs: 1561682538
    nsecs: 296622109
  frame_id: "ti_mmwave"
point_id: 11
x: 4.46484375
y: -0.2890625
z: 1.162109375
range: 4.9241976738
velocity: 0.0
doppler_bin: 8
bearing: -3.70426845551
intensity: 30.3502922058
---
header: 
  seq: 810392
  stamp: 
    secs: 1561682538
    nsecs: 296635603
  frame_id: "ti_mmwave"
point_id: 12
x: 4.736328125
y: -0.44921875
z: -0.521484375
range: 5.09850549698
velocity: 0.0
doppler_bin: 8
bearing: -5.41803121567
intensity: 33.2345848083
---
header: 
  seq: 810393
  stamp: 
    secs: 1561682538
    nsecs: 296649486
  frame_id: "ti_mmwave"
point_id: 13
x: 4.787109375
y: -0.453125
z: -0.419921875
range: 5.14208269119
velocity: 0.0
doppler_bin: 8
bearing: -5.40723514557
intensity: 33.8201713562
---
header: 
  seq: 810394
  stamp: 
    secs: 1561682538
    nsecs: 296682372
  frame_id: "ti_mmwave"
point_id: 14
x: 4.84375
y: -0.45703125
z: -0.185546875
range: 5.18565940857
velocity: 0.0
doppler_bin: 8
bearing: -5.3901758194
intensity: 30.5537834167
---
header: 
  seq: 810395
  stamp: 
    secs: 1561682538
    nsecs: 296759867
  frame_id: "ti_mmwave"
point_id: 15
x: 4.81640625
y: -0.4609375
z: 0.822265625
range: 5.22923660278
velocity: 0.0
doppler_bin: 8
bearing: -5.46664571762
intensity: 29.4987773895
---
header: 
  seq: 810396
  stamp: 
    secs: 1561682538
    nsecs: 296776283
  frame_id: "ti_mmwave"
point_id: 16
x: 4.8671875
y: -0.30859375
z: 0.849609375
range: 5.27281332016
velocity: 0.0
doppler_bin: 8
bearing: -3.62786221504
intensity: 30.6107540131
---
header: 
  seq: 810397
  stamp: 
    secs: 1561682538
    nsecs: 296793631
  frame_id: "ti_mmwave"
point_id: 17
x: 0.95703125
y: 0.3515625
z: -0.076171875
range: 1.08942425251
velocity: -1.84400606155
doppler_bin: 5
bearing: 20.1706542969
intensity: 23.3243846893
---
header: 
  seq: 810398
  stamp: 
    secs: 1561682538
    nsecs: 296821592
  frame_id: "ti_mmwave"
point_id: 18
x: 0.99609375
y: 0.365234375
z: -0.060546875
range: 1.13300120831
velocity: -1.84400606155
doppler_bin: 5
bearing: 20.1363048553
intensity: 25.4654273987
---
header: 
  seq: 810399
  stamp: 
    secs: 1561682538
    nsecs: 296879235
  frame_id: "ti_mmwave"
point_id: 19
x: 1.037109375
y: 0.37890625
z: -0.0390625
range: 1.1765781641
velocity: -1.84400606155
doppler_bin: 5
bearing: 20.069694519
intensity: 23.9445171356
---
header: 
  seq: 810400
  stamp: 
    secs: 1561682538
    nsecs: 296893202
  frame_id: "ti_mmwave"
point_id: 20
x: 1.263671875
y: 0.328125
z: -0.10546875
range: 1.39446306229
velocity: -0.614668667316
doppler_bin: 7
bearing: 14.5559663773
intensity: 28.8309345245
---
header: 
  seq: 810401
  stamp: 
    secs: 1561682538
    nsecs: 296905342
  frame_id: "ti_mmwave"
point_id: 21
x: 1.306640625
y: 0.337890625
z: -0.033203125
range: 1.43804001808
velocity: -0.614668667316
doppler_bin: 7
bearing: 14.4987840652
intensity: 29.9033889771
---
header: 
  seq: 810402
  stamp: 
    secs: 1561682538
    nsecs: 296922040
  frame_id: "ti_mmwave"
point_id: 22
x: 1.3203125
y: 0.435546875
z: 0.04296875
range: 1.48161697388
velocity: -0.614668667316
doppler_bin: 7
bearing: 18.2567768097
intensity: 27.5587482452
---
header: 
  seq: 810403
  stamp: 
    secs: 1561682538
    nsecs: 296973806
  frame_id: "ti_mmwave"
point_id: 24
x: 0.041015625
y: -0.033203125
z: 0.0625
range: 0.0871539413929
velocity: 0.0
doppler_bin: 8
bearing: -38.9909973145
intensity: 30.1325874329
---
header: 
  seq: 810404
  stamp: 
    secs: 1561682538
    nsecs: 296993639
  frame_id: "ti_mmwave"
point_id: 25
x: 0.052734375
y: -0.04296875
z: 0.1015625
range: 0.130730912089
velocity: 0.0
doppler_bin: 8
bearing: -39.1736602783
intensity: 28.9982051849
---
header: 
  seq: 810405
  stamp: 
    secs: 1561682538
    nsecs: 297028634
  frame_id: "ti_mmwave"
point_id: 27
x: 1.13671875
y: 0.080078125
z: -0.5546875
range: 1.35088610649
velocity: 0.0
doppler_bin: 8
bearing: 4.02964353561
intensity: 21.4921913147
---
header: 
  seq: 810406
  stamp: 
    secs: 1561682538
    nsecs: 297086830
  frame_id: "ti_mmwave"
point_id: 28
x: 2.728515625
y: -2.00390625
z: -3.0859375
range: 4.88062095642
velocity: 0.0
doppler_bin: 8
bearing: -36.294708252
intensity: 27.7597427368
---
header: 
  seq: 810407
  stamp: 
    secs: 1561682538
    nsecs: 354368664
  frame_id: "ti_mmwave"
point_id: 0
x: 0.01171875
y: -0.0390625
z: -0.0078125
range: 0.0435769706964
velocity: 0.0
doppler_bin: 8
bearing: -73.3007583618
intensity: 30.7591171265
---
header: 
  seq: 810408
  stamp: 
    secs: 1561682538
    nsecs: 354454116
  frame_id: "ti_mmwave"
point_id: 1
x: 0.017578125
y: -0.080078125
z: -0.0078125
range: 0.0871539413929
velocity: 0.0
doppler_bin: 8
bearing: -77.6192398071
intensity: 31.9700469971
---
header: 
  seq: 810409
  stamp: 
    secs: 1561682538
    nsecs: 354466313
  frame_id: "ti_mmwave"
point_id: 2
x: 0.041015625
y: -0.115234375
z: -0.0078125
range: 0.130730912089
velocity: 0.0
doppler_bin: 8
bearing: -70.4077224731
intensity: 30.2284069061
---
header: 
  seq: 810410
  stamp: 
    secs: 1561682538
    nsecs: 354475223
  frame_id: "ti_mmwave"
point_id: 3
x: 0.056640625
y: -0.154296875
z: 0.005859375
range: 0.174307882786
velocity: 0.0
doppler_bin: 8
bearing: -69.8423843384
intensity: 25.4777469635
---
header: 
  seq: 810411
  stamp: 
    secs: 1561682538
    nsecs: 354483401
  frame_id: "ti_mmwave"
point_id: 4
x: 2.544921875
y: -0.263671875
z: 1.19140625
range: 3.00681090355
velocity: 0.0
doppler_bin: 8
bearing: -5.91514253616
intensity: 29.4448261261
---
header: 
  seq: 810412
  stamp: 
    secs: 1561682538
    nsecs: 354491629
  frame_id: "ti_mmwave"
point_id: 5
x: 2.603515625
y: -0.267578125
z: 1.162109375
range: 3.05038785934
velocity: 0.0
doppler_bin: 8
bearing: -5.8680100441
intensity: 32.7921066284
---
header: 
  seq: 810413
  stamp: 
    secs: 1561682538
    nsecs: 354501109
  frame_id: "ti_mmwave"
point_id: 6
x: 2.662109375
y: -0.181640625
z: 1.1484375
range: 3.09396481514
velocity: 0.0
doppler_bin: 8
bearing: -3.90334677696
intensity: 32.0002937317
---
header: 
  seq: 810414
  stamp: 
    secs: 1561682538
    nsecs: 354509482
  frame_id: "ti_mmwave"
point_id: 7
x: 4.41015625
y: -0.287109375
z: 1.205078125
range: 4.88062095642
velocity: 0.0
doppler_bin: 8
bearing: -3.72480559349
intensity: 30.7518177032
---
header: 
  seq: 810415
  stamp: 
    secs: 1561682538
    nsecs: 354519254
  frame_id: "ti_mmwave"
point_id: 8
x: 4.447265625
y: -0.2890625
z: 1.224609375
range: 4.9241976738
velocity: 0.0
doppler_bin: 8
bearing: -3.71886897087
intensity: 30.3782482147
---
header: 
  seq: 810416
  stamp: 
    secs: 1561682538
    nsecs: 354527310
  frame_id: "ti_mmwave"
point_id: 9
x: 4.736328125
y: -0.44921875
z: -0.529296875
range: 5.09850549698
velocity: 0.0
doppler_bin: 8
bearing: -5.41803121567
intensity: 33.203540802
---
header: 
  seq: 810417
  stamp: 
    secs: 1561682538
    nsecs: 354535907
  frame_id: "ti_mmwave"
point_id: 10
x: 4.78515625
y: -0.453125
z: -0.443359375
range: 5.14208269119
velocity: 0.0
doppler_bin: 8
bearing: -5.40942907333
intensity: 33.8021125793
---
header: 
  seq: 810418
  stamp: 
    secs: 1561682538
    nsecs: 354543330
  frame_id: "ti_mmwave"
point_id: 11
x: 4.841796875
y: -0.45703125
z: -0.224609375
range: 5.18565940857
velocity: 0.0
doppler_bin: 8
bearing: -5.39233732224
intensity: 30.496055603
---
header: 
  seq: 810419
  stamp: 
    secs: 1561682538
    nsecs: 354551657
  frame_id: "ti_mmwave"
point_id: 12
x: 4.79296875
y: -0.4609375
z: 0.953125
range: 5.22923660278
velocity: 0.0
doppler_bin: 8
bearing: -5.4932141304
intensity: 29.3951931
---
header: 
  seq: 810420
  stamp: 
    secs: 1561682538
    nsecs: 354559419
  frame_id: "ti_mmwave"
point_id: 13
x: 4.8515625
y: -0.30859375
z: 0.927734375
range: 5.27281332016
velocity: 0.0
doppler_bin: 8
bearing: -3.63951420784
intensity: 30.5115261078
---
header: 
  seq: 810421
  stamp: 
    secs: 1561682538
    nsecs: 354568111
  frame_id: "ti_mmwave"
point_id: 14
x: 0.888671875
y: 0.294921875
z: -0.08984375
range: 1.00227034092
velocity: -0.614668667316
doppler_bin: 7
bearing: 18.3593597412
intensity: 19.637878418
---
header: 
  seq: 810422
  stamp: 
    secs: 1561682538
    nsecs: 354579818
  frame_id: "ti_mmwave"
point_id: 15
x: 0.919921875
y: 0.337890625
z: -0.07421875
range: 1.04584729671
velocity: -0.614668667316
doppler_bin: 7
bearing: 20.168466568
intensity: 24.6538276672
---
header: 
  seq: 810423
  stamp: 
    secs: 1561682538
    nsecs: 354594041
  frame_id: "ti_mmwave"
point_id: 16
x: 0.958984375
y: 0.3515625
z: -0.060546875
range: 1.08942425251
velocity: -0.614668667316
doppler_bin: 7
bearing: 20.1328754425
intensity: 26.0638141632
---
header: 
  seq: 810424
  stamp: 
    secs: 1561682538
    nsecs: 354610281
  frame_id: "ti_mmwave"
point_id: 17
x: 0.984375
y: 0.3984375
z: -0.046875
range: 1.13300120831
velocity: -0.614668667316
doppler_bin: 7
bearing: 22.0362281799
intensity: 24.2813472748
---
header: 
  seq: 810425
  stamp: 
    secs: 1561682538
    nsecs: 354814322
  frame_id: "ti_mmwave"
point_id: 19
x: 0.041015625
y: -0.033203125
z: 0.0625
range: 0.0871539413929
velocity: 0.0
doppler_bin: 8
bearing: -38.9909973145
intensity: 30.1325874329
---
header: 
  seq: 810426
  stamp: 
    secs: 1561682538
    nsecs: 354849193
  frame_id: "ti_mmwave"
point_id: 20
x: 0.052734375
y: -0.04296875
z: 0.1015625
range: 0.130730912089
velocity: 0.0
doppler_bin: 8
bearing: -39.1736602783
intensity: 28.9927310944
---
header: 
  seq: 810427
  stamp: 
    secs: 1561682538
    nsecs: 354884257
  frame_id: "ti_mmwave"
point_id: 22
x: 2.8125
y: -2.00390625
z: -3.01171875
range: 4.88062095642
velocity: 0.0
doppler_bin: 8
bearing: -35.4698677063
intensity: 27.8318862915
---
header: 
  seq: 810428
  stamp: 
    secs: 1561682538
    nsecs: 354927345
  frame_id: "ti_mmwave"
point_id: 23
x: 4.80859375
y: -0.619140625
z: 0.99609375
range: 5.27281332016
velocity: 0.0
doppler_bin: 8
bearing: -7.33687210083
intensity: 30.4257545471
---
header: 
  seq: 810429
  stamp: 
    secs: 1561682538
    nsecs: 356224609
  frame_id: "ti_mmwave"
point_id: 0
x: 0.01171875
y: -0.0390625
z: -0.0078125
range: 0.0435769706964
velocity: 0.0
doppler_bin: 8
bearing: -73.3007583618
intensity: 30.7481651306
---
header: 
  seq: 810430
  stamp: 
    secs: 1561682538
    nsecs: 356301324
  frame_id: "ti_mmwave"
point_id: 1
x: 0.017578125
y: -0.080078125
z: -0.0078125
range: 0.0871539413929
velocity: 0.0
doppler_bin: 8
bearing: -77.6192398071
intensity: 31.9672870636
---
header: 
  seq: 810431
  stamp: 
    secs: 1561682538
    nsecs: 356318716
  frame_id: "ti_mmwave"
point_id: 2
x: 0.041015625
y: -0.115234375
z: -0.0078125
range: 0.130730912089
velocity: 0.0
doppler_bin: 8
bearing: -70.4077224731
intensity: 30.2284069061
---
header: 
  seq: 810432
  stamp: 
    secs: 1561682538
    nsecs: 356335670
  frame_id: "ti_mmwave"
point_id: 3
x: 0.056640625
y: -0.154296875
z: 0.005859375
range: 0.174307882786
velocity: 0.0
doppler_bin: 8
bearing: -69.8423843384
intensity: 25.490032196
---
header: 
  seq: 810433
  stamp: 
    secs: 1561682538
    nsecs: 356415954
  frame_id: "ti_mmwave"
point_id: 4
x: 1.080078125
y: 0.537109375
z: 0.228515625
range: 1.3073091507
velocity: 0.0
doppler_bin: 8
bearing: 26.4405841827
intensity: 25.3019962311
---
header: 
  seq: 810434
  stamp: 
    secs: 1561682538
    nsecs: 356431245
  frame_id: "ti_mmwave"
point_id: 5
x: 1.134765625
y: 0.515625
z: 0.234375
range: 1.35088610649
velocity: 0.0
doppler_bin: 8
bearing: 24.4365253448
intensity: 26.0205993652
---
header: 
  seq: 810435
  stamp: 
    secs: 1561682538
    nsecs: 356444495
  frame_id: "ti_mmwave"
point_id: 6
x: 2.55859375
y: -0.263671875
z: 1.1640625
range: 3.00681090355
velocity: 0.0
doppler_bin: 8
bearing: -5.88375711441
intensity: 29.4645233154
---
header: 
  seq: 810436
  stamp: 
    secs: 1561682538
    nsecs: 356458019
  frame_id: "ti_mmwave"
point_id: 7
x: 2.603515625
y: -0.267578125
z: 1.16015625
range: 3.05038785934
velocity: 0.0
doppler_bin: 8
bearing: -5.8680100441
intensity: 32.7921066284
---
header: 
  seq: 810437
  stamp: 
    secs: 1561682538
    nsecs: 356474298
  frame_id: "ti_mmwave"
point_id: 8
x: 2.66015625
y: -0.181640625
z: 1.15234375
range: 3.09396481514
velocity: 0.0
doppler_bin: 8
bearing: -3.90620398521
intensity: 31.9865703583
---
header: 
  seq: 810438
  stamp: 
    secs: 1561682538
    nsecs: 356487999
  frame_id: "ti_mmwave"
point_id: 9
x: 4.4140625
y: -0.287109375
z: 1.19140625
range: 4.88062095642
velocity: 0.0
doppler_bin: 8
bearing: -3.72151875496
intensity: 30.7664051056
---
header: 
  seq: 810439
  stamp: 
    secs: 1561682538
    nsecs: 356518864
  frame_id: "ti_mmwave"
point_id: 10
x: 4.48046875
y: -0.2890625
z: 1.09765625
range: 4.9241976738
velocity: 0.0
doppler_bin: 8
bearing: -3.69138598442
intensity: 30.3422718048
---
header: 
  seq: 810440
  stamp: 
    secs: 1561682538
    nsecs: 356618848
  frame_id: "ti_mmwave"
point_id: 11
x: 4.732421875
y: -0.44921875
z: -0.552734375
range: 5.09850549698
velocity: 0.0
doppler_bin: 8
bearing: -5.42247676849
intensity: 33.2056159973
---
header: 
  seq: 810441
  stamp: 
    secs: 1561682538
    nsecs: 356649602
  frame_id: "ti_mmwave"
point_id: 12
x: 4.78515625
y: -0.453125
z: -0.4375
range: 5.14208269119
velocity: 0.0
doppler_bin: 8
bearing: -5.40942907333
intensity: 33.7748832703
---
header: 
  seq: 810442
  stamp: 
    secs: 1561682538
    nsecs: 356662989
  frame_id: "ti_mmwave"
point_id: 13
x: 4.841796875
y: -0.45703125
z: -0.21484375
range: 5.18565940857
velocity: 0.0
doppler_bin: 8
bearing: -5.39233732224
intensity: 30.4688510895
---
header: 
  seq: 810443
  stamp: 
    secs: 1561682538
    nsecs: 356675994
  frame_id: "ti_mmwave"
point_id: 14
x: 4.80859375
y: -0.4609375
z: 0.869140625
range: 5.22923660278
velocity: 0.0
doppler_bin: 8
bearing: -5.47547340393
intensity: 29.4448261261
---
header: 
  seq: 810444
  stamp: 
    secs: 1561682538
    nsecs: 356689728
  frame_id: "ti_mmwave"
point_id: 15
x: 4.857421875
y: -0.30859375
z: 0.8984375
range: 5.27281332016
velocity: 0.0
doppler_bin: 8
bearing: -3.63513588905
intensity: 30.6258201599
---
header: 
  seq: 810445
  stamp: 
    secs: 1561682538
    nsecs: 356707723
  frame_id: "ti_mmwave"
point_id: 16
x: 0.947265625
y: 0.3828125
z: 0.0
range: 1.08942425251
velocity: 0.614668667316
doppler_bin: 9
bearing: 22.0048007965
intensity: 23.9619941711
---
header: 
  seq: 810446
  stamp: 
    secs: 1561682538
    nsecs: 356779002
  frame_id: "ti_mmwave"
point_id: 17
x: 0.986328125
y: 0.3984375
z: 0.0
range: 1.13300120831
velocity: 0.614668667316
doppler_bin: 9
bearing: 21.9967575073
intensity: 24.014005661
---
header: 
  seq: 810447
  stamp: 
    secs: 1561682538
    nsecs: 356798579
  frame_id: "ti_mmwave"
point_id: 18
x: 1.009765625
y: 0.44921875
z: 0.015625
range: 1.1765781641
velocity: 0.614668667316
doppler_bin: 9
bearing: 23.9830513
intensity: 19.8677177429
---
header: 
  seq: 810448
  stamp: 
    secs: 1561682538
    nsecs: 356812282
  frame_id: "ti_mmwave"
point_id: 19
x: 1.35546875
y: 0.767578125
z: -0.50390625
range: 1.74307882786
velocity: 1.84400606155
doppler_bin: 11
bearing: 29.5221138
intensity: 20.1283721924
---
header: 
  seq: 810449
  stamp: 
    secs: 1561682538
    nsecs: 356830296
  frame_id: "ti_mmwave"
point_id: 20
x: 1.408203125
y: 0.787109375
z: -0.4609375
range: 1.78665578365
velocity: 1.84400606155
doppler_bin: 11
bearing: 29.202829361
intensity: 20.8990516663
---
header: 
  seq: 810450
  stamp: 
    secs: 1561682538
    nsecs: 356876769
  frame_id: "ti_mmwave"
point_id: 22
x: 0.041015625
y: -0.033203125
z: 0.0625
range: 0.0871539413929
velocity: 0.0
doppler_bin: 8
bearing: -38.9909973145
intensity: 30.1325874329
---
header: 
  seq: 810451
  stamp: 
    secs: 1561682538
    nsecs: 356891260
  frame_id: "ti_mmwave"
point_id: 23
x: 0.052734375
y: -0.04296875
z: 0.1015625
range: 0.130730912089
velocity: 0.0
doppler_bin: 8
bearing: -39.1736602783
intensity: 28.9927310944
---
header: 
  seq: 810452
  stamp: 
    secs: 1561682538
    nsecs: 356925020
  frame_id: "ti_mmwave"
point_id: 25
x: 0.904296875
y: 0.0390625
z: -0.888671875
range: 1.35088610649
velocity: 0.0
doppler_bin: 8
bearing: 2.47344207764
intensity: 23.6921577454
---
header: 
  seq: 810453
  stamp: 
    secs: 1561682538
    nsecs: 357251916
  frame_id: "ti_mmwave"
point_id: 26
x: 2.80859375
y: -2.00390625
z: -3.013671875
range: 4.88062095642
velocity: 0.0
doppler_bin: 8
bearing: -35.5075149536
intensity: 27.774269104
---
header: 
  seq: 810454
  stamp: 
    secs: 1561682538
    nsecs: 357284037
  frame_id: "ti_mmwave"
point_id: 27
x: 2.693359375
y: -2.021484375
z: -3.166015625
range: 4.9241976738
velocity: 0.0
doppler_bin: 8
bearing: -36.8898391724
intensity: 27.3479976654
---
header: 
  seq: 810455
  stamp: 
    secs: 1561682538
    nsecs: 414355550
  frame_id: "ti_mmwave"
point_id: 0
x: 0.01171875
y: -0.0390625
z: -0.0078125
range: 0.0435769706964
velocity: 0.0
doppler_bin: 8
bearing: -73.3007583618
intensity: 30.7481651306
---
header: 
  seq: 810456
  stamp: 
    secs: 1561682538
    nsecs: 414431650
  frame_id: "ti_mmwave"
point_id: 1
x: 0.017578125
y: -0.080078125
z: -0.0078125
range: 0.0871539413929
velocity: 0.0
doppler_bin: 8
bearing: -77.6192398071
intensity: 31.9700469971
---
header: 
  seq: 810457
  stamp: 
    secs: 1561682538
    nsecs: 414447089
  frame_id: "ti_mmwave"
point_id: 2
x: 0.041015625
y: -0.115234375
z: -0.0078125
range: 0.130730912089
velocity: 0.0
doppler_bin: 8
bearing: -70.4077224731
intensity: 30.2284069061
---
header: 
  seq: 810458
  stamp: 
    secs: 1561682538
    nsecs: 414460714
  frame_id: "ti_mmwave"
point_id: 3
x: 0.056640625
y: -0.154296875
z: 0.005859375
range: 0.174307882786
velocity: 0.0
doppler_bin: 8
bearing: -69.8423843384
intensity: 25.490032196
---
header: 
  seq: 810459
  stamp: 
    secs: 1561682538
    nsecs: 414474621
  frame_id: "ti_mmwave"
point_id: 4
x: 1.03125
y: 0.556640625
z: 0.1875
range: 1.2637321949
velocity: 0.0
doppler_bin: 8
bearing: 28.35896492
intensity: 25.5630245209
---
header: 
  seq: 810460
  stamp: 
    secs: 1561682538
    nsecs: 414552562
  frame_id: "ti_mmwave"
point_id: 5
x: 1.068359375
y: 0.576171875
z: 0.181640625
range: 1.3073091507
velocity: 0.0
doppler_bin: 8
bearing: 28.3382205963
intensity: 26.875289917
---
header: 
  seq: 810461
  stamp: 
    secs: 1561682538
    nsecs: 414568782
  frame_id: "ti_mmwave"
point_id: 6
x: 1.09375
y: 0.634765625
z: 0.09765625
range: 1.35088610649
velocity: 0.0
doppler_bin: 8
bearing: 30.1290435791
intensity: 24.563659668
---
header: 
  seq: 810462
  stamp: 
    secs: 1561682538
    nsecs: 414580696
  frame_id: "ti_mmwave"
point_id: 7
x: 2.54296875
y: -0.263671875
z: 1.193359375
range: 3.00681090355
velocity: 0.0
doppler_bin: 8
bearing: -5.91965341568
intensity: 29.5133743286
---
header: 
  seq: 810463
  stamp: 
    secs: 1561682538
    nsecs: 414591191
  frame_id: "ti_mmwave"
point_id: 8
x: 2.603515625
y: -0.267578125
z: 1.1640625
range: 3.05038785934
velocity: 0.0
doppler_bin: 8
bearing: -5.8680100441
intensity: 32.7921066284
---
header: 
  seq: 810464
  stamp: 
    secs: 1561682538
    nsecs: 414602056
  frame_id: "ti_mmwave"
point_id: 9
x: 2.66015625
y: -0.181640625
z: 1.15234375
range: 3.09396481514
velocity: 0.0
doppler_bin: 8
bearing: -3.90620398521
intensity: 31.9975509644
---
header: 
  seq: 810465
  stamp: 
    secs: 1561682538
    nsecs: 414613575
  frame_id: "ti_mmwave"
point_id: 10
x: 4.41015625
y: -0.287109375
z: 1.205078125
range: 4.88062095642
velocity: 0.0
doppler_bin: 8
bearing: -3.72480559349
intensity: 30.7773113251
---
header: 
  seq: 810466
  stamp: 
    secs: 1561682538
    nsecs: 414627972
  frame_id: "ti_mmwave"
point_id: 11
x: 4.462890625
y: -0.2890625
z: 1.169921875
range: 4.9241976738
velocity: 0.0
doppler_bin: 8
bearing: -3.70588517189
intensity: 30.4257545471
---
header: 
  seq: 810467
  stamp: 
    secs: 1561682538
    nsecs: 414640003
  frame_id: "ti_mmwave"
point_id: 12
x: 4.73828125
y: -0.44921875
z: -0.50390625
range: 5.09850549698
velocity: 0.0
doppler_bin: 8
bearing: -5.4158115387
intensity: 33.2118415833
---
header: 
  seq: 810468
  stamp: 
    secs: 1561682538
    nsecs: 414652304
  frame_id: "ti_mmwave"
point_id: 13
x: 4.7890625
y: -0.453125
z: -0.404296875
range: 5.14208269119
velocity: 0.0
doppler_bin: 8
bearing: -5.40504264832
intensity: 33.740146637
---
header: 
  seq: 810469
  stamp: 
    secs: 1561682538
    nsecs: 414665812
  frame_id: "ti_mmwave"
point_id: 14
x: 4.84375
y: -0.45703125
z: -0.142578125
range: 5.18565940857
velocity: 0.0
doppler_bin: 8
bearing: -5.3901758194
intensity: 30.4020671844
---
header: 
  seq: 810470
  stamp: 
    secs: 1561682538
    nsecs: 414674948
  frame_id: "ti_mmwave"
point_id: 15
x: 4.8125
y: -0.4609375
z: 0.849609375
range: 5.22923660278
velocity: 0.0
doppler_bin: 8
bearing: -5.4710559845
intensity: 29.5664863586
---
header: 
  seq: 810471
  stamp: 
    secs: 1561682538
    nsecs: 414699908
  frame_id: "ti_mmwave"
point_id: 16
x: 4.875
y: -0.30859375
z: 0.8046875
range: 5.27281332016
velocity: 0.0
doppler_bin: 8
bearing: -3.62206339836
intensity: 30.561422348
---
header: 
  seq: 810472
  stamp: 
    secs: 1561682538
    nsecs: 414718828
  frame_id: "ti_mmwave"
point_id: 17
x: 0.919921875
y: 0.337890625
z: -0.044921875
range: 1.04584729671
velocity: 0.614668667316
doppler_bin: 9
bearing: 20.168466568
intensity: 23.7657699585
---
header: 
  seq: 810473
  stamp: 
    secs: 1561682538
    nsecs: 414739062
  frame_id: "ti_mmwave"
point_id: 18
x: 0.958984375
y: 0.3515625
z: -0.029296875
range: 1.08942425251
velocity: 0.614668667316
doppler_bin: 9
bearing: 20.1328754425
intensity: 26.9548168182
---
header: 
  seq: 810474
  stamp: 
    secs: 1561682538
    nsecs: 414811774
  frame_id: "ti_mmwave"
point_id: 19
x: 0.986328125
y: 0.3984375
z: -0.02734375
range: 1.13300120831
velocity: 0.614668667316
doppler_bin: 9
bearing: 21.9967575073
intensity: 26.812412262
---
header: 
  seq: 810475
  stamp: 
    secs: 1561682538
    nsecs: 414832834
  frame_id: "ti_mmwave"
point_id: 20
x: 1.037109375
y: 0.37890625
z: -0.00390625
range: 1.1765781641
velocity: 0.614668667316
doppler_bin: 9
bearing: 20.069694519
intensity: 23.0535144806
---
header: 
  seq: 810476
  stamp: 
    secs: 1561682538
    nsecs: 414846708
  frame_id: "ti_mmwave"
point_id: 21
x: 1.216796875
y: 0.44921875
z: 0.1796875
range: 1.39446306229
velocity: -0.614668667316
doppler_bin: 7
bearing: 20.2632083893
intensity: 25.1454772949
---
header: 
  seq: 810477
  stamp: 
    secs: 1561682538
    nsecs: 414863746
  frame_id: "ti_mmwave"
point_id: 23
x: 0.041015625
y: -0.033203125
z: 0.0625
range: 0.0871539413929
velocity: 0.0
doppler_bin: 8
bearing: -38.9909973145
intensity: 30.1325874329
---
header: 
  seq: 810478
  stamp: 
    secs: 1561682538
    nsecs: 414879346
  frame_id: "ti_mmwave"
point_id: 24
x: 0.052734375
y: -0.04296875
z: 0.1015625
range: 0.130730912089
velocity: 0.0
doppler_bin: 8
bearing: -39.1736602783
intensity: 28.9982051849
---
header: 
  seq: 810479
  stamp: 
    secs: 1561682538
    nsecs: 414900792
  frame_id: "ti_mmwave"
point_id: 27
x: 1.00390625
y: 0.27734375
z: 0.72265625
range: 1.35088610649
velocity: 0.0
doppler_bin: 8
bearing: 15.4435901642
intensity: 24.3296928406
---
header: 
  seq: 810480
  stamp: 
    secs: 1561682538
    nsecs: 414914657
  frame_id: "ti_mmwave"
point_id: 28
x: 2.814453125
y: -2.00390625
z: -3.0078125
range: 4.88062095642
velocity: 0.0
doppler_bin: 8
bearing: -35.4510803223
intensity: 27.8103694916
---
header: 
  seq: 810481
  stamp: 
    secs: 1561682538
    nsecs: 414929395
  frame_id: "ti_mmwave"
point_id: 29
x: 0.63671875
y: -0.041015625
z: 1.142578125
range: 1.39446306229
velocity: -0.614668667316
doppler_bin: 7
bearing: -3.68573999405
intensity: 22.6717166901
---
header: 
  seq: 810482
  stamp: 
    secs: 1561682538
    nsecs: 416193929
  frame_id: "ti_mmwave"
point_id: 0
x: 0.01171875
y: -0.0390625
z: -0.0078125
range: 0.0435769706964
velocity: 0.0
doppler_bin: 8
bearing: -73.3007583618
intensity: 30.7518177032
---
header: 
  seq: 810483
  stamp: 
    secs: 1561682538
    nsecs: 416249162
  frame_id: "ti_mmwave"
point_id: 1
x: 0.017578125
y: -0.080078125
z: -0.0078125
range: 0.0871539413929
velocity: 0.0
doppler_bin: 8
bearing: -77.6192398071
intensity: 31.9700469971
---
header: 
  seq: 810484
  stamp: 
    secs: 1561682538
    nsecs: 416260333
  frame_id: "ti_mmwave"
point_id: 2
x: 0.041015625
y: -0.115234375
z: -0.0078125
range: 0.130730912089
velocity: 0.0
doppler_bin: 8
bearing: -70.4077224731
intensity: 30.2242832184
---
header: 
  seq: 810485
  stamp: 
    secs: 1561682538
    nsecs: 416269069
  frame_id: "ti_mmwave"
point_id: 3
x: 0.056640625
y: -0.154296875
z: 0.005859375
range: 0.174307882786
velocity: 0.0
doppler_bin: 8
bearing: -69.8423843384
intensity: 25.4777469635
---
header: 
  seq: 810486
  stamp: 
    secs: 1561682538
    nsecs: 416277917
  frame_id: "ti_mmwave"
point_id: 4
x: 1.001953125
y: 0.537109375
z: 0.14453125
range: 1.22015523911
velocity: 0.0
doppler_bin: 8
bearing: 28.1940841675
intensity: 25.2113800049
---
header: 
  seq: 810487
  stamp: 
    secs: 1561682538
    nsecs: 416289047
  frame_id: "ti_mmwave"
point_id: 5
x: 1.037109375
y: 0.556640625
z: 0.150390625
range: 1.2637321949
velocity: 0.0
doppler_bin: 8
bearing: 28.2234840393
intensity: 29.9694919586
---
header: 
  seq: 810488
  stamp: 
    secs: 1561682538
    nsecs: 416297914
  frame_id: "ti_mmwave"
point_id: 6
x: 1.07421875
y: 0.576171875
z: 0.138671875
range: 1.3073091507
velocity: 0.0
doppler_bin: 8
bearing: 28.2074928284
intensity: 31.8098564148
---
header: 
  seq: 810489
  stamp: 
    secs: 1561682538
    nsecs: 416356996
  frame_id: "ti_mmwave"
point_id: 7
x: 1.11328125
y: 0.59375
z: 0.1328125
range: 1.35088610649
velocity: 0.0
doppler_bin: 8
bearing: 28.0724887848
intensity: 30.6295776367
---
header: 
  seq: 810490
  stamp: 
    secs: 1561682538
    nsecs: 416366175
  frame_id: "ti_mmwave"
point_id: 8
x: 1.1484375
y: 0.61328125
z: 0.138671875
range: 1.39446306229
velocity: 0.0
doppler_bin: 8
bearing: 28.1028251648
intensity: 25.7518787384
---
header: 
  seq: 810491
  stamp: 
    secs: 1561682538
    nsecs: 416374012
  frame_id: "ti_mmwave"
point_id: 9
x: 1.267578125
y: 0.46484375
z: -0.037109375
range: 1.43804001808
velocity: 0.0
doppler_bin: 8
bearing: 20.1388969421
intensity: 26.812412262
---
header: 
  seq: 810492
  stamp: 
    secs: 1561682538
    nsecs: 416382199
  frame_id: "ti_mmwave"
point_id: 10
x: 2.544921875
y: -0.263671875
z: 1.19140625
range: 3.00681090355
velocity: 0.0
doppler_bin: 8
bearing: -5.91514253616
intensity: 29.5182304382
---
header: 
  seq: 810493
  stamp: 
    secs: 1561682538
    nsecs: 416389471
  frame_id: "ti_mmwave"
point_id: 11
x: 2.6015625
y: -0.267578125
z: 1.1640625
range: 3.05038785934
velocity: 0.0
doppler_bin: 8
bearing: -5.87238502502
intensity: 32.8080596924
---
header: 
  seq: 810494
  stamp: 
    secs: 1561682538
    nsecs: 416398516
  frame_id: "ti_mmwave"
point_id: 12
x: 2.65625
y: -0.181640625
z: 1.16015625
range: 3.09396481514
velocity: 0.0
doppler_bin: 8
bearing: -3.91193032265
intensity: 32.0194320679
---
header: 
  seq: 810495
  stamp: 
    secs: 1561682538
    nsecs: 416406917
  frame_id: "ti_mmwave"
point_id: 13
x: 4.41015625
y: -0.287109375
z: 1.20703125
range: 4.88062095642
velocity: 0.0
doppler_bin: 8
bearing: -3.72480559349
intensity: 30.7773113251
---
header: 
  seq: 810496
  stamp: 
    secs: 1561682538
    nsecs: 416414834
  frame_id: "ti_mmwave"
point_id: 14
x: 4.466796875
y: -0.2890625
z: 1.150390625
range: 4.9241976738
velocity: 0.0
doppler_bin: 8
bearing: -3.70265316963
intensity: 30.4060230255
---
header: 
  seq: 810497
  stamp: 
    secs: 1561682538
    nsecs: 416422131
  frame_id: "ti_mmwave"
point_id: 15
x: 4.73828125
y: -0.44921875
z: -0.505859375
range: 5.09850549698
velocity: 0.0
doppler_bin: 8
bearing: -5.4158115387
intensity: 33.1722717285
---
header: 
  seq: 810498
  stamp: 
    secs: 1561682538
    nsecs: 416429734
  frame_id: "ti_mmwave"
point_id: 16
x: 4.787109375
y: -0.453125
z: -0.427734375
range: 5.14208269119
velocity: 0.0
doppler_bin: 8
bearing: -5.40723514557
intensity: 33.7912406921
---
header: 
  seq: 810499
  stamp: 
    secs: 1561682538
    nsecs: 416437417
  frame_id: "ti_mmwave"
point_id: 17
x: 4.841796875
y: -0.45703125
z: -0.220703125
range: 5.18565940857
velocity: 0.0
doppler_bin: 8
bearing: -5.39233732224
intensity: 30.588054657
---
header: 
  seq: 810500
  stamp: 
    secs: 1561682538
    nsecs: 416444923
  frame_id: "ti_mmwave"
point_id: 18
x: 4.82421875
y: -0.4609375
z: 0.77734375
range: 5.22923660278
velocity: 0.0
doppler_bin: 8
bearing: -5.4578461647
intensity: 29.4939002991
---
header: 
  seq: 810501
  stamp: 
    secs: 1561682538
    nsecs: 416454116
  frame_id: "ti_mmwave"
point_id: 19
x: 4.873046875
y: -0.30859375
z: 0.81640625
range: 5.27281332016
velocity: 0.0
doppler_bin: 8
bearing: -3.62351131439
intensity: 30.6145248413
---
header: 
  seq: 810502
  stamp: 
    secs: 1561682538
    nsecs: 416461751
  frame_id: "ti_mmwave"
point_id: 20
x: 0.9296875
y: 0.306640625
z: -0.07421875
range: 1.04584729671
velocity: 0.614668667316
doppler_bin: 9
bearing: 18.2542057037
intensity: 20.0860023499
---
header: 
  seq: 810503
  stamp: 
    secs: 1561682538
    nsecs: 416469547
  frame_id: "ti_mmwave"
point_id: 21
x: 0.958984375
y: 0.3515625
z: -0.060546875
range: 1.08942425251
velocity: 0.614668667316
doppler_bin: 9
bearing: 20.1328754425
intensity: 24.393327713
---
header: 
  seq: 810504
  stamp: 
    secs: 1561682538
    nsecs: 416524512
  frame_id: "ti_mmwave"
point_id: 22
x: 0.998046875
y: 0.365234375
z: -0.037109375
range: 1.13300120831
velocity: 0.614668667316
doppler_bin: 9
bearing: 20.1000556946
intensity: 25.8206329346
---
header: 
  seq: 810505
  stamp: 
    secs: 1561682538
    nsecs: 416534417
  frame_id: "ti_mmwave"
point_id: 23
x: 1.037109375
y: 0.37890625
z: -0.001953125
range: 1.1765781641
velocity: 0.614668667316
doppler_bin: 9
bearing: 20.069694519
intensity: 24.4560413361
---
header: 
  seq: 810506
  stamp: 
    secs: 1561682538
    nsecs: 416544495
  frame_id: "ti_mmwave"
point_id: 25
x: 0.041015625
y: -0.033203125
z: 0.0625
range: 0.0871539413929
velocity: 0.0
doppler_bin: 8
bearing: -38.9909973145
intensity: 30.1325874329
---
header: 
  seq: 810507
  stamp: 
    secs: 1561682538
    nsecs: 416554048
  frame_id: "ti_mmwave"
point_id: 26
x: 0.052734375
y: -0.04296875
z: 0.1015625
range: 0.130730912089
velocity: 0.0
doppler_bin: 8
bearing: -39.1736602783
intensity: 28.9982051849
---
header: 
  seq: 810508
  stamp: 
    secs: 1561682538
    nsecs: 416565788
  frame_id: "ti_mmwave"
point_id: 28
x: 0.5
y: -0.08203125
z: 1.20703125
range: 1.39446306229
velocity: 0.0
doppler_bin: 8
bearing: -9.31708621979
intensity: 23.4044418335
---
header: 
  seq: 810509
  stamp: 
    secs: 1561682538
    nsecs: 416574316
  frame_id: "ti_mmwave"
point_id: 29
x: 0.525390625
y: -0.04296875
z: 1.2421875
range: 1.43804001808
velocity: 0.0
doppler_bin: 8
bearing: -4.67549467087
intensity: 24.0823993683
---
header: 
  seq: 810510
  stamp: 
    secs: 1561682538
    nsecs: 416582495
  frame_id: "ti_mmwave"
point_id: 30
x: 2.822265625
y: -2.00390625
z: -3.0
range: 4.88062095642
velocity: 0.0
doppler_bin: 8
bearing: -35.3760719299
intensity: 27.8318862915
---
header: 
  seq: 810511
  stamp: 
    secs: 1561682538
    nsecs: 416591630
  frame_id: "ti_mmwave"
point_id: 31
x: 2.73046875
y: -2.021484375
z: -3.1328125
range: 4.9241976738
velocity: 0.0
doppler_bin: 8
bearing: -36.5141487122
intensity: 27.4507484436
---
header: 
  seq: 810512
  stamp: 
    secs: 1561682538
    nsecs: 474623830
  frame_id: "ti_mmwave"
point_id: 0
x: 0.01171875
y: -0.0390625
z: -0.0078125
range: 0.0435769706964
velocity: 0.0
doppler_bin: 8
bearing: -73.3007583618
intensity: 30.7445068359
---
header: 
  seq: 810513
  stamp: 
    secs: 1561682538
    nsecs: 474700752
  frame_id: "ti_mmwave"
point_id: 1
x: 0.017578125
y: -0.080078125
z: -0.0078125
range: 0.0871539413929
velocity: 0.0
doppler_bin: 8
bearing: -77.6192398071
intensity: 31.9672870636
---
header: 
  seq: 810514
  stamp: 
    secs: 1561682538
    nsecs: 474716709
  frame_id: "ti_mmwave"
point_id: 2
x: 0.029296875
y: -0.119140625
z: -0.005859375
range: 0.130730912089
velocity: 0.0
doppler_bin: 8
bearing: -76.1849746704
intensity: 30.2284069061
---
header: 
  seq: 810515
  stamp: 
    secs: 1561682538
    nsecs: 474729204
  frame_id: "ti_mmwave"
point_id: 3
x: 0.056640625
y: -0.154296875
z: 0.005859375
range: 0.174307882786
velocity: 0.0
doppler_bin: 8
bearing: -69.8423843384
intensity: 25.4777469635
---
header: 
  seq: 810516
  stamp: 
    secs: 1561682538
    nsecs: 474740387
  frame_id: "ti_mmwave"
point_id: 4
x: 0.978515625
y: 0.572265625
z: 0.15625
range: 1.22015523911
velocity: 0.0
doppler_bin: 8
bearing: 30.3203907013
intensity: 26.8930892944
---
header: 
  seq: 810517
  stamp: 
    secs: 1561682538
    nsecs: 474752035
  frame_id: "ti_mmwave"
point_id: 5
x: 1.041015625
y: 0.556640625
z: 0.111328125
range: 1.2637321949
velocity: 0.0
doppler_bin: 8
bearing: 28.1338253021
intensity: 31.6790771484
---
header: 
  seq: 810518
  stamp: 
    secs: 1561682538
    nsecs: 474764774
  frame_id: "ti_mmwave"
point_id: 6
x: 1.08203125
y: 0.576171875
z: 0.076171875
range: 1.3073091507
velocity: 0.0
doppler_bin: 8
bearing: 28.0348968506
intensity: 32.9225616455
---
header: 
  seq: 810519
  stamp: 
    secs: 1561682538
    nsecs: 474776610
  frame_id: "ti_mmwave"
point_id: 7
x: 1.140625
y: 0.5546875
z: 0.03515625
range: 1.35088610649
velocity: 0.0
doppler_bin: 8
bearing: 25.9337177277
intensity: 31.3001194
---
header: 
  seq: 810520
  stamp: 
    secs: 1561682538
    nsecs: 474790648
  frame_id: "ti_mmwave"
point_id: 8
x: 1.1953125
y: 0.53125
z: 0.01953125
range: 1.39446306229
velocity: 0.0
doppler_bin: 8
bearing: 23.9624900818
intensity: 26.0638141632
---
header: 
  seq: 810521
  stamp: 
    secs: 1561682538
    nsecs: 474880393
  frame_id: "ti_mmwave"
point_id: 9
x: 2.548828125
y: -0.263671875
z: 1.18359375
range: 3.00681090355
velocity: 0.0
doppler_bin: 8
bearing: -5.90614128113
intensity: 29.5182304382
---
header: 
  seq: 810522
  stamp: 
    secs: 1561682538
    nsecs: 474903656
  frame_id: "ti_mmwave"
point_id: 10
x: 2.603515625
y: -0.267578125
z: 1.162109375
range: 3.05038785934
velocity: 0.0
doppler_bin: 8
bearing: -5.8680100441
intensity: 32.817150116
---
header: 
  seq: 810523
  stamp: 
    secs: 1561682538
    nsecs: 474912427
  frame_id: "ti_mmwave"
point_id: 11
x: 2.65625
y: -0.181640625
z: 1.158203125
range: 3.09396481514
velocity: 0.0
doppler_bin: 8
bearing: -3.91193032265
intensity: 32.0194320679
---
header: 
  seq: 810524
  stamp: 
    secs: 1561682538
    nsecs: 474921264
  frame_id: "ti_mmwave"
point_id: 12
x: 4.404296875
y: -0.287109375
z: 1.23046875
range: 4.88062095642
velocity: 0.0
doppler_bin: 8
bearing: -3.72974681854
intensity: 30.7845687866
---
header: 
  seq: 810525
  stamp: 
    secs: 1561682538
    nsecs: 474933155
  frame_id: "ti_mmwave"
point_id: 13
x: 4.462890625
y: -0.2890625
z: 1.171875
range: 4.9241976738
velocity: 0.0
doppler_bin: 8
bearing: -3.70588517189
intensity: 30.4375514984
---
header: 
  seq: 810526
  stamp: 
    secs: 1561682538
    nsecs: 474946809
  frame_id: "ti_mmwave"
point_id: 14
x: 4.73828125
y: -0.44921875
z: -0.501953125
range: 5.09850549698
velocity: 0.0
doppler_bin: 8
bearing: -5.4158115387
intensity: 33.2056159973
---
header: 
  seq: 810527
  stamp: 
    secs: 1561682538
    nsecs: 474962985
  frame_id: "ti_mmwave"
point_id: 15
x: 4.787109375
y: -0.453125
z: -0.419921875
range: 5.14208269119
velocity: 0.0
doppler_bin: 8
bearing: -5.40723514557
intensity: 33.7894287109
---
header: 
  seq: 810528
  stamp: 
    secs: 1561682538
    nsecs: 474974531
  frame_id: "ti_mmwave"
point_id: 16
x: 4.841796875
y: -0.45703125
z: -0.205078125
range: 5.18565940857
velocity: 0.0
doppler_bin: 8
bearing: -5.39233732224
intensity: 30.5307846069
---
header: 
  seq: 810529
  stamp: 
    secs: 1561682538
    nsecs: 474987448
  frame_id: "ti_mmwave"
point_id: 17
x: 4.818359375
y: -0.4609375
z: 0.814453125
range: 5.22923660278
velocity: 0.0
doppler_bin: 8
bearing: -5.46444320679
intensity: 29.5182304382
---
header: 
  seq: 810530
  stamp: 
    secs: 1561682538
    nsecs: 475049197
  frame_id: "ti_mmwave"
point_id: 18
x: 4.8671875
y: -0.30859375
z: 0.8515625
range: 5.27281332016
velocity: 0.0
doppler_bin: 8
bearing: -3.62786221504
intensity: 30.6483230591
---
header: 
  seq: 810531
  stamp: 
    secs: 1561682538
    nsecs: 475071412
  frame_id: "ti_mmwave"
point_id: 20
x: 0.041015625
y: -0.033203125
z: 0.0625
range: 0.0871539413929
velocity: 0.0
doppler_bin: 8
bearing: -38.9909973145
intensity: 30.1325874329
---
header: 
  seq: 810532
  stamp: 
    secs: 1561682538
    nsecs: 475083720
  frame_id: "ti_mmwave"
point_id: 21
x: 0.052734375
y: -0.04296875
z: 0.1015625
range: 0.130730912089
velocity: 0.0
doppler_bin: 8
bearing: -39.1736602783
intensity: 28.9982051849
---
header: 
  seq: 810533
  stamp: 
    secs: 1561682538
    nsecs: 475100200
  frame_id: "ti_mmwave"
point_id: 23
x: 0.689453125
y: -0.041015625
z: 1.111328125
range: 1.39446306229
velocity: 0.0
doppler_bin: 8
bearing: -3.40451836586
intensity: 24.7421627045
---
header: 
  seq: 810534
  stamp: 
    secs: 1561682538
    nsecs: 475111344
  frame_id: "ti_mmwave"
point_id: 24
x: 2.8203125
y: -2.00390625
z: -3.00390625
range: 4.88062095642
velocity: 0.0
doppler_bin: 8
bearing: -35.3947944641
intensity: 27.7815132141
---
header: 
  seq: 810535
  stamp: 
    secs: 1561682538
    nsecs: 534104174
  frame_id: "ti_mmwave"
point_id: 0
x: 0.01171875
y: -0.0390625
z: -0.0078125
range: 0.0435769706964
velocity: 0.0
doppler_bin: 8
bearing: -73.3007583618
intensity: 30.7518177032
---
header: 
  seq: 810536
  stamp: 
    secs: 1561682538
    nsecs: 534191037
  frame_id: "ti_mmwave"
point_id: 1
x: 0.017578125
y: -0.080078125
z: -0.0078125
range: 0.0871539413929
velocity: 0.0
doppler_bin: 8
bearing: -77.6192398071
intensity: 31.9700469971
---
header: 
  seq: 810537
  stamp: 
    secs: 1561682538
    nsecs: 534203773
  frame_id: "ti_mmwave"
point_id: 2
x: 0.041015625
y: -0.115234375
z: -0.0078125
range: 0.130730912089
velocity: 0.0
doppler_bin: 8
bearing: -70.4077224731
intensity: 30.2284069061
---
header: 
  seq: 810538
  stamp: 
    secs: 1561682538
    nsecs: 534212407
  frame_id: "ti_mmwave"
point_id: 3
x: 0.056640625
y: -0.154296875
z: 0.005859375
range: 0.174307882786
velocity: 0.0
doppler_bin: 8
bearing: -69.8423843384
intensity: 25.490032196
---
header: 
  seq: 810539
  stamp: 
    secs: 1561682538
    nsecs: 534220975
  frame_id: "ti_mmwave"
point_id: 4
x: 0.97265625
y: 0.572265625
z: 0.197265625
range: 1.22015523911
velocity: 0.0
doppler_bin: 8
bearing: 30.4705734253
intensity: 26.0852603912
---
header: 
  seq: 810540
  stamp: 
    secs: 1561682538
    nsecs: 534229166
  frame_id: "ti_mmwave"
point_id: 5
x: 0.99609375
y: 0.630859375
z: 0.130859375
range: 1.2637321949
velocity: 0.0
doppler_bin: 8
bearing: 32.3474464417
intensity: 29.2376194
---
header: 
  seq: 810541
  stamp: 
    secs: 1561682538
    nsecs: 534237369
  frame_id: "ti_mmwave"
point_id: 6
x: 1.15234375
y: 0.345703125
z: 0.240234375
range: 1.3073091507
velocity: 0.0
doppler_bin: 8
bearing: 16.6992454529
intensity: 29.7863693237
---
header: 
  seq: 810542
  stamp: 
    secs: 1561682538
    nsecs: 534246548
  frame_id: "ti_mmwave"
point_id: 7
x: 1.2109375
y: 0.357421875
z: 0.111328125
range: 1.35088610649
velocity: 0.0
doppler_bin: 8
bearing: 16.4445590973
intensity: 30.4139270782
---
header: 
  seq: 810543
  stamp: 
    secs: 1561682538
    nsecs: 534276146
  frame_id: "ti_mmwave"
point_id: 8
x: 1.248046875
y: 0.287109375
z: 0.267578125
range: 1.39446306229
velocity: 0.0
doppler_bin: 8
bearing: 12.9553194046
intensity: 27.1683769226
---
header: 
  seq: 810544
  stamp: 
    secs: 1561682538
    nsecs: 534304793
  frame_id: "ti_mmwave"
point_id: 9
x: 1.212890625
y: 0.58984375
z: 0.05859375
range: 1.43804001808
velocity: 0.0
doppler_bin: 8
bearing: 25.9342288971
intensity: 26.2324924469
---
header: 
  seq: 810545
  stamp: 
    secs: 1561682538
    nsecs: 534321319
  frame_id: "ti_mmwave"
point_id: 10
x: 1.287109375
y: 0.521484375
z: 0.060546875
range: 1.48161697388
velocity: 0.0
doppler_bin: 8
bearing: 22.0557899475
intensity: 24.857213974
---
header: 
  seq: 810546
  stamp: 
    secs: 1561682538
    nsecs: 534329648
  frame_id: "ti_mmwave"
point_id: 11
x: 2.5546875
y: -0.263671875
z: 1.169921875
range: 3.00681090355
velocity: 0.0
doppler_bin: 8
bearing: -5.89269018173
intensity: 29.4939002991
---
header: 
  seq: 810547
  stamp: 
    secs: 1561682538
    nsecs: 534498757
  frame_id: "ti_mmwave"
point_id: 12
x: 2.603515625
y: -0.267578125
z: 1.16015625
range: 3.05038785934
velocity: 0.0
doppler_bin: 8
bearing: -5.8680100441
intensity: 32.7921066284
---
header: 
  seq: 810548
  stamp: 
    secs: 1561682538
    nsecs: 534519054
  frame_id: "ti_mmwave"
point_id: 13
x: 2.66015625
y: -0.181640625
z: 1.150390625
range: 3.09396481514
velocity: 0.0
doppler_bin: 8
bearing: -3.90620398521
intensity: 32.0167007446
---
header: 
  seq: 810549
  stamp: 
    secs: 1561682538
    nsecs: 534542931
  frame_id: "ti_mmwave"
point_id: 14
x: 4.408203125
y: -0.287109375
z: 1.21484375
range: 4.88062095642
velocity: 0.0
doppler_bin: 8
bearing: -3.72645139694
intensity: 30.7445068359
---
header: 
  seq: 810550
  stamp: 
    secs: 1561682538
    nsecs: 534554319
  frame_id: "ti_mmwave"
point_id: 15
x: 4.4609375
y: -0.2890625
z: 1.17578125
range: 4.9241976738
velocity: 0.0
doppler_bin: 8
bearing: -3.70750308037
intensity: 30.382226944
---
header: 
  seq: 810551
  stamp: 
    secs: 1561682538
    nsecs: 534612620
  frame_id: "ti_mmwave"
point_id: 16
x: 4.736328125
y: -0.44921875
z: -0.515625
range: 5.09850549698
velocity: 0.0
doppler_bin: 8
bearing: -5.41803121567
intensity: 33.1659927368
---
header: 
  seq: 810552
  stamp: 
    secs: 1561682538
    nsecs: 534644157
  frame_id: "ti_mmwave"
point_id: 17
x: 4.787109375
y: -0.453125
z: -0.416015625
range: 5.14208269119
velocity: 0.0
doppler_bin: 8
bearing: -5.40723514557
intensity: 33.7511482239
---
header: 
  seq: 810553
  stamp: 
    secs: 1561682538
    nsecs: 534660048
  frame_id: "ti_mmwave"
point_id: 18
x: 4.84375
y: -0.45703125
z: -0.166015625
range: 5.18565940857
velocity: 0.0
doppler_bin: 8
bearing: -5.3901758194
intensity: 30.4805316925
---
header: 
  seq: 810554
  stamp: 
    secs: 1561682538
    nsecs: 534668782
  frame_id: "ti_mmwave"
point_id: 19
x: 4.82421875
y: -0.4609375
z: 0.77734375
range: 5.22923660278
velocity: 0.0
doppler_bin: 8
bearing: -5.4578461647
intensity: 29.6988162994
---
header: 
  seq: 810555
  stamp: 
    secs: 1561682538
    nsecs: 534679975
  frame_id: "ti_mmwave"
point_id: 20
x: 4.873046875
y: -0.30859375
z: 0.810546875
range: 5.27281332016
velocity: 0.0
doppler_bin: 8
bearing: -3.62351131439
intensity: 30.7335166931
---
header: 
  seq: 810556
  stamp: 
    secs: 1561682538
    nsecs: 534711252
  frame_id: "ti_mmwave"
point_id: 21
x: 0.974609375
y: 0.365234375
z: -0.22265625
range: 1.13300120831
velocity: 0.614668667316
doppler_bin: 9
bearing: 20.5434627533
intensity: 20.1283721924
---
header: 
  seq: 810557
  stamp: 
    secs: 1561682538
    nsecs: 534719753
  frame_id: "ti_mmwave"
point_id: 22
x: 0.98828125
y: 0.4140625
z: -0.265625
range: 1.1765781641
velocity: 0.614668667316
doppler_bin: 9
bearing: 22.7323360443
intensity: 19.637878418
---
header: 
  seq: 810558
  stamp: 
    secs: 1561682538
    nsecs: 534729591
  frame_id: "ti_mmwave"
point_id: 24
x: 0.041015625
y: -0.033203125
z: 0.0625
range: 0.0871539413929
velocity: 0.0
doppler_bin: 8
bearing: -38.9909973145
intensity: 30.1325874329
---
header: 
  seq: 810559
  stamp: 
    secs: 1561682538
    nsecs: 534734914
  frame_id: "ti_mmwave"
point_id: 25
x: 0.052734375
y: -0.04296875
z: 0.1015625
range: 0.130730912089
velocity: 0.0
doppler_bin: 8
bearing: -39.1736602783
intensity: 28.9927310944
---
header: 
  seq: 810560
  stamp: 
    secs: 1561682538
    nsecs: 534808824
  frame_id: "ti_mmwave"
point_id: 27
x: 1.0546875
y: 0.61328125
z: -0.125
range: 1.3073091507
velocity: 0.0
doppler_bin: 8
bearing: 30.1772060394
intensity: 29.3550720215
---
header: 
  seq: 810561
  stamp: 
    secs: 1561682538
    nsecs: 534868655
  frame_id: "ti_mmwave"
point_id: 28
x: 1.232421875
y: 0.3671875
z: 0.2421875
range: 1.39446306229
velocity: 0.0
doppler_bin: 8
bearing: 16.5908889771
intensity: 27.1180725098
---
header: 
  seq: 810562
  stamp: 
    secs: 1561682538
    nsecs: 534881929
  frame_id: "ti_mmwave"
point_id: 29
x: 0.57421875
y: -0.0
z: -1.267578125
range: 1.48161697388
velocity: 0.0
doppler_bin: 8
bearing: -0.0
intensity: 21.9589958191
---
header: 
  seq: 810563
  stamp: 
    secs: 1561682538
    nsecs: 534918407
  frame_id: "ti_mmwave"
point_id: 30
x: 2.814453125
y: -2.00390625
z: -3.009765625
range: 4.88062095642
velocity: 0.0
doppler_bin: 8
bearing: -35.4510803223
intensity: 27.8461723328
---
header: 
  seq: 810564
  stamp: 
    secs: 1561682538
    nsecs: 534979169
  frame_id: "ti_mmwave"
point_id: 31
x: 2.71484375
y: -2.021484375
z: -3.1484375
range: 4.9241976738
velocity: 0.0
doppler_bin: 8
bearing: -36.6715278625
intensity: 27.3878059387
---
header: 
  seq: 810565
  stamp: 
    secs: 1561682538
    nsecs: 535745592
  frame_id: "ti_mmwave"
point_id: 0
x: 0.01171875
y: -0.0390625
z: -0.0078125
range: 0.0435769706964
velocity: 0.0
doppler_bin: 8
bearing: -73.3007583618
intensity: 30.7371826172
---
header: 
  seq: 810566
  stamp: 
    secs: 1561682538
    nsecs: 535798225
  frame_id: "ti_mmwave"
point_id: 1
x: 0.017578125
y: -0.080078125
z: -0.0078125
range: 0.0871539413929
velocity: 0.0
doppler_bin: 8
bearing: -77.6192398071
intensity: 31.9645252228
---
header: 
  seq: 810567
  stamp: 
    secs: 1561682538
    nsecs: 535816803
  frame_id: "ti_mmwave"
point_id: 2
x: 0.041015625
y: -0.115234375
z: -0.0078125
range: 0.130730912089
velocity: 0.0
doppler_bin: 8
bearing: -70.4077224731
intensity: 30.2284069061
---
header: 
  seq: 810568
  stamp: 
    secs: 1561682538
    nsecs: 535833361
  frame_id: "ti_mmwave"
point_id: 3
x: 0.056640625
y: -0.154296875
z: 0.005859375
range: 0.174307882786
velocity: 0.0
doppler_bin: 8
bearing: -69.8423843384
intensity: 25.4777469635
---
header: 
  seq: 810569
  stamp: 
    secs: 1561682538
    nsecs: 535862211
  frame_id: "ti_mmwave"
point_id: 4
x: 0.974609375
y: 0.572265625
z: 0.185546875
range: 1.22015523911
velocity: 0.0
doppler_bin: 8
bearing: 30.4203643799
intensity: 26.4345264435
---
header: 
  seq: 810570
  stamp: 
    secs: 1561682538
    nsecs: 535879786
  frame_id: "ti_mmwave"
point_id: 5
x: 1.015625
y: 0.59375
z: 0.158203125
range: 1.2637321949
velocity: 0.0
doppler_bin: 8
bearing: 30.311214447
intensity: 29.9343624115
---
header: 
  seq: 810571
  stamp: 
    secs: 1561682538
    nsecs: 535950706
  frame_id: "ti_mmwave"
point_id: 6
x: 1.05078125
y: 0.61328125
z: 0.1640625
range: 1.3073091507
velocity: 0.0
doppler_bin: 8
bearing: 30.2696800232
intensity: 29.8900470734
---
header: 
  seq: 810572
  stamp: 
    secs: 1561682538
    nsecs: 535967683
  frame_id: "ti_mmwave"
point_id: 7
x: 1.04296875
y: 0.673828125
z: 0.255859375
range: 1.35088610649
velocity: 0.0
doppler_bin: 8
bearing: 32.8651847839
intensity: 26.5991611481
---
header: 
  seq: 810573
  stamp: 
    secs: 1561682538
    nsecs: 535980071
  frame_id: "ti_mmwave"
point_id: 8
x: 1.2421875
y: 0.408203125
z: -0.0703125
range: 1.39446306229
velocity: 0.0
doppler_bin: 8
bearing: 18.191368103
intensity: 26.6745300293
---
header: 
  seq: 810574
  stamp: 
    secs: 1561682538
    nsecs: 535994657
  frame_id: "ti_mmwave"
point_id: 9
x: 1.28125
y: 0.421875
z: 0.033203125
range: 1.43804001808
velocity: 0.0
doppler_bin: 8
bearing: 18.2250766754
intensity: 26.0959434509
---
header: 
  seq: 810575
  stamp: 
    secs: 1561682538
    nsecs: 536010465
  frame_id: "ti_mmwave"
point_id: 10
x: 1.287109375
y: 0.521484375
z: 0.05859375
range: 1.48161697388
velocity: 0.0
doppler_bin: 8
bearing: 22.0557899475
intensity: 24.0993309021
---
header: 
  seq: 810576
  stamp: 
    secs: 1561682538
    nsecs: 536022456
  frame_id: "ti_mmwave"
point_id: 11
x: 2.546875
y: -0.263671875
z: 1.1875
range: 3.00681090355
velocity: 0.0
doppler_bin: 8
bearing: -5.91063833237
intensity: 29.5085144043
---
header: 
  seq: 810577
  stamp: 
    secs: 1561682538
    nsecs: 536033008
  frame_id: "ti_mmwave"
point_id: 12
x: 2.6015625
y: -0.267578125
z: 1.1640625
range: 3.05038785934
velocity: 0.0
doppler_bin: 8
bearing: -5.87238502502
intensity: 32.8080596924
---
header: 
  seq: 810578
  stamp: 
    secs: 1561682538
    nsecs: 536065586
  frame_id: "ti_mmwave"
point_id: 13
x: 2.658203125
y: -0.181640625
z: 1.158203125
range: 3.09396481514
velocity: 0.0
doppler_bin: 8
bearing: -3.90906453133
intensity: 32.0411987305
---
header: 
  seq: 810579
  stamp: 
    secs: 1561682538
    nsecs: 536088387
  frame_id: "ti_mmwave"
point_id: 14
x: 4.412109375
y: -0.287109375
z: 1.19921875
range: 4.88062095642
velocity: 0.0
doppler_bin: 8
bearing: -3.72316122055
intensity: 30.7773113251
---
header: 
  seq: 810580
  stamp: 
    secs: 1561682538
    nsecs: 536213401
  frame_id: "ti_mmwave"
point_id: 15
x: 4.474609375
y: -0.2890625
z: 1.125
range: 4.9241976738
velocity: 0.0
doppler_bin: 8
bearing: -3.69620633125
intensity: 30.4020671844
---
header: 
  seq: 810581
  stamp: 
    secs: 1561682538
    nsecs: 536242905
  frame_id: "ti_mmwave"
point_id: 16
x: 4.736328125
y: -0.44921875
z: -0.521484375
range: 5.09850549698
velocity: 0.0
doppler_bin: 8
bearing: -5.41803121567
intensity: 33.1931419373
---
header: 
  seq: 810582
  stamp: 
    secs: 1561682538
    nsecs: 536260613
  frame_id: "ti_mmwave"
point_id: 17
x: 4.787109375
y: -0.453125
z: -0.43359375
range: 5.14208269119
velocity: 0.0
