header: 
  seq: 770156
  stamp: 
    secs: 1561682484
    nsecs: 894196312
  frame_id: "ti_mmwave"
point_id: 0
x: 0.01171875
y: -0.0390625
z: -0.0078125
range: 0.0435769706964
velocity: 0.0
doppler_bin: 8
bearing: -73.3007583618
intensity: 30.7554702759
---
header: 
  seq: 770157
  stamp: 
    secs: 1561682484
    nsecs: 894275607
  frame_id: "ti_mmwave"
point_id: 1
x: 0.017578125
y: -0.080078125
z: -0.0078125
range: 0.0871539413929
velocity: 0.0
doppler_bin: 8
bearing: -77.6192398071
intensity: 31.9755630493
---
header: 
  seq: 770158
  stamp: 
    secs: 1561682484
    nsecs: 894287984
  frame_id: "ti_mmwave"
point_id: 2
x: 0.041015625
y: -0.115234375
z: -0.0078125
range: 0.130730912089
velocity: 0.0
doppler_bin: 8
bearing: -70.4077224731
intensity: 30.2366390228
---
header: 
  seq: 770159
  stamp: 
    secs: 1561682484
    nsecs: 894296090
  frame_id: "ti_mmwave"
point_id: 3
x: 0.056640625
y: -0.154296875
z: 0.005859375
range: 0.174307882786
velocity: 0.0
doppler_bin: 8
bearing: -69.8423843384
intensity: 25.4777469635
---
header: 
  seq: 770160
  stamp: 
    secs: 1561682484
    nsecs: 894304190
  frame_id: "ti_mmwave"
point_id: 4
x: 0.478515625
y: -0.119140625
z: -1.16796875
range: 1.35088610649
velocity: 0.0
doppler_bin: 8
bearing: -13.9812040329
intensity: 22.7415790558
---
header: 
  seq: 770161
  stamp: 
    secs: 1561682484
    nsecs: 894315786
  frame_id: "ti_mmwave"
point_id: 5
x: 1.373046875
y: -0.130859375
z: -0.18359375
range: 1.48161697388
velocity: 0.0
doppler_bin: 8
bearing: -5.4441781044
intensity: 25.2633934021
---
header: 
  seq: 770162
  stamp: 
    secs: 1561682484
    nsecs: 894328348
  frame_id: "ti_mmwave"
point_id: 6
x: 1.427734375
y: -0.08984375
z: -0.064453125
range: 1.52519392967
velocity: 0.0
doppler_bin: 8
bearing: -3.60073232651
intensity: 26.6086540222
---
header: 
  seq: 770163
  stamp: 
    secs: 1561682484
    nsecs: 894342191
  frame_id: "ti_mmwave"
point_id: 7
x: 1.466796875
y: -0.091796875
z: -0.10546875
range: 1.56877088547
velocity: 0.0
doppler_bin: 8
bearing: -3.58108401299
intensity: 26.2531242371
---
header: 
  seq: 770164
  stamp: 
    secs: 1561682484
    nsecs: 894352186
  frame_id: "ti_mmwave"
point_id: 8
x: 1.498046875
y: -0.046875
z: -0.203125
range: 1.61234796047
velocity: 0.0
doppler_bin: 8
bearing: -1.79224264622
intensity: 25.3275432587
---
header: 
  seq: 770165
  stamp: 
    secs: 1561682484
    nsecs: 894361210
  frame_id: "ti_mmwave"
point_id: 9
x: 2.5546875
y: -0.263671875
z: 1.171875
range: 3.00681090355
velocity: 0.0
doppler_bin: 8
bearing: -5.89269018173
intensity: 29.5951843262
---
header: 
  seq: 770166
  stamp: 
    secs: 1561682484
    nsecs: 894370502
  frame_id: "ti_mmwave"
point_id: 10
x: 2.609375
y: -0.267578125
z: 1.146484375
range: 3.05038785934
velocity: 0.0
doppler_bin: 8
bearing: -5.85492515564
intensity: 32.8194198608
---
header: 
  seq: 770167
  stamp: 
    secs: 1561682484
    nsecs: 894379824
  frame_id: "ti_mmwave"
point_id: 11
x: 2.66796875
y: -0.181640625
z: 1.134765625
range: 3.09396481514
velocity: 0.0
doppler_bin: 8
bearing: -3.89480042458
intensity: 32.0357666016
---
header: 
  seq: 770168
  stamp: 
    secs: 1561682484
    nsecs: 894389524
  frame_id: "ti_mmwave"
point_id: 12
x: 4.408203125
y: -0.287109375
z: 1.216796875
range: 4.88062095642
velocity: 0.0
doppler_bin: 8
bearing: -3.72645139694
intensity: 30.9131507874
---
header: 
  seq: 770169
  stamp: 
    secs: 1561682484
    nsecs: 894397949
  frame_id: "ti_mmwave"
point_id: 13
x: 4.46875
y: -0.2890625
z: 1.14453125
range: 4.9241976738
velocity: 0.0
doppler_bin: 8
bearing: -3.70103907585
intensity: 30.7261753082
---
header: 
  seq: 770170
  stamp: 
    secs: 1561682484
    nsecs: 894406706
  frame_id: "ti_mmwave"
point_id: 14
x: 1.28125
y: -0.205078125
z: -0.173828125
range: 1.39446306229
velocity: 0.614668667316
doppler_bin: 9
bearing: -9.0936832428
intensity: 24.2975234985
---
header: 
  seq: 770171
  stamp: 
    secs: 1561682484
    nsecs: 894417149
  frame_id: "ti_mmwave"
point_id: 15
x: 1.32421875
y: -0.25390625
z: -0.060546875
range: 1.43804001808
velocity: 0.614668667316
doppler_bin: 9
bearing: -10.8541793823
intensity: 25.7863922119
---
header: 
  seq: 770172
  stamp: 
    secs: 1561682484
    nsecs: 894443699
  frame_id: "ti_mmwave"
point_id: 17
x: 0.041015625
y: -0.033203125
z: 0.0625
range: 0.0871539413929
velocity: 0.0
doppler_bin: 8
bearing: -38.9909973145
intensity: 30.1367969513
---
header: 
  seq: 770173
  stamp: 
    secs: 1561682484
    nsecs: 894458632
  frame_id: "ti_mmwave"
point_id: 18
x: 0.052734375
y: -0.04296875
z: 0.1015625
range: 0.130730912089
velocity: 0.0
doppler_bin: 8
bearing: -39.1736602783
intensity: 28.9982051849
---
header: 
  seq: 770174
  stamp: 
    secs: 1561682484
    nsecs: 894469876
  frame_id: "ti_mmwave"
point_id: 20
x: 0.275390625
y: 0.47265625
z: 1.41015625
range: 1.61234796047
velocity: 0.0
doppler_bin: 8
bearing: 59.7730140686
intensity: 23.3845653534
---
header: 
  seq: 770175
  stamp: 
    secs: 1561682484
    nsecs: 895751903
  frame_id: "ti_mmwave"
point_id: 0
x: 0.01171875
y: -0.0390625
z: -0.0078125
range: 0.0435769706964
velocity: 0.0
doppler_bin: 8
bearing: -73.3007583618
intensity: 30.7445068359
---
header: 
  seq: 770176
  stamp: 
    secs: 1561682484
    nsecs: 895812720
  frame_id: "ti_mmwave"
point_id: 1
x: 0.017578125
y: -0.080078125
z: -0.0078125
range: 0.0871539413929
velocity: 0.0
doppler_bin: 8
bearing: -77.6192398071
intensity: 31.9700469971
---
header: 
  seq: 770177
  stamp: 
    secs: 1561682484
    nsecs: 895829829
  frame_id: "ti_mmwave"
point_id: 2
x: 0.029296875
y: -0.119140625
z: -0.005859375
range: 0.130730912089
velocity: 0.0
doppler_bin: 8
bearing: -76.1849746704
intensity: 30.2325248718
---
header: 
  seq: 770178
  stamp: 
    secs: 1561682484
    nsecs: 895848683
  frame_id: "ti_mmwave"
point_id: 3
x: 0.056640625
y: -0.154296875
z: 0.005859375
range: 0.174307882786
velocity: 0.0
doppler_bin: 8
bearing: -69.8423843384
intensity: 25.490032196
---
header: 
  seq: 770179
  stamp: 
    secs: 1561682484
    nsecs: 895973186
  frame_id: "ti_mmwave"
point_id: 4
x: 0.166015625
y: -0.080078125
z: 1.25390625
range: 1.35088610649
velocity: 0.0
doppler_bin: 8
bearing: -25.7504749298
intensity: 21.7609119415
---
header: 
  seq: 770180
  stamp: 
    secs: 1561682484
    nsecs: 895996752
  frame_id: "ti_mmwave"
point_id: 5
x: 0.568359375
y: -0.041015625
z: 1.177734375
range: 1.39446306229
velocity: 0.0
doppler_bin: 8
bearing: -4.12759113312
intensity: 22.7875366211
---
header: 
  seq: 770181
  stamp: 
    secs: 1561682484
    nsecs: 896055940
  frame_id: "ti_mmwave"
point_id: 6
x: 0.705078125
y: 0.04296875
z: -1.150390625
range: 1.43804001808
velocity: 0.0
doppler_bin: 8
bearing: 3.48739647865
intensity: 21.875207901
---
header: 
  seq: 770182
  stamp: 
    secs: 1561682484
    nsecs: 896070627
  frame_id: "ti_mmwave"
point_id: 7
x: 1.189453125
y: -0.0
z: -0.72265625
range: 1.48161697388
velocity: 0.0
doppler_bin: 8
bearing: -0.0
intensity: 23.1597042084
---
header: 
  seq: 770183
  stamp: 
    secs: 1561682484
    nsecs: 896086811
  frame_id: "ti_mmwave"
point_id: 8
x: 1.12109375
y: -0.0
z: -0.890625
range: 1.52519392967
velocity: 0.0
doppler_bin: 8
bearing: -0.0
intensity: 23.3041381836
---
header: 
  seq: 770184
  stamp: 
    secs: 1561682484
    nsecs: 896105358
  frame_id: "ti_mmwave"
point_id: 9
x: 1.396484375
y: -0.3671875
z: -0.287109375
range: 1.56877088547
velocity: 0.0
doppler_bin: 8
bearing: -14.7317295074
intensity: 25.6229286194
---
header: 
  seq: 770185
  stamp: 
    secs: 1561682484
    nsecs: 896143607
  frame_id: "ti_mmwave"
point_id: 10
x: 1.431640625
y: -0.283203125
z: -0.396484375
range: 1.61234796047
velocity: 0.0
doppler_bin: 8
bearing: -11.1896266937
intensity: 30.2775726318
---
header: 
  seq: 770186
  stamp: 
    secs: 1561682484
    nsecs: 896158901
  frame_id: "ti_mmwave"
point_id: 11
x: 1.48046875
y: -0.2421875
z: -0.408203125
range: 1.65592491627
velocity: 0.0
doppler_bin: 8
bearing: -9.29063129425
intensity: 32.263420105
---
header: 
  seq: 770187
  stamp: 
    secs: 1561682484
    nsecs: 896168328
  frame_id: "ti_mmwave"
point_id: 12
x: 1.5234375
y: -0.25
z: -0.40234375
range: 1.69950187206
velocity: 0.0
doppler_bin: 8
bearing: -9.31932163239
intensity: 31.6046848297
---
header: 
  seq: 770188
  stamp: 
    secs: 1561682484
    nsecs: 896222918
  frame_id: "ti_mmwave"
point_id: 13
x: 1.5703125
y: -0.205078125
z: -0.4140625
range: 1.74307882786
velocity: 0.0
doppler_bin: 8
bearing: -7.44054698944
intensity: 27.9865055084
---
header: 
  seq: 770189
  stamp: 
    secs: 1561682484
    nsecs: 896237532
  frame_id: "ti_mmwave"
point_id: 14
x: 2.5546875
y: -0.263671875
z: 1.16796875
range: 3.00681090355
velocity: 0.0
doppler_bin: 8
bearing: -5.89269018173
intensity: 29.4497585297
---
header: 
  seq: 770190
  stamp: 
    secs: 1561682484
    nsecs: 896272500
  frame_id: "ti_mmwave"
point_id: 15
x: 2.603515625
y: -0.267578125
z: 1.16015625
range: 3.05038785934
velocity: 0.0
doppler_bin: 8
bearing: -5.8680100441
intensity: 32.7577171326
---
header: 
  seq: 770191
  stamp: 
    secs: 1561682484
    nsecs: 896298351
  frame_id: "ti_mmwave"
point_id: 16
x: 2.662109375
y: -0.181640625
z: 1.1484375
range: 3.09396481514
velocity: 0.0
doppler_bin: 8
bearing: -3.90334677696
intensity: 31.9395904541
---
header: 
  seq: 770192
  stamp: 
    secs: 1561682484
    nsecs: 896545350
  frame_id: "ti_mmwave"
point_id: 17
x: 4.40234375
y: -0.287109375
z: 1.236328125
range: 4.88062095642
velocity: 0.0
doppler_bin: 8
bearing: -3.73139691353
intensity: 30.7408466339
---
header: 
  seq: 770193
  stamp: 
    secs: 1561682484
    nsecs: 896576157
  frame_id: "ti_mmwave"
point_id: 18
x: 4.46875
y: -0.2890625
z: 1.142578125
range: 4.9241976738
velocity: 0.0
doppler_bin: 8
bearing: -3.70103907585
intensity: 30.700378418
---
header: 
  seq: 770194
  stamp: 
    secs: 1561682484
    nsecs: 896593412
  frame_id: "ti_mmwave"
point_id: 20
x: 0.041015625
y: -0.033203125
z: 0.0625
range: 0.0871539413929
velocity: 0.0
doppler_bin: 8
bearing: -38.9909973145
intensity: 30.1367969513
---
header: 
  seq: 770195
  stamp: 
    secs: 1561682484
    nsecs: 896605877
  frame_id: "ti_mmwave"
point_id: 21
x: 0.044921875
y: -0.046875
z: 0.103515625
range: 0.130730912089
velocity: 0.0
doppler_bin: 8
bearing: -46.218875885
intensity: 29.0036716461
---
header: 
  seq: 770196
  stamp: 
    secs: 1561682484
    nsecs: 896620517
  frame_id: "ti_mmwave"
point_id: 23
x: 1.205078125
y: 0.357421875
z: 0.171875
range: 1.35088610649
velocity: 0.0
doppler_bin: 8
bearing: 16.5201683044
intensity: 18.9762706757
---
header: 
  seq: 770197
  stamp: 
    secs: 1561682484
    nsecs: 896633946
  frame_id: "ti_mmwave"
point_id: 24
x: 1.271484375
y: -0.421875
z: 0.1640625
range: 1.43804001808
velocity: 0.0
doppler_bin: 8
bearing: -18.3557014465
intensity: 19.3951931
---
header: 
  seq: 770198
  stamp: 
    secs: 1561682484
    nsecs: 896645793
  frame_id: "ti_mmwave"
point_id: 25
x: 1.125
y: 0.138671875
z: 0.939453125
range: 1.56877088547
velocity: 0.0
doppler_bin: 8
bearing: 7.02705383301
intensity: 22.6717166901
---
header: 
  seq: 770199
  stamp: 
    secs: 1561682484
    nsecs: 954106819
  frame_id: "ti_mmwave"
point_id: 0
x: 0.01171875
y: -0.0390625
z: -0.0078125
range: 0.0435769706964
velocity: 0.0
doppler_bin: 8
bearing: -73.3007583618
intensity: 30.7518177032
---
header: 
  seq: 770200
  stamp: 
    secs: 1561682484
    nsecs: 954197055
  frame_id: "ti_mmwave"
point_id: 1
x: 0.017578125
y: -0.080078125
z: -0.0078125
range: 0.0871539413929
velocity: 0.0
doppler_bin: 8
bearing: -77.6192398071
intensity: 31.9755630493
---
header: 
  seq: 770201
  stamp: 
    secs: 1561682484
    nsecs: 954218549
  frame_id: "ti_mmwave"
point_id: 2
x: 0.041015625
y: -0.115234375
z: -0.0078125
range: 0.130730912089
velocity: 0.0
doppler_bin: 8
bearing: -70.4077224731
intensity: 30.2366390228
---
header: 
  seq: 770202
  stamp: 
    secs: 1561682484
    nsecs: 954231819
  frame_id: "ti_mmwave"
point_id: 3
x: 0.056640625
y: -0.154296875
z: 0.005859375
range: 0.174307882786
velocity: 0.0
doppler_bin: 8
bearing: -69.8423843384
intensity: 25.4777469635
---
header: 
  seq: 770203
  stamp: 
    secs: 1561682484
    nsecs: 954246276
  frame_id: "ti_mmwave"
point_id: 4
x: 0.16796875
y: -0.080078125
z: -1.25390625
range: 1.35088610649
velocity: 0.0
doppler_bin: 8
bearing: -25.489200592
intensity: 21.875207901
---
header: 
  seq: 770204
  stamp: 
    secs: 1561682484
    nsecs: 954258947
  frame_id: "ti_mmwave"
point_id: 5
x: 0.625
y: -0.041015625
z: 1.150390625
range: 1.39446306229
velocity: 0.0
doppler_bin: 8
bearing: -3.75465154648
intensity: 23.2837963104
---
header: 
  seq: 770205
  stamp: 
    secs: 1561682484
    nsecs: 954271121
  frame_id: "ti_mmwave"
point_id: 6
x: 1.072265625
y: -0.083984375
z: 0.814453125
range: 1.43804001808
velocity: 0.0
doppler_bin: 8
bearing: -4.47850465775
intensity: 23.2014636993
---
header: 
  seq: 770206
  stamp: 
    secs: 1561682484
    nsecs: 954282788
  frame_id: "ti_mmwave"
point_id: 7
x: 1.376953125
y: -0.087890625
z: 0.177734375
range: 1.48161697388
velocity: 0.0
doppler_bin: 8
bearing: -3.65222287178
intensity: 24.2975234985
---
header: 
  seq: 770207
  stamp: 
    secs: 1561682484
    nsecs: 954310133
  frame_id: "ti_mmwave"
point_id: 8
x: 1.263671875
y: -0.08984375
z: 0.66796875
range: 1.52519392967
velocity: 0.0
doppler_bin: 8
bearing: -4.06673669815
intensity: 23.9093513489
---
header: 
  seq: 770208
  stamp: 
    secs: 1561682484
    nsecs: 954331750
  frame_id: "ti_mmwave"
point_id: 9
x: 1.4609375
y: -0.18359375
z: 0.013671875
range: 1.56877088547
velocity: 0.0
doppler_bin: 8
bearing: -7.16272354126
intensity: 25.3275432587
---
header: 
  seq: 770209
  stamp: 
    secs: 1561682484
    nsecs: 954351442
  frame_id: "ti_mmwave"
point_id: 10
x: 1.44140625
y: -0.283203125
z: -0.361328125
range: 1.61234796047
velocity: 0.0
doppler_bin: 8
bearing: -11.1157102585
intensity: 28.4260921478
---
header: 
  seq: 770210
  stamp: 
    secs: 1561682484
    nsecs: 954371189
  frame_id: "ti_mmwave"
point_id: 11
x: 1.40625
y: -0.33984375
z: -0.56640625
range: 1.65592491627
velocity: 0.0
doppler_bin: 8
bearing: -13.5859909058
intensity: 28.4695529938
---
header: 
  seq: 770211
  stamp: 
    secs: 1561682484
    nsecs: 954384148
  frame_id: "ti_mmwave"
point_id: 12
x: 2.54296875
y: -0.263671875
z: 1.197265625
range: 3.00681090355
velocity: 0.0
doppler_bin: 8
bearing: -5.91965341568
intensity: 29.5760726929
---
header: 
  seq: 770212
  stamp: 
    secs: 1561682484
    nsecs: 954404549
  frame_id: "ti_mmwave"
point_id: 13
x: 2.599609375
y: -0.267578125
z: 1.16796875
range: 3.05038785934
velocity: 0.0
doppler_bin: 8
bearing: -5.87676620483
intensity: 32.8239555359
---
header: 
  seq: 770213
  stamp: 
    secs: 1561682484
    nsecs: 954513947
  frame_id: "ti_mmwave"
point_id: 14
x: 2.662109375
y: -0.181640625
z: 1.1484375
range: 3.09396481514
velocity: 0.0
doppler_bin: 8
bearing: -3.90334677696
intensity: 32.0439147949
---
header: 
  seq: 770214
  stamp: 
    secs: 1561682484
    nsecs: 954533482
  frame_id: "ti_mmwave"
point_id: 15
x: 4.400390625
y: -0.287109375
z: 1.240234375
range: 4.88062095642
velocity: 0.0
doppler_bin: 8
bearing: -3.73304843903
intensity: 30.4336223602
---
header: 
  seq: 770215
  stamp: 
    secs: 1561682484
    nsecs: 954544971
  frame_id: "ti_mmwave"
point_id: 16
x: 4.443359375
y: -0.2890625
z: 1.244140625
range: 4.9241976738
velocity: 0.0
doppler_bin: 8
bearing: -3.72212862968
intensity: 30.1745071411
---
header: 
  seq: 770216
  stamp: 
    secs: 1561682484
    nsecs: 954559663
  frame_id: "ti_mmwave"
point_id: 18
x: 0.041015625
y: -0.033203125
z: 0.0625
range: 0.0871539413929
velocity: 0.0
doppler_bin: 8
bearing: -38.9909973145
intensity: 30.141002655
---
header: 
  seq: 770217
  stamp: 
    secs: 1561682484
    nsecs: 954572106
  frame_id: "ti_mmwave"
point_id: 19
x: 0.052734375
y: -0.04296875
z: 0.1015625
range: 0.130730912089
velocity: 0.0
doppler_bin: 8
bearing: -39.1736602783
intensity: 28.9982051849
---
header: 
  seq: 770218
  stamp: 
    secs: 1561682484
    nsecs: 954588643
  frame_id: "ti_mmwave"
point_id: 21
x: 1.125
y: -0.474609375
z: 0.33984375
range: 1.35088610649
velocity: 0.0
doppler_bin: 8
bearing: -22.873664856
intensity: 18.9762706757
---
header: 
  seq: 770219
  stamp: 
    secs: 1561682484
    nsecs: 954601875
  frame_id: "ti_mmwave"
point_id: 22
x: 0.734375
y: 0.970703125
z: -0.966796875
range: 1.65592491627
velocity: 0.0
doppler_bin: 8
bearing: 52.8910636902
intensity: 25.5022830963
---
header: 
  seq: 770220
  stamp: 
    secs: 1561682484
    nsecs: 955436650
  frame_id: "ti_mmwave"
point_id: 0
x: 0.01171875
y: -0.0390625
z: -0.0078125
range: 0.0435769706964
velocity: 0.0
doppler_bin: 8
bearing: -73.3007583618
intensity: 30.7481651306
---
header: 
  seq: 770221
  stamp: 
    secs: 1561682484
    nsecs: 955495151
  frame_id: "ti_mmwave"
point_id: 1
x: 0.017578125
y: -0.080078125
z: -0.0078125
range: 0.0871539413929
velocity: 0.0
doppler_bin: 8
bearing: -77.6192398071
intensity: 31.9728050232
---
header: 
  seq: 770222
  stamp: 
    secs: 1561682484
    nsecs: 955515272
  frame_id: "ti_mmwave"
point_id: 2
x: 0.041015625
y: -0.115234375
z: -0.0078125
range: 0.130730912089
velocity: 0.0
doppler_bin: 8
bearing: -70.4077224731
intensity: 30.2325248718
---
header: 
  seq: 770223
  stamp: 
    secs: 1561682484
    nsecs: 955529364
  frame_id: "ti_mmwave"
point_id: 3
x: 0.056640625
y: -0.154296875
z: 0.005859375
range: 0.174307882786
velocity: 0.0
doppler_bin: 8
bearing: -69.8423843384
intensity: 25.4654273987
---
header: 
  seq: 770224
  stamp: 
    secs: 1561682484
    nsecs: 955541738
  frame_id: "ti_mmwave"
point_id: 4
x: 0.109375
y: -0.080078125
z: 1.26171875
range: 1.35088610649
velocity: 0.0
doppler_bin: 8
bearing: -36.2094573975
intensity: 22.0139713287
---
header: 
  seq: 770225
  stamp: 
    secs: 1561682484
    nsecs: 955666973
  frame_id: "ti_mmwave"
point_id: 5
x: 0.765625
y: -0.041015625
z: 1.060546875
range: 1.39446306229
velocity: 0.0
doppler_bin: 8
bearing: -3.06648564339
intensity: 23.3845653534
---
header: 
  seq: 770226
  stamp: 
    secs: 1561682484
    nsecs: 955684827
  frame_id: "ti_mmwave"
point_id: 6
x: 1.23046875
y: -0.083984375
z: 0.55078125
range: 1.43804001808
velocity: 0.0
doppler_bin: 8
bearing: -3.9046087265
intensity: 23.2014636993
---
header: 
  seq: 770227
  stamp: 
    secs: 1561682484
    nsecs: 955696773
  frame_id: "ti_mmwave"
point_id: 7
x: 1.365234375
y: -0.04296875
z: 0.259765625
range: 1.48161697388
velocity: 0.0
doppler_bin: 8
bearing: -1.80270552635
intensity: 24.3616256714
---
header: 
  seq: 770228
  stamp: 
    secs: 1561682484
    nsecs: 955707172
  frame_id: "ti_mmwave"
point_id: 8
x: 1.29296875
y: -0.044921875
z: 0.61328125
range: 1.52519392967
velocity: 0.0
doppler_bin: 8
bearing: -1.98983836174
intensity: 23.9093513489
---
header: 
  seq: 770229
  stamp: 
    secs: 1561682484
    nsecs: 955751806
  frame_id: "ti_mmwave"
point_id: 9
x: 1.451171875
y: -0.23046875
z: 0.09765625
range: 1.56877088547
velocity: 0.0
doppler_bin: 8
bearing: -9.0240983963
intensity: 24.9276046753
---
header: 
  seq: 770230
  stamp: 
    secs: 1561682484
    nsecs: 955912309
  frame_id: "ti_mmwave"
point_id: 10
x: 1.484375
y: -0.283203125
z: -0.08203125
range: 1.61234796047
velocity: 0.0
doppler_bin: 8
bearing: -10.8016176224
intensity: 28.4880466461
---
header: 
  seq: 770231
  stamp: 
    secs: 1561682484
    nsecs: 955939922
  frame_id: "ti_mmwave"
point_id: 11
x: 1.52734375
y: -0.193359375
z: -0.21875
range: 1.65592491627
velocity: 0.0
doppler_bin: 8
bearing: -7.21517467499
intensity: 29.9563522339
---
header: 
  seq: 770232
  stamp: 
    secs: 1561682484
    nsecs: 955953917
  frame_id: "ti_mmwave"
point_id: 12
x: 1.556640625
y: -0.19921875
z: -0.2890625
range: 1.69950187206
velocity: 0.0
doppler_bin: 8
bearing: -7.29306411743
intensity: 28.7909584045
---
header: 
  seq: 770233
  stamp: 
    secs: 1561682484
    nsecs: 955966429
  frame_id: "ti_mmwave"
point_id: 13
x: 2.546875
y: -0.263671875
z: 1.185546875
range: 3.00681090355
velocity: 0.0
doppler_bin: 8
bearing: -5.91063833237
intensity: 29.4939002991
---
header: 
  seq: 770234
  stamp: 
    secs: 1561682484
    nsecs: 955974971
  frame_id: "ti_mmwave"
point_id: 14
x: 2.603515625
y: -0.267578125
z: 1.16015625
range: 3.05038785934
velocity: 0.0
doppler_bin: 8
bearing: -5.8680100441
intensity: 32.8352737427
---
header: 
  seq: 770235
  stamp: 
    secs: 1561682484
    nsecs: 956035977
  frame_id: "ti_mmwave"
point_id: 15
x: 2.6640625
y: -0.181640625
z: 1.14453125
range: 3.09396481514
velocity: 0.0
doppler_bin: 8
bearing: -3.90049386024
intensity: 32.0924682617
---
header: 
  seq: 770236
  stamp: 
    secs: 1561682484
    nsecs: 956052047
  frame_id: "ti_mmwave"
point_id: 16
x: 4.396484375
y: -0.287109375
z: 1.259765625
range: 4.88062095642
velocity: 0.0
doppler_bin: 8
bearing: -3.73635601997
intensity: 30.0259799957
---
header: 
  seq: 770237
  stamp: 
    secs: 1561682484
    nsecs: 956063555
  frame_id: "ti_mmwave"
point_id: 17
x: 4.427734375
y: -0.2890625
z: 1.29296875
range: 4.9241976738
velocity: 0.0
doppler_bin: 8
bearing: -3.73522686958
intensity: 29.6848297119
---
header: 
  seq: 770238
  stamp: 
    secs: 1561682484
    nsecs: 956077550
  frame_id: "ti_mmwave"
point_id: 19
x: 0.041015625
y: -0.033203125
z: 0.0625
range: 0.0871539413929
velocity: 0.0
doppler_bin: 8
bearing: -38.9909973145
intensity: 30.1452045441
---
header: 
  seq: 770239
  stamp: 
    secs: 1561682484
    nsecs: 956091569
  frame_id: "ti_mmwave"
point_id: 20
x: 0.052734375
y: -0.04296875
z: 0.1015625
range: 0.130730912089
velocity: 0.0
doppler_bin: 8
bearing: -39.1736602783
intensity: 29.0091304779
---
header: 
  seq: 770240
  stamp: 
    secs: 1561682484
    nsecs: 956134610
  frame_id: "ti_mmwave"
point_id: 22
x: 3.365234375
y: -2.021484375
z: -2.439453125
range: 4.9241976738
velocity: 0.0
doppler_bin: 8
bearing: -30.9930896759
intensity: 26.7577838898
---
header: 
  seq: 770241
  stamp: 
    secs: 1561682485
    nsecs:  14144757
  frame_id: "ti_mmwave"
point_id: 0
x: 0.01171875
y: -0.0390625
z: -0.0078125
range: 0.0435769706964
velocity: 0.0
doppler_bin: 8
bearing: -73.3007583618
intensity: 30.7518177032
---
header: 
  seq: 770242
  stamp: 
    secs: 1561682485
    nsecs:  14238727
  frame_id: "ti_mmwave"
point_id: 1
x: 0.017578125
y: -0.080078125
z: -0.0078125
range: 0.0871539413929
velocity: 0.0
doppler_bin: 8
bearing: -77.6192398071
intensity: 31.9728050232
---
header: 
  seq: 770243
  stamp: 
    secs: 1561682485
    nsecs:  14256066
  frame_id: "ti_mmwave"
point_id: 2
x: 0.041015625
y: -0.115234375
z: -0.0078125
range: 0.130730912089
velocity: 0.0
doppler_bin: 8
bearing: -70.4077224731
intensity: 30.2284069061
---
header: 
  seq: 770244
  stamp: 
    secs: 1561682485
    nsecs:  14269862
  frame_id: "ti_mmwave"
point_id: 3
x: 0.056640625
y: -0.154296875
z: 0.005859375
range: 0.174307882786
velocity: 0.0
doppler_bin: 8
bearing: -69.8423843384
intensity: 25.4654273987
---
header: 
  seq: 770245
  stamp: 
    secs: 1561682485
    nsecs:  14283950
  frame_id: "ti_mmwave"
point_id: 4
x: 0.455078125
y: -0.080078125
z: -1.1796875
range: 1.35088610649
velocity: 0.0
doppler_bin: 8
bearing: -9.97992134094
intensity: 22.1218757629
---
header: 
  seq: 770246
  stamp: 
    secs: 1561682485
    nsecs:  14298460
  frame_id: "ti_mmwave"
point_id: 5
x: 0.19140625
y: -0.08203125
z: -1.29296875
range: 1.39446306229
velocity: 0.0
doppler_bin: 8
bearing: -23.1985912323
intensity: 24.2160396576
---
header: 
  seq: 770247
  stamp: 
    secs: 1561682485
    nsecs:  14313616
  frame_id: "ti_mmwave"
point_id: 6
x: 1.345703125
y: -0.083984375
z: -0.076171875
range: 1.43804001808
velocity: 0.0
doppler_bin: 8
bearing: -3.57115721703
intensity: 24.440448761
---
header: 
  seq: 770248
  stamp: 
    secs: 1561682485
    nsecs:  14331166
  frame_id: "ti_mmwave"
point_id: 7
x: 1.3671875
y: -0.087890625
z: -0.244140625
range: 1.48161697388
velocity: 0.0
doppler_bin: 8
bearing: -3.67823863029
intensity: 24.5788192749
---
header: 
  seq: 770249
  stamp: 
    secs: 1561682485
    nsecs:  14345320
  frame_id: "ti_mmwave"
point_id: 8
x: 1.431640625
y: -0.236328125
z: -0.43359375
range: 1.61234796047
velocity: 0.0
doppler_bin: 8
bearing: -9.3735704422
intensity: 24.857213974
---
header: 
  seq: 770250
  stamp: 
    secs: 1561682485
    nsecs:  14359364
  frame_id: "ti_mmwave"
point_id: 9
x: 1.51953125
y: -0.193359375
z: -0.263671875
range: 1.65592491627
velocity: 0.0
doppler_bin: 8
bearing: -7.25187730789
intensity: 27.8675136566
---
header: 
  seq: 770251
  stamp: 
    secs: 1561682485
    nsecs:  14446203
  frame_id: "ti_mmwave"
point_id: 10
x: 1.560546875
y: -0.19921875
z: -0.263671875
range: 1.69950187206
velocity: 0.0
doppler_bin: 8
bearing: -7.27500534058
intensity: 28.4818916321
---
header: 
  seq: 770252
  stamp: 
    secs: 1561682485
    nsecs:  14463674
  frame_id: "ti_mmwave"
point_id: 11
x: 1.587890625
y: -0.205078125
z: -0.3359375
range: 1.74307882786
velocity: 0.0
doppler_bin: 8
bearing: -7.35908746719
intensity: 26.5801143646
---
header: 
  seq: 770253
  stamp: 
    secs: 1561682485
    nsecs:  14478513
  frame_id: "ti_mmwave"
point_id: 12
x: 2.515625
y: -0.263671875
z: 1.25
range: 3.00681090355
velocity: 0.0
doppler_bin: 8
bearing: -5.98353290558
intensity: 29.4200801849
---
header: 
  seq: 770254
  stamp: 
    secs: 1561682485
    nsecs:  14492835
  frame_id: "ti_mmwave"
point_id: 13
x: 2.59765625
y: -0.267578125
z: 1.17578125
range: 3.05038785934
velocity: 0.0
doppler_bin: 8
bearing: -5.88115358353
intensity: 32.7600212097
---
header: 
  seq: 770255
  stamp: 
    secs: 1561682485
    nsecs:  14510460
  frame_id: "ti_mmwave"
point_id: 14
x: 2.658203125
y: -0.181640625
z: 1.154296875
range: 3.09396481514
velocity: 0.0
doppler_bin: 8
bearing: -3.90906453133
intensity: 31.9534606934
---
header: 
  seq: 770256
  stamp: 
    secs: 1561682485
    nsecs:  14524648
  frame_id: "ti_mmwave"
point_id: 15
x: 4.388671875
y: -0.287109375
z: 1.28515625
range: 4.88062095642
velocity: 0.0
doppler_bin: 8
bearing: -3.74298858643
intensity: 29.6988162994
---
header: 
  seq: 770257
  stamp: 
    secs: 1561682485
    nsecs:  14537794
  frame_id: "ti_mmwave"
point_id: 16
x: 4.43359375
y: -0.2890625
z: 1.27734375
range: 4.9241976738
velocity: 0.0
doppler_bin: 8
bearing: -3.73030400276
intensity: 29.4792366028
---
header: 
  seq: 770258
  stamp: 
    secs: 1561682485
    nsecs:  14556486
  frame_id: "ti_mmwave"
point_id: 18
x: 0.041015625
y: -0.033203125
z: 0.0625
range: 0.0871539413929
velocity: 0.0
doppler_bin: 8
bearing: -38.9909973145
intensity: 30.1325874329
---
header: 
  seq: 770259
  stamp: 
    secs: 1561682485
    nsecs:  14587881
  frame_id: "ti_mmwave"
point_id: 19
x: 0.052734375
y: -0.04296875
z: 0.1015625
range: 0.130730912089
velocity: 0.0
doppler_bin: 8
bearing: -39.1736602783
intensity: 28.9982051849
---
header: 
  seq: 770260
  stamp: 
    secs: 1561682485
    nsecs:  14658335
  frame_id: "ti_mmwave"
point_id: 22
x: 1.046875
y: 0.388671875
z: 1.08203125
range: 1.65592491627
velocity: 0.0
doppler_bin: 8
bearing: 20.3683834076
intensity: 25.2113800049
---
header: 
  seq: 770261
  stamp: 
    secs: 1561682485
    nsecs:  14678601
  frame_id: "ti_mmwave"
point_id: 23
x: 3.40625
y: -1.861328125
z: -2.431640625
range: 4.88062095642
velocity: 0.0
doppler_bin: 8
bearing: -28.654176712
intensity: 26.9019603729
---
header: 
  seq: 770262
  stamp: 
    secs: 1561682485
    nsecs:  14694665
  frame_id: "ti_mmwave"
point_id: 24
x: 3.44140625
y: -2.021484375
z: -2.330078125
range: 4.9241976738
velocity: 0.0
doppler_bin: 8
bearing: -30.4300060272
intensity: 26.5991611481
---
header: 
  seq: 770263
  stamp: 
    secs: 1561682485
    nsecs:  16076154
  frame_id: "ti_mmwave"
point_id: 0
x: 0.01171875
y: -0.0390625
z: -0.0078125
range: 0.0435769706964
velocity: 0.0
doppler_bin: 8
bearing: -73.3007583618
intensity: 30.7518177032
---
header: 
  seq: 770264
  stamp: 
    secs: 1561682485
    nsecs:  16154089
  frame_id: "ti_mmwave"
point_id: 1
x: 0.017578125
y: -0.080078125
z: -0.0078125
range: 0.0871539413929
velocity: 0.0
doppler_bin: 8
bearing: -77.6192398071
intensity: 31.9755630493
---
header: 
  seq: 770265
  stamp: 
    secs: 1561682485
    nsecs:  16165274
  frame_id: "ti_mmwave"
point_id: 2
x: 0.041015625
y: -0.115234375
z: -0.0078125
range: 0.130730912089
velocity: 0.0
doppler_bin: 8
bearing: -70.4077224731
intensity: 30.2366390228
---
header: 
  seq: 770266
  stamp: 
    secs: 1561682485
    nsecs:  16174007
  frame_id: "ti_mmwave"
point_id: 3
x: 0.056640625
y: -0.154296875
z: 0.005859375
range: 0.174307882786
velocity: 0.0
doppler_bin: 8
bearing: -69.8423843384
intensity: 25.5022830963
---
header: 
  seq: 770267
  stamp: 
    secs: 1561682485
    nsecs:  16187096
  frame_id: "ti_mmwave"
point_id: 4
x: 0.421875
y: -0.080078125
z: -1.193359375
range: 1.35088610649
velocity: 0.0
doppler_bin: 8
bearing: -10.7477264404
intensity: 21.7609119415
---
header: 
  seq: 770268
  stamp: 
    secs: 1561682485
    nsecs:  16258332
  frame_id: "ti_mmwave"
point_id: 5
x: 0.52734375
y: -0.041015625
z: -1.197265625
range: 1.39446306229
velocity: 0.0
doppler_bin: 8
bearing: -4.44738483429
intensity: 22.7646179199
---
header: 
  seq: 770269
  stamp: 
    secs: 1561682485
    nsecs:  16269971
  frame_id: "ti_mmwave"
point_id: 6
x: 0.8984375
y: 0.04296875
z: -1.005859375
range: 1.43804001808
velocity: 0.0
doppler_bin: 8
bearing: 2.7381465435
intensity: 21.2385158539
---
header: 
  seq: 770270
  stamp: 
    secs: 1561682485
    nsecs:  16278752
  frame_id: "ti_mmwave"
point_id: 7
x: 0.974609375
y: 0.087890625
z: -0.98828125
range: 1.48161697388
velocity: 0.0
doppler_bin: 8
bearing: 5.15301513672
intensity: 20.5307846069
---
header: 
  seq: 770271
  stamp: 
    secs: 1561682485
    nsecs:  16289107
  frame_id: "ti_mmwave"
point_id: 8
x: 1.462890625
y: -0.138671875
z: 0.111328125
range: 1.56877088547
velocity: 0.0
doppler_bin: 8
bearing: -5.41506147385
intensity: 25.8092498779
---
header: 
  seq: 770272
  stamp: 
    secs: 1561682485
    nsecs:  16300031
  frame_id: "ti_mmwave"
point_id: 9
x: 1.494140625
y: -0.189453125
z: -0.158203125
range: 1.61234796047
velocity: 0.0
doppler_bin: 8
bearing: -7.22639226913
intensity: 27.9379043579
---
header: 
  seq: 770273
  stamp: 
    secs: 1561682485
    nsecs:  16312749
  frame_id: "ti_mmwave"
point_id: 10
x: 1.5078125
y: -0.2421875
z: -0.287109375
range: 1.65592491627
velocity: 0.0
doppler_bin: 8
bearing: -9.12500858307
intensity: 30.4296913147
---
header: 
  seq: 770274
  stamp: 
    secs: 1561682485
    nsecs:  16322823
  frame_id: "ti_mmwave"
point_id: 11
x: 1.544921875
y: -0.298828125
z: -0.267578125
range: 1.69950187206
velocity: 0.0
doppler_bin: 8
bearing: -10.9473056793
intensity: 30.1072387695
---
header: 
  seq: 770275
  stamp: 
    secs: 1561682485
    nsecs:  16375669
  frame_id: "ti_mmwave"
point_id: 12
x: 1.61328125
y: -0.205078125
z: -0.1796875
range: 1.74307882786
velocity: 0.0
doppler_bin: 8
bearing: -7.24450683594
intensity: 26.875289917
---
header: 
  seq: 770276
  stamp: 
    secs: 1561682485
    nsecs:  16390794
  frame_id: "ti_mmwave"
point_id: 13
x: 2.548828125
y: -0.263671875
z: 1.18359375
range: 3.00681090355
velocity: 0.0
doppler_bin: 8
bearing: -5.90614128113
intensity: 29.5230808258
---
header: 
  seq: 770277
  stamp: 
    secs: 1561682485
    nsecs:  16404740
  frame_id: "ti_mmwave"
point_id: 14
x: 2.603515625
y: -0.267578125
z: 1.16015625
range: 3.05038785934
velocity: 0.0
doppler_bin: 8
bearing: -5.8680100441
intensity: 32.8057823181
---
header: 
  seq: 770278
  stamp: 
    secs: 1561682485
    nsecs:  16454040
  frame_id: "ti_mmwave"
point_id: 15
x: 2.662109375
y: -0.181640625
z: 1.146484375
range: 3.09396481514
velocity: 0.0
doppler_bin: 8
bearing: -3.90334677696
intensity: 31.9865703583
---
header: 
  seq: 770279
  stamp: 
    secs: 1561682485
    nsecs:  16466681
  frame_id: "ti_mmwave"
point_id: 16
x: 4.3828125
y: -0.287109375
z: 1.302734375
range: 4.88062095642
velocity: 0.0
doppler_bin: 8
bearing: -3.74797797203
intensity: 29.4987773895
---
header: 
  seq: 770280
  stamp: 
    secs: 1561682485
    nsecs:  16475636
  frame_id: "ti_mmwave"
point_id: 17
x: 4.427734375
y: -0.2890625
z: 1.294921875
range: 4.9241976738
velocity: 0.0
doppler_bin: 8
bearing: -3.73522686958
intensity: 29.350030899
---
header: 
  seq: 770281
  stamp: 
    secs: 1561682485
    nsecs:  16524419
  frame_id: "ti_mmwave"
point_id: 19
x: 0.041015625
y: -0.033203125
z: 0.0625
range: 0.0871539413929
velocity: 0.0
doppler_bin: 8
bearing: -38.9909973145
intensity: 30.141002655
---
header: 
  seq: 770282
  stamp: 
    secs: 1561682485
    nsecs:  16539518
  frame_id: "ti_mmwave"
point_id: 20
x: 0.052734375
y: -0.04296875
z: 0.1015625
range: 0.130730912089
velocity: 0.0
doppler_bin: 8
bearing: -39.1736602783
intensity: 29.0036716461
---
header: 
  seq: 770283
  stamp: 
    secs: 1561682485
    nsecs:  16560691
  frame_id: "ti_mmwave"
point_id: 22
x: 1.11328125
y: -0.474609375
z: 0.375
range: 1.35088610649
velocity: 0.0
doppler_bin: 8
bearing: -23.0893154144
intensity: 19.0308990479
---
header: 
  seq: 770284
  stamp: 
    secs: 1561682485
    nsecs:  16604869
  frame_id: "ti_mmwave"
point_id: 23
x: 1.20703125
y: -0.490234375
z: 0.130859375
range: 1.39446306229
velocity: 0.0
doppler_bin: 8
bearing: -22.1044750214
intensity: 19.8677177429
---
header: 
  seq: 770285
  stamp: 
    secs: 1561682485
    nsecs:  16621085
  frame_id: "ti_mmwave"
point_id: 24
x: 1.279296875
y: -0.421875
z: 0.09765625
range: 1.43804001808
velocity: 0.0
doppler_bin: 8
bearing: -18.2510566711
intensity: 20.2118930817
---
header: 
  seq: 770286
  stamp: 
    secs: 1561682485
    nsecs:  16634068
  frame_id: "ti_mmwave"
point_id: 25
x: 1.314453125
y: -0.390625
z: 0.2265625
range: 1.48161697388
velocity: 0.0
doppler_bin: 8
bearing: -16.5507278442
intensity: 19.0848503113
---
header: 
  seq: 770287
  stamp: 
    secs: 1561682485
    nsecs:  16656044
  frame_id: "ti_mmwave"
point_id: 26
x: 3.431640625
y: -1.861328125
z: -2.3984375
range: 4.88062095642
velocity: 0.0
doppler_bin: 8
bearing: -28.475484848
intensity: 26.7669353485
---
header: 
  seq: 770288
  stamp: 
    secs: 1561682485
    nsecs:  16686714
  frame_id: "ti_mmwave"
point_id: 27
x: 3.50390625
y: -2.021484375
z: -2.234375
range: 4.9241976738
velocity: 0.0
doppler_bin: 8
bearing: -29.9816379547
intensity: 26.4147415161
---
header: 
  seq: 770289
  stamp: 
    secs: 1561682485
    nsecs:  74331950
  frame_id: "ti_mmwave"
point_id: 0
x: 0.01171875
y: -0.0390625
z: -0.0078125
range: 0.0435769706964
velocity: 0.0
doppler_bin: 8
bearing: -73.3007583618
intensity: 30.7481651306
---
header: 
  seq: 770290
  stamp: 
    secs: 1561682485
    nsecs:  74429365
  frame_id: "ti_mmwave"
point_id: 1
x: 0.017578125
y: -0.080078125
z: -0.0078125
range: 0.0871539413929
velocity: 0.0
doppler_bin: 8
bearing: -77.6192398071
intensity: 31.9755630493
---
header: 
  seq: 770291
  stamp: 
    secs: 1561682485
    nsecs:  74447519
  frame_id: "ti_mmwave"
point_id: 2
x: 0.041015625
y: -0.115234375
z: -0.0078125
range: 0.130730912089
velocity: 0.0
doppler_bin: 8
bearing: -70.4077224731
intensity: 30.2366390228
---
header: 
  seq: 770292
  stamp: 
    secs: 1561682485
    nsecs:  74461412
  frame_id: "ti_mmwave"
point_id: 3
x: 0.056640625
y: -0.154296875
z: 0.005859375
range: 0.174307882786
velocity: 0.0
doppler_bin: 8
bearing: -69.8423843384
intensity: 25.5022830963
---
header: 
  seq: 770293
  stamp: 
    secs: 1561682485
    nsecs:  74478238
  frame_id: "ti_mmwave"
point_id: 4
x: 0.384765625
y: -0.080078125
z: -1.205078125
range: 1.35088610649
velocity: 0.0
doppler_bin: 8
bearing: -11.7566738129
intensity: 21.875207901
---
header: 
  seq: 770294
  stamp: 
    secs: 1561682485
    nsecs:  74493992
  frame_id: "ti_mmwave"
point_id: 5
x: 0.359375
y: -0.041015625
z: -1.2578125
range: 1.39446306229
velocity: 0.0
doppler_bin: 8
bearing: -6.51101970673
intensity: 23.1597042084
---
header: 
  seq: 770295
  stamp: 
    secs: 1561682485
    nsecs:  74509262
  frame_id: "ti_mmwave"
point_id: 6
x: 0.783203125
y: -0.0
z: -1.099609375
range: 1.43804001808
velocity: 0.0
doppler_bin: 8
bearing: -0.0
intensity: 21.430147171
---
header: 
  seq: 770296
  stamp: 
    secs: 1561682485
    nsecs:  74524874
  frame_id: "ti_mmwave"
point_id: 7
x: 2.556640625
y: -0.263671875
z: 1.166015625
range: 3.00681090355
velocity: 0.0
doppler_bin: 8
bearing: -5.88822031021
intensity: 29.5472488403
---
header: 
  seq: 770297
  stamp: 
    secs: 1561682485
    nsecs:  74540448
  frame_id: "ti_mmwave"
point_id: 8
x: 2.609375
y: -0.267578125
z: 1.1484375
range: 3.05038785934
velocity: 0.0
doppler_bin: 8
bearing: -5.85492515564
intensity: 32.8397941589
---
header: 
  seq: 770298
  stamp: 
    secs: 1561682485
    nsecs:  74558567
  frame_id: "ti_mmwave"
point_id: 9
x: 2.669921875
y: -0.181640625
z: 1.12890625
range: 3.09396481514
velocity: 0.0
doppler_bin: 8
bearing: -3.89196038246
intensity: 32.0547485352
---
header: 
  seq: 770299
  stamp: 
    secs: 1561682485
    nsecs:  74589365
  frame_id: "ti_mmwave"
point_id: 10
x: 4.392578125
y: -0.287109375
z: 1.267578125
range: 4.88062095642
velocity: 0.0
doppler_bin: 8
bearing: -3.73966956139
intensity: 29.5327625275
---
header: 
  seq: 770300
  stamp: 
    secs: 1561682485
    nsecs:  74617067
  frame_id: "ti_mmwave"
point_id: 11
x: 4.43359375
y: -0.2890625
z: 1.27734375
range: 4.9241976738
velocity: 0.0
doppler_bin: 8
bearing: -3.73030400276
intensity: 29.3601074219
---
header: 
  seq: 770301
  stamp: 
    secs: 1561682485
    nsecs:  74646370
  frame_id: "ti_mmwave"
point_id: 12
x: 1.443359375
y: -0.138671875
z: 0.25390625
range: 1.56877088547
velocity: 0.614668667316
doppler_bin: 9
bearing: -5.48789262772
intensity: 26.503074646
---
header: 
  seq: 770302
  stamp: 
    secs: 1561682485
    nsecs:  74754128
  frame_id: "ti_mmwave"
point_id: 13
x: 1.48046875
y: -0.189453125
z: 0.251953125
range: 1.61234796047
velocity: 0.614668667316
doppler_bin: 9
bearing: -7.2924118042
intensity: 28.7794704437
---
header: 
  seq: 770303
  stamp: 
    secs: 1561682485
    nsecs:  74771433
  frame_id: "ti_mmwave"
point_id: 14
x: 1.529296875
y: -0.2421875
z: 0.12890625
range: 1.65592491627
velocity: 0.614668667316
doppler_bin: 9
bearing: -8.99892807007
intensity: 28.5186958313
---
header: 
  seq: 770304
  stamp: 
    secs: 1561682485
    nsecs:  74786078
  frame_id: "ti_mmwave"
point_id: 15
x: 1.56640625
y: -0.298828125
z: -0.021484375
range: 1.69950187206
velocity: 0.614668667316
doppler_bin: 9
bearing: -10.8007116318
intensity: 26.1595001221
---
header: 
  seq: 770305
  stamp: 
    secs: 1561682485
    nsecs:  74804275
  frame_id: "ti_mmwave"
point_id: 17
x: 0.041015625
y: -0.033203125
z: 0.0625
range: 0.0871539413929
velocity: 0.0
doppler_bin: 8
bearing: -38.9909973145
intensity: 30.141002655
---
header: 
  seq: 770306
  stamp: 
    secs: 1561682485
    nsecs:  74819478
  frame_id: "ti_mmwave"
point_id: 18
x: 0.052734375
y: -0.04296875
z: 0.1015625
range: 0.130730912089
velocity: 0.0
doppler_bin: 8
bearing: -39.1736602783
intensity: 29.0036716461
---
header: 
  seq: 770307
  stamp: 
    secs: 1561682485
    nsecs:  74836987
  frame_id: "ti_mmwave"
point_id: 20
x: 1.115234375
y: -0.515625
z: 0.31640625
range: 1.35088610649
velocity: 0.0
doppler_bin: 8
bearing: -24.8133087158
intensity: 19.0308990479
---
header: 
  seq: 770308
  stamp: 
    secs: 1561682485
    nsecs:  74854554
  frame_id: "ti_mmwave"
point_id: 21
x: 3.43359375
y: -1.861328125
z: -2.39453125
range: 4.88062095642
velocity: 0.0
doppler_bin: 8
bearing: -28.4618225098
intensity: 26.7394199371
---
header: 
  seq: 770309
  stamp: 
    secs: 1561682485
    nsecs:  74871483
  frame_id: "ti_mmwave"
point_id: 22
x: 3.482421875
y: -2.021484375
z: -2.267578125
range: 4.9241976738
velocity: 0.0
doppler_bin: 8
bearing: -30.1344051361
intensity: 26.4640369415
---
header: 
  seq: 770310
  stamp: 
    secs: 1561682485
    nsecs: 134233900
  frame_id: "ti_mmwave"
point_id: 0
x: 0.01171875
y: -0.0390625
z: -0.0078125
range: 0.0435769706964
velocity: 0.0
doppler_bin: 8
bearing: -73.3007583618
intensity: 30.7481651306
---
header: 
  seq: 770311
  stamp: 
    secs: 1561682485
    nsecs: 134297760
  frame_id: "ti_mmwave"
point_id: 1
x: 0.017578125
y: -0.080078125
z: -0.0078125
range: 0.0871539413929
velocity: 0.0
doppler_bin: 8
bearing: -77.6192398071
intensity: 31.9700469971
---
header: 
  seq: 770312
  stamp: 
    secs: 1561682485
    nsecs: 134308934
  frame_id: "ti_mmwave"
point_id: 2
x: 0.041015625
y: -0.115234375
z: -0.0078125
range: 0.130730912089
velocity: 0.0
doppler_bin: 8
bearing: -70.4077224731
intensity: 30.2284069061
---
header: 
  seq: 770313
  stamp: 
    secs: 1561682485
    nsecs: 134318046
  frame_id: "ti_mmwave"
point_id: 3
x: 0.056640625
y: -0.154296875
z: 0.005859375
range: 0.174307882786
velocity: 0.0
doppler_bin: 8
bearing: -69.8423843384
intensity: 25.4777469635
---
header: 
  seq: 770314
  stamp: 
    secs: 1561682485
    nsecs: 134329239
  frame_id: "ti_mmwave"
point_id: 4
x: 0.375
y: -0.080078125
z: -1.208984375
range: 1.35088610649
velocity: 0.0
doppler_bin: 8
bearing: -12.0539922714
intensity: 21.8184356689
---
header: 
  seq: 770315
  stamp: 
    secs: 1561682485
    nsecs: 134338661
  frame_id: "ti_mmwave"
point_id: 5
x: 0.302734375
y: -0.041015625
z: -1.2734375
range: 1.39446306229
velocity: 0.0
doppler_bin: 8
bearing: -7.71567344666
intensity: 22.810333252
---
header: 
  seq: 770316
  stamp: 
    secs: 1561682485
    nsecs: 134347984
  frame_id: "ti_mmwave"
point_id: 6
x: 0.896484375
y: -0.04296875
z: -1.0078125
range: 1.43804001808
velocity: 0.0
doppler_bin: 8
bearing: -2.74410271645
intensity: 19.4448261261
---
header: 
  seq: 770317
  stamp: 
    secs: 1561682485
    nsecs: 134400830
  frame_id: "ti_mmwave"
point_id: 7
x: 1.451171875
y: -0.236328125
z: -0.36328125
range: 1.61234796047
velocity: 0.0
doppler_bin: 8
bearing: -9.24960708618
intensity: 26.211763382
---
header: 
  seq: 770318
  stamp: 
    secs: 1561682485
    nsecs: 134410635
  frame_id: "ti_mmwave"
point_id: 8
x: 1.50390625
y: -0.2421875
z: -0.306640625
range: 1.65592491627
velocity: 0.0
doppler_bin: 8
bearing: -9.14830970764
intensity: 29.0525608063
---
header: 
  seq: 770319
  stamp: 
    secs: 1561682485
    nsecs: 134419430
  frame_id: "ti_mmwave"
point_id: 9
x: 1.552734375
y: -0.25
z: -0.2734375
range: 1.69950187206
velocity: 0.0
doppler_bin: 8
bearing: -9.146484375
intensity: 28.6510391235
---
header: 
  seq: 770320
  stamp: 
    secs: 1561682485
    nsecs: 134428037
  frame_id: "ti_mmwave"
point_id: 10
x: 1.58203125
y: -0.154296875
z: -0.38671875
range: 1.74307882786
velocity: 0.0
doppler_bin: 8
bearing: -5.57048892975
intensity: 25.8658733368
---
header: 
  seq: 770321
  stamp: 
    secs: 1561682485
    nsecs: 134437565
  frame_id: "ti_mmwave"
point_id: 11
x: 2.548828125
y: -0.263671875
z: 1.185546875
range: 3.00681090355
velocity: 0.0
doppler_bin: 8
bearing: -5.90614128113
intensity: 29.5856380463
---
header: 
  seq: 770322
  stamp: 
    secs: 1561682485
    nsecs: 134446992
  frame_id: "ti_mmwave"
point_id: 12
x: 2.603515625
y: -0.267578125
z: 1.16015625
range: 3.05038785934
velocity: 0.0
doppler_bin: 8
bearing: -5.8680100441
intensity: 32.8262214661
---
header: 
  seq: 770323
  stamp: 
    secs: 1561682485
    nsecs: 134455638
  frame_id: "ti_mmwave"
point_id: 13
x: 2.666015625
y: -0.181640625
z: 1.140625
range: 3.09396481514
velocity: 0.0
doppler_bin: 8
bearing: -3.89764523506
intensity: 32.0682601929
---
header: 
  seq: 770324
  stamp: 
    secs: 1561682485
    nsecs: 134464526
  frame_id: "ti_mmwave"
point_id: 14
x: 4.400390625
y: -0.287109375
z: 1.24609375
range: 4.88062095642
velocity: 0.0
doppler_bin: 8
bearing: -3.73304843903
intensity: 30.0945091248
---
header: 
  seq: 770325
  stamp: 
    secs: 1561682485
    nsecs: 134496590
  frame_id: "ti_mmwave"
point_id: 15
x: 4.4453125
y: -0.2890625
z: 1.234375
range: 4.9241976738
velocity: 0.0
doppler_bin: 8
bearing: -3.72049832344
intensity: 29.8587532043
---
header: 
  seq: 770326
  stamp: 
    secs: 1561682485
    nsecs: 134506347
  frame_id: "ti_mmwave"
point_id: 16
x: 1.34375
y: -0.3046875
z: -0.19140625
range: 1.48161697388
velocity: 0.614668667316
doppler_bin: 9
bearing: -12.7754678726
intensity: 22.5285301208
---
header: 
  seq: 770327
  stamp: 
    secs: 1561682485
    nsecs: 134514948
  frame_id: "ti_mmwave"
point_id: 17
x: 1.3984375
y: -0.267578125
z: -0.146484375
range: 1.52519392967
velocity: 0.614668667316
doppler_bin: 9
bearing: -10.8320932388
intensity: 22.2271652222
---
header: 
  seq: 770328
  stamp: 
    secs: 1561682485
    nsecs: 134526807
  frame_id: "ti_mmwave"
point_id: 19
x: 0.041015625
y: -0.033203125
z: 0.0625
range: 0.0871539413929
velocity: 0.0
doppler_bin: 8
bearing: -38.9909973145
intensity: 30.1367969513
---
header: 
  seq: 770329
  stamp: 
    secs: 1561682485
    nsecs: 134535484
  frame_id: "ti_mmwave"
point_id: 20
x: 0.052734375
y: -0.04296875
z: 0.1015625
range: 0.130730912089
velocity: 0.0
doppler_bin: 8
bearing: -39.1736602783
intensity: 28.9982051849
---
header: 
  seq: 770330
  stamp: 
    secs: 1561682485
    nsecs: 134549017
  frame_id: "ti_mmwave"
point_id: 22
x: 1.115234375
y: -0.515625
z: 0.3125
range: 1.35088610649
velocity: 0.0
doppler_bin: 8
bearing: -24.8133087158
intensity: 18.9762706757
---
header: 
  seq: 770331
  stamp: 
    secs: 1561682485
    nsecs: 135192902
  frame_id: "ti_mmwave"
point_id: 0
x: 0.01171875
y: -0.0390625
z: -0.0078125
range: 0.0435769706964
velocity: 0.0
doppler_bin: 8
bearing: -73.3007583618
intensity: 30.7481651306
---
header: 
  seq: 770332
  stamp: 
    secs: 1561682485
    nsecs: 135229615
  frame_id: "ti_mmwave"
point_id: 1
x: 0.017578125
y: -0.080078125
z: -0.0078125
range: 0.0871539413929
velocity: 0.0
doppler_bin: 8
bearing: -77.6192398071
intensity: 31.9700469971
---
header: 
  seq: 770333
  stamp: 
    secs: 1561682485
    nsecs: 135241718
  frame_id: "ti_mmwave"
point_id: 2
x: 0.041015625
y: -0.115234375
z: -0.0078125
range: 0.130730912089
velocity: 0.0
doppler_bin: 8
bearing: -70.4077224731
intensity: 30.2325248718
---
header: 
  seq: 770334
  stamp: 
    secs: 1561682485
    nsecs: 135278443
  frame_id: "ti_mmwave"
point_id: 3
x: 0.056640625
y: -0.154296875
z: 0.005859375
range: 0.174307882786
velocity: 0.0
doppler_bin: 8
bearing: -69.8423843384
intensity: 25.4777469635
---
header: 
  seq: 770335
  stamp: 
    secs: 1561682485
    nsecs: 135287606
  frame_id: "ti_mmwave"
point_id: 4
x: 0.3203125
y: -0.080078125
z: -1.224609375
range: 1.35088610649
velocity: 0.0
doppler_bin: 8
bearing: -14.0362434387
intensity: 21.9312458038
---
header: 
  seq: 770336
  stamp: 
    secs: 1561682485
    nsecs: 135295477
  frame_id: "ti_mmwave"
point_id: 5
x: 0.65234375
y: -0.08203125
z: 1.1328125
range: 1.39446306229
velocity: 0.0
doppler_bin: 8
bearing: -7.16723871231
intensity: 23.9794006348
---
header: 
  seq: 770337
  stamp: 
    secs: 1561682485
    nsecs: 135303773
  frame_id: "ti_mmwave"
point_id: 6
x: 1.310546875
y: -0.083984375
z: 0.30859375
range: 1.43804001808
velocity: 0.0
doppler_bin: 8
bearing: -3.66669774055
intensity: 25.1719589233
---
header: 
  seq: 770338
  stamp: 
    secs: 1561682485
    nsecs: 135311151
  frame_id: "ti_mmwave"
point_id: 7
x: 1.38671875
y: -0.087890625
z: -0.0390625
range: 1.48161697388
velocity: 0.0
doppler_bin: 8
bearing: -3.62657165527
intensity: 26.0745506287
---
header: 
  seq: 770339
  stamp: 
    secs: 1561682485
    nsecs: 135319580
  frame_id: "ti_mmwave"
point_id: 8
x: 1.498046875
y: -0.142578125
z: -0.1640625
range: 1.61234796047
velocity: 0.0
doppler_bin: 8
bearing: -5.43680667877
intensity: 23.9794006348
---
header: 
  seq: 770340
  stamp: 
    secs: 1561682485
    nsecs: 135346773
  frame_id: "ti_mmwave"
point_id: 9
x: 1.478515625
y: -0.2421875
z: -0.416015625
range: 1.65592491627
velocity: 0.0
doppler_bin: 8
bearing: -9.30268955231
intensity: 26.394865036
---
header: 
  seq: 770341
  stamp: 
    secs: 1561682485
    nsecs: 135378277
  frame_id: "ti_mmwave"
point_id: 10
x: 2.541015625
y: -0.263671875
z: 1.201171875
range: 3.00681090355
velocity: 0.0
doppler_bin: 8
bearing: -5.92417097092
intensity: 29.5085144043
---
header: 
  seq: 770342
  stamp: 
    secs: 1561682485
    nsecs: 135390274
  frame_id: "ti_mmwave"
point_id: 11
x: 2.6015625
y: -0.267578125
z: 1.166015625
range: 3.05038785934
velocity: 0.0
doppler_bin: 8
bearing: -5.87238502502
intensity: 32.7898216248
---
header: 
  seq: 770343
  stamp: 
    secs: 1561682485
    nsecs: 135398911
  frame_id: "ti_mmwave"
point_id: 12
x: 2.662109375
y: -0.181640625
z: 1.1484375
range: 3.09396481514
velocity: 0.0
doppler_bin: 8
bearing: -3.90334677696
intensity: 32.0139694214
---
header: 
  seq: 770344
  stamp: 
    secs: 1561682485
    nsecs: 135404759
  frame_id: "ti_mmwave"
point_id: 13
x: 4.404296875
y: -0.287109375
z: 1.2265625
range: 4.88062095642
velocity: 0.0
doppler_bin: 8
bearing: -3.72974681854
intensity: 30.6370849609
---
header: 
  seq: 770345
  stamp: 
    secs: 1561682485
    nsecs: 135459567
  frame_id: "ti_mmwave"
point_id: 14
x: 4.4375
y: -0.2890625
z: 1.263671875
range: 4.9241976738
velocity: 0.0
doppler_bin: 8
bearing: -3.72702980042
intensity: 30.2775726318
---
header: 
  seq: 770346
  stamp: 
    secs: 1561682485
    nsecs: 135504607
  frame_id: "ti_mmwave"
point_id: 15
x: 1.4296875
y: -0.08984375
z: -0.0234375
range: 1.52519392967
velocity: 0.614668667316
doppler_bin: 9
bearing: -3.59582614899
intensity: 24.031206131
---
header: 
  seq: 770347
  stamp: 
    secs: 1561682485
    nsecs: 135516279
  frame_id: "ti_mmwave"
point_id: 16
x: 1.537109375
y: -0.349609375
z: -0.248046875
range: 1.69950187206
velocity: 0.614668667316
doppler_bin: 9
bearing: -12.813706398
intensity: 27.1600341797
---
header: 
  seq: 770348
  stamp: 
    secs: 1561682485
    nsecs: 135526536
  frame_id: "ti_mmwave"
point_id: 17
x: 1.580078125
y: -0.408203125
z: -0.126953125
range: 1.74307882786
velocity: 0.614668667316
doppler_bin: 9
bearing: -14.4852876663
intensity: 25.4530715942
---
header: 
  seq: 770349
  stamp: 
    secs: 1561682485
    nsecs: 135539945
  frame_id: "ti_mmwave"
point_id: 19
x: 0.041015625
y: -0.033203125
z: 0.0625
range: 0.0871539413929
velocity: 0.0
doppler_bin: 8
bearing: -38.9909973145
intensity: 30.1367969513
---
header: 
  seq: 770350
  stamp: 
    secs: 1561682485
    nsecs: 135553592
  frame_id: "ti_mmwave"
point_id: 20
x: 0.052734375
y: -0.04296875
z: 0.1015625
range: 0.130730912089
velocity: 0.0
doppler_bin: 8
bearing: -39.1736602783
intensity: 28.9982051849
---
header: 
  seq: 770351
  stamp: 
    secs: 1561682485
    nsecs: 135565507
  frame_id: "ti_mmwave"
point_id: 22
x: 1.12109375
y: -0.515625
z: 0.29296875
range: 1.35088610649
velocity: 0.0
doppler_bin: 8
bearing: -24.6991329193
intensity: 18.9762706757
---
header: 
  seq: 770352
  stamp: 
    secs: 1561682485
    nsecs: 135575086
  frame_id: "ti_mmwave"
point_id: 23
x: 0.185546875
y: 0.51953125
z: 1.408203125
range: 1.61234796047
velocity: 0.0
doppler_bin: 8
bearing: 70.3461761475
intensity: 23.2837963104
---
header: 
  seq: 770353
  stamp: 
    secs: 1561682485
    nsecs: 135581183
  frame_id: "ti_mmwave"
point_id: 24
x: 0.58203125
y: 0.630859375
z: 1.294921875
range: 1.65592491627
velocity: 0.0
doppler_bin: 8
bearing: 47.3053474426
intensity: 25.1054496765
---
header: 
  seq: 770354
  stamp: 
    secs: 1561682485
    nsecs: 194142496
  frame_id: "ti_mmwave"
point_id: 0
x: 0.01171875
y: -0.0390625
z: -0.0078125
range: 0.0435769706964
velocity: 0.0
doppler_bin: 8
bearing: -73.3007583618
intensity: 30.7518177032
---
header: 
  seq: 770355
  stamp: 
    secs: 1561682485
    nsecs: 194209926
  frame_id: "ti_mmwave"
point_id: 1
x: 0.017578125
y: -0.080078125
z: -0.0078125
range: 0.0871539413929
velocity: 0.0
doppler_bin: 8
bearing: -77.6192398071
intensity: 31.9728050232
---
header: 
  seq: 770356
  stamp: 
    secs: 1561682485
    nsecs: 194220325
  frame_id: "ti_mmwave"
point_id: 2
x: 0.029296875
y: -0.119140625
z: -0.005859375
range: 0.130730912089
velocity: 0.0
doppler_bin: 8
bearing: -76.1849746704
intensity: 30.2366390228
---
header: 
  seq: 770357
  stamp: 
    secs: 1561682485
    nsecs: 194229075
  frame_id: "ti_mmwave"
point_id: 3
x: 0.056640625
y: -0.154296875
z: 0.005859375
range: 0.174307882786
velocity: 0.0
doppler_bin: 8
bearing: -69.8423843384
intensity: 25.490032196
---
header: 
  seq: 770358
  stamp: 
    secs: 1561682485
    nsecs: 194235815
  frame_id: "ti_mmwave"
point_id: 4
x: 0.37890625
y: -0.080078125
z: -1.20703125
range: 1.35088610649
velocity: 0.0
doppler_bin: 8
bearing: -11.933303833
intensity: 21.875207901
---
header: 
  seq: 770359
  stamp: 
    secs: 1561682485
    nsecs: 194242258
  frame_id: "ti_mmwave"
point_id: 5
x: 0.462890625
y: -0.041015625
z: 1.22265625
range: 1.39446306229
velocity: 0.0
doppler_bin: 8
bearing: -5.06361675262
intensity: 23.7474842072
---
header: 
  seq: 770360
  stamp: 
    secs: 1561682485
    nsecs: 194249827
  frame_id: "ti_mmwave"
point_id: 6
x: 1.34765625
y: -0.04296875
z: -0.064453125
range: 1.43804001808
velocity: 0.0
doppler_bin: 8
bearing: -1.82620322704
intensity: 26.211763382
---
header: 
  seq: 770361
  stamp: 
    secs: 1561682485
    nsecs: 194259904
  frame_id: "ti_mmwave"
point_id: 7
x: 1.37890625
y: -0.04296875
z: -0.169921875
range: 1.48161697388
velocity: 0.0
doppler_bin: 8
bearing: -1.78484320641
intensity: 29.0579586029
---
header: 
  seq: 770362
  stamp: 
    secs: 1561682485
    nsecs: 194270258
  frame_id: "ti_mmwave"
point_id: 8
x: 1.419921875
y: -0.044921875
z: -0.171875
range: 1.52519392967
velocity: 0.0
doppler_bin: 8
bearing: -1.81205427647
intensity: 29.4299964905
---
header: 
  seq: 770363
  stamp: 
    secs: 1561682485
    nsecs: 194281243
  frame_id: "ti_mmwave"
point_id: 9
x: 1.46484375
y: -0.138671875
z: -0.064453125
range: 1.56877088547
velocity: 0.0
doppler_bin: 8
bearing: -5.40788412094
intensity: 26.7486114502
---
header: 
  seq: 770364
  stamp: 
    secs: 1561682485
    nsecs: 194288208
  frame_id: "ti_mmwave"
point_id: 10
x: 1.49609375
y: -0.189453125
z: -0.12109375
range: 1.61234796047
velocity: 0.0
doppler_bin: 8
bearing: -7.21705770493
intensity: 27.2098579407
---
header: 
  seq: 770365
  stamp: 
    secs: 1561682485
    nsecs: 194295900
  frame_id: "ti_mmwave"
point_id: 11
x: 1.5234375
y: -0.2421875
z: -0.19140625
range: 1.65592491627
velocity: 0.0
doppler_bin: 8
bearing: -9.03296947479
intensity: 27.9795970917
---
header: 
  seq: 770366
  stamp: 
    secs: 1561682485
    nsecs: 194302928
  frame_id: "ti_mmwave"
point_id: 12
x: 1.568359375
y: -0.25
z: -0.14453125
range: 1.69950187206
velocity: 0.0
doppler_bin: 8
bearing: -9.05687904358
intensity: 27.1432971954
---
header: 
  seq: 770367
  stamp: 
    secs: 1561682485
    nsecs: 194308978
  frame_id: "ti_mmwave"
point_id: 13
x: 2.53515625
y: -0.263671875
z: 1.2109375
range: 3.00681090355
velocity: 0.0
doppler_bin: 8
bearing: -5.9377655983
intensity: 29.484128952
---
header: 
  seq: 770368
  stamp: 
    secs: 1561682485
    nsecs: 194429504
  frame_id: "ti_mmwave"
point_id: 14
x: 2.6015625
y: -0.267578125
z: 1.1640625
range: 3.05038785934
velocity: 0.0
doppler_bin: 8
bearing: -5.87238502502
intensity: 32.8035087585
---
header: 
  seq: 770369
  stamp: 
    secs: 1561682485
    nsecs: 194450204
  frame_id: "ti_mmwave"
point_id: 15
x: 2.6640625
y: -0.181640625
z: 1.140625
range: 3.09396481514
velocity: 0.0
doppler_bin: 8
bearing: -3.90049386024
intensity: 32.0221595764
---
header: 
  seq: 770370
  stamp: 
    secs: 1561682485
    nsecs: 194457827
  frame_id: "ti_mmwave"
point_id: 16
x: 4.41015625
y: -0.287109375
z: 1.205078125
range: 4.88062095642
velocity: 0.0
doppler_bin: 8
bearing: -3.72480559349
intensity: 31.1260509491
---
header: 
  seq: 770371
  stamp: 
    secs: 1561682485
    nsecs: 194464230
  frame_id: "ti_mmwave"
point_id: 17
x: 4.453125
y: -0.2890625
z: 1.208984375
range: 4.9241976738
velocity: 0.0
doppler_bin: 8
bearing: -3.71398925781
intensity: 30.8493366241
---
header: 
  seq: 770372
  stamp: 
    secs: 1561682485
    nsecs: 194468648
  frame_id: "ti_mmwave"
point_id: 18
x: 1.5
y: -0.189453125
z: 0.072265625
range: 1.61234796047
velocity: 0.614668667316
doppler_bin: 9
bearing: -7.19846010208
intensity: 27.1432971954
---
header: 
  seq: 770373
  stamp: 
    secs: 1561682485
    nsecs: 194488921
  frame_id: "ti_mmwave"
point_id: 19
x: 1.607421875
y: -0.306640625
z: 0.00390625
range: 1.74307882786
velocity: 0.614668667316
doppler_bin: 9
bearing: -10.8002920151
intensity: 26.637008667
---
header: 
  seq: 770374
  stamp: 
    secs: 1561682485
    nsecs: 194502894
  frame_id: "ti_mmwave"
point_id: 21
x: 0.041015625
y: -0.033203125
z: 0.0625
range: 0.0871539413929
velocity: 0.0
doppler_bin: 8
bearing: -38.9909973145
intensity: 30.1325874329
---
header: 
  seq: 770375
  stamp: 
    secs: 1561682485
    nsecs: 194545807
  frame_id: "ti_mmwave"
point_id: 22
x: 0.052734375
y: -0.04296875
z: 0.1015625
range: 0.130730912089
velocity: 0.0
doppler_bin: 8
bearing: -39.1736602783
intensity: 28.9982051849
---
header: 
  seq: 770376
  stamp: 
    secs: 1561682485
    nsecs: 194555964
  frame_id: "ti_mmwave"
point_id: 24
x: 1.115234375
y: -0.515625
z: 0.3125
range: 1.35088610649
velocity: 0.0
doppler_bin: 8
bearing: -24.8133087158
intensity: 19.0308990479
---
header: 
  seq: 770377
  stamp: 
    secs: 1561682485
    nsecs: 195230196
  frame_id: "ti_mmwave"
point_id: 0
x: 0.01171875
y: -0.0390625
z: -0.0078125
range: 0.0435769706964
velocity: 0.0
doppler_bin: 8
bearing: -73.3007583618
intensity: 30.7518177032
---
header: 
  seq: 770378
  stamp: 
    secs: 1561682485
    nsecs: 195260662
  frame_id: "ti_mmwave"
point_id: 1
x: 0.017578125
y: -0.080078125
z: -0.0078125
range: 0.0871539413929
velocity: 0.0
doppler_bin: 8
bearing: -77.6192398071
intensity: 31.9728050232
---
header: 
  seq: 770379
  stamp: 
    secs: 1561682485
    nsecs: 195272394
  frame_id: "ti_mmwave"
point_id: 2
x: 0.041015625
y: -0.115234375
z: -0.0078125
range: 0.130730912089
velocity: 0.0
doppler_bin: 8
bearing: -70.4077224731
intensity: 30.2325248718
---
header: 
  seq: 770380
  stamp: 
    secs: 1561682485
    nsecs: 195285250
  frame_id: "ti_mmwave"
point_id: 3
x: 0.056640625
y: -0.154296875
z: 0.005859375
range: 0.174307882786
velocity: 0.0
doppler_bin: 8
bearing: -69.8423843384
intensity: 25.4777469635
---
header: 
  seq: 770381
  stamp: 
    secs: 1561682485
    nsecs: 195327670
  frame_id: "ti_mmwave"
point_id: 4
x: 0.328125
y: -0.080078125
z: -1.22265625
range: 1.35088610649
velocity: 0.0
doppler_bin: 8
bearing: -13.7148113251
intensity: 21.9033164978
---
header: 
  seq: 770382
  stamp: 
    secs: 1561682485
    nsecs: 195335324
  frame_id: "ti_mmwave"
point_id: 5
x: 0.57421875
y: -0.041015625
z: 1.17578125
range: 1.39446306229
velocity: 0.0
doppler_bin: 8
bearing: -4.08561658859
intensity: 23.7106781006
---
header: 
  seq: 770383
  stamp: 
    secs: 1561682485
    nsecs: 195341686
  frame_id: "ti_mmwave"
point_id: 6
x: 1.318359375
y: -0.083984375
z: 0.27734375
range: 1.43804001808
velocity: 0.0
doppler_bin: 8
bearing: -3.6450278759
intensity: 25.6466598511
---
header: 
  seq: 770384
  stamp: 
    secs: 1561682485
    nsecs: 195347942
  frame_id: "ti_mmwave"
point_id: 7
x: 1.38671875
y: -0.087890625
z: -0.0546875
range: 1.48161697388
velocity: 0.0
doppler_bin: 8
bearing: -3.62657165527
intensity: 28.0071716309
---
header: 
  seq: 770385
  stamp: 
    secs: 1561682485
    nsecs: 195353873
  frame_id: "ti_mmwave"
point_id: 8
x: 1.423828125
y: -0.08984375
z: -0.115234375
range: 1.52519392967
velocity: 0.0
doppler_bin: 8
bearing: -3.61058449745
intensity: 27.8103694916
---
header: 
  seq: 770386
  stamp: 
    secs: 1561682485
    nsecs: 195386613
  frame_id: "ti_mmwave"
point_id: 9
x: 1.45703125
y: -0.138671875
z: -0.166015625
range: 1.56877088547
velocity: 0.0
doppler_bin: 8
bearing: -5.43670701981
intensity: 26.812412262
---
header: 
  seq: 770387
  stamp: 
    secs: 1561682485
    nsecs: 195418762
  frame_id: "ti_mmwave"
point_id: 10
x: 1.48828125
y: -0.189453125
z: -0.201171875
range: 1.61234796047
velocity: 0.0
doppler_bin: 8
