header: 
  seq: 3026037
  stamp: 
    secs: 1561686032
    nsecs: 152442104
  frame_id: "ti_mmwave"
point_id: 0
x: 0.01171875
y: -0.0390625
z: -0.0078125
range: 0.0435769706964
velocity: 0.0
doppler_bin: 8
bearing: -73.3007583618
intensity: 30.7445068359
---
header: 
  seq: 3026038
  stamp: 
    secs: 1561686032
    nsecs: 152517238
  frame_id: "ti_mmwave"
point_id: 1
x: 0.017578125
y: -0.080078125
z: -0.0078125
range: 0.0871539413929
velocity: 0.0
doppler_bin: 8
bearing: -77.6192398071
intensity: 31.9865703583
---
header: 
  seq: 3026039
  stamp: 
    secs: 1561686032
    nsecs: 152530345
  frame_id: "ti_mmwave"
point_id: 2
x: 0.029296875
y: -0.119140625
z: -0.00390625
range: 0.130730912089
velocity: 0.0
doppler_bin: 8
bearing: -76.1849746704
intensity: 30.2160263062
---
header: 
  seq: 3026040
  stamp: 
    secs: 1561686032
    nsecs: 152538993
  frame_id: "ti_mmwave"
point_id: 3
x: 0.056640625
y: -0.154296875
z: 0.0078125
range: 0.174307882786
velocity: 0.0
doppler_bin: 8
bearing: -69.8423843384
intensity: 25.5144996643
---
header: 
  seq: 3026041
  stamp: 
    secs: 1561686032
    nsecs: 152547320
  frame_id: "ti_mmwave"
point_id: 4
x: 0.35546875
y: -0.080078125
z: -1.21484375
range: 1.35088610649
velocity: 0.0
doppler_bin: 8
bearing: -12.6953649521
intensity: 22.0139713287
---
header: 
  seq: 3026042
  stamp: 
    secs: 1561686032
    nsecs: 152555070
  frame_id: "ti_mmwave"
point_id: 5
x: 0.271484375
y: -0.041015625
z: 1.279296875
range: 1.39446306229
velocity: 0.0
doppler_bin: 8
bearing: -8.59122562408
intensity: 23.3041381836
---
header: 
  seq: 3026043
  stamp: 
    secs: 1561686032
    nsecs: 152563535
  frame_id: "ti_mmwave"
point_id: 6
x: 0.38671875
y: -0.0
z: 1.29296875
range: 1.43804001808
velocity: 0.0
doppler_bin: 8
bearing: -0.0
intensity: 21.9589958191
---
header: 
  seq: 3026044
  stamp: 
    secs: 1561686032
    nsecs: 152573298
  frame_id: "ti_mmwave"
point_id: 7
x: 2.55078125
y: -0.263671875
z: 1.177734375
range: 3.00681090355
velocity: 0.0
doppler_bin: 8
bearing: -5.90165042877
intensity: 29.4200801849
---
header: 
  seq: 3026045
  stamp: 
    secs: 1561686032
    nsecs: 152580920
  frame_id: "ti_mmwave"
point_id: 8
x: 2.6015625
y: -0.267578125
z: 1.16796875
range: 3.05038785934
velocity: 0.0
doppler_bin: 8
bearing: -5.87238502502
intensity: 32.7554168701
---
header: 
  seq: 3026046
  stamp: 
    secs: 1561686032
    nsecs: 152592070
  frame_id: "ti_mmwave"
point_id: 9
x: 2.65625
y: -0.181640625
z: 1.162109375
range: 3.09396481514
velocity: 0.0
doppler_bin: 8
bearing: -3.91193032265
intensity: 32.0139694214
---
header: 
  seq: 3026047
  stamp: 
    secs: 1561686032
    nsecs: 152600378
  frame_id: "ti_mmwave"
point_id: 10
x: 4.400390625
y: -0.287109375
z: 1.2421875
range: 4.88062095642
velocity: 0.0
doppler_bin: 8
bearing: -3.73304843903
intensity: 30.5690479279
---
header: 
  seq: 3026048
  stamp: 
    secs: 1561686032
    nsecs: 152609913
  frame_id: "ti_mmwave"
point_id: 11
x: 4.470703125
y: -0.2890625
z: 1.134765625
range: 4.9241976738
velocity: 0.0
doppler_bin: 8
bearing: -3.69942688942
intensity: 30.1367969513
---
header: 
  seq: 3026049
  stamp: 
    secs: 1561686032
    nsecs: 152618516
  frame_id: "ti_mmwave"
point_id: 12
x: 4.7421875
y: -0.44921875
z: -0.466796875
range: 5.09850549698
velocity: 0.0
doppler_bin: 8
bearing: -5.41137647629
intensity: 32.8757781982
---
header: 
  seq: 3026050
  stamp: 
    secs: 1561686032
    nsecs: 152627612
  frame_id: "ti_mmwave"
point_id: 13
x: 4.791015625
y: -0.453125
z: -0.3828125
range: 5.14208269119
velocity: 0.0
doppler_bin: 8
bearing: -5.40285253525
intensity: 33.0124702454
---
header: 
  seq: 3026051
  stamp: 
    secs: 1561686032
    nsecs: 152640059
  frame_id: "ti_mmwave"
point_id: 14
x: 4.861328125
y: -0.306640625
z: 0.609375
range: 5.22923660278
velocity: 0.0
doppler_bin: 8
bearing: -3.60929489136
intensity: 30.4493160248
---
header: 
  seq: 3026052
  stamp: 
    secs: 1561686032
    nsecs: 152800072
  frame_id: "ti_mmwave"
point_id: 15
x: 4.884765625
y: -0.30859375
z: 0.732421875
range: 5.27281332016
velocity: 0.0
doppler_bin: 8
bearing: -3.6148416996
intensity: 31.383026123
---
header: 
  seq: 3026053
  stamp: 
    secs: 1561686032
    nsecs: 152823795
  frame_id: "ti_mmwave"
point_id: 17
x: 0.041015625
y: -0.033203125
z: 0.0625
range: 0.0871539413929
velocity: 0.0
doppler_bin: 8
bearing: -38.9909973145
intensity: 30.1535968781
---
header: 
  seq: 3026054
  stamp: 
    secs: 1561686032
    nsecs: 152833350
  frame_id: "ti_mmwave"
point_id: 18
x: 0.044921875
y: -0.046875
z: 0.103515625
range: 0.130730912089
velocity: 0.0
doppler_bin: 8
bearing: -46.218875885
intensity: 29.0579586029
---
header: 
  seq: 3026055
  stamp: 
    secs: 1561686032
    nsecs: 152844112
  frame_id: "ti_mmwave"
point_id: 20
x: 1.21484375
y: 0.357421875
z: 0.060546875
range: 1.35088610649
velocity: 0.0
doppler_bin: 8
bearing: 16.3945274353
intensity: 19.2427921295
---
header: 
  seq: 3026056
  stamp: 
    secs: 1561686032
    nsecs: 152853416
  frame_id: "ti_mmwave"
point_id: 21
x: 3.0390625
y: -2.021484375
z: -2.833984375
range: 4.9241976738
velocity: 0.0
doppler_bin: 8
bearing: -33.6305427551
intensity: 27.1600341797
---
header: 
  seq: 3026057
  stamp: 
    secs: 1561686032
    nsecs: 154125298
  frame_id: "ti_mmwave"
point_id: 0
x: 0.01171875
y: -0.0390625
z: -0.0078125
range: 0.0435769706964
velocity: 0.0
doppler_bin: 8
bearing: -73.3007583618
intensity: 30.7371826172
---
header: 
  seq: 3026058
  stamp: 
    secs: 1561686032
    nsecs: 154190980
  frame_id: "ti_mmwave"
point_id: 1
x: 0.017578125
y: -0.080078125
z: -0.0078125
range: 0.0871539413929
velocity: 0.0
doppler_bin: 8
bearing: -77.6192398071
intensity: 31.9838218689
---
header: 
  seq: 3026059
  stamp: 
    secs: 1561686032
    nsecs: 154215453
  frame_id: "ti_mmwave"
point_id: 2
x: 0.029296875
y: -0.119140625
z: -0.00390625
range: 0.130730912089
velocity: 0.0
doppler_bin: 8
bearing: -76.1849746704
intensity: 30.2160263062
---
header: 
  seq: 3026060
  stamp: 
    secs: 1561686032
    nsecs: 154229683
  frame_id: "ti_mmwave"
point_id: 3
x: 0.056640625
y: -0.154296875
z: 0.005859375
range: 0.174307882786
velocity: 0.0
doppler_bin: 8
bearing: -69.8423843384
intensity: 25.5144996643
---
header: 
  seq: 3026061
  stamp: 
    secs: 1561686032
    nsecs: 154242538
  frame_id: "ti_mmwave"
point_id: 4
x: 0.33203125
y: -0.080078125
z: -1.220703125
range: 1.35088610649
velocity: 0.0
doppler_bin: 8
bearing: -13.5594520569
intensity: 22.0139713287
---
header: 
  seq: 3026062
  stamp: 
    secs: 1561686032
    nsecs: 154256776
  frame_id: "ti_mmwave"
point_id: 5
x: 0.328125
y: -0.041015625
z: 1.267578125
range: 1.39446306229
velocity: 0.0
doppler_bin: 8
bearing: -7.12501621246
intensity: 23.2837963104
---
header: 
  seq: 3026063
  stamp: 
    secs: 1561686032
    nsecs: 154270304
  frame_id: "ti_mmwave"
point_id: 6
x: 0.443359375
y: -0.0
z: 1.275390625
range: 1.43804001808
velocity: 0.0
doppler_bin: 8
bearing: -0.0
intensity: 21.9865703583
---
header: 
  seq: 3026064
  stamp: 
    secs: 1561686032
    nsecs: 154288453
  frame_id: "ti_mmwave"
point_id: 7
x: 2.546875
y: -0.263671875
z: 1.185546875
range: 3.00681090355
velocity: 0.0
doppler_bin: 8
bearing: -5.91063833237
intensity: 29.4645233154
---
header: 
  seq: 3026065
  stamp: 
    secs: 1561686032
    nsecs: 154412109
  frame_id: "ti_mmwave"
point_id: 8
x: 2.603515625
y: -0.267578125
z: 1.162109375
range: 3.05038785934
velocity: 0.0
doppler_bin: 8
bearing: -5.8680100441
intensity: 32.7646179199
---
header: 
  seq: 3026066
  stamp: 
    secs: 1561686032
    nsecs: 154433344
  frame_id: "ti_mmwave"
point_id: 9
x: 2.662109375
y: -0.181640625
z: 1.146484375
range: 3.09396481514
velocity: 0.0
doppler_bin: 8
bearing: -3.90334677696
intensity: 31.9672870636
---
header: 
  seq: 3026067
  stamp: 
    secs: 1561686032
    nsecs: 154446945
  frame_id: "ti_mmwave"
point_id: 10
x: 4.408203125
y: -0.287109375
z: 1.21875
range: 4.88062095642
velocity: 0.0
doppler_bin: 8
bearing: -3.72645139694
intensity: 30.8350257874
---
header: 
  seq: 3026068
  stamp: 
    secs: 1561686032
    nsecs: 154459813
  frame_id: "ti_mmwave"
point_id: 11
x: 4.48046875
y: -0.2890625
z: 1.09765625
range: 4.9241976738
velocity: 0.0
doppler_bin: 8
bearing: -3.69138598442
intensity: 30.6145248413
---
header: 
  seq: 3026069
  stamp: 
    secs: 1561686032
    nsecs: 154473713
  frame_id: "ti_mmwave"
point_id: 12
x: 4.7421875
y: -0.44921875
z: -0.46875
range: 5.09850549698
velocity: 0.0
doppler_bin: 8
bearing: -5.41137647629
intensity: 32.8375320435
---
header: 
  seq: 3026070
  stamp: 
    secs: 1561686032
    nsecs: 154487475
  frame_id: "ti_mmwave"
point_id: 13
x: 4.79296875
y: -0.453125
z: -0.35546875
range: 5.14208269119
velocity: 0.0
doppler_bin: 8
bearing: -5.40066432953
intensity: 32.9380455017
---
header: 
  seq: 3026071
  stamp: 
    secs: 1561686032
    nsecs: 154499170
  frame_id: "ti_mmwave"
point_id: 14
x: 4.8359375
y: -0.4609375
z: 0.705078125
range: 5.22923660278
velocity: 0.0
doppler_bin: 8
bearing: -5.44470024109
intensity: 30.2816448212
---
header: 
  seq: 3026072
  stamp: 
    secs: 1561686032
    nsecs: 154513363
  frame_id: "ti_mmwave"
point_id: 15
x: 4.880859375
y: -0.30859375
z: 0.7578125
range: 5.27281332016
velocity: 0.0
doppler_bin: 8
bearing: -3.61772704124
intensity: 31.1892566681
---
header: 
  seq: 3026073
  stamp: 
    secs: 1561686032
    nsecs: 154550433
  frame_id: "ti_mmwave"
point_id: 17
x: 0.041015625
y: -0.033203125
z: 0.0625
range: 0.0871539413929
velocity: 0.0
doppler_bin: 8
bearing: -38.9909973145
intensity: 30.157787323
---
header: 
  seq: 3026074
  stamp: 
    secs: 1561686032
    nsecs: 154622080
  frame_id: "ti_mmwave"
point_id: 18
x: 0.044921875
y: -0.046875
z: 0.103515625
range: 0.130730912089
velocity: 0.0
doppler_bin: 8
bearing: -46.218875885
intensity: 29.0579586029
---
header: 
  seq: 3026075
  stamp: 
    secs: 1561686032
    nsecs: 154644345
  frame_id: "ti_mmwave"
point_id: 20
x: 1.21484375
y: 0.357421875
z: 0.05859375
range: 1.35088610649
velocity: 0.0
doppler_bin: 8
bearing: 16.3945274353
intensity: 19.3951931
---
header: 
  seq: 3026076
  stamp: 
    secs: 1561686032
    nsecs: 212494439
  frame_id: "ti_mmwave"
point_id: 0
x: 0.01171875
y: -0.0390625
z: -0.0078125
range: 0.0435769706964
velocity: 0.0
doppler_bin: 8
bearing: -73.3007583618
intensity: 30.7445068359
---
header: 
  seq: 3026077
  stamp: 
    secs: 1561686032
    nsecs: 212566241
  frame_id: "ti_mmwave"
point_id: 1
x: 0.017578125
y: -0.080078125
z: -0.0078125
range: 0.0871539413929
velocity: 0.0
doppler_bin: 8
bearing: -77.6192398071
intensity: 31.9865703583
---
header: 
  seq: 3026078
  stamp: 
    secs: 1561686032
    nsecs: 212579064
  frame_id: "ti_mmwave"
point_id: 2
x: 0.029296875
y: -0.119140625
z: -0.00390625
range: 0.130730912089
velocity: 0.0
doppler_bin: 8
bearing: -76.1849746704
intensity: 30.2160263062
---
header: 
  seq: 3026079
  stamp: 
    secs: 1561686032
    nsecs: 212587797
  frame_id: "ti_mmwave"
point_id: 3
x: 0.056640625
y: -0.154296875
z: 0.005859375
range: 0.174307882786
velocity: 0.0
doppler_bin: 8
bearing: -69.8423843384
intensity: 25.5144996643
---
header: 
  seq: 3026080
  stamp: 
    secs: 1561686032
    nsecs: 212595968
  frame_id: "ti_mmwave"
point_id: 4
x: 0.341796875
y: -0.080078125
z: -1.21875
range: 1.35088610649
velocity: 0.0
doppler_bin: 8
bearing: -13.1857614517
intensity: 22.0139713287
---
header: 
  seq: 3026081
  stamp: 
    secs: 1561686032
    nsecs: 212605339
  frame_id: "ti_mmwave"
point_id: 5
x: 0.302734375
y: -0.041015625
z: 1.2734375
range: 1.39446306229
velocity: 0.0
doppler_bin: 8
bearing: -7.71567344666
intensity: 23.2837963104
---
header: 
  seq: 3026082
  stamp: 
    secs: 1561686032
    nsecs: 212613260
  frame_id: "ti_mmwave"
point_id: 6
x: 0.48828125
y: -0.04296875
z: 1.2578125
range: 1.43804001808
velocity: 0.0
doppler_bin: 8
bearing: -5.02907323837
intensity: 21.9312458038
---
header: 
  seq: 3026083
  stamp: 
    secs: 1561686032
    nsecs: 212621409
  frame_id: "ti_mmwave"
point_id: 7
x: 1.86328125
y: 0.05859375
z: -0.259765625
range: 2.00454068184
velocity: 0.0
doppler_bin: 8
bearing: 1.80116057396
intensity: 27.8461723328
---
header: 
  seq: 3026084
  stamp: 
    secs: 1561686032
    nsecs: 212629762
  frame_id: "ti_mmwave"
point_id: 8
x: 2.55078125
y: -0.263671875
z: 1.1796875
range: 3.00681090355
velocity: 0.0
doppler_bin: 8
bearing: -5.90165042877
intensity: 29.4051647186
---
header: 
  seq: 3026085
  stamp: 
    secs: 1561686032
    nsecs: 212638802
  frame_id: "ti_mmwave"
point_id: 9
x: 2.599609375
y: -0.267578125
z: 1.169921875
range: 3.05038785934
velocity: 0.0
doppler_bin: 8
bearing: -5.87676620483
intensity: 32.7646179199
---
header: 
  seq: 3026086
  stamp: 
    secs: 1561686032
    nsecs: 212647010
  frame_id: "ti_mmwave"
point_id: 10
x: 2.654296875
y: -0.181640625
z: 1.1640625
range: 3.09396481514
velocity: 0.0
doppler_bin: 8
bearing: -3.91479969025
intensity: 32.0384864807
---
header: 
  seq: 3026087
  stamp: 
    secs: 1561686032
    nsecs: 212655766
  frame_id: "ti_mmwave"
point_id: 11
x: 4.412109375
y: -0.287109375
z: 1.201171875
range: 4.88062095642
velocity: 0.0
doppler_bin: 8
bearing: -3.72316122055
intensity: 31.1226978302
---
header: 
  seq: 3026088
  stamp: 
    secs: 1561686032
    nsecs: 212663902
  frame_id: "ti_mmwave"
point_id: 12
x: 4.48046875
y: -0.2890625
z: 1.099609375
range: 4.9241976738
velocity: 0.0
doppler_bin: 8
bearing: -3.69138598442
intensity: 30.9096298218
---
header: 
  seq: 3026089
  stamp: 
    secs: 1561686032
    nsecs: 212672657
  frame_id: "ti_mmwave"
point_id: 13
x: 4.7421875
y: -0.44921875
z: -0.470703125
range: 5.09850549698
velocity: 0.0
doppler_bin: 8
bearing: -5.41137647629
intensity: 32.4846382141
---
header: 
  seq: 3026090
  stamp: 
    secs: 1561686032
    nsecs: 212680865
  frame_id: "ti_mmwave"
point_id: 14
x: 4.794921875
y: -0.453125
z: -0.33203125
range: 5.14208269119
velocity: 0.0
doppler_bin: 8
bearing: -5.39847755432
intensity: 32.4772796631
---
header: 
  seq: 3026091
  stamp: 
    secs: 1561686032
    nsecs: 212689366
  frame_id: "ti_mmwave"
point_id: 15
x: 4.87109375
y: -0.306640625
z: 0.517578125
range: 5.22923660278
velocity: 0.0
doppler_bin: 8
bearing: -3.60207819939
intensity: 30.358297348
---
header: 
  seq: 3026092
  stamp: 
    secs: 1561686032
    nsecs: 212712510
  frame_id: "ti_mmwave"
point_id: 16
x: 4.89453125
y: -0.30859375
z: 0.66796875
range: 5.27281332016
velocity: 0.0
doppler_bin: 8
bearing: -3.60764837265
intensity: 30.9131507874
---
header: 
  seq: 3026093
  stamp: 
    secs: 1561686032
    nsecs: 212723736
  frame_id: "ti_mmwave"
point_id: 17
x: 1.849609375
y: -0.0
z: -0.341796875
range: 2.00454068184
velocity: -0.614668667316
doppler_bin: 7
bearing: -0.0
intensity: 27.7887439728
---
header: 
  seq: 3026094
  stamp: 
    secs: 1561686032
    nsecs: 212886356
  frame_id: "ti_mmwave"
point_id: 19
x: 0.041015625
y: -0.033203125
z: 0.0625
range: 0.0871539413929
velocity: 0.0
doppler_bin: 8
bearing: -38.9909973145
intensity: 30.157787323
---
header: 
  seq: 3026095
  stamp: 
    secs: 1561686032
    nsecs: 212908468
  frame_id: "ti_mmwave"
point_id: 20
x: 0.044921875
y: -0.046875
z: 0.103515625
range: 0.130730912089
velocity: 0.0
doppler_bin: 8
bearing: -46.218875885
intensity: 29.0633506775
---
header: 
  seq: 3026096
  stamp: 
    secs: 1561686032
    nsecs: 212919339
  frame_id: "ti_mmwave"
point_id: 22
x: 1.21484375
y: 0.357421875
z: 0.080078125
range: 1.35088610649
velocity: 0.0
doppler_bin: 8
bearing: 16.3945274353
intensity: 19.2427921295
---
header: 
  seq: 3026097
  stamp: 
    secs: 1561686032
    nsecs: 272359770
  frame_id: "ti_mmwave"
point_id: 0
x: 0.01171875
y: -0.0390625
z: -0.0078125
range: 0.0435769706964
velocity: 0.0
doppler_bin: 8
bearing: -73.3007583618
intensity: 30.7408466339
---
header: 
  seq: 3026098
  stamp: 
    secs: 1561686032
    nsecs: 272434028
  frame_id: "ti_mmwave"
point_id: 1
x: 0.017578125
y: -0.080078125
z: -0.0078125
range: 0.0871539413929
velocity: 0.0
doppler_bin: 8
bearing: -77.6192398071
intensity: 31.9865703583
---
header: 
  seq: 3026099
  stamp: 
    secs: 1561686032
    nsecs: 272445053
  frame_id: "ti_mmwave"
point_id: 2
x: 0.029296875
y: -0.119140625
z: -0.00390625
range: 0.130730912089
velocity: 0.0
doppler_bin: 8
bearing: -76.1849746704
intensity: 30.2160263062
---
header: 
  seq: 3026100
  stamp: 
    secs: 1561686032
    nsecs: 272453341
  frame_id: "ti_mmwave"
point_id: 3
x: 0.056640625
y: -0.154296875
z: 0.005859375
range: 0.174307882786
velocity: 0.0
doppler_bin: 8
bearing: -69.8423843384
intensity: 25.5144996643
---
header: 
  seq: 3026101
  stamp: 
    secs: 1561686032
    nsecs: 272463243
  frame_id: "ti_mmwave"
point_id: 4
x: 0.33203125
y: -0.080078125
z: -1.220703125
range: 1.35088610649
velocity: 0.0
doppler_bin: 8
bearing: -13.5594520569
intensity: 22.0139713287
---
header: 
  seq: 3026102
  stamp: 
    secs: 1561686032
    nsecs: 272471511
  frame_id: "ti_mmwave"
point_id: 5
x: 0.314453125
y: -0.041015625
z: 1.26953125
range: 1.39446306229
velocity: 0.0
doppler_bin: 8
bearing: -7.43140792847
intensity: 23.2837963104
---
header: 
  seq: 3026103
  stamp: 
    secs: 1561686032
    nsecs: 272479333
  frame_id: "ti_mmwave"
point_id: 6
x: 0.44140625
y: -0.0
z: 1.275390625
range: 1.43804001808
velocity: 0.0
doppler_bin: 8
bearing: -0.0
intensity: 21.9589958191
---
header: 
  seq: 3026104
  stamp: 
    secs: 1561686032
    nsecs: 272487219
  frame_id: "ti_mmwave"
point_id: 7
x: 1.541015625
y: -0.146484375
z: -0.150390625
range: 1.65592491627
velocity: 0.0
doppler_bin: 8
bearing: -5.43005132675
intensity: 25.7054290771
---
header: 
  seq: 3026105
  stamp: 
    secs: 1561686032
    nsecs: 272497079
  frame_id: "ti_mmwave"
point_id: 8
x: 1.59375
y: -0.05078125
z: -0.06640625
range: 1.69950187206
velocity: 0.0
doppler_bin: 8
bearing: -1.82498347759
intensity: 26.7669353485
---
header: 
  seq: 3026106
  stamp: 
    secs: 1561686032
    nsecs: 272504825
  frame_id: "ti_mmwave"
point_id: 9
x: 2.54296875
y: -0.263671875
z: 1.193359375
range: 3.00681090355
velocity: 0.0
doppler_bin: 8
bearing: -5.91965341568
intensity: 29.2272548676
---
header: 
  seq: 3026107
  stamp: 
    secs: 1561686032
    nsecs: 272513015
  frame_id: "ti_mmwave"
point_id: 10
x: 2.6015625
y: -0.267578125
z: 1.166015625
range: 3.05038785934
velocity: 0.0
doppler_bin: 8
bearing: -5.87238502502
intensity: 32.7461967468
---
header: 
  seq: 3026108
  stamp: 
    secs: 1561686032
    nsecs: 272520933
  frame_id: "ti_mmwave"
point_id: 11
x: 2.65234375
y: -0.181640625
z: 1.169921875
range: 3.09396481514
velocity: 0.0
doppler_bin: 8
bearing: -3.9176735878
intensity: 32.0384864807
---
header: 
  seq: 3026109
  stamp: 
    secs: 1561686032
    nsecs: 272531230
  frame_id: "ti_mmwave"
point_id: 12
x: 4.412109375
y: -0.287109375
z: 1.203125
range: 4.88062095642
velocity: 0.0
doppler_bin: 8
bearing: -3.72316122055
intensity: 31.0653076172
---
header: 
  seq: 3026110
  stamp: 
    secs: 1561686032
    nsecs: 272539699
  frame_id: "ti_mmwave"
point_id: 13
x: 4.4765625
y: -0.2890625
z: 1.115234375
range: 4.9241976738
velocity: 0.0
doppler_bin: 8
bearing: -3.69459795952
intensity: 30.7261753082
---
header: 
  seq: 3026111
  stamp: 
    secs: 1561686032
    nsecs: 272547588
  frame_id: "ti_mmwave"
point_id: 14
x: 4.740234375
y: -0.44921875
z: -0.490234375
range: 5.09850549698
velocity: 0.0
doppler_bin: 8
bearing: -5.41359329224
intensity: 31.9145107269
---
header: 
  seq: 3026112
  stamp: 
    secs: 1561686032
    nsecs: 272556015
  frame_id: "ti_mmwave"
point_id: 15
x: 4.775390625
y: -0.603515625
z: -0.35546875
range: 5.14208269119
velocity: 0.0
doppler_bin: 8
bearing: -7.202876091
intensity: 31.6643009186
---
header: 
  seq: 3026113
  stamp: 
    secs: 1561686032
    nsecs: 272577446
  frame_id: "ti_mmwave"
point_id: 16
x: 4.84765625
y: -0.4609375
z: 0.625
range: 5.22923660278
velocity: 0.0
doppler_bin: 8
bearing: -5.43161678314
intensity: 30.4688510895
---
header: 
  seq: 3026114
  stamp: 
    secs: 1561686032
    nsecs: 272588310
  frame_id: "ti_mmwave"
point_id: 17
x: 4.89453125
y: -0.30859375
z: 0.66796875
range: 5.27281332016
velocity: 0.0
doppler_bin: 8
bearing: -3.60764837265
intensity: 30.8955192566
---
header: 
  seq: 3026115
  stamp: 
    secs: 1561686032
    nsecs: 272750683
  frame_id: "ti_mmwave"
point_id: 18
x: 1.791015625
y: 0.11328125
z: 0.12890625
range: 1.91738677025
velocity: -0.614668667316
doppler_bin: 7
bearing: 3.61912178993
intensity: 26.7486114502
---
header: 
  seq: 3026116
  stamp: 
    secs: 1561686032
    nsecs: 272773711
  frame_id: "ti_mmwave"
point_id: 19
x: 1.833984375
y: 0.056640625
z: -0.154296875
range: 1.96096372604
velocity: -0.614668667316
doppler_bin: 7
bearing: 1.76895594597
intensity: 29.2324409485
---
header: 
  seq: 3026117
  stamp: 
    secs: 1561686032
    nsecs: 272782340
  frame_id: "ti_mmwave"
point_id: 20
x: 1.85546875
y: 0.05859375
z: -0.310546875
range: 2.00454068184
velocity: -0.614668667316
doppler_bin: 7
bearing: 1.80873930454
intensity: 29.3701610565
---
header: 
  seq: 3026118
  stamp: 
    secs: 1561686032
    nsecs: 272791079
  frame_id: "ti_mmwave"
point_id: 21
x: 1.892578125
y: 0.060546875
z: -0.330078125
range: 2.04811763763
velocity: -0.614668667316
doppler_bin: 7
bearing: 1.83236682415
intensity: 27.3239383698
---
header: 
  seq: 3026119
  stamp: 
    secs: 1561686032
    nsecs: 272802861
  frame_id: "ti_mmwave"
point_id: 23
x: 0.041015625
y: -0.033203125
z: 0.0625
range: 0.0871539413929
velocity: 0.0
doppler_bin: 8
bearing: -38.9909973145
intensity: 30.157787323
---
header: 
  seq: 3026120
  stamp: 
    secs: 1561686032
    nsecs: 272814170
  frame_id: "ti_mmwave"
point_id: 24
x: 0.044921875
y: -0.046875
z: 0.103515625
range: 0.130730912089
velocity: 0.0
doppler_bin: 8
bearing: -46.218875885
intensity: 29.0579586029
---
header: 
  seq: 3026121
  stamp: 
    secs: 1561686032
    nsecs: 272824098
  frame_id: "ti_mmwave"
point_id: 26
x: 1.212890625
y: 0.357421875
z: 0.08984375
range: 1.35088610649
velocity: 0.0
doppler_bin: 8
bearing: 16.419506073
intensity: 19.2427921295
---
header: 
  seq: 3026122
  stamp: 
    secs: 1561686032
    nsecs: 272835511
  frame_id: "ti_mmwave"
point_id: 28
x: 2.8359375
y: -2.021484375
z: -3.0390625
range: 4.9241976738
velocity: 0.0
doppler_bin: 8
bearing: -35.4816474915
intensity: 27.7524623871
---
header: 
  seq: 3026123
  stamp: 
    secs: 1561686032
    nsecs: 274014700
  frame_id: "ti_mmwave"
point_id: 0
x: 0.01171875
y: -0.0390625
z: -0.0078125
range: 0.0435769706964
velocity: 0.0
doppler_bin: 8
bearing: -73.3007583618
intensity: 30.7445068359
---
header: 
  seq: 3026124
  stamp: 
    secs: 1561686032
    nsecs: 274076683
  frame_id: "ti_mmwave"
point_id: 1
x: 0.017578125
y: -0.080078125
z: -0.0078125
range: 0.0871539413929
velocity: 0.0
doppler_bin: 8
bearing: -77.6192398071
intensity: 31.9893188477
---
header: 
  seq: 3026125
  stamp: 
    secs: 1561686032
    nsecs: 274096233
  frame_id: "ti_mmwave"
point_id: 2
x: 0.029296875
y: -0.119140625
z: -0.00390625
range: 0.130730912089
velocity: 0.0
doppler_bin: 8
bearing: -76.1849746704
intensity: 30.2160263062
---
header: 
  seq: 3026126
  stamp: 
    secs: 1561686032
    nsecs: 274111261
  frame_id: "ti_mmwave"
point_id: 3
x: 0.056640625
y: -0.154296875
z: 0.005859375
range: 0.174307882786
velocity: 0.0
doppler_bin: 8
bearing: -69.8423843384
intensity: 25.5266819
---
header: 
  seq: 3026127
  stamp: 
    secs: 1561686032
    nsecs: 274181433
  frame_id: "ti_mmwave"
point_id: 4
x: 0.357421875
y: -0.080078125
z: -1.21484375
range: 1.35088610649
velocity: 0.0
doppler_bin: 8
bearing: -12.6282215118
intensity: 22.0412006378
---
header: 
  seq: 3026128
  stamp: 
    secs: 1561686032
    nsecs: 274195307
  frame_id: "ti_mmwave"
point_id: 5
x: 0.296875
y: -0.041015625
z: 1.2734375
range: 1.39446306229
velocity: 0.0
doppler_bin: 8
bearing: -7.86606836319
intensity: 23.2837963104
---
header: 
  seq: 3026129
  stamp: 
    secs: 1561686032
    nsecs: 274207134
  frame_id: "ti_mmwave"
point_id: 6
x: 0.478515625
y: -0.04296875
z: 1.26171875
range: 1.43804001808
velocity: 0.0
doppler_bin: 8
bearing: -5.13116502762
intensity: 21.9312458038
---
header: 
  seq: 3026130
  stamp: 
    secs: 1561686032
    nsecs: 274217872
  frame_id: "ti_mmwave"
point_id: 7
x: 2.55078125
y: -0.263671875
z: 1.1796875
range: 3.00681090355
velocity: 0.0
doppler_bin: 8
bearing: -5.90165042877
intensity: 29.4448261261
---
header: 
  seq: 3026131
  stamp: 
    secs: 1561686032
    nsecs: 274232695
  frame_id: "ti_mmwave"
point_id: 8
x: 2.607421875
y: -0.267578125
z: 1.154296875
range: 3.05038785934
velocity: 0.0
doppler_bin: 8
bearing: -5.85928010941
intensity: 32.8080596924
---
header: 
  seq: 3026132
  stamp: 
    secs: 1561686032
    nsecs: 274243640
  frame_id: "ti_mmwave"
point_id: 9
x: 2.6640625
y: -0.181640625
z: 1.142578125
range: 3.09396481514
velocity: 0.0
doppler_bin: 8
bearing: -3.90049386024
intensity: 32.0763435364
---
header: 
  seq: 3026133
  stamp: 
    secs: 1561686032
    nsecs: 274258988
  frame_id: "ti_mmwave"
point_id: 10
x: 4.4140625
y: -0.287109375
z: 1.197265625
range: 4.88062095642
velocity: 0.0
doppler_bin: 8
bearing: -3.72151875496
intensity: 31.0551013947
---
header: 
  seq: 3026134
  stamp: 
    secs: 1561686032
    nsecs: 274313334
  frame_id: "ti_mmwave"
point_id: 11
x: 4.470703125
y: -0.2890625
z: 1.140625
range: 4.9241976738
velocity: 0.0
doppler_bin: 8
bearing: -3.69942688942
intensity: 30.5537834167
---
header: 
  seq: 3026135
  stamp: 
    secs: 1561686032
    nsecs: 274328670
  frame_id: "ti_mmwave"
point_id: 12
x: 4.740234375
y: -0.44921875
z: -0.490234375
range: 5.09850549698
velocity: 0.0
doppler_bin: 8
bearing: -5.41359329224
intensity: 31.3640346527
---
header: 
  seq: 3026136
  stamp: 
    secs: 1561686032
    nsecs: 274342629
  frame_id: "ti_mmwave"
point_id: 13
x: 4.775390625
y: -0.603515625
z: -0.369140625
range: 5.14208269119
velocity: 0.0
doppler_bin: 8
bearing: -7.202876091
intensity: 31.1660766602
---
header: 
  seq: 3026137
  stamp: 
    secs: 1561686032
    nsecs: 274354015
  frame_id: "ti_mmwave"
point_id: 14
x: 4.8515625
y: -0.4609375
z: 0.5859375
range: 5.22923660278
velocity: 0.0
doppler_bin: 8
bearing: -5.42726945877
intensity: 30.1325874329
---
header: 
  seq: 3026138
  stamp: 
    secs: 1561686032
    nsecs: 274367290
  frame_id: "ti_mmwave"
point_id: 15
x: 4.896484375
y: -0.30859375
z: 0.658203125
range: 5.27281332016
velocity: 0.0
doppler_bin: 8
bearing: -3.6062130928
intensity: 30.4883003235
---
header: 
  seq: 3026139
  stamp: 
    secs: 1561686032
    nsecs: 274378643
  frame_id: "ti_mmwave"
point_id: 16
x: 1.548828125
y: -0.0
z: -0.138671875
range: 1.65592491627
velocity: -0.614668667316
doppler_bin: 7
bearing: -0.0
intensity: 28.2282161713
---
header: 
  seq: 3026140
  stamp: 
    secs: 1561686032
    nsecs: 274390140
  frame_id: "ti_mmwave"
point_id: 17
x: 1.587890625
y: -0.0
z: -0.15234375
range: 1.69950187206
velocity: -0.614668667316
doppler_bin: 7
bearing: -0.0
intensity: 28.6687774658
---
header: 
  seq: 3026141
  stamp: 
    secs: 1561686032
    nsecs: 274401658
  frame_id: "ti_mmwave"
point_id: 18
x: 1.912109375
y: 0.1796875
z: -0.0859375
range: 2.04811763763
velocity: -0.614668667316
doppler_bin: 7
bearing: 5.36851549149
intensity: 25.7518787384
---
header: 
  seq: 3026142
  stamp: 
    secs: 1561686032
    nsecs: 274415725
  frame_id: "ti_mmwave"
point_id: 19
x: 1.953125
y: 0.18359375
z: -0.09765625
range: 2.09169459343
velocity: -0.614668667316
doppler_bin: 7
bearing: 5.37002372742
intensity: 25.6110134125
---
header: 
  seq: 3026143
  stamp: 
    secs: 1561686032
    nsecs: 274431166
  frame_id: "ti_mmwave"
point_id: 21
x: 0.041015625
y: -0.033203125
z: 0.0625
range: 0.0871539413929
velocity: 0.0
doppler_bin: 8
bearing: -38.9909973145
intensity: 30.1535968781
---
header: 
  seq: 3026144
  stamp: 
    secs: 1561686032
    nsecs: 274439428
  frame_id: "ti_mmwave"
point_id: 22
x: 0.044921875
y: -0.046875
z: 0.103515625
range: 0.130730912089
velocity: 0.0
doppler_bin: 8
bearing: -46.218875885
intensity: 29.0633506775
---
header: 
  seq: 3026145
  stamp: 
    secs: 1561686032
    nsecs: 274510170
  frame_id: "ti_mmwave"
point_id: 24
x: 1.21484375
y: 0.357421875
z: 0.083984375
range: 1.35088610649
velocity: 0.0
doppler_bin: 8
bearing: 16.3945274353
intensity: 19.2427921295
---
header: 
  seq: 3026146
  stamp: 
    secs: 1561686032
    nsecs: 274525308
  frame_id: "ti_mmwave"
point_id: 25
x: 2.818359375
y: -2.021484375
z: -3.0546875
range: 4.9241976738
velocity: 0.0
doppler_bin: 8
bearing: -35.6501998901
intensity: 27.7597427368
---
header: 
  seq: 3026147
  stamp: 
    secs: 1561686032
    nsecs: 332433831
  frame_id: "ti_mmwave"
point_id: 0
x: 0.01171875
y: -0.0390625
z: -0.0078125
range: 0.0435769706964
velocity: 0.0
doppler_bin: 8
bearing: -73.3007583618
intensity: 30.7335166931
---
header: 
  seq: 3026148
  stamp: 
    secs: 1561686032
    nsecs: 332509153
  frame_id: "ti_mmwave"
point_id: 1
x: 0.017578125
y: -0.080078125
z: -0.0078125
range: 0.0871539413929
velocity: 0.0
doppler_bin: 8
bearing: -77.6192398071
intensity: 31.9838218689
---
header: 
  seq: 3026149
  stamp: 
    secs: 1561686032
    nsecs: 332520195
  frame_id: "ti_mmwave"
point_id: 2
x: 0.029296875
y: -0.119140625
z: -0.00390625
range: 0.130730912089
velocity: 0.0
doppler_bin: 8
bearing: -76.1849746704
intensity: 30.2160263062
---
header: 
  seq: 3026150
  stamp: 
    secs: 1561686032
    nsecs: 332531570
  frame_id: "ti_mmwave"
point_id: 3
x: 0.056640625
y: -0.154296875
z: 0.0078125
range: 0.174307882786
velocity: 0.0
doppler_bin: 8
bearing: -69.8423843384
intensity: 25.5144996643
---
header: 
  seq: 3026151
  stamp: 
    secs: 1561686032
    nsecs: 332543910
  frame_id: "ti_mmwave"
point_id: 4
x: 0.345703125
y: -0.080078125
z: -1.216796875
range: 1.35088610649
velocity: 0.0
doppler_bin: 8
bearing: -13.0418901443
intensity: 22.0682582855
---
header: 
  seq: 3026152
  stamp: 
    secs: 1561686032
    nsecs: 332552736
  frame_id: "ti_mmwave"
point_id: 5
x: 0.26953125
y: -0.041015625
z: 1.28125
range: 1.39446306229
velocity: 0.0
doppler_bin: 8
bearing: -8.65254211426
intensity: 23.3243846893
---
header: 
  seq: 3026153
  stamp: 
    secs: 1561686032
    nsecs: 332561267
  frame_id: "ti_mmwave"
point_id: 6
x: 0.40234375
y: -0.0
z: 1.2890625
range: 1.43804001808
velocity: 0.0
doppler_bin: 8
bearing: -0.0
intensity: 21.9589958191
---
header: 
  seq: 3026154
  stamp: 
    secs: 1561686032
    nsecs: 332569538
  frame_id: "ti_mmwave"
point_id: 7
x: 2.560546875
y: -0.263671875
z: 1.15625
range: 3.00681090355
velocity: 0.0
doppler_bin: 8
bearing: -5.87930107117
intensity: 29.4645233154
---
header: 
  seq: 3026155
  stamp: 
    secs: 1561686032
    nsecs: 332577903
  frame_id: "ti_mmwave"
point_id: 8
x: 2.609375
y: -0.267578125
z: 1.150390625
range: 3.05038785934
velocity: 0.0
doppler_bin: 8
bearing: -5.85492515564
intensity: 32.8216896057
---
header: 
  seq: 3026156
  stamp: 
    secs: 1561686032
    nsecs: 332585700
  frame_id: "ti_mmwave"
point_id: 9
x: 2.662109375
y: -0.181640625
z: 1.1484375
range: 3.09396481514
velocity: 0.0
doppler_bin: 8
bearing: -3.90334677696
intensity: 32.0924682617
---
header: 
  seq: 3026157
  stamp: 
    secs: 1561686032
    nsecs: 332608325
  frame_id: "ti_mmwave"
point_id: 10
x: 4.408203125
y: -0.287109375
z: 1.212890625
range: 4.88062095642
velocity: 0.0
doppler_bin: 8
bearing: -3.72645139694
intensity: 30.9272060394
---
header: 
  seq: 3026158
  stamp: 
    secs: 1561686032
    nsecs: 332627778
  frame_id: "ti_mmwave"
point_id: 11
x: 4.451171875
y: -0.2890625
z: 1.208984375
range: 4.9241976738
velocity: 0.0
doppler_bin: 8
bearing: -3.71561431885
intensity: 30.4218158722
---
header: 
  seq: 3026159
  stamp: 
    secs: 1561686032
    nsecs: 332638622
  frame_id: "ti_mmwave"
point_id: 12
x: 4.7421875
y: -0.44921875
z: -0.462890625
range: 5.09850549698
velocity: 0.0
doppler_bin: 8
bearing: -5.41137647629
intensity: 30.1241531372
---
header: 
  seq: 3026160
  stamp: 
    secs: 1561686032
    nsecs: 332812784
  frame_id: "ti_mmwave"
point_id: 13
x: 4.859375
y: -0.4609375
z: 0.525390625
range: 5.22923660278
velocity: 0.0
doppler_bin: 8
bearing: -5.41859674454
intensity: 30.6669845581
---
header: 
  seq: 3026161
  stamp: 
    secs: 1561686032
    nsecs: 332831950
  frame_id: "ti_mmwave"
point_id: 14
x: 4.888671875
y: -0.30859375
z: 0.7109375
range: 5.27281332016
velocity: 0.0
doppler_bin: 8
bearing: -3.61196112633
intensity: 30.9447116852
---
header: 
  seq: 3026162
  stamp: 
    secs: 1561686032
    nsecs: 332840633
  frame_id: "ti_mmwave"
point_id: 15
x: 1.546875
y: -0.0
z: -0.146484375
range: 1.65592491627
velocity: -0.614668667316
doppler_bin: 7
bearing: -0.0
intensity: 26.4048137665
---
header: 
  seq: 3026163
  stamp: 
    secs: 1561686032
    nsecs: 332848683
  frame_id: "ti_mmwave"
point_id: 16
x: 1.58984375
y: -0.0
z: -0.130859375
range: 1.69950187206
velocity: -0.614668667316
doppler_bin: 7
bearing: -0.0
intensity: 25.3781909943
---
header: 
  seq: 3026164
  stamp: 
    secs: 1561686032
    nsecs: 332856794
  frame_id: "ti_mmwave"
point_id: 17
x: 1.732421875
y: 0.0546875
z: 0.296875
range: 1.87380969524
velocity: -0.614668667316
doppler_bin: 7
bearing: 1.80806016922
intensity: 27.9239177704
---
header: 
  seq: 3026165
  stamp: 
    secs: 1561686032
    nsecs: 332865804
  frame_id: "ti_mmwave"
point_id: 18
x: 1.765625
y: 0.056640625
z: 0.34765625
range: 1.91738677025
velocity: -0.614668667316
doppler_bin: 7
bearing: 1.83739817142
intensity: 28.4010601044
---
header: 
  seq: 3026166
  stamp: 
    secs: 1561686032
    nsecs: 332874626
  frame_id: "ti_mmwave"
point_id: 19
x: 1.8046875
y: 0.056640625
z: 0.357421875
range: 1.96096372604
velocity: -0.614668667316
doppler_bin: 7
bearing: 1.7976539135
intensity: 25.6110134125
---
header: 
  seq: 3026167
  stamp: 
    secs: 1561686032
    nsecs: 332885876
  frame_id: "ti_mmwave"
point_id: 21
x: 0.041015625
y: -0.033203125
z: 0.0625
range: 0.0871539413929
velocity: 0.0
doppler_bin: 8
bearing: -38.9909973145
intensity: 30.1619739532
---
header: 
  seq: 3026168
  stamp: 
    secs: 1561686032
    nsecs: 332895309
  frame_id: "ti_mmwave"
point_id: 22
x: 0.044921875
y: -0.046875
z: 0.103515625
range: 0.130730912089
velocity: 0.0
doppler_bin: 8
bearing: -46.218875885
intensity: 29.0687351227
---
header: 
  seq: 3026169
  stamp: 
    secs: 1561686032
    nsecs: 332906468
  frame_id: "ti_mmwave"
point_id: 24
x: 1.21484375
y: 0.357421875
z: 0.083984375
range: 1.35088610649
velocity: 0.0
doppler_bin: 8
bearing: 16.3945274353
intensity: 19.2941894531
---
header: 
  seq: 3026170
  stamp: 
    secs: 1561686032
    nsecs: 332914872
  frame_id: "ti_mmwave"
point_id: 25
x: 2.966796875
y: -2.021484375
z: -2.912109375
range: 4.9241976738
velocity: 0.0
doppler_bin: 8
bearing: -34.269317627
intensity: 27.5281639099
---
header: 
  seq: 3026171
  stamp: 
    secs: 1561686032
    nsecs: 334016534
  frame_id: "ti_mmwave"
point_id: 0
x: 0.01171875
y: -0.0390625
z: -0.0078125
range: 0.0435769706964
velocity: 0.0
doppler_bin: 8
bearing: -73.3007583618
intensity: 30.7481651306
---
header: 
  seq: 3026172
  stamp: 
    secs: 1561686032
    nsecs: 334081701
  frame_id: "ti_mmwave"
point_id: 1
x: 0.017578125
y: -0.080078125
z: -0.0078125
range: 0.0871539413929
velocity: 0.0
doppler_bin: 8
bearing: -77.6192398071
intensity: 31.9893188477
---
header: 
  seq: 3026173
  stamp: 
    secs: 1561686032
    nsecs: 334099046
  frame_id: "ti_mmwave"
point_id: 2
x: 0.029296875
y: -0.119140625
z: -0.00390625
range: 0.130730912089
velocity: 0.0
doppler_bin: 8
bearing: -76.1849746704
intensity: 30.2201576233
---
header: 
  seq: 3026174
  stamp: 
    secs: 1561686032
    nsecs: 334111249
  frame_id: "ti_mmwave"
point_id: 3
x: 0.056640625
y: -0.154296875
z: 0.005859375
range: 0.174307882786
velocity: 0.0
doppler_bin: 8
bearing: -69.8423843384
intensity: 25.5144996643
---
header: 
  seq: 3026175
  stamp: 
    secs: 1561686032
    nsecs: 334177600
  frame_id: "ti_mmwave"
point_id: 4
x: 0.33984375
y: -0.080078125
z: -1.21875
range: 1.35088610649
velocity: 0.0
doppler_bin: 8
bearing: -13.2588720322
intensity: 21.9589958191
---
header: 
  seq: 3026176
  stamp: 
    secs: 1561686032
    nsecs: 334194479
  frame_id: "ti_mmwave"
point_id: 5
x: 0.28515625
y: -0.041015625
z: 1.27734375
range: 1.39446306229
velocity: 0.0
doppler_bin: 8
bearing: -8.18503570557
intensity: 23.2633590698
---
header: 
  seq: 3026177
  stamp: 
    secs: 1561686032
    nsecs: 334206195
  frame_id: "ti_mmwave"
point_id: 6
x: 0.423828125
y: -0.0
z: 1.28125
range: 1.43804001808
velocity: 0.0
doppler_bin: 8
bearing: -0.0
intensity: 21.9033164978
---
header: 
  seq: 3026178
  stamp: 
    secs: 1561686032
    nsecs: 334218445
  frame_id: "ti_mmwave"
point_id: 7
x: 2.556640625
y: -0.263671875
z: 1.166015625
range: 3.00681090355
velocity: 0.0
doppler_bin: 8
bearing: -5.88822031021
intensity: 29.4497585297
---
header: 
  seq: 3026179
  stamp: 
    secs: 1561686032
    nsecs: 334230633
  frame_id: "ti_mmwave"
point_id: 8
x: 2.607421875
y: -0.267578125
z: 1.15234375
range: 3.05038785934
velocity: 0.0
doppler_bin: 8
bearing: -5.85928010941
intensity: 32.7623214722
---
header: 
  seq: 3026180
  stamp: 
    secs: 1561686032
    nsecs: 334242840
  frame_id: "ti_mmwave"
point_id: 9
x: 2.662109375
y: -0.181640625
z: 1.1484375
range: 3.09396481514
velocity: 0.0
doppler_bin: 8
bearing: -3.90334677696
intensity: 31.9838218689
---
header: 
  seq: 3026181
  stamp: 
    secs: 1561686032
    nsecs: 334256660
  frame_id: "ti_mmwave"
point_id: 10
x: 4.40234375
y: -0.287109375
z: 1.23828125
range: 4.88062095642
velocity: 0.0
doppler_bin: 8
bearing: -3.73139691353
intensity: 30.9551811218
---
header: 
  seq: 3026182
  stamp: 
    secs: 1561686032
    nsecs: 334289508
  frame_id: "ti_mmwave"
point_id: 11
x: 4.44140625
y: -0.2890625
z: 1.25
range: 4.9241976738
velocity: 0.0
doppler_bin: 8
bearing: -3.7237610817
intensity: 30.496055603
---
header: 
  seq: 3026183
  stamp: 
    secs: 1561686032
    nsecs: 334312859
  frame_id: "ti_mmwave"
point_id: 12
x: 4.861328125
y: -0.4609375
z: 0.50390625
range: 5.22923660278
velocity: 0.0
doppler_bin: 8
bearing: -5.41643238068
intensity: 31.1294002533
---
header: 
  seq: 3026184
  stamp: 
    secs: 1561686032
    nsecs: 334414867
  frame_id: "ti_mmwave"
point_id: 13
x: 4.892578125
y: -0.30859375
z: 0.685546875
range: 5.27281332016
velocity: 0.0
doppler_bin: 8
bearing: -3.60908436775
intensity: 31.3353881836
---
header: 
  seq: 3026185
  stamp: 
    secs: 1561686032
    nsecs: 334430403
  frame_id: "ti_mmwave"
point_id: 14
x: 1.498046875
y: -0.046875
z: -0.20703125
range: 1.61234796047
velocity: -0.614668667316
doppler_bin: 7
bearing: -1.79224264622
intensity: 25.7634143829
---
header: 
  seq: 3026186
  stamp: 
    secs: 1561686032
    nsecs: 334441725
  frame_id: "ti_mmwave"
point_id: 15
x: 1.54296875
y: -0.048828125
z: -0.1796875
range: 1.65592491627
velocity: -0.614668667316
doppler_bin: 7
bearing: -1.81255269051
intensity: 27.466342926
---
header: 
  seq: 3026187
  stamp: 
    secs: 1561686032
    nsecs: 334453397
  frame_id: "ti_mmwave"
point_id: 16
x: 1.58984375
y: -0.0
z: -0.134765625
range: 1.69950187206
velocity: -0.614668667316
doppler_bin: 7
bearing: -0.0
intensity: 25.6584777832
---
header: 
  seq: 3026188
  stamp: 
    secs: 1561686032
    nsecs: 334464588
  frame_id: "ti_mmwave"
point_id: 17
x: 1.791015625
y: 0.056640625
z: -0.16796875
range: 1.91738677025
velocity: -0.614668667316
doppler_bin: 7
bearing: 1.81136763096
intensity: 27.4193916321
---
header: 
  seq: 3026189
  stamp: 
    secs: 1561686032
    nsecs: 334473403
  frame_id: "ti_mmwave"
point_id: 18
x: 1.826171875
y: 0.056640625
z: -0.216796875
range: 1.96096372604
velocity: -0.614668667316
doppler_bin: 7
bearing: 1.77651870251
intensity: 26.7117290497
---
header: 
  seq: 3026190
  stamp: 
    secs: 1561686032
    nsecs: 334485247
  frame_id: "ti_mmwave"
point_id: 20
x: 0.041015625
y: -0.033203125
z: 0.0625
range: 0.0871539413929
velocity: 0.0
doppler_bin: 8
bearing: -38.9909973145
intensity: 30.157787323
---
header: 
  seq: 3026191
  stamp: 
    secs: 1561686032
    nsecs: 334496919
  frame_id: "ti_mmwave"
point_id: 21
x: 0.044921875
y: -0.046875
z: 0.103515625
range: 0.130730912089
velocity: 0.0
doppler_bin: 8
bearing: -46.218875885
intensity: 29.0633506775
---
header: 
  seq: 3026192
  stamp: 
    secs: 1561686032
    nsecs: 334512035
  frame_id: "ti_mmwave"
point_id: 23
x: 1.21484375
y: 0.357421875
z: 0.083984375
range: 1.35088610649
velocity: 0.0
doppler_bin: 8
bearing: 16.3945274353
intensity: 19.2941894531
---
header: 
  seq: 3026193
  stamp: 
    secs: 1561686032
    nsecs: 334571671
  frame_id: "ti_mmwave"
point_id: 24
x: 2.994140625
y: -2.021484375
z: -2.884765625
range: 4.9241976738
velocity: 0.0
doppler_bin: 8
bearing: -34.0251274109
intensity: 27.4973640442
---
header: 
  seq: 3026194
  stamp: 
    secs: 1561686032
    nsecs: 392348465
  frame_id: "ti_mmwave"
point_id: 0
x: 0.01171875
y: -0.0390625
z: -0.0078125
range: 0.0435769706964
velocity: 0.0
doppler_bin: 8
bearing: -73.3007583618
intensity: 30.7371826172
---
header: 
  seq: 3026195
  stamp: 
    secs: 1561686032
    nsecs: 392421161
  frame_id: "ti_mmwave"
point_id: 1
x: 0.017578125
y: -0.080078125
z: -0.0078125
range: 0.0871539413929
velocity: 0.0
doppler_bin: 8
bearing: -77.6192398071
intensity: 31.9893188477
---
header: 
  seq: 3026196
  stamp: 
    secs: 1561686032
    nsecs: 392433153
  frame_id: "ti_mmwave"
point_id: 2
x: 0.029296875
y: -0.119140625
z: -0.00390625
range: 0.130730912089
velocity: 0.0
doppler_bin: 8
bearing: -76.1849746704
intensity: 30.2160263062
---
header: 
  seq: 3026197
  stamp: 
    secs: 1561686032
    nsecs: 392441544
  frame_id: "ti_mmwave"
point_id: 3
x: 0.056640625
y: -0.154296875
z: 0.005859375
range: 0.174307882786
velocity: 0.0
doppler_bin: 8
bearing: -69.8423843384
intensity: 25.5144996643
---
header: 
  seq: 3026198
  stamp: 
    secs: 1561686032
    nsecs: 392449519
  frame_id: "ti_mmwave"
point_id: 4
x: 0.36328125
y: -0.080078125
z: -1.212890625
range: 1.35088610649
velocity: 0.0
doppler_bin: 8
bearing: -12.4309225082
intensity: 22.0951499939
---
header: 
  seq: 3026199
  stamp: 
    secs: 1561686032
    nsecs: 392459045
  frame_id: "ti_mmwave"
point_id: 5
x: 0.296875
y: -0.041015625
z: 1.275390625
range: 1.39446306229
velocity: 0.0
doppler_bin: 8
bearing: -7.86606836319
intensity: 23.344537735
---
header: 
  seq: 3026200
  stamp: 
    secs: 1561686032
    nsecs: 392467132
  frame_id: "ti_mmwave"
point_id: 6
x: 0.408203125
y: -0.0
z: 1.287109375
range: 1.43804001808
velocity: 0.0
doppler_bin: 8
bearing: -0.0
intensity: 22.0139713287
---
header: 
  seq: 3026201
  stamp: 
    secs: 1561686032
    nsecs: 392474825
  frame_id: "ti_mmwave"
point_id: 7
x: 1.470703125
y: -0.0
z: 0.0859375
range: 1.56877088547
velocity: 0.0
doppler_bin: 8
bearing: -0.0
intensity: 24.5178642273
---
header: 
  seq: 3026202
  stamp: 
    secs: 1561686032
    nsecs: 392483985
  frame_id: "ti_mmwave"
point_id: 8
x: 1.513671875
y: -0.0
z: -0.044921875
range: 1.61234796047
velocity: 0.0
doppler_bin: 8
bearing: -0.0
intensity: 28.2412586212
---
header: 
  seq: 3026203
  stamp: 
    secs: 1561686032
    nsecs: 392492360
  frame_id: "ti_mmwave"
point_id: 9
x: 2.548828125
y: -0.263671875
z: 1.18359375
range: 3.00681090355
velocity: 0.0
doppler_bin: 8
bearing: -5.90614128113
intensity: 29.3851966858
---
header: 
  seq: 3026204
  stamp: 
    secs: 1561686032
    nsecs: 392500295
  frame_id: "ti_mmwave"
point_id: 10
x: 2.60546875
y: -0.267578125
z: 1.15625
range: 3.05038785934
velocity: 0.0
doppler_bin: 8
bearing: -5.86364221573
intensity: 32.7508087158
---
header: 
  seq: 3026205
  stamp: 
    secs: 1561686032
    nsecs: 392507932
  frame_id: "ti_mmwave"
point_id: 11
x: 2.66015625
y: -0.181640625
z: 1.15234375
range: 3.09396481514
velocity: 0.0
doppler_bin: 8
bearing: -3.90620398521
intensity: 31.9700469971
---
header: 
  seq: 3026206
  stamp: 
    secs: 1561686032
    nsecs: 392515674
  frame_id: "ti_mmwave"
point_id: 12
x: 4.408203125
y: -0.287109375
z: 1.21875
range: 4.88062095642
velocity: 0.0
doppler_bin: 8
bearing: -3.72645139694
intensity: 30.588054657
---
header: 
  seq: 3026207
  stamp: 
    secs: 1561686032
    nsecs: 392525002
  frame_id: "ti_mmwave"
point_id: 13
x: 4.453125
y: -0.2890625
z: 1.203125
range: 4.9241976738
velocity: 0.0
doppler_bin: 8
bearing: -3.71398925781
intensity: 29.8317508698
---
header: 
  seq: 3026208
  stamp: 
    secs: 1561686032
    nsecs: 392532523
  frame_id: "ti_mmwave"
point_id: 14
x: 4.85546875
y: -0.4609375
z: 0.55078125
range: 5.22923660278
velocity: 0.0
doppler_bin: 8
bearing: -5.42292928696
intensity: 31.0311927795
---
header: 
  seq: 3026209
  stamp: 
    secs: 1561686032
    nsecs: 392541535
  frame_id: "ti_mmwave"
point_id: 15
x: 4.888671875
y: -0.30859375
z: 0.7109375
range: 5.27281332016
velocity: 0.0
doppler_bin: 8
bearing: -3.61196112633
intensity: 30.962146759
---
header: 
  seq: 3026210
  stamp: 
    secs: 1561686032
    nsecs: 392550091
  frame_id: "ti_mmwave"
point_id: 16
x: 1.552734375
y: -0.0
z: -0.07421875
range: 1.65592491627
velocity: -0.614668667316
doppler_bin: 7
bearing: -0.0
intensity: 29.350030899
---
header: 
  seq: 3026211
  stamp: 
    secs: 1561686032
    nsecs: 392558757
  frame_id: "ti_mmwave"
point_id: 17
x: 1.59375
y: 0.05078125
z: -0.029296875
range: 1.69950187206
velocity: -0.614668667316
doppler_bin: 7
bearing: 1.82498347759
intensity: 27.2672729492
---
header: 
  seq: 3026212
  stamp: 
    secs: 1561686032
    nsecs: 392579539
  frame_id: "ti_mmwave"
point_id: 18
x: 1.689453125
y: 0.052734375
z: 0.302734375
range: 1.83023273945
velocity: -0.614668667316
doppler_bin: 7
bearing: 1.78784263134
intensity: 28.3314704895
---
header: 
  seq: 3026213
  stamp: 
    secs: 1561686032
    nsecs: 392597601
  frame_id: "ti_mmwave"
point_id: 19
x: 1.744140625
y: 0.0546875
z: 0.2265625
range: 1.87380969524
velocity: -0.614668667316
doppler_bin: 7
bearing: 1.79591965675
intensity: 28.7794704437
---
header: 
  seq: 3026214
  stamp: 
    secs: 1561686032
    nsecs: 392618856
  frame_id: "ti_mmwave"
point_id: 20
x: 1.796875
y: 0.056640625
z: 0.06640625
range: 1.91738677025
velocity: -0.614668667316
doppler_bin: 7
bearing: 1.80546462536
intensity: 26.875289917
---
header: 
  seq: 3026215
  stamp: 
    secs: 1561686032
    nsecs: 392642939
  frame_id: "ti_mmwave"
point_id: 22
x: 0.041015625
y: -0.033203125
z: 0.0625
range: 0.0871539413929
velocity: 0.0
doppler_bin: 8
bearing: -38.9909973145
intensity: 30.157787323
---
header: 
  seq: 3026216
  stamp: 
    secs: 1561686032
    nsecs: 392830177
  frame_id: "ti_mmwave"
point_id: 23
x: 0.044921875
y: -0.046875
z: 0.103515625
range: 0.130730912089
velocity: 0.0
doppler_bin: 8
bearing: -46.218875885
intensity: 29.0579586029
---
header: 
  seq: 3026217
  stamp: 
    secs: 1561686032
    nsecs: 392865882
  frame_id: "ti_mmwave"
point_id: 25
x: 1.21484375
y: 0.357421875
z: 0.080078125
range: 1.35088610649
velocity: 0.0
doppler_bin: 8
bearing: 16.3945274353
intensity: 19.3449840546
---
header: 
  seq: 3026218
  stamp: 
    secs: 1561686032
    nsecs: 392879593
  frame_id: "ti_mmwave"
point_id: 26
x: 2.970703125
y: -1.861328125
z: -2.94921875
range: 4.88062095642
velocity: 0.0
doppler_bin: 8
bearing: -32.0696716309
intensity: 27.6492290497
---
header: 
  seq: 3026219
  stamp: 
    secs: 1561686032
    nsecs: 392891840
  frame_id: "ti_mmwave"
point_id: 27
x: 3.017578125
y: -2.021484375
z: -2.859375
range: 4.9241976738
velocity: 0.0
doppler_bin: 8
bearing: -33.8182487488
intensity: 27.1516742706
---
header: 
  seq: 3026220
  stamp: 
    secs: 1561686032
    nsecs: 394014235
  frame_id: "ti_mmwave"
point_id: 0
x: 0.01171875
y: -0.0390625
z: -0.0078125
range: 0.0435769706964
velocity: 0.0
doppler_bin: 8
bearing: -73.3007583618
intensity: 30.7371826172
---
header: 
  seq: 3026221
  stamp: 
    secs: 1561686032
    nsecs: 394063016
  frame_id: "ti_mmwave"
point_id: 1
x: 0.017578125
y: -0.080078125
z: -0.0078125
range: 0.0871539413929
velocity: 0.0
doppler_bin: 8
bearing: -77.6192398071
intensity: 31.9838218689
---
header: 
  seq: 3026222
  stamp: 
    secs: 1561686032
    nsecs: 394078170
  frame_id: "ti_mmwave"
point_id: 2
x: 0.029296875
y: -0.119140625
z: -0.00390625
range: 0.130730912089
velocity: 0.0
doppler_bin: 8
bearing: -76.1849746704
intensity: 30.2160263062
---
header: 
  seq: 3026223
  stamp: 
    secs: 1561686032
    nsecs: 394093402
  frame_id: "ti_mmwave"
point_id: 3
x: 0.056640625
y: -0.154296875
z: 0.005859375
range: 0.174307882786
velocity: 0.0
doppler_bin: 8
bearing: -69.8423843384
intensity: 25.5144996643
---
header: 
  seq: 3026224
  stamp: 
    secs: 1561686032
    nsecs: 394171835
  frame_id: "ti_mmwave"
point_id: 4
x: 0.3515625
y: -0.080078125
z: -1.21484375
range: 1.35088610649
velocity: 0.0
doppler_bin: 8
bearing: -12.83177948
intensity: 22.0682582855
---
header: 
  seq: 3026225
  stamp: 
    secs: 1561686032
    nsecs: 394197335
  frame_id: "ti_mmwave"
point_id: 5
x: 0.3203125
y: -0.041015625
z: 1.26953125
range: 1.39446306229
velocity: 0.0
doppler_bin: 8
bearing: -7.29694652557
intensity: 23.2837963104
---
header: 
  seq: 3026226
  stamp: 
    secs: 1561686032
    nsecs: 394209931
  frame_id: "ti_mmwave"
point_id: 6
x: 0.501953125
y: -0.04296875
z: 1.251953125
range: 1.43804001808
velocity: 0.0
doppler_bin: 8
bearing: -4.89276885986
intensity: 22.0412006378
---
header: 
  seq: 3026227
  stamp: 
    secs: 1561686032
    nsecs: 394221735
  frame_id: "ti_mmwave"
point_id: 7
x: 1.46875
y: -0.046875
z: -0.09375
range: 1.56877088547
velocity: 0.0
doppler_bin: 8
bearing: -1.82796823978
intensity: 28.1624126434
---
header: 
  seq: 3026228
  stamp: 
    secs: 1561686032
    nsecs: 394231183
  frame_id: "ti_mmwave"
point_id: 8
x: 1.51171875
y: -0.046875
z: -0.072265625
range: 1.61234796047
velocity: 0.0
doppler_bin: 8
bearing: -1.77604424953
intensity: 32.1245384216
---
header: 
  seq: 3026229
  stamp: 
    secs: 1561686032
    nsecs: 394252285
  frame_id: "ti_mmwave"
point_id: 9
x: 1.55078125
y: -0.048828125
z: -0.08203125
range: 1.65592491627
velocity: 0.0
doppler_bin: 8
bearing: -1.80342757702
intensity: 31.9893188477
---
header: 
  seq: 3026230
  stamp: 
    secs: 1561686032
    nsecs: 394274540
  frame_id: "ti_mmwave"
point_id: 10
x: 1.591796875
y: -0.0
z: -0.119140625
range: 1.69950187206
velocity: 0.0
doppler_bin: 8
bearing: -0.0
intensity: 28.0888595581
---
header: 
  seq: 3026231
  stamp: 
    secs: 1561686032
    nsecs: 394365481
  frame_id: "ti_mmwave"
point_id: 11
x: 2.546875
y: -0.263671875
z: 1.185546875
range: 3.00681090355
velocity: 0.0
doppler_bin: 8
bearing: -5.91063833237
intensity: 29.3449840546
---
header: 
  seq: 3026232
  stamp: 
    secs: 1561686032
    nsecs: 394388414
  frame_id: "ti_mmwave"
point_id: 12
x: 2.60546875
y: -0.267578125
z: 1.158203125
range: 3.05038785934
velocity: 0.0
doppler_bin: 8
bearing: -5.86364221573
intensity: 32.7230567932
---
header: 
  seq: 3026233
  stamp: 
    secs: 1561686032
    nsecs: 394429967
  frame_id: "ti_mmwave"
point_id: 13
x: 2.66015625
y: -0.181640625
z: 1.150390625
range: 3.09396481514
velocity: 0.0
doppler_bin: 8
bearing: -3.90620398521
intensity: 31.9617614746
---
header: 
  seq: 3026234
  stamp: 
    secs: 1561686032
    nsecs: 394442887
  frame_id: "ti_mmwave"
point_id: 14
x: 4.40625
y: -0.287109375
z: 1.224609375
range: 4.88062095642
velocity: 0.0
doppler_bin: 8
bearing: -3.72809815407
intensity: 31.2188796997
---
header: 
  seq: 3026235
  stamp: 
    secs: 1561686032
    nsecs: 394455493
  frame_id: "ti_mmwave"
point_id: 15
x: 4.455078125
y: -0.2890625
z: 1.201171875
range: 4.9241976738
velocity: 0.0
doppler_bin: 8
bearing: -3.71236538887
intensity: 30.7335166931
---
header: 
  seq: 3026236
  stamp: 
    secs: 1561686032
    nsecs: 394468148
  frame_id: "ti_mmwave"
point_id: 16
x: 4.865234375
y: -0.4609375
z: 0.4609375
range: 5.22923660278
velocity: 0.0
doppler_bin: 8
bearing: -5.41210889816
intensity: 30.6595306396
---
header: 
  seq: 3026237
  stamp: 
    secs: 1561686032
    nsecs: 394489979
  frame_id: "ti_mmwave"
point_id: 17
x: 4.8828125
y: -0.30859375
z: 0.755859375
range: 5.27281332016
velocity: 0.0
doppler_bin: 8
bearing: -3.61628341675
intensity: 30.5076637268
---
header: 
  seq: 3026238
  stamp: 
    secs: 1561686032
    nsecs: 394504081
  frame_id: "ti_mmwave"
point_id: 18
x: 1.69921875
y: 0.052734375
z: 0.25390625
range: 1.83023273945
velocity: -0.614668667316
doppler_bin: 7
bearing: 1.77757430077
intensity: 28.2477645874
---
header: 
  seq: 3026239
  stamp: 
    secs: 1561686032
    nsecs: 394517174
  frame_id: "ti_mmwave"
point_id: 19
x: 1.751953125
y: 0.0546875
z: 0.142578125
range: 1.87380969524
velocity: -0.614668667316
doppler_bin: 7
bearing: 1.78791642189
intensity: 28.4571800232
---
header: 
  seq: 3026240
  stamp: 
    secs: 1561686032
    nsecs: 394528523
  frame_id: "ti_mmwave"
point_id: 20
x: 1.796875
y: 0.056640625
z: -0.099609375
range: 1.91738677025
velocity: -0.614668667316
doppler_bin: 7
bearing: 1.80546462536
intensity: 27.0671787262
---
header: 
  seq: 3026241
  stamp: 
    secs: 1561686032
    nsecs: 394543606
  frame_id: "ti_mmwave"
point_id: 22
x: 0.041015625
y: -0.033203125
z: 0.0625
range: 0.0871539413929
velocity: 0.0
doppler_bin: 8
bearing: -38.9909973145
intensity: 30.1535968781
---
header: 
  seq: 3026242
  stamp: 
    secs: 1561686032
    nsecs: 394559128
  frame_id: "ti_mmwave"
point_id: 23
x: 0.044921875
y: -0.046875
z: 0.103515625
range: 0.130730912089
velocity: 0.0
doppler_bin: 8
bearing: -46.218875885
intensity: 29.0579586029
---
header: 
  seq: 3026243
  stamp: 
    secs: 1561686032
    nsecs: 394627076
  frame_id: "ti_mmwave"
point_id: 25
x: 1.212890625
y: 0.357421875
z: 0.087890625
range: 1.35088610649
velocity: 0.0
doppler_bin: 8
bearing: 16.419506073
intensity: 19.2941894531
---
header: 
  seq: 3026244
  stamp: 
    secs: 1561686032
    nsecs: 394644003
  frame_id: "ti_mmwave"
point_id: 26
x: 0.58203125
y: 0.697265625
z: 1.310546875
range: 1.69950187206
velocity: 0.0
doppler_bin: 8
bearing: 50.1471061707
intensity: 25.0920257568
---
header: 
  seq: 3026245
  stamp: 
    secs: 1561686032
    nsecs: 452266722
  frame_id: "ti_mmwave"
point_id: 0
x: 0.01171875
y: -0.0390625
z: -0.0078125
range: 0.0435769706964
velocity: 0.0
doppler_bin: 8
bearing: -73.3007583618
intensity: 30.7408466339
---
header: 
  seq: 3026246
  stamp: 
    secs: 1561686032
    nsecs: 452341420
  frame_id: "ti_mmwave"
point_id: 1
x: 0.017578125
y: -0.080078125
z: -0.0078125
range: 0.0871539413929
velocity: 0.0
doppler_bin: 8
bearing: -77.6192398071
intensity: 31.9865703583
---
header: 
  seq: 3026247
  stamp: 
    secs: 1561686032
    nsecs: 452357907
  frame_id: "ti_mmwave"
point_id: 2
x: 0.029296875
y: -0.119140625
z: -0.00390625
range: 0.130730912089
velocity: 0.0
doppler_bin: 8
bearing: -76.1849746704
intensity: 30.2201576233
---
header: 
  seq: 3026248
  stamp: 
    secs: 1561686032
    nsecs: 452371075
  frame_id: "ti_mmwave"
point_id: 3
x: 0.056640625
y: -0.154296875
z: 0.005859375
range: 0.174307882786
velocity: 0.0
doppler_bin: 8
bearing: -69.8423843384
intensity: 25.5266819
---
header: 
  seq: 3026249
  stamp: 
    secs: 1561686032
    nsecs: 452391287
  frame_id: "ti_mmwave"
point_id: 4
x: 0.359375
y: -0.080078125
z: -1.212890625
range: 1.35088610649
velocity: 0.0
doppler_bin: 8
bearing: -12.5617752075
intensity: 22.0412006378
---
header: 
  seq: 3026250
  stamp: 
    secs: 1561686032
    nsecs: 452467050
  frame_id: "ti_mmwave"
point_id: 5
x: 0.296875
y: -0.041015625
z: 1.2734375
range: 1.39446306229
velocity: 0.0
doppler_bin: 8
bearing: -7.86606836319
intensity: 23.3041381836
---
header: 
  seq: 3026251
  stamp: 
    secs: 1561686032
    nsecs: 452480871
  frame_id: "ti_mmwave"
point_id: 6
x: 0.44921875
y: -0.0
z: 1.2734375
range: 1.43804001808
velocity: 0.0
doppler_bin: 8
bearing: -0.0
intensity: 22.0412006378
---
header: 
  seq: 3026252
  stamp: 
    secs: 1561686032
    nsecs: 452491929
  frame_id: "ti_mmwave"
point_id: 7
x: 1.4609375
y: -0.0
z: -0.185546875
range: 1.56877088547
velocity: 0.0
doppler_bin: 8
bearing: -0.0
intensity: 23.1806335449
---
header: 
  seq: 3026253
  stamp: 
    secs: 1561686032
    nsecs: 452502528
  frame_id: "ti_mmwave"
point_id: 8
x: 1.51171875
y: -0.0
z: -0.072265625
range: 1.61234796047
velocity: 0.0
doppler_bin: 8
bearing: -0.0
intensity: 28.1756534576
---
header: 
  seq: 3026254
  stamp: 
    secs: 1561686032
    nsecs: 452513244
  frame_id: "ti_mmwave"
point_id: 9
x: 1.552734375
y: -0.0
z: -0.083984375
range: 1.65592491627
velocity: 0.0
doppler_bin: 8
bearing: -0.0
intensity: 28.5430603027
---
header: 
  seq: 3026255
  stamp: 
    secs: 1561686032
    nsecs: 452523950
  frame_id: "ti_mmwave"
point_id: 10
x: 2.552734375
y: -0.263671875
z: 1.177734375
range: 3.00681090355
velocity: 0.0
doppler_bin: 8
bearing: -5.89716720581
intensity: 29.4596061707
---
header: 
  seq: 3026256
  stamp: 
    secs: 1561686032
    nsecs: 452535461
  frame_id: "ti_mmwave"
point_id: 11
x: 2.603515625
y: -0.267578125
z: 1.16015625
range: 3.05038785934
velocity: 0.0
doppler_bin: 8
bearing: -5.8680100441
intensity: 32.7392692566
---
header: 
  seq: 3026257
  stamp: 
    secs: 1561686032
    nsecs: 452551070
  frame_id: "ti_mmwave"
point_id: 12
x: 2.66015625
y: -0.181640625
z: 1.15234375
range: 3.09396481514
velocity: 0.0
doppler_bin: 8
bearing: -3.90620398521
intensity: 31.9617614746
---
header: 
  seq: 3026258
  stamp: 
    secs: 1561686032
    nsecs: 452564337
  frame_id: "ti_mmwave"
point_id: 13
x: 4.408203125
y: -0.287109375
z: 1.216796875
range: 4.88062095642
velocity: 0.0
doppler_bin: 8
bearing: -3.72645139694
intensity: 30.4218158722
---
header: 
  seq: 3026259
  stamp: 
    secs: 1561686032
    nsecs: 452576825
  frame_id: "ti_mmwave"
point_id: 14
x: 4.4453125
y: -0.2890625
z: 1.23046875
range: 4.9241976738
velocity: 0.0
doppler_bin: 8
bearing: -3.72049832344
intensity: 29.8900470734
---
header: 
  seq: 3026260
  stamp: 
    secs: 1561686032
    nsecs: 452644612
  frame_id: "ti_mmwave"
point_id: 15
x: 4.880859375
y: -0.306640625
z: 0.419921875
range: 5.22923660278
velocity: 0.0
doppler_bin: 8
bearing: -3.59488987923
intensity: 30.5766601562
---
header: 
  seq: 3026261
  stamp: 
    secs: 1561686032
    nsecs: 452658388
  frame_id: "ti_mmwave"
point_id: 16
x: 4.884765625
y: -0.30859375
z: 0.736328125
range: 5.27281332016
velocity: 0.0
doppler_bin: 8
bearing: -3.6148416996
intensity: 30.4453983307
---
header: 
  seq: 3026262
  stamp: 
    secs: 1561686032
    nsecs: 452672057
  frame_id: "ti_mmwave"
point_id: 17
x: 1.529296875
y: 0.2421875
z: 0.126953125
range: 1.65592491627
velocity: -1.84400606155
doppler_bin: 5
bearing: 8.99892807007
intensity: 20.4139270782
---
header: 
  seq: 3026263
  stamp: 
    secs: 1561686032
    nsecs: 452686617
  frame_id: "ti_mmwave"
point_id: 19
x: 0.041015625
y: -0.033203125
z: 0.0625
range: 0.0871539413929
velocity: 0.0
doppler_bin: 8
bearing: -38.9909973145
intensity: 30.157787323
---
header: 
  seq: 3026264
  stamp: 
    secs: 1561686032
    nsecs: 452701032
  frame_id: "ti_mmwave"
point_id: 20
x: 0.044921875
y: -0.046875
z: 0.103515625
range: 0.130730912089
velocity: 0.0
doppler_bin: 8
bearing: -46.218875885
intensity: 29.0633506775
---
header: 
  seq: 3026265
  stamp: 
    secs: 1561686032
    nsecs: 452718367
  frame_id: "ti_mmwave"
point_id: 22
x: 1.21484375
y: 0.357421875
z: 0.064453125
range: 1.35088610649
velocity: 0.0
doppler_bin: 8
bearing: 16.3945274353
intensity: 19.2427921295
---
header: 
  seq: 3026266
  stamp: 
    secs: 1561686032
    nsecs: 452730941
  frame_id: "ti_mmwave"
point_id: 23
x: 0.5859375
y: 0.630859375
z: 1.294921875
range: 1.65592491627
velocity: 0.0
doppler_bin: 8
bearing: 47.1142921448
intensity: 25.9879055023
---
header: 
  seq: 3026267
  stamp: 
    secs: 1561686032
    nsecs: 452747401
  frame_id: "ti_mmwave"
point_id: 24
x: 3.076171875
y: -2.021484375
z: -2.796875
range: 4.9241976738
velocity: 0.0
doppler_bin: 8
bearing: -33.3106307983
intensity: 27.0243053436
---
header: 
  seq: 3026268
  stamp: 
    secs: 1561686032
    nsecs: 454071753
  frame_id: "ti_mmwave"
point_id: 0
