header: 
  seq: 1393773
  stamp: 
    secs: 1561868387
    nsecs: 756245161
  frame_id: "ti_mmwave"
point_id: 0
x: 0.01171875
y: -0.0390625
z: -0.0078125
range: 0.0435769706964
velocity: 0.0
doppler_bin: 8
bearing: -73.3007583618
intensity: 30.6557979584
---
header: 
  seq: 1393774
  stamp: 
    secs: 1561868387
    nsecs: 756335903
  frame_id: "ti_mmwave"
point_id: 1
x: 0.017578125
y: -0.080078125
z: -0.0078125
range: 0.0871539413929
velocity: 0.0
doppler_bin: 8
bearing: -77.6192398071
intensity: 31.9061183929
---
header: 
  seq: 1393775
  stamp: 
    secs: 1561868387
    nsecs: 756355488
  frame_id: "ti_mmwave"
point_id: 2
x: 0.029296875
y: -0.119140625
z: -0.005859375
range: 0.130730912089
velocity: 0.0
doppler_bin: 8
bearing: -76.1849746704
intensity: 30.1241531372
---
header: 
  seq: 1393776
  stamp: 
    secs: 1561868387
    nsecs: 756371355
  frame_id: "ti_mmwave"
point_id: 3
x: 0.056640625
y: -0.154296875
z: 0.005859375
range: 0.174307882786
velocity: 0.0
doppler_bin: 8
bearing: -69.8423843384
intensity: 25.4654273987
---
header: 
  seq: 1393777
  stamp: 
    secs: 1561868387
    nsecs: 756387808
  frame_id: "ti_mmwave"
point_id: 4
x: 0.1484375
y: -0.080078125
z: 1.2578125
range: 1.35088610649
velocity: 0.0
doppler_bin: 8
bearing: -28.3456954956
intensity: 23.0963020325
---
header: 
  seq: 1393778
  stamp: 
    secs: 1561868387
    nsecs: 756404750
  frame_id: "ti_mmwave"
point_id: 6
x: 0.40234375
y: -0.083984375
z: -1.28515625
range: 1.43804001808
velocity: 0.0
doppler_bin: 8
bearing: -11.7905015945
intensity: 23.0963020325
---
header: 
  seq: 1393779
  stamp: 
    secs: 1561868387
    nsecs: 756421337
  frame_id: "ti_mmwave"
point_id: 7
x: 1.62890625
y: -0.05078125
z: -0.142578125
range: 1.74307882786
velocity: 0.0
doppler_bin: 8
bearing: -1.78562104702
intensity: 30.2653331757
---
header: 
  seq: 1393780
  stamp: 
    secs: 1561868387
    nsecs: 756435928
  frame_id: "ti_mmwave"
point_id: 8
x: 1.671875
y: -0.0
z: -0.138671875
range: 1.78665578365
velocity: 0.0
doppler_bin: 8
bearing: -0.0
intensity: 30.6929798126
---
header: 
  seq: 1393781
  stamp: 
    secs: 1561868387
    nsecs: 756451026
  frame_id: "ti_mmwave"
point_id: 9
x: 1.716796875
y: -0.0
z: -0.064453125
range: 1.83023273945
velocity: 0.0
doppler_bin: 8
bearing: -0.0
intensity: 27.7232170105
---
header: 
  seq: 1393782
  stamp: 
    secs: 1561868387
    nsecs: 756474708
  frame_id: "ti_mmwave"
point_id: 10
x: 2.62890625
y: -0.17578125
z: 1.009765625
range: 3.00681090355
velocity: 0.0
doppler_bin: 8
bearing: -3.82537555695
intensity: 29.0363254547
---
header: 
  seq: 1393783
  stamp: 
    secs: 1561868387
    nsecs: 756497161
  frame_id: "ti_mmwave"
point_id: 11
x: 2.662109375
y: -0.1796875
z: 1.037109375
range: 3.05038785934
velocity: 0.0
doppler_bin: 8
bearing: -3.86150240898
intensity: 32.1192092896
---
header: 
  seq: 1393784
  stamp: 
    secs: 1561868387
    nsecs: 756516503
  frame_id: "ti_mmwave"
point_id: 12
x: 2.755859375
y: -0.08984375
z: 0.912109375
range: 3.09396481514
velocity: 0.0
doppler_bin: 8
bearing: -1.86723792553
intensity: 31.0482845306
---
header: 
  seq: 1393785
  stamp: 
    secs: 1561868387
    nsecs: 756539782
  frame_id: "ti_mmwave"
point_id: 13
x: 4.41796875
y: -0.142578125
z: 1.041015625
range: 4.83704376221
velocity: 0.0
doppler_bin: 8
bearing: -1.84842634201
intensity: 28.312297821
---
header: 
  seq: 1393786
  stamp: 
    secs: 1561868387
    nsecs: 756561306
  frame_id: "ti_mmwave"
point_id: 14
x: 4.421875
y: -0.142578125
z: 1.189453125
range: 4.88062095642
velocity: 0.0
doppler_bin: 8
bearing: -1.84679484367
intensity: 31.6524429321
---
header: 
  seq: 1393787
  stamp: 
    secs: 1561868387
    nsecs: 756582633
  frame_id: "ti_mmwave"
point_id: 15
x: 4.453125
y: -0.14453125
z: 1.234375
range: 4.9241976738
velocity: 0.0
doppler_bin: 8
bearing: -1.85894739628
intensity: 31.1025295258
---
header: 
  seq: 1393788
  stamp: 
    secs: 1561868387
    nsecs: 756677085
  frame_id: "ti_mmwave"
point_id: 16
x: 4.84765625
y: -0.154296875
z: 0.75390625
range: 5.22923660278
velocity: 0.0
doppler_bin: 8
bearing: -1.82306158543
intensity: 30.1870040894
---
header: 
  seq: 1393789
  stamp: 
    secs: 1561868387
    nsecs: 756694643
  frame_id: "ti_mmwave"
point_id: 17
x: 4.896484375
y: -0.30859375
z: 0.65234375
range: 5.27281332016
velocity: 0.0
doppler_bin: 8
bearing: -3.6062130928
intensity: 31.4019374847
---
header: 
  seq: 1393790
  stamp: 
    secs: 1561868387
    nsecs: 756709223
  frame_id: "ti_mmwave"
point_id: 18
x: 4.951171875
y: -0.623046875
z: 0.103515625
range: 5.31639051437
velocity: 0.0
doppler_bin: 8
bearing: -7.17230129242
intensity: 29.6988162994
---
header: 
  seq: 1393791
  stamp: 
    secs: 1561868387
    nsecs: 756723045
  frame_id: "ti_mmwave"
point_id: 19
x: 1.59375
y: -0.05078125
z: -0.015625
range: 1.69950187206
velocity: 0.614668667316
doppler_bin: 9
bearing: -1.82498347759
intensity: 26.3648796082
---
header: 
  seq: 1393792
  stamp: 
    secs: 1561868387
    nsecs: 756736530
  frame_id: "ti_mmwave"
point_id: 20
x: 1.384765625
y: 0.04296875
z: 0.1328125
range: 1.48161697388
velocity: 1.22933733463
doppler_bin: 10
bearing: 1.77729594707
intensity: 23.3041381836
---
header: 
  seq: 1393793
  stamp: 
    secs: 1561868387
    nsecs: 756751203
  frame_id: "ti_mmwave"
point_id: 21
x: 1.423828125
y: 0.044921875
z: 0.138671875
range: 1.52519392967
velocity: 1.22933733463
doppler_bin: 10
bearing: 1.80708646774
intensity: 25.5266819
---
header: 
  seq: 1393794
  stamp: 
    secs: 1561868387
    nsecs: 756765053
  frame_id: "ti_mmwave"
point_id: 22
x: 1.46484375
y: 0.046875
z: 0.140625
range: 1.56877088547
velocity: 1.22933733463
doppler_bin: 10
bearing: 1.83283960819
intensity: 23.9794006348
---
header: 
  seq: 1393795
  stamp: 
    secs: 1561868387
    nsecs: 756782412
  frame_id: "ti_mmwave"
point_id: 24
x: 0.041015625
y: -0.033203125
z: 0.0625
range: 0.0871539413929
velocity: 0.0
doppler_bin: 8
bearing: -38.9909973145
intensity: 30.0945091248
---
header: 
  seq: 1393796
  stamp: 
    secs: 1561868387
    nsecs: 756796329
  frame_id: "ti_mmwave"
point_id: 25
x: 0.044921875
y: -0.046875
z: 0.103515625
range: 0.130730912089
velocity: 0.0
doppler_bin: 8
bearing: -46.218875885
intensity: 29.0091304779
---
header: 
  seq: 1393797
  stamp: 
    secs: 1561868387
    nsecs: 758182331
  frame_id: "ti_mmwave"
point_id: 0
x: 0.01171875
y: -0.0390625
z: -0.0078125
range: 0.0435769706964
velocity: 0.0
doppler_bin: 8
bearing: -73.3007583618
intensity: 30.6520614624
---
header: 
  seq: 1393798
  stamp: 
    secs: 1561868387
    nsecs: 758238699
  frame_id: "ti_mmwave"
point_id: 1
x: 0.017578125
y: -0.080078125
z: -0.0078125
range: 0.0871539413929
velocity: 0.0
doppler_bin: 8
bearing: -77.6192398071
intensity: 31.9033164978
---
header: 
  seq: 1393799
  stamp: 
    secs: 1561868387
    nsecs: 758255699
  frame_id: "ti_mmwave"
point_id: 2
x: 0.029296875
y: -0.119140625
z: -0.005859375
range: 0.130730912089
velocity: 0.0
doppler_bin: 8
bearing: -76.1849746704
intensity: 30.1199302673
---
header: 
  seq: 1393800
  stamp: 
    secs: 1561868387
    nsecs: 758268824
  frame_id: "ti_mmwave"
point_id: 3
x: 0.056640625
y: -0.154296875
z: 0.005859375
range: 0.174307882786
velocity: 0.0
doppler_bin: 8
bearing: -69.8423843384
intensity: 25.4654273987
---
header: 
  seq: 1393801
  stamp: 
    secs: 1561868387
    nsecs: 758281329
  frame_id: "ti_mmwave"
point_id: 4
x: 0.099609375
y: -0.080078125
z: 1.26171875
range: 1.35088610649
velocity: 0.0
doppler_bin: 8
bearing: -38.7965545654
intensity: 23.0963020325
---
header: 
  seq: 1393802
  stamp: 
    secs: 1561868387
    nsecs: 758335346
  frame_id: "ti_mmwave"
point_id: 6
x: 0.419921875
y: -0.083984375
z: -1.279296875
range: 1.43804001808
velocity: 0.0
doppler_bin: 8
bearing: -11.3099327087
intensity: 23.0535144806
---
header: 
  seq: 1393803
  stamp: 
    secs: 1561868387
    nsecs: 758344335
  frame_id: "ti_mmwave"
point_id: 7
x: 0.55859375
y: -0.04296875
z: -1.2734375
range: 1.48161697388
velocity: 0.0
doppler_bin: 8
bearing: -4.39870548248
intensity: 21.7318630219
---
header: 
  seq: 1393804
  stamp: 
    secs: 1561868387
    nsecs: 758352283
  frame_id: "ti_mmwave"
point_id: 8
x: 2.611328125
y: -0.17578125
z: 1.056640625
range: 3.00681090355
velocity: 0.0
doppler_bin: 8
bearing: -3.85104894638
intensity: 28.727388382
---
header: 
  seq: 1393805
  stamp: 
    secs: 1561868387
    nsecs: 758359965
  frame_id: "ti_mmwave"
point_id: 9
x: 2.66015625
y: -0.1796875
z: 1.046875
range: 3.05038785934
velocity: 0.0
doppler_bin: 8
bearing: -3.86432933807
intensity: 32.1616592407
---
header: 
  seq: 1393806
  stamp: 
    secs: 1561868387
    nsecs: 758371412
  frame_id: "ti_mmwave"
point_id: 10
x: 2.748046875
y: -0.08984375
z: 0.9375
range: 3.09396481514
velocity: 0.0
doppler_bin: 8
bearing: -1.8725425005
intensity: 31.3097667694
---
header: 
  seq: 1393807
  stamp: 
    secs: 1561868387
    nsecs: 758379225
  frame_id: "ti_mmwave"
point_id: 11
x: 4.4140625
y: -0.142578125
z: 1.21875
range: 4.88062095642
velocity: 0.0
doppler_bin: 8
bearing: -1.850061059
intensity: 31.0720996857
---
header: 
  seq: 1393808
  stamp: 
    secs: 1561868387
    nsecs: 758386629
  frame_id: "ti_mmwave"
point_id: 12
x: 4.443359375
y: -0.14453125
z: 1.265625
range: 4.9241976738
velocity: 0.0
doppler_bin: 8
bearing: -1.86303019524
intensity: 30.5307846069
---
header: 
  seq: 1393809
  stamp: 
    secs: 1561868387
    nsecs: 758394196
  frame_id: "ti_mmwave"
point_id: 13
x: 4.9140625
y: -0.30859375
z: 0.5
range: 5.27281332016
velocity: 0.0
doppler_bin: 8
bearing: -3.59334683418
intensity: 31.1360912323
---
header: 
  seq: 1393810
  stamp: 
    secs: 1561868387
    nsecs: 758401988
  frame_id: "ti_mmwave"
point_id: 14
x: 4.94921875
y: -0.623046875
z: -0.119140625
range: 5.31639051437
velocity: 0.0
doppler_bin: 8
bearing: -7.17510271072
intensity: 29.9651165009
---
header: 
  seq: 1393811
  stamp: 
    secs: 1561868387
    nsecs: 758409496
  frame_id: "ti_mmwave"
point_id: 15
x: 1.67578125
y: 0.052734375
z: -0.013671875
range: 1.78665578365
velocity: 0.614668667316
doppler_bin: 9
bearing: 1.80241930485
intensity: 28.8024177551
---
header: 
  seq: 1393812
  stamp: 
    secs: 1561868387
    nsecs: 758417225
  frame_id: "ti_mmwave"
point_id: 16
x: 1.71484375
y: 0.052734375
z: -0.083984375
range: 1.83023273945
velocity: 0.614668667316
doppler_bin: 9
bearing: 1.76138806343
intensity: 28.6510391235
---
header: 
  seq: 1393813
  stamp: 
    secs: 1561868387
    nsecs: 758425792
  frame_id: "ti_mmwave"
point_id: 17
x: 1.75
y: 0.0546875
z: -0.1640625
range: 1.87380969524
velocity: 0.614668667316
doppler_bin: 9
bearing: 1.7899106741
intensity: 24.9692974091
---
header: 
  seq: 1393814
  stamp: 
    secs: 1561868387
    nsecs: 758432449
  frame_id: "ti_mmwave"
point_id: 18
x: 1.42578125
y: 0.08984375
z: 0.10546875
range: 1.52519392967
velocity: 1.22933733463
doppler_bin: 10
bearing: 3.60565137863
intensity: 20.2530593872
---
header: 
  seq: 1393815
  stamp: 
    secs: 1561868387
    nsecs: 758458878
  frame_id: "ti_mmwave"
point_id: 19
x: 1.46484375
y: 0.091796875
z: 0.119140625
range: 1.56877088547
velocity: 1.22933733463
doppler_bin: 10
bearing: 3.58584666252
intensity: 22.5527248383
---
header: 
  seq: 1393816
  stamp: 
    secs: 1561868387
    nsecs: 758483795
  frame_id: "ti_mmwave"
point_id: 20
x: 1.505859375
y: 0.09375
z: 0.115234375
range: 1.61234796047
velocity: 1.22933733463
doppler_bin: 10
bearing: 3.56245470047
intensity: 21.3987903595
---
header: 
  seq: 1393817
  stamp: 
    secs: 1561868387
    nsecs: 758509138
  frame_id: "ti_mmwave"
point_id: 22
x: 0.041015625
y: -0.033203125
z: 0.0625
range: 0.0871539413929
velocity: 0.0
doppler_bin: 8
bearing: -38.9909973145
intensity: 30.0945091248
---
header: 
  seq: 1393818
  stamp: 
    secs: 1561868387
    nsecs: 758598502
  frame_id: "ti_mmwave"
point_id: 23
x: 0.044921875
y: -0.046875
z: 0.103515625
range: 0.130730912089
velocity: 0.0
doppler_bin: 8
bearing: -46.218875885
intensity: 29.0091304779
---
header: 
  seq: 1393819
  stamp: 
    secs: 1561868387
    nsecs: 816238337
  frame_id: "ti_mmwave"
point_id: 0
x: 0.01171875
y: -0.0390625
z: -0.0078125
range: 0.0435769706964
velocity: 0.0
doppler_bin: 8
bearing: -73.3007583618
intensity: 30.6557979584
---
header: 
  seq: 1393820
  stamp: 
    secs: 1561868387
    nsecs: 816315114
  frame_id: "ti_mmwave"
point_id: 1
x: 0.017578125
y: -0.080078125
z: -0.0078125
range: 0.0871539413929
velocity: 0.0
doppler_bin: 8
bearing: -77.6192398071
intensity: 31.9061183929
---
header: 
  seq: 1393821
  stamp: 
    secs: 1561868387
    nsecs: 816332210
  frame_id: "ti_mmwave"
point_id: 2
x: 0.029296875
y: -0.119140625
z: -0.005859375
range: 0.130730912089
velocity: 0.0
doppler_bin: 8
bearing: -76.1849746704
intensity: 30.1241531372
---
header: 
  seq: 1393822
  stamp: 
    secs: 1561868387
    nsecs: 816347633
  frame_id: "ti_mmwave"
point_id: 3
x: 0.056640625
y: -0.154296875
z: 0.005859375
range: 0.174307882786
velocity: 0.0
doppler_bin: 8
bearing: -69.8423843384
intensity: 25.4530715942
---
header: 
  seq: 1393823
  stamp: 
    secs: 1561868387
    nsecs: 816356784
  frame_id: "ti_mmwave"
point_id: 4
x: 0.158203125
y: -0.080078125
z: 1.255859375
range: 1.35088610649
velocity: 0.0
doppler_bin: 8
bearing: -26.8472938538
intensity: 23.1175384521
---
header: 
  seq: 1393824
  stamp: 
    secs: 1561868387
    nsecs: 816367393
  frame_id: "ti_mmwave"
point_id: 6
x: 0.423828125
y: -0.083984375
z: -1.279296875
range: 1.43804001808
velocity: 0.0
doppler_bin: 8
bearing: -11.2083444595
intensity: 23.0535144806
---
header: 
  seq: 1393825
  stamp: 
    secs: 1561868387
    nsecs: 816375726
  frame_id: "ti_mmwave"
point_id: 7
x: 0.55078125
y: -0.04296875
z: -1.27734375
range: 1.48161697388
velocity: 0.0
doppler_bin: 8
bearing: -4.46084880829
intensity: 21.6136798859
---
header: 
  seq: 1393826
  stamp: 
    secs: 1561868387
    nsecs: 816386768
  frame_id: "ti_mmwave"
point_id: 8
x: 2.625
y: -0.17578125
z: 1.021484375
range: 3.00681090355
velocity: 0.0
doppler_bin: 8
bearing: -3.83105134964
intensity: 29.1803035736
---
header: 
  seq: 1393827
  stamp: 
    secs: 1561868387
    nsecs: 816397264
  frame_id: "ti_mmwave"
point_id: 9
x: 2.66015625
y: -0.1796875
z: 1.046875
range: 3.05038785934
velocity: 0.0
doppler_bin: 8
bearing: -3.86432933807
intensity: 32.2891349792
---
header: 
  seq: 1393828
  stamp: 
    secs: 1561868387
    nsecs: 816405740
  frame_id: "ti_mmwave"
point_id: 10
x: 2.74609375
y: -0.08984375
z: 0.943359375
range: 3.09396481514
velocity: 0.0
doppler_bin: 8
bearing: -1.8738732338
intensity: 31.2188796997
---
header: 
  seq: 1393829
  stamp: 
    secs: 1561868387
    nsecs: 816414097
  frame_id: "ti_mmwave"
point_id: 11
x: 4.400390625
y: -0.287109375
z: 1.244140625
range: 4.88062095642
velocity: 0.0
doppler_bin: 8
bearing: -3.73304843903
intensity: 30.561422348
---
header: 
  seq: 1393830
  stamp: 
    secs: 1561868387
    nsecs: 816426038
  frame_id: "ti_mmwave"
point_id: 12
x: 4.451171875
y: -0.14453125
z: 1.2421875
range: 4.9241976738
velocity: 0.0
doppler_bin: 8
bearing: -1.8597625494
intensity: 30.0432128906
---
header: 
  seq: 1393831
  stamp: 
    secs: 1561868387
    nsecs: 816579913
  frame_id: "ti_mmwave"
point_id: 13
x: 4.9140625
y: -0.30859375
z: 0.5
range: 5.27281332016
velocity: 0.0
doppler_bin: 8
bearing: -3.59334683418
intensity: 30.4766426086
---
header: 
  seq: 1393832
  stamp: 
    secs: 1561868387
    nsecs: 816599080
  frame_id: "ti_mmwave"
point_id: 14
x: 1.67578125
y: 0.052734375
z: -0.05078125
range: 1.78665578365
velocity: 0.614668667316
doppler_bin: 9
bearing: 1.80241930485
intensity: 27.6417617798
---
header: 
  seq: 1393833
  stamp: 
    secs: 1561868387
    nsecs: 816607459
  frame_id: "ti_mmwave"
point_id: 15
x: 1.716796875
y: 0.052734375
z: 0.029296875
range: 1.83023273945
velocity: 0.614668667316
doppler_bin: 9
bearing: 1.75938534737
intensity: 27.6641292572
---
header: 
  seq: 1393834
  stamp: 
    secs: 1561868387
    nsecs: 816618622
  frame_id: "ti_mmwave"
point_id: 16
x: 0.009765625
y: 0.03125
z: 0.025390625
range: 0.0435769706964
velocity: 0.0
doppler_bin: 8
bearing: 72.6459732056
intensity: 29.2788333893
---
header: 
  seq: 1393835
  stamp: 
    secs: 1561868387
    nsecs: 816627792
  frame_id: "ti_mmwave"
point_id: 17
x: 0.041015625
y: -0.033203125
z: 0.0625
range: 0.0871539413929
velocity: 0.0
doppler_bin: 8
bearing: -38.9909973145
intensity: 30.0945091248
---
header: 
  seq: 1393836
  stamp: 
    secs: 1561868387
    nsecs: 816666627
  frame_id: "ti_mmwave"
point_id: 18
x: 0.044921875
y: -0.046875
z: 0.103515625
range: 0.130730912089
velocity: 0.0
doppler_bin: 8
bearing: -46.218875885
intensity: 29.0091304779
---
header: 
  seq: 1393837
  stamp: 
    secs: 1561868387
    nsecs: 817380629
  frame_id: "ti_mmwave"
point_id: 0
x: 0.01171875
y: -0.0390625
z: -0.0078125
range: 0.0435769706964
velocity: 0.0
doppler_bin: 8
bearing: -73.3007583618
intensity: 30.6595306396
---
header: 
  seq: 1393838
  stamp: 
    secs: 1561868387
    nsecs: 817438684
  frame_id: "ti_mmwave"
point_id: 1
x: 0.017578125
y: -0.080078125
z: -0.0078125
range: 0.0871539413929
velocity: 0.0
doppler_bin: 8
bearing: -77.6192398071
intensity: 31.9061183929
---
header: 
  seq: 1393839
  stamp: 
    secs: 1561868387
    nsecs: 817456494
  frame_id: "ti_mmwave"
point_id: 2
x: 0.029296875
y: -0.119140625
z: -0.005859375
range: 0.130730912089
velocity: 0.0
doppler_bin: 8
bearing: -76.1849746704
intensity: 30.1199302673
---
header: 
  seq: 1393840
  stamp: 
    secs: 1561868387
    nsecs: 817473222
  frame_id: "ti_mmwave"
point_id: 3
x: 0.056640625
y: -0.154296875
z: 0.005859375
range: 0.174307882786
velocity: 0.0
doppler_bin: 8
bearing: -69.8423843384
intensity: 25.4530715942
---
header: 
  seq: 1393841
  stamp: 
    secs: 1561868387
    nsecs: 817615559
  frame_id: "ti_mmwave"
point_id: 4
x: 0.158203125
y: -0.080078125
z: 1.255859375
range: 1.35088610649
velocity: 0.0
doppler_bin: 8
bearing: -26.8472938538
intensity: 23.0963020325
---
header: 
  seq: 1393842
  stamp: 
    secs: 1561868387
    nsecs: 817637947
  frame_id: "ti_mmwave"
point_id: 5
x: 0.087890625
y: -0.08203125
z: 1.302734375
range: 1.39446306229
velocity: 0.0
doppler_bin: 8
bearing: -43.0250663757
intensity: 24.6239795685
---
header: 
  seq: 1393843
  stamp: 
    secs: 1561868387
    nsecs: 817650531
  frame_id: "ti_mmwave"
point_id: 6
x: 0.400390625
y: -0.083984375
z: -1.287109375
range: 1.43804001808
velocity: 0.0
doppler_bin: 8
bearing: -11.8463935852
intensity: 23.0749607086
---
header: 
  seq: 1393844
  stamp: 
    secs: 1561868387
    nsecs: 817682742
  frame_id: "ti_mmwave"
point_id: 7
x: 2.62109375
y: -0.17578125
z: 1.03515625
range: 3.00681090355
velocity: 0.0
doppler_bin: 8
bearing: -3.83674383163
intensity: 28.7966918945
---
header: 
  seq: 1393845
  stamp: 
    secs: 1561868387
    nsecs: 817691254
  frame_id: "ti_mmwave"
point_id: 8
x: 2.69140625
y: -0.08984375
z: 0.97265625
range: 3.05038785934
velocity: 0.0
doppler_bin: 8
bearing: -1.91192126274
intensity: 32.156375885
---
header: 
  seq: 1393846
  stamp: 
    secs: 1561868387
    nsecs: 817768341
  frame_id: "ti_mmwave"
point_id: 9
x: 2.75390625
y: -0.08984375
z: 0.921875
range: 3.09396481514
velocity: 0.0
doppler_bin: 8
bearing: -1.86856126785
intensity: 31.2807598114
---
header: 
  seq: 1393847
  stamp: 
    secs: 1561868387
    nsecs: 817780231
  frame_id: "ti_mmwave"
point_id: 10
x: 4.419921875
y: -0.142578125
z: 1.201171875
range: 4.88062095642
velocity: 0.0
doppler_bin: 8
bearing: -1.847610116
intensity: 30.1828422546
---
header: 
  seq: 1393848
  stamp: 
    secs: 1561868387
    nsecs: 817788810
  frame_id: "ti_mmwave"
point_id: 11
x: 4.447265625
y: -0.14453125
z: 1.25390625
range: 4.9241976738
velocity: 0.0
doppler_bin: 8
bearing: -1.86139500141
intensity: 29.4792366028
---
header: 
  seq: 1393849
  stamp: 
    secs: 1561868387
    nsecs: 817796944
  frame_id: "ti_mmwave"
point_id: 12
x: 4.923828125
y: -0.30859375
z: 0.39453125
range: 5.27281332016
velocity: 0.0
doppler_bin: 8
bearing: -3.58623862267
intensity: 30.0432128906
---
header: 
  seq: 1393850
  stamp: 
    secs: 1561868387
    nsecs: 817806834
  frame_id: "ti_mmwave"
point_id: 14
x: 0.041015625
y: -0.033203125
z: 0.0625
range: 0.0871539413929
velocity: 0.0
doppler_bin: 8
bearing: -38.9909973145
intensity: 30.0987567902
---
header: 
  seq: 1393851
  stamp: 
    secs: 1561868387
    nsecs: 817814640
  frame_id: "ti_mmwave"
point_id: 15
x: 0.046875
y: -0.046875
z: 0.103515625
range: 0.130730912089
velocity: 0.0
doppler_bin: 8
bearing: -45.0
intensity: 29.0145835876
---
header: 
  seq: 1393852
  stamp: 
    secs: 1561868387
    nsecs: 876236437
  frame_id: "ti_mmwave"
point_id: 0
x: 0.01171875
y: -0.0390625
z: -0.0078125
range: 0.0435769706964
velocity: 0.0
doppler_bin: 8
bearing: -73.3007583618
intensity: 30.6520614624
---
header: 
  seq: 1393853
  stamp: 
    secs: 1561868387
    nsecs: 876319704
  frame_id: "ti_mmwave"
point_id: 1
x: 0.017578125
y: -0.080078125
z: -0.0078125
range: 0.0871539413929
velocity: 0.0
doppler_bin: 8
bearing: -77.6192398071
intensity: 31.9033164978
---
header: 
  seq: 1393854
  stamp: 
    secs: 1561868387
    nsecs: 876332894
  frame_id: "ti_mmwave"
point_id: 2
x: 0.029296875
y: -0.119140625
z: -0.005859375
range: 0.130730912089
velocity: 0.0
doppler_bin: 8
bearing: -76.1849746704
intensity: 30.1157035828
---
header: 
  seq: 1393855
  stamp: 
    secs: 1561868387
    nsecs: 876341436
  frame_id: "ti_mmwave"
point_id: 3
x: 0.056640625
y: -0.154296875
z: 0.0078125
range: 0.174307882786
velocity: 0.0
doppler_bin: 8
bearing: -69.8423843384
intensity: 25.4406795502
---
header: 
  seq: 1393856
  stamp: 
    secs: 1561868387
    nsecs: 876350028
  frame_id: "ti_mmwave"
point_id: 4
x: 0.150390625
y: -0.080078125
z: 1.255859375
range: 1.35088610649
velocity: 0.0
doppler_bin: 8
bearing: -28.0338516235
intensity: 23.0963020325
---
header: 
  seq: 1393857
  stamp: 
    secs: 1561868387
    nsecs: 876360276
  frame_id: "ti_mmwave"
point_id: 6
x: 0.4296875
y: -0.083984375
z: -1.27734375
range: 1.43804001808
velocity: 0.0
doppler_bin: 8
bearing: -11.0592975616
intensity: 23.0535144806
---
header: 
  seq: 1393858
  stamp: 
    secs: 1561868387
    nsecs: 876368718
  frame_id: "ti_mmwave"
point_id: 7
x: 0.5703125
y: -0.04296875
z: -1.267578125
range: 1.48161697388
velocity: 0.0
doppler_bin: 8
bearing: -4.30866527557
intensity: 21.6435279846
---
header: 
  seq: 1393859
  stamp: 
    secs: 1561868387
    nsecs: 876377002
  frame_id: "ti_mmwave"
point_id: 8
x: 2.595703125
y: -0.17578125
z: 1.091796875
range: 3.00681090355
velocity: 0.0
doppler_bin: 8
bearing: -3.87416052818
intensity: 28.8874092102
---
header: 
  seq: 1393860
  stamp: 
    secs: 1561868387
    nsecs: 876387252
  frame_id: "ti_mmwave"
point_id: 9
x: 2.681640625
y: -0.08984375
z: 1.001953125
range: 3.05038785934
velocity: 0.0
doppler_bin: 8
bearing: -1.91887867451
intensity: 32.1112060547
---
header: 
  seq: 1393861
  stamp: 
    secs: 1561868387
    nsecs: 876396345
  frame_id: "ti_mmwave"
point_id: 10
x: 2.74609375
y: -0.08984375
z: 0.94140625
range: 3.09396481514
velocity: 0.0
doppler_bin: 8
bearing: -1.8738732338
intensity: 31.1826477051
---
header: 
  seq: 1393862
  stamp: 
    secs: 1561868387
    nsecs: 876408294
  frame_id: "ti_mmwave"
point_id: 11
x: 4.419921875
y: -0.142578125
z: 1.193359375
range: 4.88062095642
velocity: 0.0
doppler_bin: 8
bearing: -1.847610116
intensity: 30.3221569061
---
header: 
  seq: 1393863
  stamp: 
    secs: 1561868387
    nsecs: 876416744
  frame_id: "ti_mmwave"
point_id: 12
x: 4.458984375
y: -0.0
z: 1.21484375
range: 4.9241976738
velocity: 0.0
doppler_bin: 8
bearing: -0.0
intensity: 29.6848297119
---
header: 
  seq: 1393864
  stamp: 
    secs: 1561868387
    nsecs: 876425011
  frame_id: "ti_mmwave"
point_id: 13
x: 1.6640625
y: -0.0
z: -0.201171875
range: 1.78665578365
velocity: 0.614668667316
doppler_bin: 9
bearing: -0.0
intensity: 29.0145835876
---
header: 
  seq: 1393865
  stamp: 
    secs: 1561868387
    nsecs: 876432898
  frame_id: "ti_mmwave"
point_id: 14
x: 1.708984375
y: -0.0
z: -0.169921875
range: 1.83023273945
velocity: 0.614668667316
doppler_bin: 9
bearing: -0.0
intensity: 30.1325874329
---
header: 
  seq: 1393866
  stamp: 
    secs: 1561868387
    nsecs: 876441374
  frame_id: "ti_mmwave"
point_id: 15
x: 1.755859375
y: 0.0546875
z: -0.080078125
range: 1.87380969524
velocity: 0.614668667316
doppler_bin: 9
bearing: 1.78394150734
intensity: 27.0926990509
---
header: 
  seq: 1393867
  stamp: 
    secs: 1561868387
    nsecs: 876452341
  frame_id: "ti_mmwave"
point_id: 17
x: 0.041015625
y: -0.033203125
z: 0.0625
range: 0.0871539413929
velocity: 0.0
doppler_bin: 8
bearing: -38.9909973145
intensity: 30.0945091248
---
header: 
  seq: 1393868
  stamp: 
    secs: 1561868387
    nsecs: 876461185
  frame_id: "ti_mmwave"
point_id: 18
x: 0.044921875
y: -0.046875
z: 0.103515625
range: 0.130730912089
velocity: 0.0
doppler_bin: 8
bearing: -46.218875885
intensity: 29.0091304779
---
header: 
  seq: 1393869
  stamp: 
    secs: 1561868387
    nsecs: 876471544
  frame_id: "ti_mmwave"
point_id: 20
x: 4.435546875
y: -0.2890625
z: 1.265625
range: 4.9241976738
velocity: 0.0
doppler_bin: 8
bearing: -3.72866654396
intensity: 29.670797348
---
header: 
  seq: 1393870
  stamp: 
    secs: 1561868387
    nsecs: 877472776
  frame_id: "ti_mmwave"
point_id: 0
x: 0.01171875
y: -0.0390625
z: -0.0078125
range: 0.0435769706964
velocity: 0.0
doppler_bin: 8
bearing: -73.3007583618
intensity: 30.6557979584
---
header: 
  seq: 1393871
  stamp: 
    secs: 1561868387
    nsecs: 877548294
  frame_id: "ti_mmwave"
point_id: 1
x: 0.017578125
y: -0.080078125
z: -0.0078125
range: 0.0871539413929
velocity: 0.0
doppler_bin: 8
bearing: -77.6192398071
intensity: 31.9061183929
---
header: 
  seq: 1393872
  stamp: 
    secs: 1561868387
    nsecs: 877559727
  frame_id: "ti_mmwave"
point_id: 2
x: 0.029296875
y: -0.119140625
z: -0.005859375
range: 0.130730912089
velocity: 0.0
doppler_bin: 8
bearing: -76.1849746704
intensity: 30.1241531372
---
header: 
  seq: 1393873
  stamp: 
    secs: 1561868387
    nsecs: 877570153
  frame_id: "ti_mmwave"
point_id: 3
x: 0.056640625
y: -0.154296875
z: 0.0078125
range: 0.174307882786
velocity: 0.0
doppler_bin: 8
bearing: -69.8423843384
intensity: 25.4530715942
---
header: 
  seq: 1393874
  stamp: 
    secs: 1561868387
    nsecs: 877579195
  frame_id: "ti_mmwave"
point_id: 4
x: 0.060546875
y: -0.080078125
z: 1.263671875
range: 1.35088610649
velocity: 0.0
doppler_bin: 8
bearing: -52.9071655273
intensity: 23.1175384521
---
header: 
  seq: 1393875
  stamp: 
    secs: 1561868387
    nsecs: 877588888
  frame_id: "ti_mmwave"
point_id: 5
x: 0.013671875
y: -0.08203125
z: -1.306640625
range: 1.39446306229
velocity: 0.0
doppler_bin: 8
bearing: -80.5376739502
intensity: 24.6239795685
---
header: 
  seq: 1393876
  stamp: 
    secs: 1561868387
    nsecs: 877597586
  frame_id: "ti_mmwave"
point_id: 6
x: 0.42578125
y: -0.083984375
z: -1.27734375
range: 1.43804001808
velocity: 0.0
doppler_bin: 8
bearing: -11.1582231522
intensity: 23.031961441
---
header: 
  seq: 1393877
  stamp: 
    secs: 1561868387
    nsecs: 877605520
  frame_id: "ti_mmwave"
point_id: 7
x: 0.57421875
y: -0.04296875
z: -1.265625
range: 1.48161697388
velocity: 0.0
doppler_bin: 8
bearing: -4.27946329117
intensity: 21.6435279846
---
header: 
  seq: 1393878
  stamp: 
    secs: 1561868387
    nsecs: 877794061
  frame_id: "ti_mmwave"
point_id: 8
x: 2.625
y: -0.17578125
z: 1.0234375
range: 3.00681090355
velocity: 0.0
doppler_bin: 8
bearing: -3.83105134964
intensity: 28.9872512817
---
header: 
  seq: 1393879
  stamp: 
    secs: 1561868387
    nsecs: 877814640
  frame_id: "ti_mmwave"
point_id: 9
x: 2.658203125
y: -0.1796875
z: 1.05078125
range: 3.05038785934
velocity: 0.0
doppler_bin: 8
bearing: -3.86716008186
intensity: 32.1616592407
---
header: 
  seq: 1393880
  stamp: 
    secs: 1561868387
    nsecs: 877824305
  frame_id: "ti_mmwave"
point_id: 10
x: 2.75
y: -0.08984375
z: 0.931640625
range: 3.09396481514
velocity: 0.0
doppler_bin: 8
bearing: -1.87121355534
intensity: 31.0414562225
---
header: 
  seq: 1393881
  stamp: 
    secs: 1561868387
    nsecs: 877832426
  frame_id: "ti_mmwave"
point_id: 11
x: 4.396484375
y: -0.287109375
z: 1.255859375
range: 4.88062095642
velocity: 0.0
doppler_bin: 8
bearing: -3.73635601997
intensity: 30.7371826172
---
header: 
  seq: 1393882
  stamp: 
    secs: 1561868387
    nsecs: 877863752
  frame_id: "ti_mmwave"
point_id: 12
x: 4.44140625
y: -0.14453125
z: 1.2734375
range: 4.9241976738
velocity: 0.0
doppler_bin: 8
bearing: -1.86384868622
intensity: 30.4060230255
---
header: 
  seq: 1393883
  stamp: 
    secs: 1561868387
    nsecs: 877874507
  frame_id: "ti_mmwave"
point_id: 13
x: 1.693359375
y: 0.052734375
z: -0.279296875
range: 1.83023273945
velocity: 0.614668667316
doppler_bin: 9
bearing: 1.78372108936
intensity: 30.4296913147
---
header: 
  seq: 1393884
  stamp: 
    secs: 1561868387
    nsecs: 877961881
  frame_id: "ti_mmwave"
point_id: 14
x: 1.736328125
y: 0.0546875
z: -0.2734375
range: 1.87380969524
velocity: 0.614668667316
doppler_bin: 9
bearing: 1.80399513245
intensity: 31.6256446838
---
header: 
  seq: 1393885
  stamp: 
    secs: 1561868387
    nsecs: 877980895
  frame_id: "ti_mmwave"
point_id: 15
x: 1.783203125
y: 0.056640625
z: -0.236328125
range: 1.91738677025
velocity: 0.614668667316
doppler_bin: 9
bearing: 1.81929790974
intensity: 29.8272342682
---
header: 
  seq: 1393886
  stamp: 
    secs: 1561868387
    nsecs: 877996806
  frame_id: "ti_mmwave"
point_id: 17
x: 0.041015625
y: -0.033203125
z: 0.0625
range: 0.0871539413929
velocity: 0.0
doppler_bin: 8
bearing: -38.9909973145
intensity: 30.0945091248
---
header: 
  seq: 1393887
  stamp: 
    secs: 1561868387
    nsecs: 878008369
  frame_id: "ti_mmwave"
point_id: 18
x: 0.044921875
y: -0.046875
z: 0.103515625
range: 0.130730912089
velocity: 0.0
doppler_bin: 8
bearing: -46.218875885
intensity: 29.0091304779
---
header: 
  seq: 1393888
  stamp: 
    secs: 1561868387
    nsecs: 936112811
  frame_id: "ti_mmwave"
point_id: 0
x: 0.01171875
y: -0.0390625
z: -0.0078125
range: 0.0435769706964
velocity: 0.0
doppler_bin: 8
bearing: -73.3007583618
intensity: 30.6483230591
---
header: 
  seq: 1393889
  stamp: 
    secs: 1561868387
    nsecs: 936197834
  frame_id: "ti_mmwave"
point_id: 1
x: 0.017578125
y: -0.080078125
z: -0.0078125
range: 0.0871539413929
velocity: 0.0
doppler_bin: 8
bearing: -77.6192398071
intensity: 31.9033164978
---
header: 
  seq: 1393890
  stamp: 
    secs: 1561868387
    nsecs: 936210282
  frame_id: "ti_mmwave"
point_id: 2
x: 0.029296875
y: -0.119140625
z: -0.005859375
range: 0.130730912089
velocity: 0.0
doppler_bin: 8
bearing: -76.1849746704
intensity: 30.1157035828
---
header: 
  seq: 1393891
  stamp: 
    secs: 1561868387
    nsecs: 936221434
  frame_id: "ti_mmwave"
point_id: 3
x: 0.056640625
y: -0.154296875
z: 0.005859375
range: 0.174307882786
velocity: 0.0
doppler_bin: 8
bearing: -69.8423843384
intensity: 25.4530715942
---
header: 
  seq: 1393892
  stamp: 
    secs: 1561868387
    nsecs: 936230335
  frame_id: "ti_mmwave"
point_id: 4
x: 0.169921875
y: -0.080078125
z: 1.25390625
range: 1.35088610649
velocity: 0.0
doppler_bin: 8
bearing: -25.232831955
intensity: 23.0749607086
---
header: 
  seq: 1393893
  stamp: 
    secs: 1561868387
    nsecs: 936238755
  frame_id: "ti_mmwave"
point_id: 5
x: 0.05078125
y: -0.08203125
z: 1.3046875
range: 1.39446306229
velocity: 0.0
doppler_bin: 8
bearing: -58.2405166626
intensity: 24.6239795685
---
header: 
  seq: 1393894
  stamp: 
    secs: 1561868387
    nsecs: 936246899
  frame_id: "ti_mmwave"
point_id: 6
x: 0.4140625
y: -0.083984375
z: -1.28125
range: 1.43804001808
velocity: 0.0
doppler_bin: 8
bearing: -11.4657688141
intensity: 23.0749607086
---
header: 
  seq: 1393895
  stamp: 
    secs: 1561868387
    nsecs: 936254561
  frame_id: "ti_mmwave"
point_id: 7
x: 0.548828125
y: -0.04296875
z: -1.27734375
range: 1.48161697388
velocity: 0.0
doppler_bin: 8
bearing: -4.47665882111
intensity: 21.6136798859
---
header: 
  seq: 1393896
  stamp: 
    secs: 1561868387
    nsecs: 936263024
  frame_id: "ti_mmwave"
point_id: 8
x: 1.697265625
y: -0.107421875
z: -0.240234375
range: 1.83023273945
velocity: 0.0
doppler_bin: 8
bearing: -3.62148451805
intensity: 29.1381378174
---
header: 
  seq: 1393897
  stamp: 
    secs: 1561868387
    nsecs: 936272708
  frame_id: "ti_mmwave"
point_id: 9
x: 1.74609375
y: -0.0546875
z: -0.203125
range: 1.87380969524
velocity: 0.0
doppler_bin: 8
bearing: -1.79391229153
intensity: 30.8778133392
---
header: 
  seq: 1393898
  stamp: 
    secs: 1561868387
    nsecs: 936283108
  frame_id: "ti_mmwave"
point_id: 10
x: 2.59765625
y: -0.17578125
z: 1.087890625
range: 3.00681090355
velocity: 0.0
doppler_bin: 8
bearing: -3.87125635147
intensity: 28.8252449036
---
header: 
  seq: 1393899
  stamp: 
    secs: 1561868387
    nsecs: 936291416
  frame_id: "ti_mmwave"
point_id: 11
x: 2.650390625
y: -0.1796875
z: 1.068359375
range: 3.05038785934
velocity: 0.0
doppler_bin: 8
bearing: -3.87852454185
intensity: 32.1192092896
---
header: 
  seq: 1393900
  stamp: 
    secs: 1561868387
    nsecs: 936299663
  frame_id: "ti_mmwave"
point_id: 12
x: 2.74609375
y: -0.08984375
z: 0.939453125
range: 3.09396481514
velocity: 0.0
doppler_bin: 8
bearing: -1.8738732338
intensity: 31.1058979034
---
header: 
  seq: 1393901
  stamp: 
    secs: 1561868387
    nsecs: 936307680
  frame_id: "ti_mmwave"
point_id: 13
x: 4.400390625
y: -0.287109375
z: 1.240234375
range: 4.88062095642
velocity: 0.0
doppler_bin: 8
bearing: -3.73304843903
intensity: 31.0924091339
---
header: 
  seq: 1393902
  stamp: 
    secs: 1561868387
    nsecs: 936319013
  frame_id: "ti_mmwave"
point_id: 14
x: 4.447265625
y: -0.14453125
z: 1.25390625
range: 4.9241976738
velocity: 0.0
doppler_bin: 8
bearing: -1.86139500141
intensity: 30.7845687866
---
header: 
  seq: 1393903
  stamp: 
    secs: 1561868387
    nsecs: 936484076
  frame_id: "ti_mmwave"
point_id: 15
x: 1.791015625
y: 0.056640625
z: -0.171875
range: 1.91738677025
velocity: 0.614668667316
doppler_bin: 9
bearing: 1.81136763096
intensity: 29.2376194
---
header: 
  seq: 1393904
  stamp: 
    secs: 1561868387
    nsecs: 936515662
  frame_id: "ti_mmwave"
point_id: 17
x: 0.041015625
y: -0.033203125
z: 0.0625
range: 0.0871539413929
velocity: 0.0
doppler_bin: 8
bearing: -38.9909973145
intensity: 30.0945091248
---
header: 
  seq: 1393905
  stamp: 
    secs: 1561868387
    nsecs: 936553170
  frame_id: "ti_mmwave"
point_id: 18
x: 0.044921875
y: -0.046875
z: 0.103515625
range: 0.130730912089
velocity: 0.0
doppler_bin: 8
bearing: -46.218875885
intensity: 29.0091304779
---
header: 
  seq: 1393906
  stamp: 
    secs: 1561868387
    nsecs: 937321779
  frame_id: "ti_mmwave"
point_id: 0
x: 0.01171875
y: -0.0390625
z: -0.0078125
range: 0.0435769706964
velocity: 0.0
doppler_bin: 8
bearing: -73.3007583618
intensity: 30.6483230591
---
header: 
  seq: 1393907
  stamp: 
    secs: 1561868387
    nsecs: 937364292
  frame_id: "ti_mmwave"
point_id: 1
x: 0.017578125
y: -0.080078125
z: -0.0078125
range: 0.0871539413929
velocity: 0.0
doppler_bin: 8
bearing: -77.6192398071
intensity: 31.9033164978
---
header: 
  seq: 1393908
  stamp: 
    secs: 1561868387
    nsecs: 937379811
  frame_id: "ti_mmwave"
point_id: 2
x: 0.029296875
y: -0.119140625
z: -0.005859375
range: 0.130730912089
velocity: 0.0
doppler_bin: 8
bearing: -76.1849746704
intensity: 30.1199302673
---
header: 
  seq: 1393909
  stamp: 
    secs: 1561868387
    nsecs: 937392380
  frame_id: "ti_mmwave"
point_id: 3
x: 0.056640625
y: -0.154296875
z: 0.005859375
range: 0.174307882786
velocity: 0.0
doppler_bin: 8
bearing: -69.8423843384
intensity: 25.4530715942
---
header: 
  seq: 1393910
  stamp: 
    secs: 1561868387
    nsecs: 937406916
  frame_id: "ti_mmwave"
point_id: 4
x: 0.177734375
y: -0.080078125
z: 1.25390625
range: 1.35088610649
velocity: 0.0
doppler_bin: 8
bearing: -24.2539196014
intensity: 23.0749607086
---
header: 
  seq: 1393911
  stamp: 
    secs: 1561868387
    nsecs: 937421616
  frame_id: "ti_mmwave"
point_id: 5
x: 0.083984375
y: -0.08203125
z: 1.3046875
range: 1.39446306229
velocity: 0.0
doppler_bin: 8
bearing: -44.3259658813
intensity: 24.6239795685
---
header: 
  seq: 1393912
  stamp: 
    secs: 1561868387
    nsecs: 937437425
  frame_id: "ti_mmwave"
point_id: 6
x: 0.404296875
y: -0.083984375
z: -1.28515625
range: 1.43804001808
velocity: 0.0
doppler_bin: 8
bearing: -11.7351255417
intensity: 23.0963020325
---
header: 
  seq: 1393913
  stamp: 
    secs: 1561868387
    nsecs: 937495186
  frame_id: "ti_mmwave"
point_id: 7
x: 0.548828125
y: -0.04296875
z: -1.27734375
range: 1.48161697388
velocity: 0.0
doppler_bin: 8
bearing: -4.47665882111
intensity: 21.6136798859
---
header: 
  seq: 1393914
  stamp: 
    secs: 1561868387
    nsecs: 937504430
  frame_id: "ti_mmwave"
point_id: 8
x: 1.705078125
y: -0.107421875
z: -0.1875
range: 1.83023273945
velocity: 0.0
doppler_bin: 8
bearing: -3.60493540764
intensity: 27.3239383698
---
header: 
  seq: 1393915
  stamp: 
    secs: 1561868387
    nsecs: 937512133
  frame_id: "ti_mmwave"
point_id: 9
x: 1.748046875
y: -0.109375
z: -0.16015625
range: 1.87380969524
velocity: 0.0
doppler_bin: 8
bearing: -3.58032011986
intensity: 28.4880466461
---
header: 
  seq: 1393916
  stamp: 
    secs: 1561868387
    nsecs: 937519997
  frame_id: "ti_mmwave"
point_id: 10
x: 1.796875
y: -0.11328125
z: -0.02734375
range: 1.91738677025
velocity: 0.0
doppler_bin: 8
bearing: -3.60735106468
intensity: 26.8484535217
---
header: 
  seq: 1393917
  stamp: 
    secs: 1561868387
    nsecs: 937527610
  frame_id: "ti_mmwave"
point_id: 11
x: 2.619140625
y: -0.17578125
z: 1.037109375
range: 3.00681090355
velocity: 0.0
doppler_bin: 8
bearing: -3.83959650993
intensity: 28.864906311
---
header: 
  seq: 1393918
  stamp: 
    secs: 1561868387
    nsecs: 937537114
  frame_id: "ti_mmwave"
point_id: 12
x: 2.69140625
y: -0.08984375
z: 0.97265625
range: 3.05038785934
velocity: 0.0
doppler_bin: 8
bearing: -1.91192126274
intensity: 32.0978317261
---
header: 
  seq: 1393919
  stamp: 
    secs: 1561868387
    nsecs: 937544758
  frame_id: "ti_mmwave"
point_id: 13
x: 2.755859375
y: -0.08984375
z: 0.91015625
range: 3.09396481514
velocity: 0.0
doppler_bin: 8
bearing: -1.86723792553
intensity: 31.172712326
---
header: 
  seq: 1393920
  stamp: 
    secs: 1561868387
    nsecs: 937552805
  frame_id: "ti_mmwave"
point_id: 14
x: 4.41796875
y: -0.142578125
z: 1.205078125
range: 4.88062095642
velocity: 0.0
doppler_bin: 8
bearing: -1.84842634201
intensity: 31.3956432343
---
header: 
  seq: 1393921
  stamp: 
    secs: 1561868387
    nsecs: 937561679
  frame_id: "ti_mmwave"
point_id: 15
x: 4.451171875
y: -0.14453125
z: 1.236328125
range: 4.9241976738
velocity: 0.0
doppler_bin: 8
bearing: -1.8597625494
intensity: 31.0140342712
---
header: 
  seq: 1393922
  stamp: 
    secs: 1561868387
    nsecs: 937569337
  frame_id: "ti_mmwave"
point_id: 16
x: 1.814453125
y: -0.0
z: 0.30859375
range: 1.96096372604
velocity: 0.614668667316
doppler_bin: 9
bearing: -0.0
intensity: 25.4157924652
---
header: 
  seq: 1393923
  stamp: 
    secs: 1561868387
    nsecs: 937579425
  frame_id: "ti_mmwave"
point_id: 18
x: 0.041015625
y: -0.033203125
z: 0.0625
range: 0.0871539413929
velocity: 0.0
doppler_bin: 8
bearing: -38.9909973145
intensity: 30.0945091248
---
header: 
  seq: 1393924
  stamp: 
    secs: 1561868387
    nsecs: 937587341
  frame_id: "ti_mmwave"
point_id: 19
x: 0.044921875
y: -0.046875
z: 0.103515625
range: 0.130730912089
velocity: 0.0
doppler_bin: 8
bearing: -46.218875885
intensity: 29.0091304779
---
header: 
  seq: 1393925
  stamp: 
    secs: 1561868387
    nsecs: 996355430
  frame_id: "ti_mmwave"
point_id: 0
x: 0.01171875
y: -0.0390625
z: -0.0078125
range: 0.0435769706964
velocity: 0.0
doppler_bin: 8
bearing: -73.3007583618
intensity: 30.6483230591
---
header: 
  seq: 1393926
  stamp: 
    secs: 1561868387
    nsecs: 996431400
  frame_id: "ti_mmwave"
point_id: 1
x: 0.017578125
y: -0.080078125
z: -0.0078125
range: 0.0871539413929
velocity: 0.0
doppler_bin: 8
bearing: -77.6192398071
intensity: 31.9005146027
---
header: 
  seq: 1393927
  stamp: 
    secs: 1561868387
    nsecs: 996442580
  frame_id: "ti_mmwave"
point_id: 2
x: 0.029296875
y: -0.119140625
z: -0.005859375
range: 0.130730912089
velocity: 0.0
doppler_bin: 8
bearing: -76.1849746704
intensity: 30.1199302673
---
header: 
  seq: 1393928
  stamp: 
    secs: 1561868387
    nsecs: 996453327
  frame_id: "ti_mmwave"
point_id: 3
x: 0.056640625
y: -0.154296875
z: 0.0078125
range: 0.174307882786
velocity: 0.0
doppler_bin: 8
bearing: -69.8423843384
intensity: 25.4530715942
---
header: 
  seq: 1393929
  stamp: 
    secs: 1561868387
    nsecs: 996462214
  frame_id: "ti_mmwave"
point_id: 4
x: 0.11328125
y: -0.080078125
z: 1.259765625
range: 1.35088610649
velocity: 0.0
doppler_bin: 8
bearing: -35.2563591003
intensity: 23.1175384521
---
header: 
  seq: 1393930
  stamp: 
    secs: 1561868387
    nsecs: 996470786
  frame_id: "ti_mmwave"
point_id: 5
x: 0.064453125
y: -0.08203125
z: -1.3046875
range: 1.39446306229
velocity: 0.0
doppler_bin: 8
bearing: -51.8427734375
intensity: 24.6239795685
---
header: 
  seq: 1393931
  stamp: 
    secs: 1561868387
    nsecs: 996480714
  frame_id: "ti_mmwave"
point_id: 6
x: 0.4375
y: -0.083984375
z: -1.2734375
range: 1.43804001808
velocity: 0.0
doppler_bin: 8
bearing: -10.8665513992
intensity: 23.031961441
---
header: 
  seq: 1393932
  stamp: 
    secs: 1561868387
    nsecs: 996489606
  frame_id: "ti_mmwave"
point_id: 7
x: 1.7109375
y: -0.107421875
z: -0.1171875
range: 1.83023273945
velocity: 0.0
doppler_bin: 8
bearing: -3.59262180328
intensity: 29.689496994
---
header: 
  seq: 1393933
  stamp: 
    secs: 1561868387
    nsecs: 996497708
  frame_id: "ti_mmwave"
point_id: 8
x: 1.751953125
y: -0.109375
z: -0.126953125
range: 1.87380969524
velocity: 0.0
doppler_bin: 8
bearing: -3.57235765457
intensity: 31.0924091339
---
header: 
  seq: 1393934
  stamp: 
    secs: 1561868387
    nsecs: 996506347
  frame_id: "ti_mmwave"
point_id: 9
x: 1.79296875
y: -0.056640625
z: -0.13671875
range: 1.91738677025
velocity: 0.0
doppler_bin: 8
bearing: -1.80939567089
intensity: 29.7405090332
---
header: 
  seq: 1393935
  stamp: 
    secs: 1561868387
    nsecs: 996515526
  frame_id: "ti_mmwave"
point_id: 10
x: 1.83984375
y: -0.0
z: -0.025390625
range: 1.96096372604
velocity: 0.0
doppler_bin: 8
bearing: -0.0
intensity: 27.3798732758
---
header: 
  seq: 1393936
  stamp: 
    secs: 1561868387
    nsecs: 996525630
  frame_id: "ti_mmwave"
point_id: 11
x: 2.62890625
y: -0.17578125
z: 1.013671875
range: 3.00681090355
velocity: 0.0
doppler_bin: 8
bearing: -3.82537555695
intensity: 29.2376194
---
header: 
  seq: 1393937
  stamp: 
    secs: 1561868387
    nsecs: 996533958
  frame_id: "ti_mmwave"
point_id: 12
x: 2.693359375
y: -0.08984375
z: 0.96875
range: 3.05038785934
velocity: 0.0
doppler_bin: 8
bearing: -1.91053581238
intensity: 32.2659988403
---
header: 
  seq: 1393938
  stamp: 
    secs: 1561868387
    nsecs: 996543693
  frame_id: "ti_mmwave"
point_id: 13
x: 2.759765625
y: -0.08984375
z: 0.900390625
range: 3.09396481514
velocity: 0.0
doppler_bin: 8
bearing: -1.86459684372
intensity: 31.3129787445
---
header: 
  seq: 1393939
  stamp: 
    secs: 1561868387
    nsecs: 996555484
  frame_id: "ti_mmwave"
point_id: 14
x: 4.404296875
y: -0.287109375
z: 1.232421875
range: 4.88062095642
velocity: 0.0
doppler_bin: 8
bearing: -3.72974681854
intensity: 31.4113616943
---
header: 
  seq: 1393940
  stamp: 
    secs: 1561868387
    nsecs: 996711203
  frame_id: "ti_mmwave"
point_id: 15
x: 4.451171875
y: -0.14453125
z: 1.23828125
range: 4.9241976738
velocity: 0.0
doppler_bin: 8
bearing: -1.8597625494
intensity: 31.1859531403
---
header: 
  seq: 1393941
  stamp: 
    secs: 1561868387
    nsecs: 996730597
  frame_id: "ti_mmwave"
point_id: 16
x: 1.837890625
y: -0.0
z: 0.115234375
range: 1.96096372604
velocity: 0.614668667316
doppler_bin: 9
bearing: -0.0
intensity: 27.4193916321
---
header: 
  seq: 1393942
  stamp: 
    secs: 1561868387
    nsecs: 996741509
  frame_id: "ti_mmwave"
point_id: 18
x: 0.041015625
y: -0.033203125
z: 0.0625
range: 0.0871539413929
velocity: 0.0
doppler_bin: 8
bearing: -38.9909973145
intensity: 30.0945091248
---
header: 
  seq: 1393943
  stamp: 
    secs: 1561868387
    nsecs: 996749668
  frame_id: "ti_mmwave"
point_id: 19
x: 0.044921875
y: -0.046875
z: 0.103515625
range: 0.130730912089
velocity: 0.0
doppler_bin: 8
bearing: -46.218875885
intensity: 29.0091304779
---
header: 
  seq: 1393944
  stamp: 
    secs: 1561868388
    nsecs:  56071796
  frame_id: "ti_mmwave"
point_id: 0
x: 0.01171875
y: -0.0390625
z: -0.0078125
range: 0.0435769706964
velocity: 0.0
doppler_bin: 8
bearing: -73.3007583618
intensity: 30.6520614624
---
header: 
  seq: 1393945
  stamp: 
    secs: 1561868388
    nsecs:  56154703
  frame_id: "ti_mmwave"
point_id: 1
x: 0.017578125
y: -0.080078125
z: -0.0078125
range: 0.0871539413929
velocity: 0.0
doppler_bin: 8
bearing: -77.6192398071
intensity: 31.9033164978
---
header: 
  seq: 1393946
  stamp: 
    secs: 1561868388
    nsecs:  56166650
  frame_id: "ti_mmwave"
point_id: 2
x: 0.029296875
y: -0.119140625
z: -0.005859375
range: 0.130730912089
velocity: 0.0
doppler_bin: 8
bearing: -76.1849746704
intensity: 30.1199302673
---
header: 
  seq: 1393947
  stamp: 
    secs: 1561868388
    nsecs:  56175531
  frame_id: "ti_mmwave"
point_id: 3
x: 0.056640625
y: -0.154296875
z: 0.005859375
range: 0.174307882786
velocity: 0.0
doppler_bin: 8
bearing: -69.8423843384
intensity: 25.4406795502
---
header: 
  seq: 1393948
  stamp: 
    secs: 1561868388
    nsecs:  56184114
  frame_id: "ti_mmwave"
point_id: 4
x: 0.1640625
y: -0.080078125
z: 1.255859375
range: 1.35088610649
velocity: 0.0
doppler_bin: 8
bearing: -26.0167827606
intensity: 23.138671875
---
header: 
  seq: 1393949
  stamp: 
    secs: 1561868388
    nsecs:  56193305
  frame_id: "ti_mmwave"
point_id: 5
x: 0.076171875
y: -0.08203125
z: 1.3046875
range: 1.39446306229
velocity: 0.0
doppler_bin: 8
bearing: -47.1210975647
intensity: 24.6389293671
---
header: 
  seq: 1393950
  stamp: 
    secs: 1561868388
    nsecs:  56201874
  frame_id: "ti_mmwave"
point_id: 6
x: 0.388671875
y: -0.083984375
z: -1.2890625
range: 1.43804001808
velocity: 0.0
doppler_bin: 8
bearing: -12.1930341721
intensity: 23.0535144806
---
header: 
  seq: 1393951
  stamp: 
    secs: 1561868388
    nsecs:  56211940
  frame_id: "ti_mmwave"
point_id: 7
x: 1.75
y: -0.0546875
z: -0.169921875
range: 1.87380969524
velocity: 0.0
doppler_bin: 8
bearing: -1.7899106741
intensity: 26.3144378662
---
header: 
  seq: 1393952
  stamp: 
    secs: 1561868388
    nsecs:  56221282
  frame_id: "ti_mmwave"
point_id: 8
x: 1.7734375
y: -0.0
z: -0.3046875
range: 1.91738677025
velocity: 0.0
doppler_bin: 8
bearing: -0.0
intensity: 26.812412262
---
header: 
  seq: 1393953
  stamp: 
    secs: 1561868388
    nsecs:  56240739
  frame_id: "ti_mmwave"
point_id: 9
x: 2.60546875
y: -0.17578125
z: 1.0703125
range: 3.00681090355
velocity: 0.0
doppler_bin: 8
bearing: -3.85968351364
intensity: 29.0417442322
---
header: 
  seq: 1393954
  stamp: 
    secs: 1561868388
    nsecs:  56254888
  frame_id: "ti_mmwave"
point_id: 10
x: 2.6875
y: -0.08984375
z: 0.982421875
range: 3.05038785934
velocity: 0.0
doppler_bin: 8
bearing: -1.91469812393
intensity: 32.229763031
---
header: 
  seq: 1393955
  stamp: 
    secs: 1561868388
    nsecs:  56268318
  frame_id: "ti_mmwave"
point_id: 11
x: 2.7734375
y: -0.0
z: 0.861328125
range: 3.09396481514
velocity: 0.0
doppler_bin: 8
bearing: -0.0
intensity: 31.1360912323
---
header: 
  seq: 1393956
  stamp: 
    secs: 1561868388
    nsecs:  56276395
  frame_id: "ti_mmwave"
point_id: 12
x: 4.41796875
y: -0.142578125
z: 1.20703125
range: 4.88062095642
velocity: 0.0
doppler_bin: 8
bearing: -1.84842634201
intensity: 31.5198230743
---
header: 
  seq: 1393957
  stamp: 
    secs: 1561868388
    nsecs:  56471857
  frame_id: "ti_mmwave"
point_id: 13
x: 4.453125
y: -0.14453125
z: 1.234375
range: 4.9241976738
velocity: 0.0
doppler_bin: 8
bearing: -1.85894739628
intensity: 31.1527767181
---
header: 
  seq: 1393958
  stamp: 
    secs: 1561868388
    nsecs:  56541400
  frame_id: "ti_mmwave"
point_id: 15
x: 0.041015625
y: -0.033203125
z: 0.0625
range: 0.0871539413929
velocity: 0.0
doppler_bin: 8
bearing: -38.9909973145
intensity: 30.0902576447
---
header: 
  seq: 1393959
  stamp: 
    secs: 1561868388
    nsecs:  56558588
  frame_id: "ti_mmwave"
point_id: 16
x: 0.044921875
y: -0.046875
z: 0.103515625
range: 0.130730912089
velocity: 0.0
doppler_bin: 8
bearing: -46.218875885
intensity: 29.0036716461
---
header: 
  seq: 1393960
  stamp: 
    secs: 1561868388
    nsecs:  56605899
  frame_id: "ti_mmwave"
point_id: 18
x: 2.73046875
y: -0.181640625
z: 0.974609375
range: 3.09396481514
velocity: 0.0
doppler_bin: 8
bearing: -3.80591416359
intensity: 31.1327476501
---
header: 
  seq: 1393961
  stamp: 
    secs: 1561868388
    nsecs:  57434158
  frame_id: "ti_mmwave"
point_id: 0
x: 0.01171875
y: -0.0390625
z: -0.0078125
range: 0.0435769706964
velocity: 0.0
doppler_bin: 8
bearing: -73.3007583618
intensity: 30.6520614624
---
header: 
  seq: 1393962
  stamp: 
    secs: 1561868388
    nsecs:  57489870
  frame_id: "ti_mmwave"
point_id: 1
x: 0.017578125
y: -0.080078125
z: -0.0078125
range: 0.0871539413929
velocity: 0.0
doppler_bin: 8
bearing: -77.6192398071
intensity: 31.9033164978
---
header: 
  seq: 1393963
  stamp: 
    secs: 1561868388
    nsecs:  57500215
  frame_id: "ti_mmwave"
point_id: 2
x: 0.029296875
y: -0.119140625
z: -0.005859375
range: 0.130730912089
velocity: 0.0
doppler_bin: 8
bearing: -76.1849746704
intensity: 30.1157035828
---
header: 
  seq: 1393964
  stamp: 
    secs: 1561868388
    nsecs:  57511311
  frame_id: "ti_mmwave"
point_id: 3
x: 0.056640625
y: -0.154296875
z: 0.005859375
range: 0.174307882786
velocity: 0.0
doppler_bin: 8
bearing: -69.8423843384
intensity: 25.4406795502
---
header: 
  seq: 1393965
  stamp: 
    secs: 1561868388
    nsecs:  57559645
  frame_id: "ti_mmwave"
point_id: 4
x: 0.177734375
y: -0.080078125
z: 1.25390625
range: 1.35088610649
velocity: 0.0
doppler_bin: 8
bearing: -24.2539196014
intensity: 23.1175384521
---
header: 
  seq: 1393966
  stamp: 
    secs: 1561868388
    nsecs:  57569505
  frame_id: "ti_mmwave"
point_id: 5
x: 0.078125
y: -0.08203125
z: 1.3046875
range: 1.39446306229
velocity: 0.0
doppler_bin: 8
bearing: -46.3971824646
intensity: 24.6538276672
---
header: 
  seq: 1393967
  stamp: 
    secs: 1561868388
    nsecs:  57577470
  frame_id: "ti_mmwave"
point_id: 6
x: 0.390625
y: -0.083984375
z: -1.2890625
range: 1.43804001808
velocity: 0.0
doppler_bin: 8
bearing: -12.1338806152
intensity: 23.1175384521
---
header: 
  seq: 1393968
  stamp: 
    secs: 1561868388
    nsecs:  57587025
  frame_id: "ti_mmwave"
point_id: 7
x: 0.5390625
y: -0.04296875
z: -1.28125
range: 1.48161697388
velocity: 0.0
doppler_bin: 8
bearing: -4.55741930008
intensity: 21.7026176453
---
header: 
  seq: 1393969
  stamp: 
    secs: 1561868388
    nsecs:  57595061
  frame_id: "ti_mmwave"
point_id: 8
x: 1.779296875
y: -0.056640625
z: -0.26171875
range: 1.91738677025
velocity: 0.0
doppler_bin: 8
bearing: -1.82328927517
intensity: 27.3399925232
---
header: 
  seq: 1393970
  stamp: 
    secs: 1561868388
    nsecs:  57600472
  frame_id: "ti_mmwave"
point_id: 9
x: 1.83984375
y: -0.0
z: -0.064453125
range: 1.96096372604
velocity: 0.0
doppler_bin: 8
bearing: -0.0
intensity: 29.3043956757
---
header: 
  seq: 1393971
  stamp: 
    secs: 1561868388
    nsecs:  57638829
  frame_id: "ti_mmwave"
point_id: 10
x: 1.880859375
y: -0.0
z: 0.0234375
range: 2.00454068184
velocity: 0.0
doppler_bin: 8
bearing: -0.0
intensity: 29.1115760803
---
header: 
  seq: 1393972
  stamp: 
    secs: 1561868388
    nsecs:  57647703
  frame_id: "ti_mmwave"
point_id: 11
x: 2.615234375
y: -0.17578125
z: 1.046875
range: 3.00681090355
velocity: 0.0
doppler_bin: 8
bearing: -3.84531402588
intensity: 28.9320678711
---
header: 
  seq: 1393973
  stamp: 
    secs: 1561868388
    nsecs:  57655638
  frame_id: "ti_mmwave"
point_id: 12
x: 2.662109375
y: -0.1796875
z: 1.041015625
range: 3.05038785934
velocity: 0.0
doppler_bin: 8
bearing: -3.86150240898
intensity: 32.1165428162
---
header: 
  seq: 1393974
  stamp: 
    secs: 1561868388
    nsecs:  57663283
  frame_id: "ti_mmwave"
point_id: 13
x: 2.75390625
y: -0.08984375
z: 0.916015625
range: 3.09396481514
velocity: 0.0
doppler_bin: 8
bearing: -1.86856126785
intensity: 31.1360912323
---
header: 
  seq: 1393975
  stamp: 
    secs: 1561868388
    nsecs:  57671561
  frame_id: "ti_mmwave"
point_id: 14
x: 4.416015625
y: -0.142578125
z: 1.048828125
range: 4.83704376221
velocity: 0.0
doppler_bin: 8
bearing: -1.84924340248
intensity: 28.1756534576
---
header: 
  seq: 1393976
  stamp: 
    secs: 1561868388
    nsecs:  57681704
  frame_id: "ti_mmwave"
point_id: 15
x: 4.40625
y: -0.287109375
z: 1.224609375
range: 4.88062095642
velocity: 0.0
doppler_bin: 8
bearing: -3.72809815407
intensity: 31.5533599854
---
header: 
  seq: 1393977
  stamp: 
    secs: 1561868388
    nsecs:  57690263
  frame_id: "ti_mmwave"
point_id: 16
x: 4.44921875
y: -0.14453125
z: 1.2421875
range: 4.9241976738
velocity: 0.0
doppler_bin: 8
bearing: -1.86057829857
intensity: 31.2385158539
---
header: 
  seq: 1393978
  stamp: 
    secs: 1561868388
    nsecs:  57713853
  frame_id: "ti_mmwave"
point_id: 17
x: 1.705078125
y: 0.21484375
z: 0.017578125
range: 1.83023273945
velocity: 1.22933733463
doppler_bin: 10
bearing: 7.18155288696
intensity: 25.0785579681
---
header: 
  seq: 1393979
  stamp: 
    secs: 1561868388
    nsecs:  57732371
  frame_id: "ti_mmwave"
point_id: 18
x: 1.74609375
y: 0.220703125
z: 0.005859375
range: 1.87380969524
velocity: 1.22933733463
doppler_bin: 10
bearing: 7.20388174057
intensity: 26.7024593353
---
header: 
  seq: 1393980
  stamp: 
    secs: 1561868388
    nsecs:  57784577
  frame_id: "ti_mmwave"
point_id: 19
x: 1.98046875
y: 0.1875
z: -0.23828125
range: 2.13527154922
velocity: 1.22933733463
doppler_bin: 10
bearing: 5.40833187103
intensity: 24.0483379364
---
header: 
  seq: 1393981
  stamp: 
    secs: 1561868388
    nsecs:  57793413
  frame_id: "ti_mmwave"
point_id: 20
x: 2.0234375
y: 0.19140625
z: -0.224609375
range: 2.17884850502
velocity: 1.22933733463
doppler_bin: 10
bearing: 5.40379190445
intensity: 23.9093513489
---
header: 
  seq: 1393982
  stamp: 
    secs: 1561868388
    nsecs:  57804250
  frame_id: "ti_mmwave"
point_id: 22
x: 0.041015625
y: -0.033203125
z: 0.0625
range: 0.0871539413929
velocity: 0.0
doppler_bin: 8
bearing: -38.9909973145
intensity: 30.0945091248
---
header: 
  seq: 1393983
  stamp: 
    secs: 1561868388
    nsecs:  57816869
  frame_id: "ti_mmwave"
point_id: 23
x: 0.046875
y: -0.046875
z: 0.103515625
range: 0.130730912089
velocity: 0.0
doppler_bin: 8
bearing: -45.0
intensity: 29.0091304779
---
header: 
  seq: 1393984
  stamp: 
    secs: 1561868388
    nsecs: 116198743
  frame_id: "ti_mmwave"
point_id: 0
x: 0.01171875
y: -0.0390625
z: -0.0078125
range: 0.0435769706964
velocity: 0.0
doppler_bin: 8
bearing: -73.3007583618
intensity: 30.6595306396
---
header: 
  seq: 1393985
  stamp: 
    secs: 1561868388
    nsecs: 116276855
  frame_id: "ti_mmwave"
point_id: 1
x: 0.017578125
y: -0.080078125
z: -0.0078125
range: 0.0871539413929
velocity: 0.0
doppler_bin: 8
bearing: -77.6192398071
intensity: 31.9061183929
---
header: 
  seq: 1393986
  stamp: 
    secs: 1561868388
    nsecs: 116288125
  frame_id: "ti_mmwave"
point_id: 2
x: 0.029296875
y: -0.119140625
z: -0.005859375
range: 0.130730912089
velocity: 0.0
doppler_bin: 8
bearing: -76.1849746704
intensity: 30.1199302673
---
header: 
  seq: 1393987
  stamp: 
    secs: 1561868388
    nsecs: 116297530
  frame_id: "ti_mmwave"
point_id: 3
x: 0.056640625
y: -0.154296875
z: 0.0078125
range: 0.174307882786
velocity: 0.0
doppler_bin: 8
bearing: -69.8423843384
intensity: 25.4530715942
---
header: 
  seq: 1393988
  stamp: 
    secs: 1561868388
    nsecs: 116309621
  frame_id: "ti_mmwave"
point_id: 4
x: 0.19921875
y: -0.080078125
z: 1.25
range: 1.35088610649
velocity: 0.0
doppler_bin: 8
bearing: -21.8981933594
intensity: 23.0963020325
---
header: 
  seq: 1393989
  stamp: 
    secs: 1561868388
    nsecs: 116323067
  frame_id: "ti_mmwave"
point_id: 5
x: 0.037109375
y: -0.08203125
z: 1.306640625
range: 1.39446306229
velocity: 0.0
doppler_bin: 8
bearing: -65.6589126587
intensity: 24.6389293671
---
header: 
  seq: 1393990
  stamp: 
    secs: 1561868388
    nsecs: 116336282
  frame_id: "ti_mmwave"
point_id: 6
x: 0.4140625
y: -0.083984375
z: -1.28125
range: 1.43804001808
velocity: 0.0
doppler_bin: 8
bearing: -11.4657688141
intensity: 23.1175384521
---
header: 
  seq: 1393991
  stamp: 
    secs: 1561868388
    nsecs: 116501525
  frame_id: "ti_mmwave"
point_id: 7
x: 0.5703125
y: -0.04296875
z: -1.267578125
range: 1.48161697388
velocity: 0.0
doppler_bin: 8
bearing: -4.30866527557
intensity: 21.6731739044
---
header: 
  seq: 1393992
  stamp: 
    secs: 1561868388
    nsecs: 116536089
  frame_id: "ti_mmwave"
point_id: 8
x: 1.83984375
y: 0.056640625
z: -0.041015625
range: 1.96096372604
velocity: 0.0
doppler_bin: 8
bearing: 1.76332592964
intensity: 27.8318862915
---
header: 
  seq: 1393993
  stamp: 
    secs: 1561868388
    nsecs: 116547838
  frame_id: "ti_mmwave"
point_id: 9
x: 2.615234375
y: -0.17578125
z: 1.046875
range: 3.00681090355
velocity: 0.0
doppler_bin: 8
bearing: -3.84531402588
intensity: 28.864906311
---
header: 
  seq: 1393994
  stamp: 
    secs: 1561868388
    nsecs: 116585677
  frame_id: "ti_mmwave"
point_id: 10
x: 2.69140625
y: -0.08984375
z: 0.97265625
range: 3.05038785934
velocity: 0.0
doppler_bin: 8
bearing: -1.91192126274
intensity: 32.1245384216
---
header: 
  seq: 1393995
  stamp: 
    secs: 1561868388
    nsecs: 116595468
  frame_id: "ti_mmwave"
point_id: 11
x: 2.759765625
y: -0.08984375
z: 0.8984375
range: 3.09396481514
velocity: 0.0
doppler_bin: 8
bearing: -1.86459684372
intensity: 31.1594314575
---
header: 
  seq: 1393996
  stamp: 
    secs: 1561868388
    nsecs: 116606876
  frame_id: "ti_mmwave"
point_id: 12
x: 4.408203125
y: -0.142578125
z: 1.076171875
range: 4.83704376221
velocity: 0.0
doppler_bin: 8
bearing: -1.85251843929
intensity: 28.4198474884
---
header: 
  seq: 1393997
  stamp: 
    secs: 1561868388
    nsecs: 116618631
  frame_id: "ti_mmwave"
point_id: 13
x: 4.4140625
y: -0.142578125
z: 1.21484375
range: 4.88062095642
velocity: 0.0
doppler_bin: 8
bearing: -1.850061059
intensity: 31.8298492432
---
header: 
  seq: 1393998
  stamp: 
    secs: 1561868388
    nsecs: 116634662
  frame_id: "ti_mmwave"
point_id: 14
x: 4.447265625
y: -0.14453125
z: 1.251953125
range: 4.9241976738
velocity: 0.0
doppler_bin: 8
bearing: -1.86139500141
intensity: 31.562461853
---
header: 
  seq: 1393999
  stamp: 
    secs: 1561868388
    nsecs: 116690597
  frame_id: "ti_mmwave"
point_id: 15
x: 1.998046875
y: 0.125
z: -0.1171875
range: 2.13527154922
velocity: 1.22933733463
doppler_bin: 10
bearing: 3.57982134819
intensity: 23.7291202545
---
header: 
  seq: 1394000
  stamp: 
    secs: 1561868388
    nsecs: 116707002
  frame_id: "ti_mmwave"
point_id: 16
x: 2.037109375
y: 0.126953125
z: -0.138671875
range: 2.17884850502
velocity: 1.22933733463
doppler_bin: 10
bearing: 3.56607413292
intensity: 25.8658733368
---
header: 
  seq: 1394001
  stamp: 
    secs: 1561868388
    nsecs: 116859364
  frame_id: "ti_mmwave"
point_id: 17
x: 2.076171875
y: 0.130859375
z: -0.154296875
range: 2.22242546082
velocity: 1.22933733463
doppler_bin: 10
bearing: 3.60653400421
intensity: 25.1851387024
---
header: 
  seq: 1394002
  stamp: 
    secs: 1561868388
    nsecs: 116881525
  frame_id: "ti_mmwave"
point_id: 19
x: 0.041015625
y: -0.033203125
z: 0.0625
range: 0.0871539413929
velocity: 0.0
doppler_bin: 8
bearing: -38.9909973145
intensity: 30.0945091248
---
header: 
  seq: 1394003
  stamp: 
    secs: 1561868388
    nsecs: 116982376
  frame_id: "ti_mmwave"
point_id: 20
x: 0.044921875
y: -0.046875
z: 0.103515625
range: 0.130730912089
velocity: 0.0
doppler_bin: 8
bearing: -46.218875885
intensity: 29.0091304779
---
header: 
  seq: 1394004
  stamp: 
    secs: 1561868388
