header: 
  seq: 1408710
  stamp: 
    secs: 1561868411
    nsecs: 816252738
  frame_id: "ti_mmwave"
point_id: 0
x: 0.01171875
y: -0.0390625
z: -0.0078125
range: 0.0435769706964
velocity: 0.0
doppler_bin: 8
bearing: -73.3007583618
intensity: 30.6445808411
---
header: 
  seq: 1408711
  stamp: 
    secs: 1561868411
    nsecs: 816389423
  frame_id: "ti_mmwave"
point_id: 1
x: 0.017578125
y: -0.080078125
z: -0.0078125
range: 0.0871539413929
velocity: 0.0
doppler_bin: 8
bearing: -77.6192398071
intensity: 31.9033164978
---
header: 
  seq: 1408712
  stamp: 
    secs: 1561868411
    nsecs: 816411236
  frame_id: "ti_mmwave"
point_id: 2
x: 0.029296875
y: -0.119140625
z: -0.005859375
range: 0.130730912089
velocity: 0.0
doppler_bin: 8
bearing: -76.1849746704
intensity: 30.1199302673
---
header: 
  seq: 1408713
  stamp: 
    secs: 1561868411
    nsecs: 816425176
  frame_id: "ti_mmwave"
point_id: 3
x: 0.056640625
y: -0.154296875
z: 0.005859375
range: 0.174307882786
velocity: 0.0
doppler_bin: 8
bearing: -69.8423843384
intensity: 25.4530715942
---
header: 
  seq: 1408714
  stamp: 
    secs: 1561868411
    nsecs: 816441258
  frame_id: "ti_mmwave"
point_id: 4
x: 0.130859375
y: -0.080078125
z: 1.259765625
range: 1.35088610649
velocity: 0.0
doppler_bin: 8
bearing: -31.4641437531
intensity: 23.1175384521
---
header: 
  seq: 1408715
  stamp: 
    secs: 1561868411
    nsecs: 816547247
  frame_id: "ti_mmwave"
point_id: 6
x: 0.423828125
y: -0.083984375
z: -1.279296875
range: 1.43804001808
velocity: 0.0
doppler_bin: 8
bearing: -11.2083444595
intensity: 23.0749607086
---
header: 
  seq: 1408716
  stamp: 
    secs: 1561868411
    nsecs: 816566153
  frame_id: "ti_mmwave"
point_id: 7
x: 0.568359375
y: -0.04296875
z: -1.267578125
range: 1.48161697388
velocity: 0.0
doppler_bin: 8
bearing: -4.32341527939
intensity: 21.6435279846
---
header: 
  seq: 1408717
  stamp: 
    secs: 1561868411
    nsecs: 816581397
  frame_id: "ti_mmwave"
point_id: 8
x: 2.607421875
y: -0.17578125
z: 1.068359375
range: 3.00681090355
velocity: 0.0
doppler_bin: 8
bearing: -3.8568007946
intensity: 28.8817958832
---
header: 
  seq: 1408718
  stamp: 
    secs: 1561868411
    nsecs: 816595308
  frame_id: "ti_mmwave"
point_id: 9
x: 2.658203125
y: -0.1796875
z: 1.05078125
range: 3.05038785934
velocity: 0.0
doppler_bin: 8
bearing: -3.86716008186
intensity: 32.0978317261
---
header: 
  seq: 1408719
  stamp: 
    secs: 1561868411
    nsecs: 816635903
  frame_id: "ti_mmwave"
point_id: 10
x: 2.759765625
y: -0.08984375
z: 0.900390625
range: 3.09396481514
velocity: 0.0
doppler_bin: 8
bearing: -1.86459684372
intensity: 31.0448703766
---
header: 
  seq: 1408720
  stamp: 
    secs: 1561868411
    nsecs: 816650801
  frame_id: "ti_mmwave"
point_id: 11
x: 4.357421875
y: -0.142578125
z: 1.271484375
range: 4.83704376221
velocity: 0.0
doppler_bin: 8
bearing: -1.87409222126
intensity: 27.6566848755
---
header: 
  seq: 1408721
  stamp: 
    secs: 1561868411
    nsecs: 816664567
  frame_id: "ti_mmwave"
point_id: 12
x: 4.3984375
y: -0.142578125
z: 1.27734375
range: 4.88062095642
velocity: 0.0
doppler_bin: 8
bearing: -1.8566287756
intensity: 31.4612808228
---
header: 
  seq: 1408722
  stamp: 
    secs: 1561868411
    nsecs: 816675597
  frame_id: "ti_mmwave"
point_id: 13
x: 4.43359375
y: -0.14453125
z: 1.30078125
range: 4.9241976738
velocity: 0.0
doppler_bin: 8
bearing: -1.86713063717
intensity: 31.0619087219
---
header: 
  seq: 1408723
  stamp: 
    secs: 1561868411
    nsecs: 816705796
  frame_id: "ti_mmwave"
point_id: 14
x: 4.83203125
y: -0.154296875
z: 0.85546875
range: 5.22923660278
velocity: 0.0
doppler_bin: 8
bearing: -1.8289526701
intensity: 29.609462738
---
header: 
  seq: 1408724
  stamp: 
    secs: 1561868411
    nsecs: 816727949
  frame_id: "ti_mmwave"
point_id: 15
x: 4.884765625
y: -0.30859375
z: 0.734375
range: 5.27281332016
velocity: 0.0
doppler_bin: 8
bearing: -3.6148416996
intensity: 31.0924091339
---
header: 
  seq: 1408725
  stamp: 
    secs: 1561868411
    nsecs: 816750249
  frame_id: "ti_mmwave"
point_id: 16
x: 4.951171875
y: -0.623046875
z: 0.103515625
range: 5.31639051437
velocity: 0.0
doppler_bin: 8
bearing: -7.17230129242
intensity: 29.6425971985
---
header: 
  seq: 1408726
  stamp: 
    secs: 1561868411
    nsecs: 816774683
  frame_id: "ti_mmwave"
point_id: 17
x: 1.62890625
y: 0.154296875
z: 0.041015625
range: 1.74307882786
velocity: 0.614668667316
doppler_bin: 9
bearing: 5.41115236282
intensity: 29.1487178802
---
header: 
  seq: 1408727
  stamp: 
    secs: 1561868411
    nsecs: 816797147
  frame_id: "ti_mmwave"
point_id: 18
x: 1.669921875
y: 0.158203125
z: -0.01171875
range: 1.78665578365
velocity: 0.614668667316
doppler_bin: 9
bearing: 5.41186904907
intensity: 31.1793384552
---
header: 
  seq: 1408728
  stamp: 
    secs: 1561868411
    nsecs: 816823121
  frame_id: "ti_mmwave"
point_id: 19
x: 1.7109375
y: 0.16015625
z: -0.0390625
range: 1.83023273945
velocity: 0.614668667316
doppler_bin: 9
bearing: 5.34772062302
intensity: 30.0774784088
---
header: 
  seq: 1408729
  stamp: 
    secs: 1561868411
    nsecs: 816846543
  frame_id: "ti_mmwave"
point_id: 20
x: 1.748046875
y: 0.1640625
z: -0.107421875
range: 1.87380969524
velocity: 0.614668667316
doppler_bin: 9
bearing: 5.36177444458
intensity: 25.9328613281
---
header: 
  seq: 1408730
  stamp: 
    secs: 1561868411
    nsecs: 816870146
  frame_id: "ti_mmwave"
point_id: 21
x: 1.736328125
y: 0.337890625
z: -0.3359375
range: 1.91738677025
velocity: 1.22933733463
doppler_bin: 10
bearing: 11.0121650696
intensity: 23.6921577454
---
header: 
  seq: 1408731
  stamp: 
    secs: 1561868411
    nsecs: 816891830
  frame_id: "ti_mmwave"
point_id: 22
x: 1.76953125
y: 0.40234375
z: -0.3046875
range: 1.96096372604
velocity: 1.22933733463
doppler_bin: 10
bearing: 12.8097324371
intensity: 23.138671875
---
header: 
  seq: 1408732
  stamp: 
    secs: 1561868411
    nsecs: 816918539
  frame_id: "ti_mmwave"
point_id: 24
x: 0.041015625
y: -0.033203125
z: 0.0625
range: 0.0871539413929
velocity: 0.0
doppler_bin: 8
bearing: -38.9909973145
intensity: 30.0945091248
---
header: 
  seq: 1408733
  stamp: 
    secs: 1561868411
    nsecs: 817015236
  frame_id: "ti_mmwave"
point_id: 25
x: 0.044921875
y: -0.046875
z: 0.103515625
range: 0.130730912089
velocity: 0.0
doppler_bin: 8
bearing: -46.218875885
intensity: 29.0145835876
---
header: 
  seq: 1408734
  stamp: 
    secs: 1561868411
    nsecs: 817820044
  frame_id: "ti_mmwave"
point_id: 0
x: 0.01171875
y: -0.0390625
z: -0.0078125
range: 0.0435769706964
velocity: 0.0
doppler_bin: 8
bearing: -73.3007583618
intensity: 30.6408348083
---
header: 
  seq: 1408735
  stamp: 
    secs: 1561868411
    nsecs: 817885522
  frame_id: "ti_mmwave"
point_id: 1
x: 0.017578125
y: -0.080078125
z: -0.0078125
range: 0.0871539413929
velocity: 0.0
doppler_bin: 8
bearing: -77.6192398071
intensity: 31.9005146027
---
header: 
  seq: 1408736
  stamp: 
    secs: 1561868411
    nsecs: 817902854
  frame_id: "ti_mmwave"
point_id: 2
x: 0.029296875
y: -0.119140625
z: -0.005859375
range: 0.130730912089
velocity: 0.0
doppler_bin: 8
bearing: -76.1849746704
intensity: 30.1157035828
---
header: 
  seq: 1408737
  stamp: 
    secs: 1561868411
    nsecs: 817923669
  frame_id: "ti_mmwave"
point_id: 3
x: 0.056640625
y: -0.154296875
z: 0.005859375
range: 0.174307882786
velocity: 0.0
doppler_bin: 8
bearing: -69.8423843384
intensity: 25.4282550812
---
header: 
  seq: 1408738
  stamp: 
    secs: 1561868411
    nsecs: 817996529
  frame_id: "ti_mmwave"
point_id: 4
x: 0.134765625
y: -0.080078125
z: 1.2578125
range: 1.35088610649
velocity: 0.0
doppler_bin: 8
bearing: -30.7189025879
intensity: 23.0963020325
---
header: 
  seq: 1408739
  stamp: 
    secs: 1561868411
    nsecs: 818012819
  frame_id: "ti_mmwave"
point_id: 5
x: 0.0625
y: -0.08203125
z: 1.3046875
range: 1.39446306229
velocity: 0.0
doppler_bin: 8
bearing: -52.6960487366
intensity: 24.6389293671
---
header: 
  seq: 1408740
  stamp: 
    secs: 1561868411
    nsecs: 818027330
  frame_id: "ti_mmwave"
point_id: 6
x: 0.4140625
y: -0.083984375
z: -1.28125
range: 1.43804001808
velocity: 0.0
doppler_bin: 8
bearing: -11.4657688141
intensity: 23.0963020325
---
header: 
  seq: 1408741
  stamp: 
    secs: 1561868411
    nsecs: 818043866
  frame_id: "ti_mmwave"
point_id: 7
x: 0.572265625
y: -0.04296875
z: -1.267578125
range: 1.48161697388
velocity: 0.0
doppler_bin: 8
bearing: -4.29401493073
intensity: 21.7026176453
---
header: 
  seq: 1408742
  stamp: 
    secs: 1561868411
    nsecs: 818098772
  frame_id: "ti_mmwave"
point_id: 8
x: 2.603515625
y: -0.17578125
z: 1.078125
range: 3.00681090355
velocity: 0.0
doppler_bin: 8
bearing: -3.86257004738
intensity: 28.9707698822
---
header: 
  seq: 1408743
  stamp: 
    secs: 1561868411
    nsecs: 818113067
  frame_id: "ti_mmwave"
point_id: 9
x: 2.685546875
y: -0.08984375
z: 0.9921875
range: 3.05038785934
velocity: 0.0
doppler_bin: 8
bearing: -1.91608965397
intensity: 32.1984634399
---
header: 
  seq: 1408744
  stamp: 
    secs: 1561868411
    nsecs: 818126183
  frame_id: "ti_mmwave"
point_id: 10
x: 2.744140625
y: -0.08984375
z: 0.9453125
range: 3.09396481514
velocity: 0.0
doppler_bin: 8
bearing: -1.87520623207
intensity: 31.2123146057
---
header: 
  seq: 1408745
  stamp: 
    secs: 1561868411
    nsecs: 818134337
  frame_id: "ti_mmwave"
point_id: 11
x: 4.400390625
y: -0.142578125
z: 1.265625
range: 4.88062095642
velocity: 0.0
doppler_bin: 8
bearing: -1.85580503941
intensity: 31.4019374847
---
header: 
  seq: 1408746
  stamp: 
    secs: 1561868411
    nsecs: 818156901
  frame_id: "ti_mmwave"
point_id: 12
x: 4.43359375
y: -0.14453125
z: 1.302734375
range: 4.9241976738
velocity: 0.0
doppler_bin: 8
bearing: -1.86713063717
intensity: 30.9131507874
---
header: 
  seq: 1408747
  stamp: 
    secs: 1561868411
    nsecs: 818176842
  frame_id: "ti_mmwave"
point_id: 13
x: 4.88671875
y: -0.30859375
z: 0.7265625
range: 5.27281332016
velocity: 0.0
doppler_bin: 8
bearing: -3.61340069771
intensity: 31.306552887
---
header: 
  seq: 1408748
  stamp: 
    secs: 1561868411
    nsecs: 818196293
  frame_id: "ti_mmwave"
point_id: 14
x: 4.966796875
y: -0.46875
z: 0.095703125
range: 5.31639051437
velocity: 0.0
doppler_bin: 8
bearing: -5.39141845703
intensity: 29.9387683868
---
header: 
  seq: 1408749
  stamp: 
    secs: 1561868411
    nsecs: 818260146
  frame_id: "ti_mmwave"
point_id: 15
x: 1.662109375
y: 0.208984375
z: -0.056640625
range: 1.78665578365
velocity: 0.614668667316
doppler_bin: 9
bearing: 7.16644525528
intensity: 28.6093654633
---
header: 
  seq: 1408750
  stamp: 
    secs: 1561868411
    nsecs: 818275804
  frame_id: "ti_mmwave"
point_id: 16
x: 1.69140625
y: 0.21484375
z: -0.2109375
range: 1.83023273945
velocity: 0.614668667316
doppler_bin: 9
bearing: 7.23898983002
intensity: 30.2530593872
---
header: 
  seq: 1408751
  stamp: 
    secs: 1561868411
    nsecs: 818291738
  frame_id: "ti_mmwave"
point_id: 17
x: 1.740234375
y: 0.220703125
z: -0.119140625
range: 1.87380969524
velocity: 0.614668667316
doppler_bin: 9
bearing: 7.22788143158
intensity: 29.7863693237
---
header: 
  seq: 1408752
  stamp: 
    secs: 1561868411
    nsecs: 818304242
  frame_id: "ti_mmwave"
point_id: 18
x: 1.78515625
y: 0.224609375
z: -0.037109375
range: 1.91738677025
velocity: 0.614668667316
doppler_bin: 9
bearing: 7.17130327225
intensity: 26.3144378662
---
header: 
  seq: 1408753
  stamp: 
    secs: 1561868411
    nsecs: 818319622
  frame_id: "ti_mmwave"
point_id: 20
x: 0.041015625
y: -0.033203125
z: 0.0625
range: 0.0871539413929
velocity: 0.0
doppler_bin: 8
bearing: -38.9909973145
intensity: 30.0945091248
---
header: 
  seq: 1408754
  stamp: 
    secs: 1561868411
    nsecs: 818332598
  frame_id: "ti_mmwave"
point_id: 21
x: 0.044921875
y: -0.046875
z: 0.103515625
range: 0.130730912089
velocity: 0.0
doppler_bin: 8
bearing: -46.218875885
intensity: 29.0091304779
---
header: 
  seq: 1408755
  stamp: 
    secs: 1561868411
    nsecs: 876230270
  frame_id: "ti_mmwave"
point_id: 0
x: 0.01171875
y: -0.0390625
z: -0.0078125
range: 0.0435769706964
velocity: 0.0
doppler_bin: 8
bearing: -73.3007583618
intensity: 30.6483230591
---
header: 
  seq: 1408756
  stamp: 
    secs: 1561868411
    nsecs: 876305762
  frame_id: "ti_mmwave"
point_id: 1
x: 0.017578125
y: -0.080078125
z: -0.0078125
range: 0.0871539413929
velocity: 0.0
doppler_bin: 8
bearing: -77.6192398071
intensity: 31.9061183929
---
header: 
  seq: 1408757
  stamp: 
    secs: 1561868411
    nsecs: 876317022
  frame_id: "ti_mmwave"
point_id: 2
x: 0.029296875
y: -0.119140625
z: -0.005859375
range: 0.130730912089
velocity: 0.0
doppler_bin: 8
bearing: -76.1849746704
intensity: 30.1241531372
---
header: 
  seq: 1408758
  stamp: 
    secs: 1561868411
    nsecs: 876325647
  frame_id: "ti_mmwave"
point_id: 3
x: 0.056640625
y: -0.154296875
z: 0.005859375
range: 0.174307882786
velocity: 0.0
doppler_bin: 8
bearing: -69.8423843384
intensity: 25.4530715942
---
header: 
  seq: 1408759
  stamp: 
    secs: 1561868411
    nsecs: 876336367
  frame_id: "ti_mmwave"
point_id: 4
x: 0.087890625
y: -0.080078125
z: 1.26171875
range: 1.35088610649
velocity: 0.0
doppler_bin: 8
bearing: -42.3369979858
intensity: 23.0963020325
---
header: 
  seq: 1408760
  stamp: 
    secs: 1561868411
    nsecs: 876344740
  frame_id: "ti_mmwave"
point_id: 5
x: 0.091796875
y: -0.08203125
z: -1.302734375
range: 1.39446306229
velocity: 0.0
doppler_bin: 8
bearing: -41.7845153809
intensity: 24.6239795685
---
header: 
  seq: 1408761
  stamp: 
    secs: 1561868411
    nsecs: 876353147
  frame_id: "ti_mmwave"
point_id: 6
x: 0.443359375
y: -0.083984375
z: -1.271484375
range: 1.43804001808
velocity: 0.0
doppler_bin: 8
bearing: -10.7262945175
intensity: 23.0749607086
---
header: 
  seq: 1408762
  stamp: 
    secs: 1561868411
    nsecs: 876363488
  frame_id: "ti_mmwave"
point_id: 7
x: 0.57421875
y: -0.04296875
z: -1.265625
range: 1.48161697388
velocity: 0.0
doppler_bin: 8
bearing: -4.27946329117
intensity: 21.7026176453
---
header: 
  seq: 1408763
  stamp: 
    secs: 1561868411
    nsecs: 876372257
  frame_id: "ti_mmwave"
point_id: 8
x: 2.62109375
y: -0.17578125
z: 1.029296875
range: 3.00681090355
velocity: 0.0
doppler_bin: 8
bearing: -3.83674383163
intensity: 29.0633506775
---
header: 
  seq: 1408764
  stamp: 
    secs: 1561868411
    nsecs: 876380481
  frame_id: "ti_mmwave"
point_id: 9
x: 2.66015625
y: -0.1796875
z: 1.04296875
range: 3.05038785934
velocity: 0.0
doppler_bin: 8
bearing: -3.86432933807
intensity: 32.1616592407
---
header: 
  seq: 1408765
  stamp: 
    secs: 1561868411
    nsecs: 876388630
  frame_id: "ti_mmwave"
point_id: 10
x: 2.75390625
y: -0.08984375
z: 0.916015625
range: 3.09396481514
velocity: 0.0
doppler_bin: 8
bearing: -1.86856126785
intensity: 31.2515583038
---
header: 
  seq: 1408766
  stamp: 
    secs: 1561868411
    nsecs: 876397106
  frame_id: "ti_mmwave"
point_id: 11
x: 4.400390625
y: -0.142578125
z: 1.265625
range: 4.88062095642
velocity: 0.0
doppler_bin: 8
bearing: -1.85580503941
intensity: 31.3353881836
---
header: 
  seq: 1408767
  stamp: 
    secs: 1561868411
    nsecs: 876406361
  frame_id: "ti_mmwave"
point_id: 12
x: 4.435546875
y: -0.14453125
z: 1.294921875
range: 4.9241976738
velocity: 0.0
doppler_bin: 8
bearing: -1.86630904675
intensity: 30.8990516663
---
header: 
  seq: 1408768
  stamp: 
    secs: 1561868411
    nsecs: 876414927
  frame_id: "ti_mmwave"
point_id: 13
x: 4.736328125
y: -0.298828125
z: -0.61328125
range: 5.09850549698
velocity: 0.0
doppler_bin: 8
bearing: -3.61016488075
intensity: 31.344959259
---
header: 
  seq: 1408769
  stamp: 
    secs: 1561868411
    nsecs: 876424368
  frame_id: "ti_mmwave"
point_id: 14
x: 4.765625
y: -0.30078125
z: -0.708984375
range: 5.14208269119
velocity: 0.0
doppler_bin: 8
bearing: -3.61141896248
intensity: 31.886472702
---
header: 
  seq: 1408770
  stamp: 
    secs: 1561868411
    nsecs: 876432569
  frame_id: "ti_mmwave"
point_id: 15
x: 4.88671875
y: -0.30859375
z: 0.728515625
range: 5.27281332016
velocity: 0.0
doppler_bin: 8
bearing: -3.61340069771
intensity: 31.1461105347
---
header: 
  seq: 1408771
  stamp: 
    secs: 1561868411
    nsecs: 876441294
  frame_id: "ti_mmwave"
point_id: 16
x: 4.951171875
y: -0.623046875
z: 0.06640625
range: 5.31639051437
velocity: 0.0
doppler_bin: 8
bearing: -7.17230129242
intensity: 29.7405090332
---
header: 
  seq: 1408772
  stamp: 
    secs: 1561868411
    nsecs: 876449776
  frame_id: "ti_mmwave"
point_id: 17
x: 1.66796875
y: 0.158203125
z: 0.060546875
range: 1.78665578365
velocity: 0.614668667316
doppler_bin: 9
bearing: 5.41816902161
intensity: 27.6641292572
---
header: 
  seq: 1408773
  stamp: 
    secs: 1561868411
    nsecs: 876589395
  frame_id: "ti_mmwave"
point_id: 18
x: 1.7109375
y: 0.16015625
z: 0.0078125
range: 1.83023273945
velocity: 0.614668667316
doppler_bin: 9
bearing: 5.34772062302
intensity: 30.3342380524
---
header: 
  seq: 1408774
  stamp: 
    secs: 1561868411
    nsecs: 876599918
  frame_id: "ti_mmwave"
point_id: 19
x: 1.744140625
y: 0.220703125
z: -0.03125
range: 1.87380969524
velocity: 0.614668667316
doppler_bin: 9
bearing: 7.21186351776
intensity: 29.9607372284
---
header: 
  seq: 1408775
  stamp: 
    secs: 1561868411
    nsecs: 876608293
  frame_id: "ti_mmwave"
point_id: 20
x: 1.78515625
y: 0.224609375
z: -0.029296875
range: 1.91738677025
velocity: 0.614668667316
doppler_bin: 9
bearing: 7.17130327225
intensity: 26.7851829529
---
header: 
  seq: 1408776
  stamp: 
    secs: 1561868411
    nsecs: 876618658
  frame_id: "ti_mmwave"
point_id: 21
x: 1.765625
y: 0.517578125
z: -0.064453125
range: 1.96096372604
velocity: 1.22933733463
doppler_bin: 10
bearing: 16.3380565643
intensity: 23.8381538391
---
header: 
  seq: 1408777
  stamp: 
    secs: 1561868411
    nsecs: 876627651
  frame_id: "ti_mmwave"
point_id: 22
x: 1.822265625
y: 0.470703125
z: -0.033203125
range: 2.00454068184
velocity: 1.22933733463
doppler_bin: 10
bearing: 14.4832935333
intensity: 25.0242710114
---
header: 
  seq: 1408778
  stamp: 
    secs: 1561868411
    nsecs: 876638659
  frame_id: "ti_mmwave"
point_id: 24
x: 0.041015625
y: -0.033203125
z: 0.0625
range: 0.0871539413929
velocity: 0.0
doppler_bin: 8
bearing: -38.9909973145
intensity: 30.0987567902
---
header: 
  seq: 1408779
  stamp: 
    secs: 1561868411
    nsecs: 876647777
  frame_id: "ti_mmwave"
point_id: 25
x: 0.044921875
y: -0.046875
z: 0.103515625
range: 0.130730912089
velocity: 0.0
doppler_bin: 8
bearing: -46.218875885
intensity: 29.0091304779
---
header: 
  seq: 1408780
  stamp: 
    secs: 1561868411
    nsecs: 878124110
  frame_id: "ti_mmwave"
point_id: 0
x: 0.01171875
y: -0.0390625
z: -0.0078125
range: 0.0435769706964
velocity: 0.0
doppler_bin: 8
bearing: -73.3007583618
intensity: 30.6445808411
---
header: 
  seq: 1408781
  stamp: 
    secs: 1561868411
    nsecs: 878173882
  frame_id: "ti_mmwave"
point_id: 1
x: 0.017578125
y: -0.080078125
z: -0.0078125
range: 0.0871539413929
velocity: 0.0
doppler_bin: 8
bearing: -77.6192398071
intensity: 31.9033164978
---
header: 
  seq: 1408782
  stamp: 
    secs: 1561868411
    nsecs: 878183736
  frame_id: "ti_mmwave"
point_id: 2
x: 0.029296875
y: -0.119140625
z: -0.005859375
range: 0.130730912089
velocity: 0.0
doppler_bin: 8
bearing: -76.1849746704
intensity: 30.1199302673
---
header: 
  seq: 1408783
  stamp: 
    secs: 1561868411
    nsecs: 878192231
  frame_id: "ti_mmwave"
point_id: 3
x: 0.056640625
y: -0.154296875
z: 0.0078125
range: 0.174307882786
velocity: 0.0
doppler_bin: 8
bearing: -69.8423843384
intensity: 25.4406795502
---
header: 
  seq: 1408784
  stamp: 
    secs: 1561868411
    nsecs: 878201838
  frame_id: "ti_mmwave"
point_id: 4
x: 0.087890625
y: -0.080078125
z: 1.26171875
range: 1.35088610649
velocity: 0.0
doppler_bin: 8
bearing: -42.3369979858
intensity: 23.0963020325
---
header: 
  seq: 1408785
  stamp: 
    secs: 1561868411
    nsecs: 878213498
  frame_id: "ti_mmwave"
point_id: 6
x: 0.423828125
y: -0.083984375
z: -1.279296875
range: 1.43804001808
velocity: 0.0
doppler_bin: 8
bearing: -11.2083444595
intensity: 23.0535144806
---
header: 
  seq: 1408786
  stamp: 
    secs: 1561868411
    nsecs: 878272378
  frame_id: "ti_mmwave"
point_id: 7
x: 0.560546875
y: -0.04296875
z: -1.271484375
range: 1.48161697388
velocity: 0.0
doppler_bin: 8
bearing: -4.38343858719
intensity: 21.6435279846
---
header: 
  seq: 1408787
  stamp: 
    secs: 1561868411
    nsecs: 878281844
  frame_id: "ti_mmwave"
point_id: 8
x: 1.794921875
y: 0.11328125
z: -0.04296875
range: 1.91738677025
velocity: 0.0
doppler_bin: 8
bearing: 3.61126613617
intensity: 26.7117290497
---
header: 
  seq: 1408788
  stamp: 
    secs: 1561868411
    nsecs: 878289331
  frame_id: "ti_mmwave"
point_id: 9
x: 2.62109375
y: -0.17578125
z: 1.029296875
range: 3.00681090355
velocity: 0.0
doppler_bin: 8
bearing: -3.83674383163
intensity: 29.0471553802
---
header: 
  seq: 1408789
  stamp: 
    secs: 1561868411
    nsecs: 878298473
  frame_id: "ti_mmwave"
point_id: 10
x: 2.6953125
y: -0.08984375
z: 0.96484375
range: 3.05038785934
velocity: 0.0
doppler_bin: 8
bearing: -1.90915250778
intensity: 32.2219619751
---
header: 
  seq: 1408790
  stamp: 
    secs: 1561868411
    nsecs: 878306062
  frame_id: "ti_mmwave"
point_id: 11
x: 2.779296875
y: -0.0
z: 0.841796875
range: 3.09396481514
velocity: 0.0
doppler_bin: 8
bearing: -0.0
intensity: 31.1693973541
---
header: 
  seq: 1408791
  stamp: 
    secs: 1561868411
    nsecs: 878313622
  frame_id: "ti_mmwave"
point_id: 12
x: 4.388671875
y: -0.287109375
z: 1.287109375
range: 4.88062095642
velocity: 0.0
doppler_bin: 8
bearing: -3.74298858643
intensity: 31.1092624664
---
header: 
  seq: 1408792
  stamp: 
    secs: 1561868411
    nsecs: 878323514
  frame_id: "ti_mmwave"
point_id: 13
x: 4.4296875
y: -0.14453125
z: 1.310546875
range: 4.9241976738
velocity: 0.0
doppler_bin: 8
bearing: -1.86877608299
intensity: 30.5576038361
---
header: 
  seq: 1408793
  stamp: 
    secs: 1561868411
    nsecs: 878330845
  frame_id: "ti_mmwave"
point_id: 14
x: 4.740234375
y: -0.298828125
z: -0.591796875
range: 5.09850549698
velocity: 0.0
doppler_bin: 8
bearing: -3.60719799995
intensity: 33.3021087646
---
header: 
  seq: 1408794
  stamp: 
    secs: 1561868411
    nsecs: 878338325
  frame_id: "ti_mmwave"
point_id: 15
x: 4.771484375
y: -0.30078125
z: -0.658203125
range: 5.14208269119
velocity: 0.0
doppler_bin: 8
bearing: -3.60699558258
intensity: 33.8075370789
---
header: 
  seq: 1408795
  stamp: 
    secs: 1561868411
    nsecs: 878345943
  frame_id: "ti_mmwave"
point_id: 16
x: 4.736328125
y: -0.3046875
z: -1.08203125
range: 5.18565940857
velocity: 0.0
doppler_bin: 8
bearing: -3.68075990677
intensity: 30.0389118195
---
header: 
  seq: 1408796
  stamp: 
    secs: 1561868411
    nsecs: 878353748
  frame_id: "ti_mmwave"
point_id: 17
x: 4.88671875
y: -0.30859375
z: 0.724609375
range: 5.27281332016
velocity: 0.0
doppler_bin: 8
bearing: -3.61340069771
intensity: 30.934217453
---
header: 
  seq: 1408797
  stamp: 
    secs: 1561868411
    nsecs: 878406347
  frame_id: "ti_mmwave"
point_id: 18
x: 4.951171875
y: -0.623046875
z: 0.03125
range: 5.31639051437
velocity: 0.0
doppler_bin: 8
bearing: -7.17230129242
intensity: 29.5520648956
---
header: 
  seq: 1408798
  stamp: 
    secs: 1561868411
    nsecs: 878415085
  frame_id: "ti_mmwave"
point_id: 19
x: 1.673828125
y: 0.10546875
z: 0.029296875
range: 1.78665578365
velocity: 0.614668667316
doppler_bin: 9
bearing: 3.60546898842
intensity: 26.4542236328
---
header: 
  seq: 1408799
  stamp: 
    secs: 1561868411
    nsecs: 878424639
  frame_id: "ti_mmwave"
point_id: 20
x: 1.7109375
y: 0.16015625
z: 0.025390625
range: 1.83023273945
velocity: 0.614668667316
doppler_bin: 9
bearing: 5.34772062302
intensity: 30.3181228638
---
header: 
  seq: 1408800
  stamp: 
    secs: 1561868411
    nsecs: 878432488
  frame_id: "ti_mmwave"
point_id: 21
x: 1.755859375
y: 0.109375
z: 0.041015625
range: 1.87380969524
velocity: 0.614668667316
doppler_bin: 9
bearing: 3.56443095207
intensity: 30.1241531372
---
header: 
  seq: 1408801
  stamp: 
    secs: 1561868411
    nsecs: 878440367
  frame_id: "ti_mmwave"
point_id: 22
x: 1.80078125
y: 0.345703125
z: -0.158203125
range: 1.96096372604
velocity: 0.614668667316
doppler_bin: 9
bearing: 10.8670873642
intensity: 26.1278381348
---
header: 
  seq: 1408802
  stamp: 
    secs: 1561868411
    nsecs: 878449571
  frame_id: "ti_mmwave"
point_id: 23
x: 1.83203125
y: 0.412109375
z: -0.107421875
range: 2.00454068184
velocity: 0.614668667316
doppler_bin: 9
bearing: 12.6774768829
intensity: 26.0638141632
---
header: 
  seq: 1408803
  stamp: 
    secs: 1561868411
    nsecs: 878461998
  frame_id: "ti_mmwave"
point_id: 24
x: 1.861328125
y: 0.48046875
z: 0.06640625
range: 2.04811763763
velocity: 1.22933733463
doppler_bin: 10
bearing: 14.4739303589
intensity: 24.1995582581
---
header: 
  seq: 1408804
  stamp: 
    secs: 1561868411
    nsecs: 878473386
  frame_id: "ti_mmwave"
point_id: 25
x: 1.689453125
y: -0.0
z: -0.314453125
range: 1.83023273945
velocity: -1.22933733463
doppler_bin: 6
bearing: -0.0
intensity: 21.6731739044
---
header: 
  seq: 1408805
  stamp: 
    secs: 1561868411
    nsecs: 878488446
  frame_id: "ti_mmwave"
point_id: 27
x: 0.041015625
y: -0.033203125
z: 0.0625
range: 0.0871539413929
velocity: 0.0
doppler_bin: 8
bearing: -38.9909973145
intensity: 30.0902576447
---
header: 
  seq: 1408806
  stamp: 
    secs: 1561868411
    nsecs: 878501836
  frame_id: "ti_mmwave"
point_id: 28
x: 0.044921875
y: -0.046875
z: 0.103515625
range: 0.130730912089
velocity: 0.0
doppler_bin: 8
bearing: -46.218875885
intensity: 29.0036716461
---
header: 
  seq: 1408807
  stamp: 
    secs: 1561868411
    nsecs: 878514069
  frame_id: "ti_mmwave"
point_id: 30
x: 2.73828125
y: -0.181640625
z: 0.94921875
range: 3.09396481514
velocity: 0.0
doppler_bin: 8
bearing: -3.79508757591
intensity: 31.1294002533
---
header: 
  seq: 1408808
  stamp: 
    secs: 1561868411
    nsecs: 936055263
  frame_id: "ti_mmwave"
point_id: 0
x: 0.01171875
y: -0.0390625
z: -0.0078125
range: 0.0435769706964
velocity: 0.0
doppler_bin: 8
bearing: -73.3007583618
intensity: 30.6445808411
---
header: 
  seq: 1408809
  stamp: 
    secs: 1561868411
    nsecs: 936168920
  frame_id: "ti_mmwave"
point_id: 1
x: 0.017578125
y: -0.080078125
z: -0.0078125
range: 0.0871539413929
velocity: 0.0
doppler_bin: 8
bearing: -77.6192398071
intensity: 31.9033164978
---
header: 
  seq: 1408810
  stamp: 
    secs: 1561868411
    nsecs: 936180408
  frame_id: "ti_mmwave"
point_id: 2
x: 0.029296875
y: -0.119140625
z: -0.005859375
range: 0.130730912089
velocity: 0.0
doppler_bin: 8
bearing: -76.1849746704
intensity: 30.1199302673
---
header: 
  seq: 1408811
  stamp: 
    secs: 1561868411
    nsecs: 936188997
  frame_id: "ti_mmwave"
point_id: 3
x: 0.056640625
y: -0.154296875
z: 0.005859375
range: 0.174307882786
velocity: 0.0
doppler_bin: 8
bearing: -69.8423843384
intensity: 25.4530715942
---
header: 
  seq: 1408812
  stamp: 
    secs: 1561868411
    nsecs: 936198346
  frame_id: "ti_mmwave"
point_id: 4
x: 0.130859375
y: -0.080078125
z: 1.2578125
range: 1.35088610649
velocity: 0.0
doppler_bin: 8
bearing: -31.4641437531
intensity: 23.0963020325
---
header: 
  seq: 1408813
  stamp: 
    secs: 1561868411
    nsecs: 936208938
  frame_id: "ti_mmwave"
point_id: 6
x: 0.40234375
y: -0.083984375
z: -1.28515625
range: 1.43804001808
velocity: 0.0
doppler_bin: 8
bearing: -11.7905015945
intensity: 23.0963020325
---
header: 
  seq: 1408814
  stamp: 
    secs: 1561868411
    nsecs: 936219290
  frame_id: "ti_mmwave"
point_id: 7
x: 0.546875
y: -0.04296875
z: -1.27734375
range: 1.48161697388
velocity: 0.0
doppler_bin: 8
bearing: -4.49258184433
intensity: 21.6731739044
---
header: 
  seq: 1408815
  stamp: 
    secs: 1561868411
    nsecs: 936238552
  frame_id: "ti_mmwave"
point_id: 8
x: 2.623046875
y: -0.17578125
z: 1.029296875
range: 3.00681090355
velocity: 0.0
doppler_bin: 8
bearing: -3.83389568329
intensity: 29.127532959
---
header: 
  seq: 1408816
  stamp: 
    secs: 1561868411
    nsecs: 936246695
  frame_id: "ti_mmwave"
point_id: 9
x: 2.658203125
y: -0.1796875
z: 1.048828125
range: 3.05038785934
velocity: 0.0
doppler_bin: 8
bearing: -3.86716008186
intensity: 32.1616592407
---
header: 
  seq: 1408817
  stamp: 
    secs: 1561868411
    nsecs: 936433478
  frame_id: "ti_mmwave"
point_id: 10
x: 2.75
y: -0.08984375
z: 0.927734375
range: 3.09396481514
velocity: 0.0
doppler_bin: 8
bearing: -1.87121355534
intensity: 31.1594314575
---
header: 
  seq: 1408818
  stamp: 
    secs: 1561868411
    nsecs: 936461596
  frame_id: "ti_mmwave"
point_id: 11
x: 4.40625
y: -0.142578125
z: 1.24609375
range: 4.88062095642
velocity: 0.0
doppler_bin: 8
bearing: -1.85333895683
intensity: 31.027765274
---
header: 
  seq: 1408819
  stamp: 
    secs: 1561868411
    nsecs: 936475437
  frame_id: "ti_mmwave"
point_id: 12
x: 4.423828125
y: -0.14453125
z: 1.333984375
range: 4.9241976738
velocity: 0.0
doppler_bin: 8
bearing: -1.87124967575
intensity: 30.3542976379
---
header: 
  seq: 1408820
  stamp: 
    secs: 1561868411
    nsecs: 936486586
  frame_id: "ti_mmwave"
point_id: 13
x: 4.703125
y: -0.296875
z: -0.556640625
range: 5.0549287796
velocity: 0.0
doppler_bin: 8
bearing: -3.61188483238
intensity: 29.6801567078
---
header: 
  seq: 1408821
  stamp: 
    secs: 1561868411
    nsecs: 936498653
  frame_id: "ti_mmwave"
point_id: 14
x: 4.7421875
y: -0.298828125
z: -0.57421875
range: 5.09850549698
velocity: 0.0
doppler_bin: 8
bearing: -3.60571622849
intensity: 34.2553405762
---
header: 
  seq: 1408822
  stamp: 
    secs: 1561868411
    nsecs: 936550346
  frame_id: "ti_mmwave"
point_id: 15
x: 4.779296875
y: -0.30078125
z: -0.599609375
range: 5.14208269119
velocity: 0.0
doppler_bin: 8
bearing: -3.60111522675
intensity: 34.7625198364
---
header: 
  seq: 1408823
  stamp: 
    secs: 1561868411
    nsecs: 936567136
  frame_id: "ti_mmwave"
point_id: 16
x: 4.791015625
y: -0.3046875
z: -0.810546875
range: 5.18565940857
velocity: 0.0
doppler_bin: 8
bearing: -3.638859272
intensity: 30.9968070984
---
header: 
  seq: 1408824
  stamp: 
    secs: 1561868411
    nsecs: 936584208
  frame_id: "ti_mmwave"
point_id: 17
x: 4.876953125
y: -0.30859375
z: 0.7890625
range: 5.27281332016
velocity: 0.0
doppler_bin: 8
bearing: -3.62061715126
intensity: 31.1826477051
---
header: 
  seq: 1408825
  stamp: 
    secs: 1561868411
    nsecs: 936632063
  frame_id: "ti_mmwave"
point_id: 18
x: 4.951171875
y: -0.623046875
z: 0.109375
range: 5.31639051437
velocity: 0.0
doppler_bin: 8
bearing: -7.17230129242
intensity: 29.7127590179
---
header: 
  seq: 1408826
  stamp: 
    secs: 1561868411
    nsecs: 936648706
  frame_id: "ti_mmwave"
point_id: 19
x: 1.703125
y: 0.21484375
z: 0.0625
range: 1.83023273945
velocity: 0.614668667316
doppler_bin: 9
bearing: 7.18970298767
intensity: 29.8811283112
---
header: 
  seq: 1408827
  stamp: 
    secs: 1561868411
    nsecs: 936772504
  frame_id: "ti_mmwave"
point_id: 20
x: 1.751953125
y: 0.1640625
z: 0.017578125
range: 1.87380969524
velocity: 0.614668667316
doppler_bin: 9
bearing: 5.34988880157
intensity: 31.3640346527
---
header: 
  seq: 1408828
  stamp: 
    secs: 1561868411
    nsecs: 936833933
  frame_id: "ti_mmwave"
point_id: 21
x: 1.783203125
y: 0.224609375
z: -0.087890625
range: 1.91738677025
velocity: 0.614668667316
doppler_bin: 9
bearing: 7.17907619476
intensity: 29.0471553802
---
header: 
  seq: 1408829
  stamp: 
    secs: 1561868411
    nsecs: 936893582
  frame_id: "ti_mmwave"
point_id: 22
x: 1.833984375
y: 0.412109375
z: 0.08203125
range: 2.00454068184
velocity: 0.614668667316
doppler_bin: 9
bearing: 12.6644115448
intensity: 25.5022830963
---
header: 
  seq: 1408830
  stamp: 
    secs: 1561868411
    nsecs: 936915730
  frame_id: "ti_mmwave"
point_id: 23
x: 1.875
y: 0.419921875
z: 0.033203125
range: 2.04811763763
velocity: 0.614668667316
doppler_bin: 9
bearing: 12.6235637665
intensity: 26.2428207397
---
header: 
  seq: 1408831
  stamp: 
    secs: 1561868411
    nsecs: 937062283
  frame_id: "ti_mmwave"
point_id: 25
x: 0.041015625
y: -0.033203125
z: 0.0625
range: 0.0871539413929
velocity: 0.0
doppler_bin: 8
bearing: -38.9909973145
intensity: 30.0902576447
---
header: 
  seq: 1408832
  stamp: 
    secs: 1561868411
    nsecs: 937091070
  frame_id: "ti_mmwave"
point_id: 26
x: 0.044921875
y: -0.046875
z: 0.103515625
range: 0.130730912089
velocity: 0.0
doppler_bin: 8
bearing: -46.218875885
intensity: 29.0036716461
---
header: 
  seq: 1408833
  stamp: 
    secs: 1561868411
    nsecs: 937501866
  frame_id: "ti_mmwave"
point_id: 0
x: 0.01171875
y: -0.0390625
z: -0.0078125
range: 0.0435769706964
velocity: 0.0
doppler_bin: 8
bearing: -73.3007583618
intensity: 30.6483230591
---
header: 
  seq: 1408834
  stamp: 
    secs: 1561868411
    nsecs: 937560783
  frame_id: "ti_mmwave"
point_id: 1
x: 0.017578125
y: -0.080078125
z: -0.0078125
range: 0.0871539413929
velocity: 0.0
doppler_bin: 8
bearing: -77.6192398071
intensity: 31.9033164978
---
header: 
  seq: 1408835
  stamp: 
    secs: 1561868411
    nsecs: 937582311
  frame_id: "ti_mmwave"
point_id: 2
x: 0.029296875
y: -0.119140625
z: -0.005859375
range: 0.130730912089
velocity: 0.0
doppler_bin: 8
bearing: -76.1849746704
intensity: 30.1157035828
---
header: 
  seq: 1408836
  stamp: 
    secs: 1561868411
    nsecs: 937599469
  frame_id: "ti_mmwave"
point_id: 3
x: 0.056640625
y: -0.154296875
z: 0.005859375
range: 0.174307882786
velocity: 0.0
doppler_bin: 8
bearing: -69.8423843384
intensity: 25.4530715942
---
header: 
  seq: 1408837
  stamp: 
    secs: 1561868411
    nsecs: 937622309
  frame_id: "ti_mmwave"
point_id: 4
x: 0.0625
y: -0.080078125
z: 1.263671875
range: 1.35088610649
velocity: 0.0
doppler_bin: 8
bearing: -52.0283966064
intensity: 23.0749607086
---
header: 
  seq: 1408838
  stamp: 
    secs: 1561868411
    nsecs: 937699094
  frame_id: "ti_mmwave"
point_id: 6
x: 0.423828125
y: -0.083984375
z: -1.279296875
range: 1.43804001808
velocity: 0.0
doppler_bin: 8
bearing: -11.2083444595
intensity: 23.0749607086
---
header: 
  seq: 1408839
  stamp: 
    secs: 1561868411
    nsecs: 937746805
  frame_id: "ti_mmwave"
point_id: 7
x: 2.607421875
y: -0.17578125
z: 1.06640625
range: 3.00681090355
velocity: 0.0
doppler_bin: 8
bearing: -3.8568007946
intensity: 29.0254669189
---
header: 
  seq: 1408840
  stamp: 
    secs: 1561868411
    nsecs: 937762290
  frame_id: "ti_mmwave"
point_id: 8
x: 2.6875
y: -0.08984375
z: 0.982421875
range: 3.05038785934
velocity: 0.0
doppler_bin: 8
bearing: -1.91469812393
intensity: 32.1748390198
---
header: 
  seq: 1408841
  stamp: 
    secs: 1561868411
    nsecs: 937771123
  frame_id: "ti_mmwave"
point_id: 9
x: 2.75390625
y: -0.08984375
z: 0.916015625
range: 3.09396481514
velocity: 0.0
doppler_bin: 8
bearing: -1.86856126785
intensity: 31.1260509491
---
header: 
  seq: 1408842
  stamp: 
    secs: 1561868411
    nsecs: 937861226
  frame_id: "ti_mmwave"
point_id: 10
x: 4.400390625
y: -0.142578125
z: 1.26953125
range: 4.88062095642
velocity: 0.0
doppler_bin: 8
bearing: -1.85580503941
intensity: 31.25806427
---
header: 
  seq: 1408843
  stamp: 
    secs: 1561868411
    nsecs: 937885987
  frame_id: "ti_mmwave"
point_id: 11
x: 4.400390625
y: -0.14453125
z: 1.40625
range: 4.9241976738
velocity: 0.0
doppler_bin: 8
bearing: -1.88120913506
intensity: 30.7077655792
---
header: 
  seq: 1408844
  stamp: 
    secs: 1561868411
    nsecs: 938040026
  frame_id: "ti_mmwave"
point_id: 12
x: 4.74609375
y: -0.298828125
z: -0.5390625
range: 5.09850549698
velocity: 0.0
doppler_bin: 8
bearing: -3.60275626183
intensity: 33.3041381836
---
header: 
  seq: 1408845
  stamp: 
    secs: 1561868411
    nsecs: 938073669
  frame_id: "ti_mmwave"
point_id: 13
x: 4.78125
y: -0.30078125
z: -0.587890625
range: 5.14208269119
velocity: 0.0
doppler_bin: 8
bearing: -3.59964799881
intensity: 33.8898887634
---
header: 
  seq: 1408846
  stamp: 
    secs: 1561868411
    nsecs: 938124498
  frame_id: "ti_mmwave"
point_id: 14
x: 4.798828125
y: -0.15234375
z: -0.8046875
range: 5.18565940857
velocity: 0.0
doppler_bin: 8
bearing: -1.81830310822
intensity: 30.0259799957
---
header: 
  seq: 1408847
  stamp: 
    secs: 1561868411
    nsecs: 938150903
  frame_id: "ti_mmwave"
point_id: 15
x: 4.875
y: -0.30859375
z: 0.794921875
range: 5.27281332016
velocity: 0.0
doppler_bin: 8
bearing: -3.62206339836
intensity: 31.176027298
---
header: 
  seq: 1408848
  stamp: 
    secs: 1561868411
    nsecs: 938198199
  frame_id: "ti_mmwave"
point_id: 16
x: 4.966796875
y: -0.46875
z: 0.154296875
range: 5.31639051437
velocity: 0.0
doppler_bin: 8
bearing: -5.39141845703
intensity: 29.7034683228
---
header: 
  seq: 1408849
  stamp: 
    secs: 1561868411
    nsecs: 938216186
  frame_id: "ti_mmwave"
point_id: 17
x: 1.73046875
y: 0.275390625
z: 0.146484375
range: 1.87380969524
velocity: 0.614668667316
doppler_bin: 9
bearing: 9.04234981537
intensity: 26.3548374176
---
header: 
  seq: 1408850
  stamp: 
    secs: 1561868411
    nsecs: 938237025
  frame_id: "ti_mmwave"
point_id: 19
x: 0.041015625
y: -0.033203125
z: 0.0625
range: 0.0871539413929
velocity: 0.0
doppler_bin: 8
bearing: -38.9909973145
intensity: 30.0945091248
---
header: 
  seq: 1408851
  stamp: 
    secs: 1561868411
    nsecs: 938279045
  frame_id: "ti_mmwave"
point_id: 20
x: 0.044921875
y: -0.046875
z: 0.103515625
range: 0.130730912089
velocity: 0.0
doppler_bin: 8
bearing: -46.218875885
intensity: 29.0091304779
---
header: 
  seq: 1408852
  stamp: 
    secs: 1561868411
    nsecs: 996357402
  frame_id: "ti_mmwave"
point_id: 0
x: 0.01171875
y: -0.0390625
z: -0.0078125
range: 0.0435769706964
velocity: 0.0
doppler_bin: 8
bearing: -73.3007583618
intensity: 30.6520614624
---
header: 
  seq: 1408853
  stamp: 
    secs: 1561868411
    nsecs: 996431847
  frame_id: "ti_mmwave"
point_id: 1
x: 0.017578125
y: -0.080078125
z: -0.0078125
range: 0.0871539413929
velocity: 0.0
doppler_bin: 8
bearing: -77.6192398071
intensity: 31.9033164978
---
header: 
  seq: 1408854
  stamp: 
    secs: 1561868411
    nsecs: 996445766
  frame_id: "ti_mmwave"
point_id: 2
x: 0.029296875
y: -0.119140625
z: -0.005859375
range: 0.130730912089
velocity: 0.0
doppler_bin: 8
bearing: -76.1849746704
intensity: 30.1199302673
---
header: 
  seq: 1408855
  stamp: 
    secs: 1561868411
    nsecs: 996457685
  frame_id: "ti_mmwave"
point_id: 3
x: 0.056640625
y: -0.154296875
z: 0.0078125
range: 0.174307882786
velocity: 0.0
doppler_bin: 8
bearing: -69.8423843384
intensity: 25.4406795502
---
header: 
  seq: 1408856
  stamp: 
    secs: 1561868411
    nsecs: 996467771
  frame_id: "ti_mmwave"
point_id: 4
x: 0.1015625
y: -0.080078125
z: 1.26171875
range: 1.35088610649
velocity: 0.0
doppler_bin: 8
bearing: -38.2544212341
intensity: 23.0749607086
---
header: 
  seq: 1408857
  stamp: 
    secs: 1561868411
    nsecs: 996478322
  frame_id: "ti_mmwave"
point_id: 6
x: 0.431640625
y: -0.083984375
z: -1.275390625
range: 1.43804001808
velocity: 0.0
doppler_bin: 8
bearing: -11.0104799271
intensity: 23.0749607086
---
header: 
  seq: 1408858
  stamp: 
    secs: 1561868411
    nsecs: 996486818
  frame_id: "ti_mmwave"
point_id: 7
x: 0.5546875
y: -0.04296875
z: -1.275390625
range: 1.48161697388
velocity: 0.0
doppler_bin: 8
bearing: -4.42955970764
intensity: 21.6731739044
---
header: 
  seq: 1408859
  stamp: 
    secs: 1561868411
    nsecs: 996497746
  frame_id: "ti_mmwave"
point_id: 8
x: 2.611328125
y: -0.17578125
z: 1.0546875
range: 3.00681090355
velocity: 0.0
doppler_bin: 8
bearing: -3.85104894638
intensity: 29.0417442322
---
header: 
  seq: 1408860
  stamp: 
    secs: 1561868411
    nsecs: 996654664
  frame_id: "ti_mmwave"
point_id: 9
x: 2.65625
y: -0.1796875
z: 1.052734375
range: 3.05038785934
velocity: 0.0
doppler_bin: 8
bearing: -3.86999511719
intensity: 32.2219619751
---
header: 
  seq: 1408861
  stamp: 
    secs: 1561868411
    nsecs: 996676837
  frame_id: "ti_mmwave"
point_id: 10
x: 2.751953125
y: -0.08984375
z: 0.92578125
range: 3.09396481514
velocity: 0.0
doppler_bin: 8
bearing: -1.86988639832
intensity: 31.1527767181
---
header: 
  seq: 1408862
  stamp: 
    secs: 1561868411
    nsecs: 996730863
  frame_id: "ti_mmwave"
point_id: 11
x: 4.388671875
y: -0.142578125
z: 1.306640625
range: 4.88062095642
velocity: 0.0
doppler_bin: 8
bearing: -1.86075723171
intensity: 31.0448703766
---
header: 
  seq: 1408863
  stamp: 
    secs: 1561868411
    nsecs: 996745747
  frame_id: "ti_mmwave"
point_id: 12
x: 4.263671875
y: -0.14453125
z: 1.779296875
range: 4.9241976738
velocity: 0.0
doppler_bin: 8
bearing: -1.94148635864
intensity: 30.3662891388
---
header: 
  seq: 1408864
  stamp: 
    secs: 1561868411
    nsecs: 996754624
  frame_id: "ti_mmwave"
point_id: 13
x: 4.548828125
y: -0.146484375
z: -1.017578125
range: 4.96777486801
velocity: 0.0
doppler_bin: 8
bearing: -1.84443926811
intensity: 29.4151134491
---
header: 
  seq: 1408865
  stamp: 
    secs: 1561868411
    nsecs: 996795795
  frame_id: "ti_mmwave"
point_id: 14
x: 4.68359375
y: -0.0
z: -0.435546875
range: 5.01135158539
velocity: 0.0
doppler_bin: 8
bearing: -0.0
intensity: 29.1487178802
---
header: 
  seq: 1408866
  stamp: 
    secs: 1561868411
    nsecs: 996811284
  frame_id: "ti_mmwave"
point_id: 15
x: 4.740234375
y: -0.298828125
z: -0.595703125
range: 5.09850549698
velocity: 0.0
doppler_bin: 8
bearing: -3.60719799995
intensity: 33.7088317871
---
header: 
  seq: 1408867
  stamp: 
    secs: 1561868411
    nsecs: 996836460
  frame_id: "ti_mmwave"
point_id: 16
x: 4.775390625
y: -0.30078125
z: -0.640625
range: 5.14208269119
velocity: 0.0
doppler_bin: 8
bearing: -3.60405302048
intensity: 34.2829666138
---
header: 
  seq: 1408868
  stamp: 
    secs: 1561868411
    nsecs: 996859617
  frame_id: "ti_mmwave"
point_id: 17
x: 4.80078125
y: -0.15234375
z: -0.791015625
range: 5.18565940857
velocity: 0.0
doppler_bin: 8
bearing: -1.81756365299
intensity: 30.678144455
---
header: 
  seq: 1408869
  stamp: 
    secs: 1561868411
    nsecs: 996876029
  frame_id: "ti_mmwave"
point_id: 18
x: 4.875
y: -0.30859375
z: 0.79296875
range: 5.27281332016
velocity: 0.0
doppler_bin: 8
bearing: -3.62206339836
intensity: 31.0924091339
---
header: 
  seq: 1408870
  stamp: 
    secs: 1561868411
    nsecs: 997468435
  frame_id: "ti_mmwave"
point_id: 19
x: 4.94921875
y: -0.623046875
z: 0.115234375
range: 5.31639051437
velocity: 0.0
doppler_bin: 8
bearing: -7.17510271072
intensity: 29.6801567078
---
header: 
  seq: 1408871
  stamp: 
    secs: 1561868411
    nsecs: 997577922
  frame_id: "ti_mmwave"
point_id: 21
x: 0.041015625
y: -0.033203125
z: 0.0625
range: 0.0871539413929
velocity: 0.0
doppler_bin: 8
bearing: -38.9909973145
intensity: 30.0987567902
---
header: 
  seq: 1408872
  stamp: 
    secs: 1561868411
    nsecs: 997603490
  frame_id: "ti_mmwave"
point_id: 22
x: 0.044921875
y: -0.046875
z: 0.103515625
range: 0.130730912089
velocity: 0.0
doppler_bin: 8
bearing: -46.218875885
intensity: 29.0145835876
---
header: 
  seq: 1408873
  stamp: 
    secs: 1561868412
    nsecs:  56378739
  frame_id: "ti_mmwave"
point_id: 0
x: 0.01171875
y: -0.0390625
z: -0.0078125
range: 0.0435769706964
velocity: 0.0
doppler_bin: 8
bearing: -73.3007583618
intensity: 30.6445808411
---
header: 
  seq: 1408874
  stamp: 
    secs: 1561868412
    nsecs:  56457195
  frame_id: "ti_mmwave"
point_id: 1
x: 0.017578125
y: -0.080078125
z: -0.0078125
range: 0.0871539413929
velocity: 0.0
doppler_bin: 8
bearing: -77.6192398071
intensity: 31.9033164978
---
header: 
  seq: 1408875
  stamp: 
    secs: 1561868412
    nsecs:  56470973
  frame_id: "ti_mmwave"
point_id: 2
x: 0.029296875
y: -0.119140625
z: -0.005859375
range: 0.130730912089
velocity: 0.0
doppler_bin: 8
bearing: -76.1849746704
intensity: 30.1241531372
---
header: 
  seq: 1408876
  stamp: 
    secs: 1561868412
    nsecs:  56482564
  frame_id: "ti_mmwave"
point_id: 3
x: 0.056640625
y: -0.154296875
z: 0.005859375
range: 0.174307882786
velocity: 0.0
doppler_bin: 8
bearing: -69.8423843384
intensity: 25.4530715942
---
header: 
  seq: 1408877
  stamp: 
    secs: 1561868412
    nsecs:  56495790
  frame_id: "ti_mmwave"
point_id: 4
x: 0.1328125
y: -0.080078125
z: 1.2578125
range: 1.35088610649
velocity: 0.0
doppler_bin: 8
bearing: -31.0875034332
intensity: 23.0963020325
---
header: 
  seq: 1408878
  stamp: 
    secs: 1561868412
    nsecs:  56509474
  frame_id: "ti_mmwave"
point_id: 6
x: 0.431640625
y: -0.083984375
z: -1.275390625
range: 1.43804001808
velocity: 0.0
doppler_bin: 8
bearing: -11.0104799271
intensity: 23.031961441
---
header: 
  seq: 1408879
  stamp: 
    secs: 1561868412
    nsecs:  56517836
  frame_id: "ti_mmwave"
point_id: 7
x: 0.560546875
y: -0.04296875
z: -1.271484375
range: 1.48161697388
velocity: 0.0
doppler_bin: 8
bearing: -4.38343858719
intensity: 21.6136798859
---
header: 
  seq: 1408880
  stamp: 
    secs: 1561868412
    nsecs:  56526206
  frame_id: "ti_mmwave"
point_id: 8
x: 2.603515625
y: -0.17578125
z: 1.07421875
range: 3.00681090355
velocity: 0.0
doppler_bin: 8
bearing: -3.86257004738
intensity: 28.8479537964
---
header: 
  seq: 1408881
  stamp: 
    secs: 1561868412
    nsecs:  56534165
  frame_id: "ti_mmwave"
point_id: 9
x: 2.65234375
y: -0.1796875
z: 1.0625
range: 3.05038785934
velocity: 0.0
doppler_bin: 8
bearing: -3.87567687035
intensity: 32.1245384216
---
header: 
  seq: 1408882
  stamp: 
    secs: 1561868412
    nsecs:  56543998
  frame_id: "ti_mmwave"
point_id: 10
x: 2.748046875
y: -0.08984375
z: 0.935546875
range: 3.09396481514
velocity: 0.0
doppler_bin: 8
bearing: -1.8725425005
intensity: 31.0991592407
---
header: 
  seq: 1408883
  stamp: 
    secs: 1561868412
    nsecs:  56552230
  frame_id: "ti_mmwave"
point_id: 11
x: 4.388671875
y: -0.142578125
z: 1.30859375
range: 4.88062095642
velocity: 0.0
doppler_bin: 8
bearing: -1.86075723171
intensity: 31.2385158539
---
header: 
  seq: 1408884
  stamp: 
    secs: 1561868412
    nsecs:  56560597
  frame_id: "ti_mmwave"
point_id: 12
x: 4.36328125
y: -0.14453125
z: 1.521484375
range: 4.9241976738
velocity: 0.0
doppler_bin: 8
bearing: -1.89719688892
intensity: 30.5346260071
---
header: 
  seq: 1408885
  stamp: 
    secs: 1561868412
    nsecs:  56568795
  frame_id: "ti_mmwave"
point_id: 13
x: 4.740234375
y: -0.298828125
z: -0.587890625
range: 5.09850549698
velocity: 0.0
doppler_bin: 8
bearing: -3.60719799995
intensity: 33.4419555664
---
header: 
  seq: 1408886
  stamp: 
    secs: 1561868412
    nsecs:  56578301
  frame_id: "ti_mmwave"
point_id: 14
x: 4.7734375
y: -0.30078125
z: -0.650390625
range: 5.14208269119
velocity: 0.0
doppler_bin: 8
bearing: -3.60552406311
intensity: 34.0088310242
---
header: 
  seq: 1408887
  stamp: 
    secs: 1561868412
    nsecs:  56589217
  frame_id: "ti_mmwave"
point_id: 15
x: 4.79296875
y: -0.15234375
z: -0.83203125
range: 5.18565940857
velocity: 0.0
doppler_bin: 8
bearing: -1.8205242157
intensity: 30.4060230255
---
header: 
  seq: 1408888
  stamp: 
    secs: 1561868412
    nsecs:  56749567
  frame_id: "ti_mmwave"
point_id: 16
x: 4.87890625
y: -0.30859375
z: 0.767578125
range: 5.27281332016
velocity: 0.0
doppler_bin: 8
bearing: -3.61917114258
intensity: 31.1660766602
---
header: 
  seq: 1408889
  stamp: 
    secs: 1561868412
    nsecs:  56772206
  frame_id: "ti_mmwave"
point_id: 17
x: 4.951171875
y: -0.623046875
z: 0.10546875
range: 5.31639051437
velocity: 0.0
doppler_bin: 8
bearing: -7.17230129242
intensity: 29.7863693237
---
header: 
  seq: 1408890
  stamp: 
    secs: 1561868412
    nsecs:  56780807
  frame_id: "ti_mmwave"
point_id: 18
x: 1.498046875
y: 0.189453125
z: 0.095703125
range: 1.61234796047
velocity: 0.614668667316
doppler_bin: 9
bearing: 7.20774745941
intensity: 25.5388298035
---
header: 
  seq: 1408891
  stamp: 
    secs: 1561868412
    nsecs:  56791274
  frame_id: "ti_mmwave"
point_id: 19
x: 1.533203125
y: 0.2421875
z: 0.08203125
range: 1.65592491627
velocity: 0.614668667316
doppler_bin: 9
bearing: 8.97637462616
intensity: 30.0902576447
---
header: 
  seq: 1408892
  stamp: 
    secs: 1561868412
    nsecs:  56796807
  frame_id: "ti_mmwave"
point_id: 20
x: 1.57421875
y: 0.25
z: 0.072265625
range: 1.69950187206
velocity: 0.614668667316
doppler_bin: 9
bearing: 9.02372455597
intensity: 30.6445808411
---
header: 
  seq: 1408893
  stamp: 
    secs: 1561868412
    nsecs:  56826019
  frame_id: "ti_mmwave"
point_id: 21
x: 1.615234375
y: 0.255859375
z: 0.064453125
range: 1.74307882786
velocity: 0.614668667316
doppler_bin: 9
bearing: 9.00108623505
intensity: 27.2591171265
---
header: 
  seq: 1408894
  stamp: 
    secs: 1561868412
    nsecs:  56840795
  frame_id: "ti_mmwave"
point_id: 22
x: 1.771484375
y: 0.28125
z: 0.15625
range: 1.91738677025
velocity: 0.614668667316
doppler_bin: 9
bearing: 9.02127838135
intensity: 27.7451705933
---
header: 
  seq: 1408895
  stamp: 
    secs: 1561868412
    nsecs:  56854456
  frame_id: "ti_mmwave"
point_id: 23
x: 1.818359375
y: 0.287109375
z: -0.01171875
range: 1.96096372604
velocity: 0.614668667316
doppler_bin: 9
bearing: 8.9726266861
intensity: 26.4640369415
---
header: 
  seq: 1408896
  stamp: 
    secs: 1561868412
    nsecs:  56865156
  frame_id: "ti_mmwave"
point_id: 24
x: 1.85546875
y: 0.294921875
z: 0.11328125
range: 2.00454068184
velocity: 0.614668667316
doppler_bin: 9
bearing: 9.03146076202
intensity: 26.0745506287
---
header: 
  seq: 1408897
  stamp: 
    secs: 1561868412
    nsecs:  56932920
  frame_id: "ti_mmwave"
point_id: 25
x: 1.89453125
y: 0.30078125
z: 0.13671875
range: 2.04811763763
velocity: 0.614668667316
doppler_bin: 9
bearing: 9.02115154266
intensity: 25.965970993
---
header: 
  seq: 1408898
  stamp: 
    secs: 1561868412
    nsecs:  56943377
  frame_id: "ti_mmwave"
point_id: 26
x: 1.8984375
y: 0.490234375
z: 0.1015625
range: 2.09169459343
velocity: 0.614668667316
doppler_bin: 9
bearing: 14.4792070389
intensity: 25.9217681885
---
header: 
  seq: 1408899
  stamp: 
    secs: 1561868412
    nsecs:  56955097
  frame_id: "ti_mmwave"
point_id: 28
x: 0.041015625
y: -0.033203125
z: 0.0625
range: 0.0871539413929
velocity: 0.0
doppler_bin: 8
bearing: -38.9909973145
intensity: 30.0860023499
---
header: 
  seq: 1408900
  stamp: 
    secs: 1561868412
    nsecs:  56962849
  frame_id: "ti_mmwave"
point_id: 29
x: 0.044921875
y: -0.046875
z: 0.103515625
range: 0.130730912089
velocity: 0.0
doppler_bin: 8
bearing: -46.218875885
intensity: 29.0036716461
---
header: 
  seq: 1408901
  stamp: 
    secs: 1561868412
    nsecs:  58142920
  frame_id: "ti_mmwave"
point_id: 0
x: 0.01171875
y: -0.0390625
z: -0.0078125
range: 0.0435769706964
velocity: 0.0
doppler_bin: 8
bearing: -73.3007583618
intensity: 30.6370849609
---
header: 
  seq: 1408902
  stamp: 
    secs: 1561868412
    nsecs:  58203350
  frame_id: "ti_mmwave"
point_id: 1
x: 0.017578125
y: -0.080078125
z: -0.0078125
range: 0.0871539413929
velocity: 0.0
doppler_bin: 8
bearing: -77.6192398071
intensity: 31.9005146027
---
header: 
  seq: 1408903
  stamp: 
    secs: 1561868412
    nsecs:  58220634
  frame_id: "ti_mmwave"
point_id: 2
x: 0.029296875
y: -0.119140625
z: -0.005859375
range: 0.130730912089
velocity: 0.0
doppler_bin: 8
bearing: -76.1849746704
intensity: 30.1199302673
---
header: 
  seq: 1408904
  stamp: 
    secs: 1561868412
    nsecs:  58233843
  frame_id: "ti_mmwave"
point_id: 3
x: 0.056640625
y: -0.154296875
z: 0.005859375
range: 0.174307882786
velocity: 0.0
doppler_bin: 8
bearing: -69.8423843384
intensity: 25.4530715942
---
header: 
  seq: 1408905
  stamp: 
    secs: 1561868412
    nsecs:  58304286
  frame_id: "ti_mmwave"
point_id: 4
x: 0.111328125
y: -0.080078125
z: 1.259765625
range: 1.35088610649
velocity: 0.0
doppler_bin: 8
bearing: -35.7273979187
intensity: 23.0749607086
---
header: 
  seq: 1408906
  stamp: 
    secs: 1561868412
    nsecs:  58322490
  frame_id: "ti_mmwave"
point_id: 6
x: 0.4140625
y: -0.083984375
z: -1.28125
range: 1.43804001808
velocity: 0.0
doppler_bin: 8
bearing: -11.4657688141
intensity: 23.138671875
---
header: 
  seq: 1408907
  stamp: 
    secs: 1561868412
    nsecs:  58334672
  frame_id: "ti_mmwave"
point_id: 7
x: 1.54296875
y: 0.193359375
z: 0.01953125
range: 1.65592491627
velocity: 0.0
doppler_bin: 8
bearing: 7.14286851883
intensity: 26.4345264435
---
header: 
  seq: 1408908
  stamp: 
    secs: 1561868412
    nsecs:  58346177
  frame_id: "ti_mmwave"
point_id: 8
x: 2.619140625
y: -0.17578125
z: 1.037109375
range: 3.00681090355
velocity: 0.0
doppler_bin: 8
bearing: -3.83959650993
intensity: 28.9097957611
---
header: 
  seq: 1408909
  stamp: 
    secs: 1561868412
    nsecs:  58359520
  frame_id: "ti_mmwave"
point_id: 9
x: 2.69140625
y: -0.08984375
z: 0.97265625
range: 3.05038785934
velocity: 0.0
doppler_bin: 8
bearing: -1.91192126274
intensity: 32.1616592407
---
header: 
  seq: 1408910
  stamp: 
    secs: 1561868412
    nsecs:  58369282
  frame_id: "ti_mmwave"
point_id: 10
x: 2.7578125
y: -0.08984375
z: 0.904296875
range: 3.09396481514
velocity: 0.0
doppler_bin: 8
bearing: -1.86591637135
intensity: 31.176027298
---
header: 
  seq: 1408911
  stamp: 
    secs: 1561868412
    nsecs:  58390378
  frame_id: "ti_mmwave"
point_id: 11
x: 4.39453125
y: -0.142578125
z: 1.2890625
range: 4.88062095642
velocity: 0.0
doppler_bin: 8
bearing: -1.8582777977
intensity: 31.1925582886
---
header: 
  seq: 1408912
  stamp: 
    secs: 1561868412
    nsecs:  58408748
  frame_id: "ti_mmwave"
point_id: 12
x: 4.232421875
y: -0.14453125
z: 1.853515625
range: 4.9241976738
velocity: 0.0
doppler_bin: 8
bearing: -1.95581018925
intensity: 29.9033889771
---
header: 
  seq: 1408913
  stamp: 
    secs: 1561868412
    nsecs:  58459998
  frame_id: "ti_mmwave"
point_id: 13
x: 4.740234375
y: -0.298828125
z: -0.59375
range: 5.09850549698
velocity: 0.0
doppler_bin: 8
bearing: -3.60719799995
intensity: 33.422252655
---
header: 
  seq: 1408914
  stamp: 
    secs: 1561868412
    nsecs:  58476873
  frame_id: "ti_mmwave"
point_id: 14
x: 4.7734375
y: -0.30078125
z: -0.65625
range: 5.14208269119
velocity: 0.0
doppler_bin: 8
bearing: -3.60552406311
intensity: 34.1547431946
---
header: 
  seq: 1408915
  stamp: 
    secs: 1561868412
    nsecs:  58489707
  frame_id: "ti_mmwave"
point_id: 15
x: 4.79296875
y: -0.15234375
z: -0.8359375
range: 5.18565940857
velocity: 0.0
doppler_bin: 8
bearing: -1.8205242157
intensity: 30.7445068359
---
header: 
  seq: 1408916
  stamp: 
    secs: 1561868412
    nsecs:  58502494
  frame_id: "ti_mmwave"
point_id: 16
x: 4.875
y: -0.30859375
z: 0.798828125
range: 5.27281332016
velocity: 0.0
doppler_bin: 8
bearing: -3.62206339836
intensity: 31.1527767181
---
header: 
  seq: 1408917
  stamp: 
    secs: 1561868412
    nsecs:  58514474
  frame_id: "ti_mmwave"
point_id: 17
x: 4.966796875
y: -0.46875
z: 0.126953125
range: 5.31639051437
velocity: 0.0
doppler_bin: 8
bearing: -5.39141845703
intensity: 29.7680835724
---
header: 
  seq: 1408918
  stamp: 
    secs: 1561868412
    nsecs:  58525998
  frame_id: "ti_mmwave"
point_id: 18
x: 1.74609375
y: 0.28125
z: 0.337890625
range: 1.91738677025
velocity: 0.614668667316
doppler_bin: 9
bearing: 9.1502571106
intensity: 26.0959434509
---
header: 
  seq: 1408919
  stamp: 
    secs: 1561868412
    nsecs:  58538719
  frame_id: "ti_mmwave"
point_id: 19
x: 1.794921875
y: 0.287109375
z: 0.2890625
range: 1.96096372604
velocity: 0.614668667316
doppler_bin: 9
bearing: 9.08784484863
intensity: 28.2412586212
---
header: 
  seq: 1408920
  stamp: 
    secs: 1561868412
    nsecs:  58552302
  frame_id: "ti_mmwave"
point_id: 20
x: 1.833984375
y: 0.294921875
z: 0.296875
range: 2.00454068184
velocity: 0.614668667316
doppler_bin: 9
bearing: 9.13548755646
intensity: 28.5003318787
---
header: 
  seq: 1408921
  stamp: 
    secs: 1561868412
    nsecs:  58565399
  frame_id: "ti_mmwave"
point_id: 21
x: 1.875
y: 0.361328125
z: 0.21875
range: 2.04811763763
velocity: 0.614668667316
doppler_bin: 9
bearing: 10.907661438
intensity: 28.0413951874
---
header: 
  seq: 1408922
  stamp: 
    secs: 1561868412
    nsecs:  58578797
  frame_id: "ti_mmwave"
point_id: 22
x: 1.9140625
y: 0.4296875
z: 0.083984375
range: 2.09169459343
velocity: 0.614668667316
doppler_bin: 9
bearing: 12.6525564194
intensity: 27.0500793457
---
header: 
  seq: 1408923
  stamp: 
    secs: 1561868412
    nsecs:  58605969
  frame_id: "ti_mmwave"
point_id: 24
x: 0.041015625
y: -0.033203125
z: 0.0625
range: 0.0871539413929
velocity: 0.0
doppler_bin: 8
bearing: -38.9909973145
intensity: 30.0945091248
---
header: 
  seq: 1408924
  stamp: 
    secs: 1561868412
    nsecs:  58667483
  frame_id: "ti_mmwave"
point_id: 25
x: 0.044921875
y: -0.046875
z: 0.103515625
range: 0.130730912089
velocity: 0.0
doppler_bin: 8
bearing: -46.218875885
intensity: 29.0091304779
---
header: 
  seq: 1408925
  stamp: 
    secs: 1561868412
    nsecs: 116145182
  frame_id: "ti_mmwave"
point_id: 0
x: 0.01171875
y: -0.0390625
z: -0.0078125
range: 0.0435769706964
velocity: 0.0
doppler_bin: 8
bearing: -73.3007583618
intensity: 30.6445808411
---
header: 
  seq: 1408926
  stamp: 
    secs: 1561868412
    nsecs: 116212098
  frame_id: "ti_mmwave"
point_id: 1
x: 0.017578125
y: -0.080078125
z: -0.0078125
range: 0.0871539413929
velocity: 0.0
doppler_bin: 8
bearing: -77.6192398071
intensity: 31.9033164978
---
header: 
  seq: 1408927
  stamp: 
    secs: 1561868412
    nsecs: 116223087
  frame_id: "ti_mmwave"
point_id: 2
x: 0.029296875
y: -0.119140625
z: -0.005859375
range: 0.130730912089
velocity: 0.0
doppler_bin: 8
bearing: -76.1849746704
intensity: 30.1199302673
---
header: 
  seq: 1408928
  stamp: 
    secs: 1561868412
    nsecs: 116232409
  frame_id: "ti_mmwave"
point_id: 3
x: 0.056640625
y: -0.154296875
z: 0.005859375
range: 0.174307882786
velocity: 0.0
doppler_bin: 8
bearing: -69.8423843384
intensity: 25.4406795502
---
header: 
  seq: 1408929
  stamp: 
    secs: 1561868412
    nsecs: 116244621
  frame_id: "ti_mmwave"
point_id: 4
x: 0.1484375
y: -0.080078125
z: 1.255859375
range: 1.35088610649
velocity: 0.0
doppler_bin: 8
bearing: -28.3456954956
intensity: 23.0749607086
---
header: 
  seq: 1408930
  stamp: 
    secs: 1561868412
    nsecs: 116265129
  frame_id: "ti_mmwave"
point_id: 6
x: 0.4296875
y: -0.083984375
z: -1.27734375
range: 1.43804001808
velocity: 0.0
doppler_bin: 8
bearing: -11.0592975616
intensity: 23.0535144806
---
header: 
  seq: 1408931
  stamp: 
    secs: 1561868412
    nsecs: 116278738
  frame_id: "ti_mmwave"
point_id: 7
x: 1.53515625
y: 0.2421875
z: -0.03125
range: 1.65592491627
velocity: 0.0
doppler_bin: 8
bearing: 8.96513938904
intensity: 28.8252449036
---
header: 
  seq: 1408932
  stamp: 
    secs: 1561868412
    nsecs: 116292890
  frame_id: "ti_mmwave"
point_id: 8
x: 1.58203125
y: 0.19921875
z: -0.056640625
range: 1.69950187206
velocity: 0.0
doppler_bin: 8
bearing: 7.17724561691
intensity: 29.9694919586
---
header: 
  seq: 1408933
  stamp: 
    secs: 1561868412
    nsecs: 116301091
  frame_id: "ti_mmwave"
point_id: 9
x: 1.9140625
y: 0.4296875
z: 0.103515625
range: 2.09169459343
velocity: 0.0
doppler_bin: 8
bearing: 12.6525564194
intensity: 27.7887439728
---
header: 
  seq: 1408934
  stamp: 
    secs: 1561868412
    nsecs: 116328401
  frame_id: "ti_mmwave"
point_id: 10
x: 1.94140625
y: 0.501953125
z: -0.01171875
range: 2.13527154922
velocity: 0.0
doppler_bin: 8
bearing: 14.4964399338
intensity: 27.7597427368
---
header: 
  seq: 1408935
  stamp: 
    secs: 1561868412
    nsecs: 116337278
  frame_id: "ti_mmwave"
point_id: 11
x: 2.638671875
y: -0.17578125
z: 0.986328125
range: 3.00681090355
velocity: 0.0
doppler_bin: 8
bearing: -3.81125974655
intensity: 28.9376182556
---
header: 
  seq: 1408936
  stamp: 
    secs: 1561868412
    nsecs: 116540259
  frame_id: "ti_mmwave"
point_id: 12
x: 2.69921875
y: -0.08984375
z: 0.951171875
range: 3.05038785934
velocity: 0.0
doppler_bin: 8
bearing: -1.90639162064
intensity: 32.129863739
---
header: 
  seq: 1408937
  stamp: 
    secs: 1561868412
    nsecs: 116591432
  frame_id: "ti_mmwave"
point_id: 13
x: 2.759765625
y: -0.08984375
z: 0.8984375
range: 3.09396481514
velocity: 0.0
doppler_bin: 8
bearing: -1.86459684372
intensity: 31.1561050415
---
header: 
  seq: 1408938
  stamp: 
    secs: 1561868412
    nsecs: 116603854
  frame_id: "ti_mmwave"
point_id: 14
x: 4.3984375
y: -0.142578125
z: 1.27734375
range: 4.88062095642
velocity: 0.0
doppler_bin: 8
bearing: -1.8566287756
intensity: 31.1925582886
---
header: 
  seq: 1408939
  stamp: 
    secs: 1561868412
    nsecs: 116612452
  frame_id: "ti_mmwave"
point_id: 15
x: 4.298828125
y: -0.14453125
z: 1.693359375
range: 4.9241976738
velocity: 0.0
doppler_bin: 8
bearing: -1.92562067509
