header: 
  seq: 1014838
  stamp: 
    secs: 1561865075
    nsecs: 847641447
  frame_id: "ti_mmwave"
point_id: 0
x: 0.01171875
y: -0.0390625
z: -0.0078125
range: 0.0435769706964
velocity: 0.0
doppler_bin: 8
bearing: -73.3007583618
intensity: 30.6445808411
---
header: 
  seq: 1014839
  stamp: 
    secs: 1561865075
    nsecs: 847718227
  frame_id: "ti_mmwave"
point_id: 1
x: 0.017578125
y: -0.080078125
z: -0.0078125
range: 0.0871539413929
velocity: 0.0
doppler_bin: 8
bearing: -77.6192398071
intensity: 31.9033164978
---
header: 
  seq: 1014840
  stamp: 
    secs: 1561865075
    nsecs: 847731859
  frame_id: "ti_mmwave"
point_id: 2
x: 0.029296875
y: -0.119140625
z: -0.005859375
range: 0.130730912089
velocity: 0.0
doppler_bin: 8
bearing: -76.1849746704
intensity: 30.1535968781
---
header: 
  seq: 1014841
  stamp: 
    secs: 1561865075
    nsecs: 847740380
  frame_id: "ti_mmwave"
point_id: 3
x: 0.056640625
y: -0.154296875
z: 0.005859375
range: 0.174307882786
velocity: 0.0
doppler_bin: 8
bearing: -69.8423843384
intensity: 25.4530715942
---
header: 
  seq: 1014842
  stamp: 
    secs: 1561865075
    nsecs: 847748734
  frame_id: "ti_mmwave"
point_id: 4
x: 0.931640625
y: -0.416015625
z: -0.0625
range: 1.08942425251
velocity: 0.0
doppler_bin: 8
bearing: -24.0627155304
intensity: 19.9563522339
---
header: 
  seq: 1014843
  stamp: 
    secs: 1561865075
    nsecs: 847757713
  frame_id: "ti_mmwave"
point_id: 5
x: 0.96484375
y: -0.431640625
z: -0.11328125
range: 1.13300120831
velocity: 0.0
doppler_bin: 8
bearing: -24.1022357941
intensity: 25.490032196
---
header: 
  seq: 1014844
  stamp: 
    secs: 1561865075
    nsecs: 847766297
  frame_id: "ti_mmwave"
point_id: 6
x: 0.974609375
y: -0.482421875
z: -0.19140625
range: 1.1765781641
velocity: 0.0
doppler_bin: 8
bearing: -26.3349494934
intensity: 26.6464195251
---
header: 
  seq: 1014845
  stamp: 
    secs: 1561865075
    nsecs: 847774781
  frame_id: "ti_mmwave"
point_id: 7
x: 1.015625
y: -0.501953125
z: -0.166015625
range: 1.22015523911
velocity: 0.0
doppler_bin: 8
bearing: -26.3000011444
intensity: 25.9769515991
---
header: 
  seq: 1014846
  stamp: 
    secs: 1561865075
    nsecs: 847783793
  frame_id: "ti_mmwave"
point_id: 8
x: 1.09765625
y: -0.4453125
z: 0.060546875
range: 1.2637321949
velocity: 0.0
doppler_bin: 8
bearing: -22.0820980072
intensity: 26.4738292694
---
header: 
  seq: 1014847
  stamp: 
    secs: 1561865075
    nsecs: 847792631
  frame_id: "ti_mmwave"
point_id: 9
x: 1.166015625
y: -0.3828125
z: -0.01171875
range: 1.3073091507
velocity: 0.0
doppler_bin: 8
bearing: -18.1754322052
intensity: 23.5218257904
---
header: 
  seq: 1014848
  stamp: 
    secs: 1561865075
    nsecs: 847801376
  frame_id: "ti_mmwave"
point_id: 10
x: 2.603515625
y: -0.17578125
z: 1.07421875
range: 3.00681090355
velocity: 0.0
doppler_bin: 8
bearing: -3.86257004738
intensity: 29.0417442322
---
header: 
  seq: 1014849
  stamp: 
    secs: 1561865075
    nsecs: 847810033
  frame_id: "ti_mmwave"
point_id: 11
x: 2.689453125
y: -0.08984375
z: 0.98046875
range: 3.05038785934
velocity: 0.0
doppler_bin: 8
bearing: -1.91330885887
intensity: 32.1031837463
---
header: 
  seq: 1014850
  stamp: 
    secs: 1561865075
    nsecs: 847818500
  frame_id: "ti_mmwave"
point_id: 12
x: 2.751953125
y: -0.08984375
z: 0.923828125
range: 3.09396481514
velocity: 0.0
doppler_bin: 8
bearing: -1.86988639832
intensity: 31.0243377686
---
header: 
  seq: 1014851
  stamp: 
    secs: 1561865075
    nsecs: 847827293
  frame_id: "ti_mmwave"
point_id: 13
x: 4.38671875
y: -0.142578125
z: 1.16015625
range: 4.83704376221
velocity: 0.0
doppler_bin: 8
bearing: -1.86158514023
intensity: 27.6417617798
---
header: 
  seq: 1014852
  stamp: 
    secs: 1561865075
    nsecs: 847836359
  frame_id: "ti_mmwave"
point_id: 14
x: 4.443359375
y: -0.142578125
z: 1.109375
range: 4.88062095642
velocity: 0.0
doppler_bin: 8
bearing: -1.8378713131
intensity: 31.4798526764
---
header: 
  seq: 1014853
  stamp: 
    secs: 1561865075
    nsecs: 847845626
  frame_id: "ti_mmwave"
point_id: 15
x: 4.486328125
y: -0.14453125
z: 1.107421875
range: 4.9241976738
velocity: 0.0
doppler_bin: 8
bearing: -1.84519886971
intensity: 31.306552887
---
header: 
  seq: 1014854
  stamp: 
    secs: 1561865075
    nsecs: 847858543
  frame_id: "ti_mmwave"
point_id: 16
x: 4.73828125
y: -0.298828125
z: -0.60546875
range: 5.09850549698
velocity: 0.0
doppler_bin: 8
bearing: -3.60868048668
intensity: 33.2756309509
---
header: 
  seq: 1014855
  stamp: 
    secs: 1561865075
    nsecs: 847931484
  frame_id: "ti_mmwave"
point_id: 17
x: 4.77734375
y: -0.30078125
z: -0.626953125
range: 5.14208269119
velocity: 0.0
doppler_bin: 8
bearing: -3.60258316994
intensity: 33.8969764709
---
header: 
  seq: 1014856
  stamp: 
    secs: 1561865075
    nsecs: 847980978
  frame_id: "ti_mmwave"
point_id: 18
x: 4.8046875
y: -0.15234375
z: -0.763671875
range: 5.18565940857
velocity: 0.0
doppler_bin: 8
bearing: -1.81608688831
intensity: 30.4532299042
---
header: 
  seq: 1014857
  stamp: 
    secs: 1561865075
    nsecs: 847993434
  frame_id: "ti_mmwave"
point_id: 19
x: 4.85546875
y: -0.154296875
z: 0.9453125
range: 5.27281332016
velocity: 0.0
doppler_bin: 8
bearing: -1.82013010979
intensity: 30.7627620697
---
header: 
  seq: 1014858
  stamp: 
    secs: 1561865075
    nsecs: 848002131
  frame_id: "ti_mmwave"
point_id: 20
x: 0.732421875
y: -0.357421875
z: 0.064453125
range: 0.871539413929
velocity: 1.22933733463
doppler_bin: 10
bearing: -26.0123767853
intensity: 22.9225616455
---
header: 
  seq: 1014859
  stamp: 
    secs: 1561865075
    nsecs: 848010883
  frame_id: "ti_mmwave"
point_id: 21
x: 0.76953125
y: -0.375
z: 0.0546875
range: 0.915116369724
velocity: 1.22933733463
doppler_bin: 10
bearing: -25.9804210663
intensity: 26.6838588715
---
header: 
  seq: 1014860
  stamp: 
    secs: 1561865075
    nsecs: 848019169
  frame_id: "ti_mmwave"
point_id: 22
x: 0.8203125
y: -0.365234375
z: 0.0546875
range: 0.958693385124
velocity: 1.22933733463
doppler_bin: 10
bearing: -24.0004501343
intensity: 26.503074646
---
header: 
  seq: 1014861
  stamp: 
    secs: 1561865075
    nsecs: 848026833
  frame_id: "ti_mmwave"
point_id: 23
x: 0.87109375
y: -0.353515625
z: 0.052734375
range: 1.00227034092
velocity: 1.22933733463
doppler_bin: 10
bearing: -22.0887699127
intensity: 22.1218757629
---
header: 
  seq: 1014862
  stamp: 
    secs: 1561865075
    nsecs: 848035476
  frame_id: "ti_mmwave"
point_id: 24
x: 0.009765625
y: 0.03125
z: 0.025390625
range: 0.0435769706964
velocity: 0.0
doppler_bin: 8
bearing: 72.6459732056
intensity: 29.31457901
---
header: 
  seq: 1014863
  stamp: 
    secs: 1561865075
    nsecs: 848043500
  frame_id: "ti_mmwave"
point_id: 25
x: 0.041015625
y: -0.033203125
z: 0.0625
range: 0.0871539413929
velocity: 0.0
doppler_bin: 8
bearing: -38.9909973145
intensity: 30.0945091248
---
header: 
  seq: 1014864
  stamp: 
    secs: 1561865075
    nsecs: 848051333
  frame_id: "ti_mmwave"
point_id: 26
x: 0.044921875
y: -0.046875
z: 0.103515625
range: 0.130730912089
velocity: 0.0
doppler_bin: 8
bearing: -46.218875885
intensity: 28.9762706757
---
header: 
  seq: 1014865
  stamp: 
    secs: 1561865075
    nsecs: 849239116
  frame_id: "ti_mmwave"
point_id: 0
x: 0.01171875
y: -0.0390625
z: -0.0078125
range: 0.0435769706964
velocity: 0.0
doppler_bin: 8
bearing: -73.3007583618
intensity: 30.6445808411
---
header: 
  seq: 1014866
  stamp: 
    secs: 1561865075
    nsecs: 849297001
  frame_id: "ti_mmwave"
point_id: 1
x: 0.017578125
y: -0.080078125
z: -0.0078125
range: 0.0871539413929
velocity: 0.0
doppler_bin: 8
bearing: -77.6192398071
intensity: 31.9033164978
---
header: 
  seq: 1014867
  stamp: 
    secs: 1561865075
    nsecs: 849309531
  frame_id: "ti_mmwave"
point_id: 2
x: 0.029296875
y: -0.119140625
z: -0.005859375
range: 0.130730912089
velocity: 0.0
doppler_bin: 8
bearing: -76.1849746704
intensity: 30.1535968781
---
header: 
  seq: 1014868
  stamp: 
    secs: 1561865075
    nsecs: 849317995
  frame_id: "ti_mmwave"
point_id: 3
x: 0.056640625
y: -0.154296875
z: 0.005859375
range: 0.174307882786
velocity: 0.0
doppler_bin: 8
bearing: -69.8423843384
intensity: 25.4406795502
---
header: 
  seq: 1014869
  stamp: 
    secs: 1561865075
    nsecs: 849326144
  frame_id: "ti_mmwave"
point_id: 4
x: 0.947265625
y: -0.3515625
z: -0.16015625
range: 1.08942425251
velocity: 0.0
doppler_bin: 8
bearing: -20.3616027832
intensity: 22.1484394073
---
header: 
  seq: 1014870
  stamp: 
    secs: 1561865075
    nsecs: 849333857
  frame_id: "ti_mmwave"
point_id: 5
x: 0.974609375
y: -0.3984375
z: -0.1484375
range: 1.13300120831
velocity: 0.0
doppler_bin: 8
bearing: -22.2356109619
intensity: 28.034570694
---
header: 
  seq: 1014871
  stamp: 
    secs: 1561865075
    nsecs: 849344169
  frame_id: "ti_mmwave"
point_id: 6
x: 1.00390625
y: -0.4140625
z: -0.205078125
range: 1.1765781641
velocity: 0.0
doppler_bin: 8
bearing: -22.413766861
intensity: 29.3449840546
---
header: 
  seq: 1014872
  stamp: 
    secs: 1561865075
    nsecs: 849355967
  frame_id: "ti_mmwave"
point_id: 7
x: 1.18359375
y: -0.306640625
z: 0.095703125
range: 1.3073091507
velocity: 0.0
doppler_bin: 8
bearing: -14.5246105194
intensity: 26.570558548
---
header: 
  seq: 1014873
  stamp: 
    secs: 1561865075
    nsecs: 849369501
  frame_id: "ti_mmwave"
point_id: 8
x: 2.615234375
y: -0.17578125
z: 1.044921875
range: 3.00681090355
velocity: 0.0
doppler_bin: 8
bearing: -3.84531402588
intensity: 28.9265098572
---
header: 
  seq: 1014874
  stamp: 
    secs: 1561865075
    nsecs: 849469756
  frame_id: "ti_mmwave"
point_id: 9
x: 2.689453125
y: -0.08984375
z: 0.978515625
range: 3.05038785934
velocity: 0.0
doppler_bin: 8
bearing: -1.91330885887
intensity: 32.129863739
---
header: 
  seq: 1014875
  stamp: 
    secs: 1561865075
    nsecs: 849489603
  frame_id: "ti_mmwave"
point_id: 10
x: 2.748046875
y: -0.08984375
z: 0.9375
range: 3.09396481514
velocity: 0.0
doppler_bin: 8
bearing: -1.8725425005
intensity: 31.0687046051
---
header: 
  seq: 1014876
  stamp: 
    secs: 1561865075
    nsecs: 849502193
  frame_id: "ti_mmwave"
point_id: 11
x: 4.40625
y: -0.142578125
z: 1.0859375
range: 4.83704376221
velocity: 0.0
doppler_bin: 8
bearing: -1.85333895683
intensity: 27.6417617798
---
header: 
  seq: 1014877
  stamp: 
    secs: 1561865075
    nsecs: 849511102
  frame_id: "ti_mmwave"
point_id: 12
x: 4.447265625
y: -0.142578125
z: 1.08984375
range: 4.88062095642
velocity: 0.0
doppler_bin: 8
bearing: -1.83625817299
intensity: 31.3672065735
---
header: 
  seq: 1014878
  stamp: 
    secs: 1561865075
    nsecs: 849520011
  frame_id: "ti_mmwave"
point_id: 13
x: 4.490234375
y: -0.14453125
z: 1.087890625
range: 4.9241976738
velocity: 0.0
doppler_bin: 8
bearing: -1.84359478951
intensity: 31.1394329071
---
header: 
  seq: 1014879
  stamp: 
    secs: 1561865075
    nsecs: 849532079
  frame_id: "ti_mmwave"
point_id: 14
x: 4.73828125
y: -0.298828125
z: -0.607421875
range: 5.09850549698
velocity: 0.0
doppler_bin: 8
bearing: -3.60868048668
intensity: 33.1449928284
---
header: 
  seq: 1014880
  stamp: 
    secs: 1561865075
    nsecs: 849546781
  frame_id: "ti_mmwave"
point_id: 15
x: 4.77734375
y: -0.30078125
z: -0.626953125
range: 5.14208269119
velocity: 0.0
doppler_bin: 8
bearing: -3.60258316994
intensity: 33.7748832703
---
header: 
  seq: 1014881
  stamp: 
    secs: 1561865075
    nsecs: 849555232
  frame_id: "ti_mmwave"
point_id: 16
x: 4.810546875
y: -0.15234375
z: -0.7265625
range: 5.18565940857
velocity: 0.0
doppler_bin: 8
bearing: -1.81387650967
intensity: 30.4532299042
---
header: 
  seq: 1014882
  stamp: 
    secs: 1561865075
    nsecs: 849610193
  frame_id: "ti_mmwave"
point_id: 17
x: 4.84375
y: -0.154296875
z: 1.0078125
range: 5.27281332016
velocity: 0.0
doppler_bin: 8
bearing: -1.82453072071
intensity: 30.7591171265
---
header: 
  seq: 1014883
  stamp: 
    secs: 1561865075
    nsecs: 849622033
  frame_id: "ti_mmwave"
point_id: 18
x: 1.052734375
y: -0.287109375
z: 0.3515625
range: 1.22015523911
velocity: 0.614668667316
doppler_bin: 9
bearing: -15.2551202774
intensity: 27.3719272614
---
header: 
  seq: 1014884
  stamp: 
    secs: 1561865075
    nsecs: 849736934
  frame_id: "ti_mmwave"
point_id: 19
x: 1.1328125
y: -0.296875
z: 0.193359375
range: 1.2637321949
velocity: 0.614668667316
doppler_bin: 9
bearing: -14.6851968765
intensity: 28.5491294861
---
header: 
  seq: 1014885
  stamp: 
    secs: 1561865075
    nsecs: 849765064
  frame_id: "ti_mmwave"
point_id: 20
x: 0.794921875
y: -0.322265625
z: 0.056640625
range: 0.915116369724
velocity: 1.22933733463
doppler_bin: 10
bearing: -22.067899704
intensity: 24.5024909973
---
header: 
  seq: 1014886
  stamp: 
    secs: 1561865075
    nsecs: 849779239
  frame_id: "ti_mmwave"
point_id: 21
x: 0.833984375
y: -0.337890625
z: 0.037109375
range: 0.958693385124
velocity: 1.22933733463
doppler_bin: 10
bearing: -22.0554409027
intensity: 27.9169063568
---
header: 
  seq: 1014887
  stamp: 
    secs: 1561865075
    nsecs: 849794543
  frame_id: "ti_mmwave"
point_id: 22
x: 0.87109375
y: -0.353515625
z: 0.01953125
range: 1.00227034092
velocity: 1.22933733463
doppler_bin: 10
bearing: -22.0887699127
intensity: 27.6267852783
---
header: 
  seq: 1014888
  stamp: 
    secs: 1561865075
    nsecs: 849806305
  frame_id: "ti_mmwave"
point_id: 23
x: 0.91015625
y: -0.3671875
z: -0.015625
range: 1.04584729671
velocity: 1.22933733463
doppler_bin: 10
bearing: -21.9707984924
intensity: 23.4635295868
---
header: 
  seq: 1014889
  stamp: 
    secs: 1561865075
    nsecs: 849861197
  frame_id: "ti_mmwave"
point_id: 24
x: 0.009765625
y: 0.03125
z: 0.025390625
range: 0.0435769706964
velocity: 0.0
doppler_bin: 8
bearing: 72.6459732056
intensity: 29.3094902039
---
header: 
  seq: 1014890
  stamp: 
    secs: 1561865075
    nsecs: 849876876
  frame_id: "ti_mmwave"
point_id: 25
x: 0.041015625
y: -0.033203125
z: 0.0625
range: 0.0871539413929
velocity: 0.0
doppler_bin: 8
bearing: -38.9909973145
intensity: 30.081741333
---
header: 
  seq: 1014891
  stamp: 
    secs: 1561865075
    nsecs: 849888961
  frame_id: "ti_mmwave"
point_id: 26
x: 0.044921875
y: -0.046875
z: 0.103515625
range: 0.130730912089
velocity: 0.0
doppler_bin: 8
bearing: -46.218875885
intensity: 28.9652614594
---
header: 
  seq: 1014892
  stamp: 
    secs: 1561865075
    nsecs: 907755240
  frame_id: "ti_mmwave"
point_id: 0
x: 0.01171875
y: -0.0390625
z: -0.0078125
range: 0.0435769706964
velocity: 0.0
doppler_bin: 8
bearing: -73.3007583618
intensity: 30.6445808411
---
header: 
  seq: 1014893
  stamp: 
    secs: 1561865075
    nsecs: 907837376
  frame_id: "ti_mmwave"
point_id: 1
x: 0.017578125
y: -0.080078125
z: -0.0078125
range: 0.0871539413929
velocity: 0.0
doppler_bin: 8
bearing: -77.6192398071
intensity: 31.9005146027
---
header: 
  seq: 1014894
  stamp: 
    secs: 1561865075
    nsecs: 907854740
  frame_id: "ti_mmwave"
point_id: 2
x: 0.029296875
y: -0.119140625
z: -0.005859375
range: 0.130730912089
velocity: 0.0
doppler_bin: 8
bearing: -76.1849746704
intensity: 30.1452045441
---
header: 
  seq: 1014895
  stamp: 
    secs: 1561865075
    nsecs: 907868507
  frame_id: "ti_mmwave"
point_id: 3
x: 0.056640625
y: -0.154296875
z: 0.005859375
range: 0.174307882786
velocity: 0.0
doppler_bin: 8
bearing: -69.8423843384
intensity: 25.4406795502
---
header: 
  seq: 1014896
  stamp: 
    secs: 1561865075
    nsecs: 907891589
  frame_id: "ti_mmwave"
point_id: 4
x: 0.955078125
y: -0.3203125
z: -0.173828125
range: 1.08942425251
velocity: 0.0
doppler_bin: 8
bearing: -18.5403366089
intensity: 21.6731739044
---
header: 
  seq: 1014897
  stamp: 
    secs: 1561865075
    nsecs: 907978670
  frame_id: "ti_mmwave"
point_id: 5
x: 0.98046875
y: -0.365234375
z: -0.189453125
range: 1.13300120831
velocity: 0.0
doppler_bin: 8
bearing: -20.4308624268
intensity: 27.058637619
---
header: 
  seq: 1014898
  stamp: 
    secs: 1561865075
    nsecs: 907998681
  frame_id: "ti_mmwave"
point_id: 6
x: 0.99609375
y: -0.37890625
z: -0.291015625
range: 1.1765781641
velocity: 0.0
doppler_bin: 8
bearing: -20.826423645
intensity: 28.4073314667
---
header: 
  seq: 1014899
  stamp: 
    secs: 1561865075
    nsecs: 908012589
  frame_id: "ti_mmwave"
point_id: 7
x: 1.177734375
y: -0.345703125
z: 0.03125
range: 1.3073091507
velocity: 0.0
doppler_bin: 8
bearing: -16.358669281
intensity: 26.4443855286
---
header: 
  seq: 1014900
  stamp: 
    secs: 1561865075
    nsecs: 908024001
  frame_id: "ti_mmwave"
point_id: 8
x: 2.619140625
y: -0.17578125
z: 1.037109375
range: 3.00681090355
velocity: 0.0
doppler_bin: 8
bearing: -3.83959650993
intensity: 29.1062431335
---
header: 
  seq: 1014901
  stamp: 
    secs: 1561865075
    nsecs: 908034595
  frame_id: "ti_mmwave"
point_id: 9
x: 2.6953125
y: -0.08984375
z: 0.962890625
range: 3.05038785934
velocity: 0.0
doppler_bin: 8
bearing: -1.90915250778
intensity: 32.2993774414
---
header: 
  seq: 1014902
  stamp: 
    secs: 1561865075
    nsecs: 908045446
  frame_id: "ti_mmwave"
point_id: 10
x: 2.765625
y: -0.08984375
z: 0.8828125
range: 3.09396481514
velocity: 0.0
doppler_bin: 8
bearing: -1.8606492281
intensity: 31.2613143921
---
header: 
  seq: 1014903
  stamp: 
    secs: 1561865075
    nsecs: 908055853
  frame_id: "ti_mmwave"
point_id: 11
x: 4.30859375
y: -0.142578125
z: 1.42578125
range: 4.83704376221
velocity: 0.0
doppler_bin: 8
bearing: -1.89531564713
intensity: 27.6641292572
---
header: 
  seq: 1014904
  stamp: 
    secs: 1561865075
    nsecs: 908066211
  frame_id: "ti_mmwave"
point_id: 12
x: 4.396484375
y: -0.142578125
z: 1.27734375
range: 4.88062095642
velocity: 0.0
doppler_bin: 8
bearing: -1.85745286942
intensity: 31.5106334686
---
header: 
  seq: 1014905
  stamp: 
    secs: 1561865075
    nsecs: 908076558
  frame_id: "ti_mmwave"
point_id: 13
x: 4.443359375
y: -0.14453125
z: 1.263671875
range: 4.9241976738
velocity: 0.0
doppler_bin: 8
bearing: -1.86303019524
intensity: 31.25806427
---
header: 
  seq: 1014906
  stamp: 
    secs: 1561865075
    nsecs: 908088834
  frame_id: "ti_mmwave"
point_id: 14
x: 4.73828125
y: -0.298828125
z: -0.60546875
range: 5.09850549698
velocity: 0.0
doppler_bin: 8
bearing: -3.60868048668
intensity: 33.3405151367
---
header: 
  seq: 1014907
  stamp: 
    secs: 1561865075
    nsecs: 908103044
  frame_id: "ti_mmwave"
point_id: 15
x: 4.775390625
y: -0.30078125
z: -0.63671875
range: 5.14208269119
velocity: 0.0
doppler_bin: 8
bearing: -3.60405302048
intensity: 33.9375076294
---
header: 
  seq: 1014908
  stamp: 
    secs: 1561865075
    nsecs: 908116007
  frame_id: "ti_mmwave"
point_id: 16
x: 4.802734375
y: -0.15234375
z: -0.783203125
range: 5.18565940857
velocity: 0.0
doppler_bin: 8
bearing: -1.81682503223
intensity: 30.4532299042
---
header: 
  seq: 1014909
  stamp: 
    secs: 1561865075
    nsecs: 908128335
  frame_id: "ti_mmwave"
point_id: 17
x: 4.845703125
y: -0.154296875
z: 0.998046875
range: 5.27281332016
velocity: 0.0
doppler_bin: 8
bearing: -1.82379603386
intensity: 30.8062648773
---
header: 
  seq: 1014910
  stamp: 
    secs: 1561865075
    nsecs: 908142982
  frame_id: "ti_mmwave"
point_id: 18
x: 0.845703125
y: -0.30859375
z: -0.01171875
range: 0.958693385124
velocity: 0.614668667316
doppler_bin: 9
bearing: -20.0468273163
intensity: 20.2530593872
---
header: 
  seq: 1014911
  stamp: 
    secs: 1561865075
    nsecs: 908201999
  frame_id: "ti_mmwave"
point_id: 19
x: 0.8828125
y: -0.32421875
z: -0.0234375
range: 1.00227034092
velocity: 0.614668667316
doppler_bin: 9
bearing: -20.1660938263
intensity: 22.5041999817
---
header: 
  seq: 1014912
  stamp: 
    secs: 1561865075
    nsecs: 908217490
  frame_id: "ti_mmwave"
point_id: 20
x: 0.921875
y: -0.337890625
z: -0.037109375
range: 1.04584729671
velocity: 0.614668667316
doppler_bin: 9
bearing: -20.1291694641
intensity: 21.3672065735
---
header: 
  seq: 1014913
  stamp: 
    secs: 1561865075
    nsecs: 908231006
  frame_id: "ti_mmwave"
point_id: 21
x: 1.041015625
y: -0.287109375
z: 0.380859375
range: 1.22015523911
velocity: 0.614668667316
doppler_bin: 9
bearing: -15.4187164307
intensity: 28.1491317749
---
header: 
  seq: 1014914
  stamp: 
    secs: 1561865075
    nsecs: 908244900
  frame_id: "ti_mmwave"
point_id: 22
x: 1.115234375
y: -0.333984375
z: 0.23046875
range: 1.2637321949
velocity: 0.614668667316
doppler_bin: 9
bearing: -16.67162323
intensity: 28.2347431183
---
header: 
  seq: 1014915
  stamp: 
    secs: 1561865075
    nsecs: 908256648
  frame_id: "ti_mmwave"
point_id: 23
x: 0.009765625
y: 0.03125
z: 0.025390625
range: 0.0435769706964
velocity: 0.0
doppler_bin: 8
bearing: 72.6459732056
intensity: 29.31457901
---
header: 
  seq: 1014916
  stamp: 
    secs: 1561865075
    nsecs: 908269236
  frame_id: "ti_mmwave"
point_id: 24
x: 0.041015625
y: -0.033203125
z: 0.0625
range: 0.0871539413929
velocity: 0.0
doppler_bin: 8
bearing: -38.9909973145
intensity: 30.0860023499
---
header: 
  seq: 1014917
  stamp: 
    secs: 1561865075
    nsecs: 908282316
  frame_id: "ti_mmwave"
point_id: 25
x: 0.046875
y: -0.046875
z: 0.103515625
range: 0.130730912089
velocity: 0.0
doppler_bin: 8
bearing: -45.0
intensity: 28.9707698822
---
header: 
  seq: 1014918
  stamp: 
    secs: 1561865075
    nsecs: 909746852
  frame_id: "ti_mmwave"
point_id: 0
x: 0.01171875
y: -0.0390625
z: -0.0078125
range: 0.0435769706964
velocity: 0.0
doppler_bin: 8
bearing: -73.3007583618
intensity: 30.6445808411
---
header: 
  seq: 1014919
  stamp: 
    secs: 1561865075
    nsecs: 909787115
  frame_id: "ti_mmwave"
point_id: 1
x: 0.017578125
y: -0.080078125
z: -0.0078125
range: 0.0871539413929
velocity: 0.0
doppler_bin: 8
bearing: -77.6192398071
intensity: 31.9033164978
---
header: 
  seq: 1014920
  stamp: 
    secs: 1561865075
    nsecs: 909803258
  frame_id: "ti_mmwave"
point_id: 2
x: 0.029296875
y: -0.119140625
z: -0.005859375
range: 0.130730912089
velocity: 0.0
doppler_bin: 8
bearing: -76.1849746704
intensity: 30.1494026184
---
header: 
  seq: 1014921
  stamp: 
    secs: 1561865075
    nsecs: 909815769
  frame_id: "ti_mmwave"
point_id: 3
x: 0.056640625
y: -0.154296875
z: 0.005859375
range: 0.174307882786
velocity: 0.0
doppler_bin: 8
bearing: -69.8423843384
intensity: 25.4406795502
---
header: 
  seq: 1014922
  stamp: 
    secs: 1561865075
    nsecs: 909874686
  frame_id: "ti_mmwave"
point_id: 4
x: 0.900390625
y: -0.263671875
z: -0.068359375
range: 1.00227034092
velocity: 0.0
doppler_bin: 8
bearing: -16.322227478
intensity: 19.9563522339
---
header: 
  seq: 1014923
  stamp: 
    secs: 1561865075
    nsecs: 909887657
  frame_id: "ti_mmwave"
point_id: 5
x: 2.607421875
y: -0.17578125
z: 1.068359375
range: 3.00681090355
velocity: 0.0
doppler_bin: 8
bearing: -3.8568007946
intensity: 29.0363254547
---
header: 
  seq: 1014924
  stamp: 
    secs: 1561865075
    nsecs: 909899294
  frame_id: "ti_mmwave"
point_id: 6
x: 2.6875
y: -0.08984375
z: 0.984375
range: 3.05038785934
velocity: 0.0
doppler_bin: 8
bearing: -1.91469812393
intensity: 32.1879806519
---
header: 
  seq: 1014925
  stamp: 
    secs: 1561865075
    nsecs: 909910882
  frame_id: "ti_mmwave"
point_id: 7
x: 2.75390625
y: -0.08984375
z: 0.916015625
range: 3.09396481514
velocity: 0.0
doppler_bin: 8
bearing: -1.86856126785
intensity: 31.1360912323
---
header: 
  seq: 1014926
  stamp: 
    secs: 1561865075
    nsecs: 909923262
  frame_id: "ti_mmwave"
point_id: 8
x: 4.40625
y: -0.142578125
z: 1.087890625
range: 4.83704376221
velocity: 0.0
doppler_bin: 8
bearing: -1.85333895683
intensity: 27.6042251587
---
header: 
  seq: 1014927
  stamp: 
    secs: 1561865075
    nsecs: 909938501
  frame_id: "ti_mmwave"
point_id: 9
x: 4.419921875
y: -0.142578125
z: 1.197265625
range: 4.88062095642
velocity: 0.0
doppler_bin: 8
bearing: -1.847610116
intensity: 31.3924922943
---
header: 
  seq: 1014928
  stamp: 
    secs: 1561865075
    nsecs: 909954245
  frame_id: "ti_mmwave"
point_id: 10
x: 4.443359375
y: -0.14453125
z: 1.26953125
range: 4.9241976738
velocity: 0.0
doppler_bin: 8
bearing: -1.86303019524
intensity: 31.1427726746
---
header: 
  seq: 1014929
  stamp: 
    secs: 1561865075
    nsecs: 910009775
  frame_id: "ti_mmwave"
point_id: 11
x: 4.736328125
y: -0.298828125
z: -0.61328125
range: 5.09850549698
velocity: 0.0
doppler_bin: 8
bearing: -3.61016488075
intensity: 33.6116104126
---
header: 
  seq: 1014930
  stamp: 
    secs: 1561865075
    nsecs: 910023021
  frame_id: "ti_mmwave"
point_id: 12
x: 4.775390625
y: -0.30078125
z: -0.630859375
range: 5.14208269119
velocity: 0.0
doppler_bin: 8
bearing: -3.60405302048
intensity: 34.4090919495
---
header: 
  seq: 1014931
  stamp: 
    secs: 1561865075
    nsecs: 910034334
  frame_id: "ti_mmwave"
point_id: 13
x: 4.8125
y: -0.15234375
z: -0.71484375
range: 5.18565940857
velocity: 0.0
doppler_bin: 8
bearing: -1.81314074993
intensity: 31.3161869049
---
header: 
  seq: 1014932
  stamp: 
    secs: 1561865075
    nsecs: 910047387
  frame_id: "ti_mmwave"
point_id: 14
x: 4.833984375
y: -0.154296875
z: 1.0546875
range: 5.27281332016
velocity: 0.0
doppler_bin: 8
bearing: -1.82821428776
intensity: 30.2653331757
---
header: 
  seq: 1014933
  stamp: 
    secs: 1561865075
    nsecs: 910060049
  frame_id: "ti_mmwave"
point_id: 15
x: 0.009765625
y: 0.03125
z: 0.025390625
range: 0.0435769706964
velocity: 0.0
doppler_bin: 8
bearing: 72.6459732056
intensity: 29.31457901
---
header: 
  seq: 1014934
  stamp: 
    secs: 1561865075
    nsecs: 910074620
  frame_id: "ti_mmwave"
point_id: 16
x: 0.041015625
y: -0.033203125
z: 0.0625
range: 0.0871539413929
velocity: 0.0
doppler_bin: 8
bearing: -38.9909973145
intensity: 30.0860023499
---
header: 
  seq: 1014935
  stamp: 
    secs: 1561865075
    nsecs: 910096144
  frame_id: "ti_mmwave"
point_id: 17
x: 0.044921875
y: -0.046875
z: 0.103515625
range: 0.130730912089
velocity: 0.0
doppler_bin: 8
bearing: -46.218875885
intensity: 28.9652614594
---
header: 
  seq: 1014936
  stamp: 
    secs: 1561865075
    nsecs: 967698048
  frame_id: "ti_mmwave"
point_id: 0
x: 0.01171875
y: -0.0390625
z: -0.0078125
range: 0.0435769706964
velocity: 0.0
doppler_bin: 8
bearing: -73.3007583618
intensity: 30.6520614624
---
header: 
  seq: 1014937
  stamp: 
    secs: 1561865075
    nsecs: 967769175
  frame_id: "ti_mmwave"
point_id: 1
x: 0.017578125
y: -0.080078125
z: -0.0078125
range: 0.0871539413929
velocity: 0.0
doppler_bin: 8
bearing: -77.6192398071
intensity: 31.9033164978
---
header: 
  seq: 1014938
  stamp: 
    secs: 1561865075
    nsecs: 967785026
  frame_id: "ti_mmwave"
point_id: 2
x: 0.029296875
y: -0.119140625
z: -0.005859375
range: 0.130730912089
velocity: 0.0
doppler_bin: 8
bearing: -76.1849746704
intensity: 30.1494026184
---
header: 
  seq: 1014939
  stamp: 
    secs: 1561865075
    nsecs: 967798564
  frame_id: "ti_mmwave"
point_id: 3
x: 0.056640625
y: -0.154296875
z: 0.005859375
range: 0.174307882786
velocity: 0.0
doppler_bin: 8
bearing: -69.8423843384
intensity: 25.4406795502
---
header: 
  seq: 1014940
  stamp: 
    secs: 1561865075
    nsecs: 967812838
  frame_id: "ti_mmwave"
point_id: 4
x: 0.904296875
y: -0.234375
z: -0.10546875
range: 1.00227034092
velocity: 0.0
doppler_bin: 8
bearing: -14.5301599503
intensity: 21.1058979034
---
header: 
  seq: 1014941
  stamp: 
    secs: 1561865075
    nsecs: 967884424
  frame_id: "ti_mmwave"
point_id: 5
x: 0.951171875
y: -0.21484375
z: -0.107421875
range: 1.04584729671
velocity: 0.0
doppler_bin: 8
bearing: -12.7279672623
intensity: 20.0432128906
---
header: 
  seq: 1014942
  stamp: 
    secs: 1561865075
    nsecs: 967897883
  frame_id: "ti_mmwave"
point_id: 6
x: 0.990234375
y: -0.365234375
z: -0.1328125
range: 1.13300120831
velocity: 0.0
doppler_bin: 8
bearing: -20.245803833
intensity: 24.1995582581
---
header: 
  seq: 1014943
  stamp: 
    secs: 1561865075
    nsecs: 967909929
  frame_id: "ti_mmwave"
point_id: 7
x: 1.005859375
y: -0.4140625
z: -0.197265625
range: 1.1765781641
velocity: 0.0
doppler_bin: 8
bearing: -22.3745384216
intensity: 25.550945282
---
header: 
  seq: 1014944
  stamp: 
    secs: 1561865075
    nsecs: 967972179
  frame_id: "ti_mmwave"
point_id: 8
x: 2.611328125
y: -0.17578125
z: 1.056640625
range: 3.00681090355
velocity: 0.0
doppler_bin: 8
bearing: -3.85104894638
intensity: 28.9652614594
---
header: 
  seq: 1014945
  stamp: 
    secs: 1561865075
    nsecs: 967992954
  frame_id: "ti_mmwave"
point_id: 9
x: 2.6875
y: -0.08984375
z: 0.986328125
range: 3.05038785934
velocity: 0.0
doppler_bin: 8
bearing: -1.91469812393
intensity: 32.1800994873
---
header: 
  seq: 1014946
  stamp: 
    secs: 1561865075
    nsecs: 968007651
  frame_id: "ti_mmwave"
point_id: 10
x: 2.744140625
y: -0.08984375
z: 0.9453125
range: 3.09396481514
velocity: 0.0
doppler_bin: 8
bearing: -1.87520623207
intensity: 31.1294002533
---
header: 
  seq: 1014947
  stamp: 
    secs: 1561865075
    nsecs: 968021963
  frame_id: "ti_mmwave"
point_id: 11
x: 4.423828125
y: -0.287109375
z: 1.16015625
range: 4.88062095642
velocity: 0.0
doppler_bin: 8
bearing: -3.71332621574
intensity: 31.3703746796
---
header: 
  seq: 1014948
  stamp: 
    secs: 1561865075
    nsecs: 968037721
  frame_id: "ti_mmwave"
point_id: 12
x: 4.45703125
y: -0.14453125
z: 1.21875
range: 4.9241976738
velocity: 0.0
doppler_bin: 8
bearing: -1.8573192358
intensity: 31.1958580017
---
header: 
  seq: 1014949
  stamp: 
    secs: 1561865075
    nsecs: 968099321
  frame_id: "ti_mmwave"
point_id: 13
x: 4.693359375
y: -0.4453125
z: -0.54296875
range: 5.0549287796
velocity: 0.0
doppler_bin: 8
bearing: -5.42007780075
intensity: 29.247959137
---
header: 
  seq: 1014950
  stamp: 
    secs: 1561865075
    nsecs: 968115325
  frame_id: "ti_mmwave"
point_id: 14
x: 4.740234375
y: -0.298828125
z: -0.591796875
range: 5.09850549698
velocity: 0.0
doppler_bin: 8
bearing: -3.60719799995
intensity: 33.7456512451
---
header: 
  seq: 1014951
  stamp: 
    secs: 1561865075
    nsecs: 968127308
  frame_id: "ti_mmwave"
point_id: 15
x: 4.779296875
y: -0.30078125
z: -0.61328125
range: 5.14208269119
velocity: 0.0
doppler_bin: 8
bearing: -3.60111522675
intensity: 34.3885879517
---
header: 
  seq: 1014952
  stamp: 
    secs: 1561865075
    nsecs: 968139548
  frame_id: "ti_mmwave"
point_id: 16
x: 4.8046875
y: -0.3046875
z: -0.724609375
range: 5.18565940857
velocity: 0.0
doppler_bin: 8
bearing: -3.62853193283
intensity: 30.99335289
---
header: 
  seq: 1014953
  stamp: 
    secs: 1561865075
    nsecs: 968152591
  frame_id: "ti_mmwave"
point_id: 17
x: 4.833984375
y: -0.30859375
z: 1.017578125
range: 5.27281332016
velocity: 0.0
doppler_bin: 8
bearing: -3.65271353722
intensity: 30.3862018585
---
header: 
  seq: 1014954
  stamp: 
    secs: 1561865075
    nsecs: 968166211
  frame_id: "ti_mmwave"
point_id: 18
x: 1.125
y: -0.142578125
z: 0.16015625
range: 1.22015523911
velocity: 0.614668667316
doppler_bin: 9
bearing: -7.22293615341
intensity: 24.014005661
---
header: 
  seq: 1014955
  stamp: 
    secs: 1561865075
    nsecs: 968178809
  frame_id: "ti_mmwave"
point_id: 19
x: 1.166015625
y: -0.1484375
z: 0.15625
range: 1.2637321949
velocity: 0.614668667316
doppler_bin: 9
bearing: -7.25491189957
intensity: 25.965970993
---
header: 
  seq: 1014956
  stamp: 
    secs: 1561865075
    nsecs: 968191022
  frame_id: "ti_mmwave"
point_id: 20
x: 1.150390625
y: -0.19140625
z: 0.380859375
range: 1.3073091507
velocity: 0.614668667316
doppler_bin: 9
bearing: -9.44654655457
intensity: 25.4777469635
---
header: 
  seq: 1014957
  stamp: 
    secs: 1561865075
    nsecs: 968248388
  frame_id: "ti_mmwave"
point_id: 21
x: 0.009765625
y: 0.03125
z: 0.025390625
range: 0.0435769706964
velocity: 0.0
doppler_bin: 8
bearing: 72.6459732056
intensity: 29.31457901
---
header: 
  seq: 1014958
  stamp: 
    secs: 1561865075
    nsecs: 968262336
  frame_id: "ti_mmwave"
point_id: 22
x: 0.041015625
y: -0.033203125
z: 0.0625
range: 0.0871539413929
velocity: 0.0
doppler_bin: 8
bearing: -38.9909973145
intensity: 30.0902576447
---
header: 
  seq: 1014959
  stamp: 
    secs: 1561865075
    nsecs: 968275554
  frame_id: "ti_mmwave"
point_id: 23
x: 0.044921875
y: -0.046875
z: 0.103515625
range: 0.130730912089
velocity: 0.0
doppler_bin: 8
bearing: -46.218875885
intensity: 28.9762706757
---
header: 
  seq: 1014960
  stamp: 
    secs: 1561865075
    nsecs: 968292113
  frame_id: "ti_mmwave"
point_id: 25
x: 0.822265625
y: -0.537109375
z: -0.58984375
range: 1.22015523911
velocity: 0.614668667316
doppler_bin: 9
bearing: -33.1528358459
intensity: 22.3299617767
---
header: 
  seq: 1014961
  stamp: 
    secs: 1561865075
    nsecs: 969273940
  frame_id: "ti_mmwave"
point_id: 0
x: 0.01171875
y: -0.0390625
z: -0.0078125
range: 0.0435769706964
velocity: 0.0
doppler_bin: 8
bearing: -73.3007583618
intensity: 30.6408348083
---
header: 
  seq: 1014962
  stamp: 
    secs: 1561865075
    nsecs: 969348315
  frame_id: "ti_mmwave"
point_id: 1
x: 0.017578125
y: -0.080078125
z: -0.0078125
range: 0.0871539413929
velocity: 0.0
doppler_bin: 8
bearing: -77.6192398071
intensity: 31.8977088928
---
header: 
  seq: 1014963
  stamp: 
    secs: 1561865075
    nsecs: 969367673
  frame_id: "ti_mmwave"
point_id: 2
x: 0.029296875
y: -0.119140625
z: -0.005859375
range: 0.130730912089
velocity: 0.0
doppler_bin: 8
bearing: -76.1849746704
intensity: 30.1452045441
---
header: 
  seq: 1014964
  stamp: 
    secs: 1561865075
    nsecs: 969381542
  frame_id: "ti_mmwave"
point_id: 3
x: 0.056640625
y: -0.154296875
z: 0.005859375
range: 0.174307882786
velocity: 0.0
doppler_bin: 8
bearing: -69.8423843384
intensity: 25.4406795502
---
header: 
  seq: 1014965
  stamp: 
    secs: 1561865075
    nsecs: 969390916
  frame_id: "ti_mmwave"
point_id: 4
x: 1.0078125
y: -0.298828125
z: -0.166015625
range: 1.13300120831
velocity: 0.0
doppler_bin: 8
bearing: -16.5157012939
intensity: 25.0105934143
---
header: 
  seq: 1014966
  stamp: 
    secs: 1561865075
    nsecs: 969399228
  frame_id: "ti_mmwave"
point_id: 5
x: 1.03515625
y: -0.345703125
z: -0.16796875
range: 1.1765781641
velocity: 0.0
doppler_bin: 8
bearing: -18.4673728943
intensity: 27.2427577972
---
header: 
  seq: 1014967
  stamp: 
    secs: 1561865075
    nsecs: 969479273
  frame_id: "ti_mmwave"
point_id: 6
x: 1.03125
y: -0.39453125
z: -0.306640625
range: 1.22015523911
velocity: 0.0
doppler_bin: 8
bearing: -20.9356384277
intensity: 25.2504482269
---
header: 
  seq: 1014968
  stamp: 
    secs: 1561865075
    nsecs: 969489264
  frame_id: "ti_mmwave"
point_id: 7
x: 2.609375
y: -0.17578125
z: 1.060546875
range: 3.00681090355
velocity: 0.0
doppler_bin: 8
bearing: -3.85392260551
intensity: 29.122220993
---
header: 
  seq: 1014969
  stamp: 
    secs: 1561865075
    nsecs: 969497132
  frame_id: "ti_mmwave"
point_id: 8
x: 2.6875
y: -0.08984375
z: 0.982421875
range: 3.05038785934
velocity: 0.0
doppler_bin: 8
bearing: -1.91469812393
intensity: 32.2167510986
---
header: 
  seq: 1014970
  stamp: 
    secs: 1561865075
    nsecs: 969504833
  frame_id: "ti_mmwave"
point_id: 9
x: 2.765625
y: -0.0
z: 0.888671875
range: 3.09396481514
velocity: 0.0
doppler_bin: 8
bearing: -0.0
intensity: 31.0720996857
---
header: 
  seq: 1014971
  stamp: 
    secs: 1561865075
    nsecs: 969512476
  frame_id: "ti_mmwave"
point_id: 10
x: 4.392578125
y: -0.283203125
z: 1.111328125
range: 4.83704376221
velocity: 0.0
doppler_bin: 8
bearing: -3.68893098831
intensity: 28.2930374146
---
header: 
  seq: 1014972
  stamp: 
    secs: 1561865075
    nsecs: 969520202
  frame_id: "ti_mmwave"
point_id: 11
x: 4.4375
y: -0.142578125
z: 1.130859375
range: 4.88062095642
velocity: 0.0
doppler_bin: 8
bearing: -1.84029650688
intensity: 32.156375885
---
header: 
  seq: 1014973
  stamp: 
    secs: 1561865075
    nsecs: 969527919
  frame_id: "ti_mmwave"
point_id: 12
x: 4.458984375
y: -0.14453125
z: 1.208984375
range: 4.9241976738
velocity: 0.0
doppler_bin: 8
bearing: -1.85650622845
intensity: 31.8892841339
---
header: 
  seq: 1014974
  stamp: 
    secs: 1561865075
    nsecs: 969537005
  frame_id: "ti_mmwave"
point_id: 13
x: 4.734375
y: -0.298828125
z: -0.6328125
range: 5.09850549698
velocity: 0.0
doppler_bin: 8
bearing: -3.61165046692
intensity: 32.9092445374
---
header: 
  seq: 1014975
  stamp: 
    secs: 1561865075
    nsecs: 969545823
  frame_id: "ti_mmwave"
point_id: 14
x: 4.76953125
y: -0.30078125
z: -0.67578125
range: 5.14208269119
velocity: 0.0
doppler_bin: 8
bearing: -3.60846877098
intensity: 33.5640830994
---
header: 
  seq: 1014976
  stamp: 
    secs: 1561865075
    nsecs: 969553268
  frame_id: "ti_mmwave"
point_id: 15
x: 4.83984375
y: -0.30859375
z: 0.990234375
range: 5.27281332016
velocity: 0.0
doppler_bin: 8
bearing: -3.64830327034
intensity: 31.4050807953
---
header: 
  seq: 1014977
  stamp: 
    secs: 1561865075
    nsecs: 969560958
  frame_id: "ti_mmwave"
point_id: 16
x: 0.9140625
y: -0.205078125
z: -0.083984375
range: 1.00227034092
velocity: 0.614668667316
doppler_bin: 9
bearing: -12.6454210281
intensity: 22.6481781006
---
header: 
  seq: 1014978
  stamp: 
    secs: 1561865075
    nsecs: 969568618
  frame_id: "ti_mmwave"
point_id: 17
x: 0.9609375
y: -0.18359375
z: -0.078125
range: 1.04584729671
velocity: 0.614668667316
doppler_bin: 9
bearing: -10.8164024353
intensity: 22.4797325134
---
header: 
  seq: 1014979
  stamp: 
    secs: 1561865075
    nsecs: 969576430
  frame_id: "ti_mmwave"
point_id: 18
x: 1.1328125
y: -0.22265625
z: 0.27734375
range: 1.2637321949
velocity: 0.614668667316
doppler_bin: 9
bearing: -11.1198348999
intensity: 28.5733242035
---
header: 
  seq: 1014980
  stamp: 
    secs: 1561865075
    nsecs: 969584500
  frame_id: "ti_mmwave"
point_id: 19
x: 1.1953125
y: -0.19140625
z: 0.19921875
range: 1.3073091507
velocity: 0.614668667316
doppler_bin: 9
bearing: -9.09757995605
intensity: 29.5712814331
---
header: 
  seq: 1014981
  stamp: 
    secs: 1561865075
    nsecs: 969593537
  frame_id: "ti_mmwave"
point_id: 20
x: 1.251953125
y: -0.197265625
z: -0.005859375
range: 1.35088610649
velocity: 0.614668667316
doppler_bin: 9
bearing: -8.95426654816
intensity: 27.6267852783
---
header: 
  seq: 1014982
  stamp: 
    secs: 1561865075
    nsecs: 969601751
  frame_id: "ti_mmwave"
point_id: 21
x: 0.009765625
y: 0.03125
z: 0.025390625
range: 0.0435769706964
velocity: 0.0
doppler_bin: 8
bearing: 72.6459732056
intensity: 29.3094902039
---
header: 
  seq: 1014983
  stamp: 
    secs: 1561865075
    nsecs: 969608541
  frame_id: "ti_mmwave"
point_id: 22
x: 0.041015625
y: -0.033203125
z: 0.0625
range: 0.0871539413929
velocity: 0.0
doppler_bin: 8
bearing: -38.9909973145
intensity: 30.0860023499
---
header: 
  seq: 1014984
  stamp: 
    secs: 1561865075
    nsecs: 969619851
  frame_id: "ti_mmwave"
point_id: 23
x: 0.044921875
y: -0.046875
z: 0.103515625
range: 0.130730912089
velocity: 0.0
doppler_bin: 8
bearing: -46.218875885
intensity: 28.9707698822
---
header: 
  seq: 1014985
  stamp: 
    secs: 1561865075
    nsecs: 969686601
  frame_id: "ti_mmwave"
point_id: 25
x: 0.728515625
y: -0.03515625
z: 0.8828125
range: 1.22015523911
velocity: 0.0
doppler_bin: 8
bearing: -2.76280045509
intensity: 22.2788677216
---
header: 
  seq: 1014986
  stamp: 
    secs: 1561865076
    nsecs:  27704405
  frame_id: "ti_mmwave"
point_id: 0
x: 0.01171875
y: -0.0390625
z: -0.0078125
range: 0.0435769706964
velocity: 0.0
doppler_bin: 8
bearing: -73.3007583618
intensity: 30.6445808411
---
header: 
  seq: 1014987
  stamp: 
    secs: 1561865076
    nsecs:  27800072
  frame_id: "ti_mmwave"
point_id: 1
x: 0.017578125
y: -0.080078125
z: -0.0078125
range: 0.0871539413929
velocity: 0.0
doppler_bin: 8
bearing: -77.6192398071
intensity: 31.9033164978
---
header: 
  seq: 1014988
  stamp: 
    secs: 1561865076
    nsecs:  27817175
  frame_id: "ti_mmwave"
point_id: 2
x: 0.029296875
y: -0.119140625
z: -0.005859375
range: 0.130730912089
velocity: 0.0
doppler_bin: 8
bearing: -76.1849746704
intensity: 30.1494026184
---
header: 
  seq: 1014989
  stamp: 
    secs: 1561865076
    nsecs:  27833915
  frame_id: "ti_mmwave"
point_id: 3
x: 0.056640625
y: -0.154296875
z: 0.005859375
range: 0.174307882786
velocity: 0.0
doppler_bin: 8
bearing: -69.8423843384
intensity: 25.4530715942
---
header: 
  seq: 1014990
  stamp: 
    secs: 1561865076
    nsecs:  27847319
  frame_id: "ti_mmwave"
point_id: 4
x: 1.013671875
y: -0.298828125
z: -0.119140625
range: 1.13300120831
velocity: 0.0
doppler_bin: 8
bearing: -16.4253940582
intensity: 25.6937389374
---
header: 
  seq: 1014991
  stamp: 
    secs: 1561865076
    nsecs:  27859874
  frame_id: "ti_mmwave"
point_id: 5
x: 1.052734375
y: -0.310546875
z: -0.12109375
range: 1.1765781641
velocity: 0.0
doppler_bin: 8
bearing: -16.4355697632
intensity: 28.8024177551
---
header: 
  seq: 1014992
  stamp: 
    secs: 1561865076
    nsecs:  27873751
  frame_id: "ti_mmwave"
point_id: 6
x: 1.103515625
y: -0.287109375
z: -0.1015625
range: 1.22015523911
velocity: 0.0
doppler_bin: 8
bearing: -14.5837144852
intensity: 28.7448177338
---
header: 
  seq: 1014993
  stamp: 
    secs: 1561865076
    nsecs:  27887374
  frame_id: "ti_mmwave"
point_id: 7
x: 1.166015625
y: -0.119140625
z: -0.484375
range: 1.35088610649
velocity: 0.0
doppler_bin: 8
bearing: -5.8340959549
intensity: 25.5870857239
---
header: 
  seq: 1014994
  stamp: 
    secs: 1561865076
    nsecs:  27985861
  frame_id: "ti_mmwave"
point_id: 8
x: 1.189453125
y: -0.328125
z: 0.4375
range: 1.39446306229
velocity: 0.0
doppler_bin: 8
bearing: -15.4221611023
intensity: 24.4090900421
---
header: 
  seq: 1014995
  stamp: 
    secs: 1561865076
    nsecs:  28002697
  frame_id: "ti_mmwave"
point_id: 9
x: 2.625
y: -0.17578125
z: 1.021484375
range: 3.00681090355
velocity: 0.0
doppler_bin: 8
bearing: -3.83105134964
intensity: 28.9320678711
---
header: 
  seq: 1014996
  stamp: 
    secs: 1561865076
    nsecs:  28016547
  frame_id: "ti_mmwave"
point_id: 10
x: 2.6953125
y: -0.08984375
z: 0.9609375
range: 3.05038785934
velocity: 0.0
doppler_bin: 8
bearing: -1.90915250778
intensity: 32.1272010803
---
header: 
  seq: 1014997
  stamp: 
    secs: 1561865076
    nsecs:  28032997
  frame_id: "ti_mmwave"
point_id: 11
x: 2.76171875
y: -0.08984375
z: 0.892578125
range: 3.09396481514
velocity: 0.0
doppler_bin: 8
bearing: -1.86327898502
intensity: 31.1527767181
---
header: 
  seq: 1014998
  stamp: 
    secs: 1561865076
    nsecs:  28047414
  frame_id: "ti_mmwave"
point_id: 12
x: 4.4375
y: -0.142578125
z: 1.126953125
range: 4.88062095642
velocity: 0.0
doppler_bin: 8
bearing: -1.84029650688
intensity: 31.4050807953
---
header: 
  seq: 1014999
  stamp: 
    secs: 1561865076
    nsecs:  28060540
  frame_id: "ti_mmwave"
point_id: 13
x: 4.462890625
y: -0.14453125
z: 1.193359375
range: 4.9241976738
velocity: 0.0
doppler_bin: 8
bearing: -1.85488259792
intensity: 31.1793384552
---
header: 
  seq: 1015000
  stamp: 
    secs: 1561865076
    nsecs:  28074880
  frame_id: "ti_mmwave"
point_id: 14
x: 4.71875
y: -0.298828125
z: -0.7421875
range: 5.09850549698
velocity: 0.0
doppler_bin: 8
bearing: -3.62357759476
intensity: 30.0774784088
---
header: 
  seq: 1015001
  stamp: 
    secs: 1561865076
    nsecs:  28090622
  frame_id: "ti_mmwave"
point_id: 15
x: 4.759765625
y: -0.150390625
z: -0.78515625
range: 5.14208269119
velocity: 0.0
doppler_bin: 8
bearing: -1.8097281456
intensity: 30.6707077026
---
header: 
  seq: 1015002
  stamp: 
    secs: 1561865076
    nsecs:  28100486
  frame_id: "ti_mmwave"
point_id: 16
x: 4.8515625
y: -0.30859375
z: 0.93359375
range: 5.27281332016
velocity: 0.0
doppler_bin: 8
bearing: -3.63951420784
intensity: 30.4296913147
---
header: 
  seq: 1015003
  stamp: 
    secs: 1561865076
    nsecs:  28126298
  frame_id: "ti_mmwave"
point_id: 17
x: 1.162109375
y: -0.185546875
z: 0.154296875
range: 1.2637321949
velocity: 0.614668667316
doppler_bin: 9
bearing: -9.07149791718
intensity: 30.0259799957
---
header: 
  seq: 1015004
  stamp: 
    secs: 1561865076
    nsecs:  28190564
  frame_id: "ti_mmwave"
point_id: 18
x: 1.2109375
y: -0.154296875
z: 0.134765625
range: 1.3073091507
velocity: 0.614668667316
doppler_bin: 9
bearing: -7.26146173477
intensity: 30.310043335
---
header: 
  seq: 1015005
  stamp: 
    secs: 1561865076
    nsecs:  28208577
  frame_id: "ti_mmwave"
point_id: 19
x: 0.009765625
y: 0.03125
z: 0.025390625
range: 0.0435769706964
velocity: 0.0
doppler_bin: 8
bearing: 72.6459732056
intensity: 29.31457901
---
header: 
  seq: 1015006
  stamp: 
    secs: 1561865076
    nsecs:  28223090
  frame_id: "ti_mmwave"
point_id: 20
x: 0.041015625
y: -0.033203125
z: 0.0625
range: 0.0871539413929
velocity: 0.0
doppler_bin: 8
bearing: -38.9909973145
intensity: 30.0860023499
---
header: 
  seq: 1015007
  stamp: 
    secs: 1561865076
    nsecs:  28237585
  frame_id: "ti_mmwave"
point_id: 21
x: 0.044921875
y: -0.046875
z: 0.103515625
range: 0.130730912089
velocity: 0.0
doppler_bin: 8
bearing: -46.218875885
intensity: 28.9707698822
---
header: 
  seq: 1015008
  stamp: 
    secs: 1561865076
    nsecs:  28260112
  frame_id: "ti_mmwave"
point_id: 23
x: 0.47265625
y: 0.396484375
z: 1.107421875
range: 1.35088610649
velocity: 0.0
doppler_bin: 8
bearing: 39.9913673401
intensity: 22.6007137299
---
header: 
  seq: 1015009
  stamp: 
    secs: 1561865076
    nsecs:  28320727
  frame_id: "ti_mmwave"
point_id: 24
x: 0.294921875
y: -0.0
z: 1.275390625
range: 1.39446306229
velocity: 0.0
doppler_bin: 8
bearing: -0.0
intensity: 23.344537735
---
header: 
  seq: 1015010
  stamp: 
    secs: 1561865076
    nsecs:  87757737
  frame_id: "ti_mmwave"
point_id: 0
x: 0.01171875
y: -0.0390625
z: -0.0078125
range: 0.0435769706964
velocity: 0.0
doppler_bin: 8
bearing: -73.3007583618
intensity: 30.6370849609
---
header: 
  seq: 1015011
  stamp: 
    secs: 1561865076
    nsecs:  87839757
  frame_id: "ti_mmwave"
point_id: 1
x: 0.017578125
y: -0.080078125
z: -0.0078125
range: 0.0871539413929
velocity: 0.0
doppler_bin: 8
bearing: -77.6192398071
intensity: 31.9005146027
---
header: 
  seq: 1015012
  stamp: 
    secs: 1561865076
    nsecs:  87852178
  frame_id: "ti_mmwave"
point_id: 2
x: 0.029296875
y: -0.119140625
z: -0.005859375
range: 0.130730912089
velocity: 0.0
doppler_bin: 8
bearing: -76.1849746704
intensity: 30.1452045441
---
header: 
  seq: 1015013
  stamp: 
    secs: 1561865076
    nsecs:  87863196
  frame_id: "ti_mmwave"
point_id: 3
x: 0.056640625
y: -0.154296875
z: 0.005859375
range: 0.174307882786
velocity: 0.0
doppler_bin: 8
bearing: -69.8423843384
intensity: 25.4406795502
---
header: 
  seq: 1015014
  stamp: 
    secs: 1561865076
    nsecs:  87873790
  frame_id: "ti_mmwave"
point_id: 4
x: 1.06640625
y: -0.275390625
z: -0.083984375
range: 1.1765781641
velocity: 0.0
doppler_bin: 8
bearing: -14.4798145294
intensity: 26.5801143646
---
header: 
  seq: 1015015
  stamp: 
    secs: 1561865076
    nsecs:  87882830
  frame_id: "ti_mmwave"
point_id: 5
x: 1.1171875
y: -0.25
z: -0.046875
range: 1.22015523911
velocity: 0.0
doppler_bin: 8
bearing: -12.6136274338
intensity: 27.058637619
---
header: 
  seq: 1015016
  stamp: 
    secs: 1561865076
    nsecs:  87890734
  frame_id: "ti_mmwave"
point_id: 6
x: 1.154296875
y: -0.259765625
z: 0.080078125
range: 1.2637321949
velocity: 0.0
doppler_bin: 8
bearing: -12.6826906204
intensity: 25.1982803345
---
header: 
  seq: 1015017
  stamp: 
    secs: 1561865076
    nsecs:  87899294
  frame_id: "ti_mmwave"
point_id: 7
x: 2.619140625
y: -0.17578125
z: 1.037109375
range: 3.00681090355
velocity: 0.0
doppler_bin: 8
bearing: -3.83959650993
intensity: 29.0633506775
---
header: 
  seq: 1015018
  stamp: 
    secs: 1561865076
    nsecs:  87907368
  frame_id: "ti_mmwave"
point_id: 8
x: 2.697265625
y: -0.08984375
z: 0.958984375
range: 3.05038785934
velocity: 0.0
doppler_bin: 8
bearing: -1.90777087212
intensity: 32.2375526428
---
header: 
  seq: 1015019
  stamp: 
    secs: 1561865076
    nsecs:  87915820
  frame_id: "ti_mmwave"
point_id: 9
x: 2.763671875
y: -0.08984375
z: 0.888671875
range: 3.09396481514
velocity: 0.0
doppler_bin: 8
bearing: -1.8619633913
intensity: 31.2319812775
---
header: 
  seq: 1015020
  stamp: 
    secs: 1561865076
    nsecs:  87924108
  frame_id: "ti_mmwave"
point_id: 10
x: 4.400390625
y: -0.142578125
z: 1.267578125
range: 4.88062095642
velocity: 0.0
doppler_bin: 8
bearing: -1.85580503941
intensity: 28.2216815948
---
header: 
  seq: 1015021
  stamp: 
    secs: 1561865076
    nsecs:  87936029
  frame_id: "ti_mmwave"
point_id: 11
x: 0.919921875
y: -0.146484375
z: -0.126953125
range: 1.00227034092
velocity: 0.614668667316
doppler_bin: 9
bearing: -9.04757213593
intensity: 23.5410842896
---
header: 
  seq: 1015022
  stamp: 
    secs: 1561865076
    nsecs:  88098687
  frame_id: "ti_mmwave"
point_id: 12
x: 0.9609375
y: -0.154296875
z: -0.130859375
range: 1.04584729671
velocity: 0.614668667316
doppler_bin: 9
bearing: -9.12206745148
intensity: 28.0208930969
---
header: 
  seq: 1015023
  stamp: 
    secs: 1561865076
    nsecs:  88109102
  frame_id: "ti_mmwave"
point_id: 13
x: 1.0
y: -0.16015625
z: -0.13671875
range: 1.08942425251
velocity: 0.614668667316
doppler_bin: 9
bearing: -9.09900569916
intensity: 28.5247993469
---
header: 
  seq: 1015024
  stamp: 
    secs: 1561865076
    nsecs:  88116841
  frame_id: "ti_mmwave"
point_id: 14
x: 1.04296875
y: -0.166015625
z: -0.126953125
range: 1.13300120831
velocity: 0.614668667316
doppler_bin: 9
bearing: -9.04423904419
intensity: 25.9769515991
---
header: 
  seq: 1015025
  stamp: 
    secs: 1561865076
    nsecs:  88125249
  frame_id: "ti_mmwave"
point_id: 15
x: 0.009765625
y: 0.03125
z: 0.025390625
range: 0.0435769706964
velocity: 0.0
doppler_bin: 8
bearing: 72.6459732056
intensity: 29.3196620941
---
header: 
  seq: 1015026
  stamp: 
    secs: 1561865076
    nsecs:  88133308
  frame_id: "ti_mmwave"
point_id: 16
x: 0.041015625
y: -0.033203125
z: 0.0625
range: 0.0871539413929
velocity: 0.0
doppler_bin: 8
bearing: -38.9909973145
intensity: 30.0860023499
---
header: 
  seq: 1015027
  stamp: 
    secs: 1561865076
    nsecs:  88141253
  frame_id: "ti_mmwave"
point_id: 17
x: 0.044921875
y: -0.046875
z: 0.103515625
range: 0.130730912089
velocity: 0.0
doppler_bin: 8
bearing: -46.218875885
intensity: 28.9707698822
---
header: 
  seq: 1015028
  stamp: 
    secs: 1561865076
    nsecs:  89217766
  frame_id: "ti_mmwave"
point_id: 0
x: 0.01171875
y: -0.0390625
z: -0.0078125
range: 0.0435769706964
velocity: 0.0
doppler_bin: 8
bearing: -73.3007583618
intensity: 30.6370849609
---
header: 
  seq: 1015029
  stamp: 
    secs: 1561865076
    nsecs:  89273098
  frame_id: "ti_mmwave"
point_id: 1
x: 0.017578125
y: -0.080078125
z: -0.0078125
range: 0.0871539413929
velocity: 0.0
doppler_bin: 8
bearing: -77.6192398071
intensity: 31.9005146027
---
header: 
  seq: 1015030
  stamp: 
    secs: 1561865076
    nsecs:  89293316
  frame_id: "ti_mmwave"
point_id: 2
x: 0.029296875
y: -0.119140625
z: -0.005859375
range: 0.130730912089
velocity: 0.0
doppler_bin: 8
bearing: -76.1849746704
intensity: 30.1494026184
---
header: 
  seq: 1015031
  stamp: 
    secs: 1561865076
    nsecs:  89306783
  frame_id: "ti_mmwave"
point_id: 3
x: 0.056640625
y: -0.154296875
z: 0.005859375
range: 0.174307882786
velocity: 0.0
doppler_bin: 8
bearing: -69.8423843384
intensity: 25.4530715942
---
header: 
  seq: 1015032
  stamp: 
    secs: 1561865076
    nsecs:  89322287
  frame_id: "ti_mmwave"
point_id: 4
x: 0.908203125
y: -0.205078125
z: -0.13671875
range: 1.00227034092
velocity: 0.0
doppler_bin: 8
bearing: -12.7243556976
intensity: 23.8201713562
---
header: 
  seq: 1015033
  stamp: 
    secs: 1561865076
    nsecs:  89394113
  frame_id: "ti_mmwave"
point_id: 5
x: 0.955078125
y: -0.18359375
z: -0.1328125
range: 1.04584729671
velocity: 0.0
doppler_bin: 8
bearing: -10.8811807632
intensity: 29.2634239197
---
header: 
  seq: 1015034
  stamp: 
    secs: 1561865076
    nsecs:  89411940
  frame_id: "ti_mmwave"
point_id: 6
x: 0.986328125
y: -0.224609375
z: -0.1484375
range: 1.08942425251
velocity: 0.0
doppler_bin: 8
bearing: -12.8287830353
intensity: 30.6145248413
---
header: 
  seq: 1015035
  stamp: 
    secs: 1561865076
    nsecs:  89424792
  frame_id: "ti_mmwave"
point_id: 7
x: 1.033203125
y: -0.19921875
z: -0.158203125
range: 1.13300120831
velocity: 0.0
doppler_bin: 8
bearing: -10.913643837
intensity: 28.0208930969
---
header: 
  seq: 1015036
  stamp: 
    secs: 1561865076
    nsecs:  89438161
  frame_id: "ti_mmwave"
point_id: 8
x: 1.068359375
y: -0.275390625
z: -0.044921875
range: 1.1765781641
velocity: 0.0
doppler_bin: 8
bearing: -14.4544525146
intensity: 22.6481781006
---
header: 
  seq: 1015037
  stamp: 
    secs: 1561865076
    nsecs:  89453935
  frame_id: "ti_mmwave"
point_id: 9
x: 1.107421875
y: -0.287109375
z: 0.0390625
range: 1.22015523911
velocity: 0.0
doppler_bin: 8
bearing: -14.5344543457
intensity: 22.4551258087
---
header: 
  seq: 1015038
  stamp: 
    secs: 1561865076
    nsecs:  89462416
  frame_id: "ti_mmwave"
point_id: 10
x: 2.6171875
y: -0.17578125
z: 1.0390625
range: 3.00681090355
velocity: 0.0
doppler_bin: 8
bearing: -3.84245300293
intensity: 29.1960105896
---
header: 
  seq: 1015039
  stamp: 
    secs: 1561865076
    nsecs:  89488262
  frame_id: "ti_mmwave"
point_id: 11
x: 2.69140625
y: -0.08984375
z: 0.974609375
range: 3.05038785934
velocity: 0.0
doppler_bin: 8
bearing: -1.91192126274
intensity: 32.2737236023
---
header: 
  seq: 1015040
  stamp: 
    secs: 1561865076
    nsecs:  89512399
  frame_id: "ti_mmwave"
point_id: 12
x: 2.75
y: -0.08984375
z: 0.9296875
range: 3.09396481514
velocity: 0.0
doppler_bin: 8
bearing: -1.87121355534
intensity: 31.1461105347
---
header: 
  seq: 1015041
  stamp: 
    secs: 1561865076
    nsecs:  89590799
  frame_id: "ti_mmwave"
point_id: 13
x: 0.009765625
y: 0.03125
z: 0.025390625
range: 0.0435769706964
velocity: 0.0
doppler_bin: 8
bearing: 72.6459732056
intensity: 29.31457901
---
header: 
  seq: 1015042
  stamp: 
    secs: 1561865076
    nsecs:  89610261
  frame_id: "ti_mmwave"
point_id: 14
x: 0.041015625
y: -0.033203125
z: 0.0625
range: 0.0871539413929
velocity: 0.0
doppler_bin: 8
bearing: -38.9909973145
intensity: 30.0860023499
---
header: 
  seq: 1015043
  stamp: 
    secs: 1561865076
    nsecs:  89624487
  frame_id: "ti_mmwave"
point_id: 15
x: 0.046875
y: -0.046875
z: 0.103515625
range: 0.130730912089
velocity: 0.0
doppler_bin: 8
bearing: -45.0
intensity: 28.9652614594
---
header: 
  seq: 1015044
  stamp: 
    secs: 1561865076
    nsecs: 147989279
  frame_id: "ti_mmwave"
point_id: 0
x: 0.01171875
y: -0.0390625
z: -0.0078125
range: 0.0435769706964
velocity: 0.0
doppler_bin: 8
bearing: -73.3007583618
intensity: 30.6483230591
---
header: 
  seq: 1015045
  stamp: 
    secs: 1561865076
    nsecs: 148073263
  frame_id: "ti_mmwave"
point_id: 1
x: 0.017578125
y: -0.080078125
z: -0.0078125
range: 0.0871539413929
velocity: 0.0
doppler_bin: 8
bearing: -77.6192398071
intensity: 31.9033164978
---
header: 
  seq: 1015046
  stamp: 
    secs: 1561865076
    nsecs: 148086362
  frame_id: "ti_mmwave"
point_id: 2
x: 0.029296875
y: -0.119140625
z: -0.005859375
range: 0.130730912089
velocity: 0.0
doppler_bin: 8
bearing: -76.1849746704
intensity: 30.1494026184
---
header: 
  seq: 1015047
  stamp: 
    secs: 1561865076
    nsecs: 148097493
  frame_id: "ti_mmwave"
point_id: 3
x: 0.056640625
y: -0.154296875
z: 0.005859375
range: 0.174307882786
velocity: 0.0
doppler_bin: 8
bearing: -69.8423843384
intensity: 25.4530715942
---
header: 
  seq: 1015048
  stamp: 
    secs: 1561865076
    nsecs: 148105638
  frame_id: "ti_mmwave"
point_id: 4
x: 1.173828125
y: -0.111328125
z: 0.12890625
range: 1.2637321949
velocity: 0.0
doppler_bin: 8
bearing: -5.41783666611
intensity: 25.1054496765
---
header: 
  seq: 1015049
  stamp: 
    secs: 1561865076
    nsecs: 148114201
  frame_id: "ti_mmwave"
point_id: 5
x: 1.21875
y: -0.076171875
z: -0.115234375
range: 1.3073091507
velocity: 0.0
doppler_bin: 8
bearing: -3.57633447647
intensity: 24.031206131
---
header: 
  seq: 1015050
  stamp: 
    secs: 1561865076
    nsecs: 148122827
  frame_id: "ti_mmwave"
point_id: 6
x: 2.619140625
y: -0.17578125
z: 1.03515625
range: 3.00681090355
velocity: 0.0
doppler_bin: 8
bearing: -3.83959650993
intensity: 29.1115760803
---
header: 
  seq: 1015051
  stamp: 
    secs: 1561865076
    nsecs: 148131103
  frame_id: "ti_mmwave"
point_id: 7
x: 2.6953125
y: -0.08984375
z: 0.9609375
range: 3.05038785934
velocity: 0.0
doppler_bin: 8
bearing: -1.90915250778
intensity: 32.1642990112
---
header: 
  seq: 1015052
  stamp: 
    secs: 1561865076
    nsecs: 148140665
  frame_id: "ti_mmwave"
point_id: 8
x: 2.775390625
y: -0.0
z: 0.853515625
range: 3.09396481514
velocity: 0.0
doppler_bin: 8
bearing: -0.0
intensity: 31.00715065
---
header: 
  seq: 1015053
  stamp: 
    secs: 1561865076
    nsecs: 148150840
  frame_id: "ti_mmwave"
point_id: 9
x: 0.900390625
y: -0.205078125
z: -0.17578125
range: 1.00227034092
velocity: -0.614668667316
doppler_bin: 7
bearing: -12.8311223984
intensity: 25.2113800049
---
header: 
  seq: 1015054
  stamp: 
    secs: 1561865076
    nsecs: 148160419
  frame_id: "ti_mmwave"
point_id: 10
x: 0.93359375
y: -0.24609375
z: -0.173828125
range: 1.04584729671
velocity: -0.614668667316
doppler_bin: 7
bearing: -14.7671613693
intensity: 28.3821926117
---
header: 
  seq: 1015055
  stamp: 
    secs: 1561865076
    nsecs: 148336673
  frame_id: "ti_mmwave"
point_id: 11
x: 0.974609375
y: -0.255859375
z: -0.1796875
range: 1.08942425251
velocity: -0.614668667316
doppler_bin: 7
bearing: -14.7096471786
intensity: 27.8103694916
---
header: 
  seq: 1015056
  stamp: 
    secs: 1561865076
    nsecs: 148356055
  frame_id: "ti_mmwave"
point_id: 12
x: 1.021484375
y: -0.232421875
z: -0.185546875
range: 1.13300120831
velocity: -0.614668667316
doppler_bin: 7
bearing: -12.8184700012
intensity: 23.2428245544
---
header: 
  seq: 1015057
  stamp: 
    secs: 1561865076
    nsecs: 148364623
  frame_id: "ti_mmwave"
point_id: 13
x: 0.009765625
y: 0.03125
z: 0.025390625
range: 0.0435769706964
velocity: 0.0
doppler_bin: 8
bearing: 72.6459732056
intensity: 29.31457901
---
header: 
  seq: 1015058
  stamp: 
    secs: 1561865076
    nsecs: 148373167
  frame_id: "ti_mmwave"
point_id: 14
x: 0.041015625
y: -0.033203125
z: 0.0625
range: 0.0871539413929
velocity: 0.0
doppler_bin: 8
bearing: -38.9909973145
intensity: 30.0902576447
---
header: 
  seq: 1015059
  stamp: 
    secs: 1561865076
    nsecs: 148381930
  frame_id: "ti_mmwave"
point_id: 15
x: 0.044921875
y: -0.046875
z: 0.103515625
range: 0.130730912089
velocity: 0.0
doppler_bin: 8
bearing: -46.218875885
intensity: 28.9762706757
---
header: 
  seq: 1015060
  stamp: 
    secs: 1561865076
    nsecs: 149418905
  frame_id: "ti_mmwave"
point_id: 0
x: 0.01171875
y: -0.0390625
z: -0.0078125
range: 0.0435769706964
velocity: 0.0
doppler_bin: 8
bearing: -73.3007583618
intensity: 30.6408348083
---
header: 
  seq: 1015061
  stamp: 
    secs: 1561865076
    nsecs: 149484217
  frame_id: "ti_mmwave"
point_id: 1
x: 0.017578125
y: -0.080078125
z: -0.0078125
range: 0.0871539413929
velocity: 0.0
doppler_bin: 8
bearing: -77.6192398071
intensity: 31.9005146027
---
header: 
  seq: 1015062
  stamp: 
    secs: 1561865076
    nsecs: 149502206
  frame_id: "ti_mmwave"
point_id: 2
x: 0.029296875
y: -0.119140625
z: -0.005859375
range: 0.130730912089
velocity: 0.0
doppler_bin: 8
bearing: -76.1849746704
intensity: 30.1452045441
---
header: 
  seq: 1015063
  stamp: 
    secs: 1561865076
    nsecs: 149514351
  frame_id: "ti_mmwave"
point_id: 3
x: 0.056640625
y: -0.154296875
z: 0.005859375
range: 0.174307882786
velocity: 0.0
doppler_bin: 8
bearing: -69.8423843384
intensity: 25.4282550812
---
header: 
  seq: 1015064
  stamp: 
    secs: 1561865076
    nsecs: 149523030
  frame_id: "ti_mmwave"
point_id: 4
x: 1.029296875
y: -0.265625
z: 0.001953125
range: 1.13300120831
velocity: 0.0
doppler_bin: 8
bearing: -14.4702939987
intensity: 20.4139270782
---
header: 
  seq: 1015065
  stamp: 
    secs: 1561865076
    nsecs: 149531368
  frame_id: "ti_mmwave"
point_id: 5
x: 1.078125
y: -0.2421875
z: 0.005859375
range: 1.1765781641
velocity: 0.0
doppler_bin: 8
bearing: -12.6606225967
intensity: 22.5767860413
---
header: 
  seq: 1015066
  stamp: 
    secs: 1561865076
    nsecs: 149539831
  frame_id: "ti_mmwave"
point_id: 6
x: 1.17578125
y: -0.07421875
z: 0.134765625
range: 1.2637321949
velocity: 0.0
doppler_bin: 8
bearing: -3.61188483238
intensity: 26.6931686401
---
header: 
  seq: 1015067
  stamp: 
    secs: 1561865076
    nsecs: 149549976
  frame_id: "ti_mmwave"
point_id: 7
x: 1.208984375
y: -0.076171875
z: 0.197265625
range: 1.3073091507
velocity: 0.0
doppler_bin: 8
bearing: -3.60514640808
intensity: 30.484418869
---
header: 
  seq: 1015068
  stamp: 
    secs: 1561865076
