header: 
  seq: 1349513
  stamp: 
    secs: 1561868317
    nsecs: 146403841
  frame_id: "ti_mmwave"
point_id: 0
x: 0.01171875
y: -0.0390625
z: -0.0078125
range: 0.0435769706964
velocity: 0.0
doppler_bin: 8
bearing: -73.3007583618
intensity: 30.6408348083
---
header: 
  seq: 1349514
  stamp: 
    secs: 1561868317
    nsecs: 146488602
  frame_id: "ti_mmwave"
point_id: 1
x: 0.017578125
y: -0.080078125
z: -0.0078125
range: 0.0871539413929
velocity: 0.0
doppler_bin: 8
bearing: -77.6192398071
intensity: 31.9061183929
---
header: 
  seq: 1349515
  stamp: 
    secs: 1561868317
    nsecs: 146508549
  frame_id: "ti_mmwave"
point_id: 2
x: 0.029296875
y: -0.119140625
z: -0.005859375
range: 0.130730912089
velocity: 0.0
doppler_bin: 8
bearing: -76.1849746704
intensity: 30.1241531372
---
header: 
  seq: 1349516
  stamp: 
    secs: 1561868317
    nsecs: 146518248
  frame_id: "ti_mmwave"
point_id: 3
x: 0.056640625
y: -0.154296875
z: 0.0078125
range: 0.174307882786
velocity: 0.0
doppler_bin: 8
bearing: -69.8423843384
intensity: 25.4654273987
---
header: 
  seq: 1349517
  stamp: 
    secs: 1561868317
    nsecs: 146530467
  frame_id: "ti_mmwave"
point_id: 4
x: 0.146484375
y: -0.080078125
z: 1.2578125
range: 1.35088610649
velocity: 0.0
doppler_bin: 8
bearing: -28.6639575958
intensity: 23.0963020325
---
header: 
  seq: 1349518
  stamp: 
    secs: 1561868317
    nsecs: 146541111
  frame_id: "ti_mmwave"
point_id: 6
x: 0.423828125
y: -0.083984375
z: -1.279296875
range: 1.43804001808
velocity: 0.0
doppler_bin: 8
bearing: -11.2083444595
intensity: 23.1175384521
---
header: 
  seq: 1349519
  stamp: 
    secs: 1561868317
    nsecs: 146553572
  frame_id: "ti_mmwave"
point_id: 7
x: 1.77734375
y: -0.056640625
z: -0.283203125
range: 1.91738677025
velocity: 0.0
doppler_bin: 8
bearing: -1.82529187202
intensity: 26.5896492004
---
header: 
  seq: 1349520
  stamp: 
    secs: 1561868317
    nsecs: 146562824
  frame_id: "ti_mmwave"
point_id: 8
x: 1.837890625
y: 0.056640625
z: -0.099609375
range: 1.96096372604
velocity: 0.0
doppler_bin: 8
bearing: 1.76519858837
intensity: 27.1096305847
---
header: 
  seq: 1349521
  stamp: 
    secs: 1561868317
    nsecs: 146571570
  frame_id: "ti_mmwave"
point_id: 9
x: 1.876953125
y: 0.1171875
z: -0.01953125
range: 2.00454068184
velocity: 0.0
doppler_bin: 8
bearing: 3.57262253761
intensity: 27.3239383698
---
header: 
  seq: 1349522
  stamp: 
    secs: 1561868317
    nsecs: 146735845
  frame_id: "ti_mmwave"
point_id: 10
x: 1.9140625
y: 0.1796875
z: -0.00390625
range: 2.04811763763
velocity: 0.0
doppler_bin: 8
bearing: 5.3630695343
intensity: 26.503074646
---
header: 
  seq: 1349523
  stamp: 
    secs: 1561868317
    nsecs: 146755947
  frame_id: "ti_mmwave"
point_id: 11
x: 2.62109375
y: -0.17578125
z: 1.033203125
range: 3.00681090355
velocity: 0.0
doppler_bin: 8
bearing: -3.83674383163
intensity: 29.1381378174
---
header: 
  seq: 1349524
  stamp: 
    secs: 1561868317
    nsecs: 146764806
  frame_id: "ti_mmwave"
point_id: 12
x: 2.66015625
y: -0.1796875
z: 1.044921875
range: 3.05038785934
velocity: 0.0
doppler_bin: 8
bearing: -3.86432933807
intensity: 32.2349586487
---
header: 
  seq: 1349525
  stamp: 
    secs: 1561868317
    nsecs: 146773252
  frame_id: "ti_mmwave"
point_id: 13
x: 2.75390625
y: -0.08984375
z: 0.919921875
range: 3.09396481514
velocity: 0.0
doppler_bin: 8
bearing: -1.86856126785
intensity: 31.2839927673
---
header: 
  seq: 1349526
  stamp: 
    secs: 1561868317
    nsecs: 146782994
  frame_id: "ti_mmwave"
point_id: 14
x: 4.40625
y: -0.142578125
z: 1.083984375
range: 4.83704376221
velocity: 0.0
doppler_bin: 8
bearing: -1.85333895683
intensity: 28.2282161713
---
header: 
  seq: 1349527
  stamp: 
    secs: 1561868317
    nsecs: 146792190
  frame_id: "ti_mmwave"
point_id: 15
x: 4.40625
y: -0.287109375
z: 1.224609375
range: 4.88062095642
velocity: 0.0
doppler_bin: 8
bearing: -3.72809815407
intensity: 31.7522182465
---
header: 
  seq: 1349528
  stamp: 
    secs: 1561868317
    nsecs: 146800790
  frame_id: "ti_mmwave"
point_id: 16
x: 4.455078125
y: -0.14453125
z: 1.220703125
range: 4.9241976738
velocity: 0.0
doppler_bin: 8
bearing: -1.85813295841
intensity: 31.550321579
---
header: 
  seq: 1349529
  stamp: 
    secs: 1561868317
    nsecs: 146811049
  frame_id: "ti_mmwave"
point_id: 17
x: 1.509765625
y: -0.09375
z: -0.0078125
range: 1.61234796047
velocity: 0.614668667316
doppler_bin: 9
bearing: -3.55326104164
intensity: 27.6117572784
---
header: 
  seq: 1349530
  stamp: 
    secs: 1561868317
    nsecs: 146820070
  frame_id: "ti_mmwave"
point_id: 18
x: 1.55078125
y: -0.09765625
z: -0.03515625
range: 1.65592491627
velocity: 0.614668667316
doppler_bin: 9
bearing: -3.60328841209
intensity: 28.3947811127
---
header: 
  seq: 1349531
  stamp: 
    secs: 1561868317
    nsecs: 146831159
  frame_id: "ti_mmwave"
point_id: 20
x: 0.041015625
y: -0.033203125
z: 0.0625
range: 0.0871539413929
velocity: 0.0
doppler_bin: 8
bearing: -38.9909973145
intensity: 30.0987567902
---
header: 
  seq: 1349532
  stamp: 
    secs: 1561868317
    nsecs: 146839845
  frame_id: "ti_mmwave"
point_id: 21
x: 0.044921875
y: -0.046875
z: 0.103515625
range: 0.130730912089
velocity: 0.0
doppler_bin: 8
bearing: -46.218875885
intensity: 29.0145835876
---
header: 
  seq: 1349533
  stamp: 
    secs: 1561868317
    nsecs: 147904587
  frame_id: "ti_mmwave"
point_id: 0
x: 0.01171875
y: -0.0390625
z: -0.0078125
range: 0.0435769706964
velocity: 0.0
doppler_bin: 8
bearing: -73.3007583618
intensity: 30.6370849609
---
header: 
  seq: 1349534
  stamp: 
    secs: 1561868317
    nsecs: 148001627
  frame_id: "ti_mmwave"
point_id: 1
x: 0.017578125
y: -0.080078125
z: -0.0078125
range: 0.0871539413929
velocity: 0.0
doppler_bin: 8
bearing: -77.6192398071
intensity: 31.9061183929
---
header: 
  seq: 1349535
  stamp: 
    secs: 1561868317
    nsecs: 148020576
  frame_id: "ti_mmwave"
point_id: 2
x: 0.029296875
y: -0.119140625
z: -0.005859375
range: 0.130730912089
velocity: 0.0
doppler_bin: 8
bearing: -76.1849746704
intensity: 30.1241531372
---
header: 
  seq: 1349536
  stamp: 
    secs: 1561868317
    nsecs: 148035664
  frame_id: "ti_mmwave"
point_id: 3
x: 0.056640625
y: -0.154296875
z: 0.0078125
range: 0.174307882786
velocity: 0.0
doppler_bin: 8
bearing: -69.8423843384
intensity: 25.4530715942
---
header: 
  seq: 1349537
  stamp: 
    secs: 1561868317
    nsecs: 148048697
  frame_id: "ti_mmwave"
point_id: 4
x: 0.15625
y: -0.080078125
z: 1.255859375
range: 1.35088610649
velocity: 0.0
doppler_bin: 8
bearing: -27.1351394653
intensity: 23.0535144806
---
header: 
  seq: 1349538
  stamp: 
    secs: 1561868317
    nsecs: 148063927
  frame_id: "ti_mmwave"
point_id: 6
x: 0.39453125
y: -0.083984375
z: -1.2890625
range: 1.43804001808
velocity: 0.0
doppler_bin: 8
bearing: -12.0172519684
intensity: 23.0535144806
---
header: 
  seq: 1349539
  stamp: 
    secs: 1561868317
    nsecs: 148152850
  frame_id: "ti_mmwave"
point_id: 7
x: 1.509765625
y: -0.09375
z: 0.01171875
range: 1.61234796047
velocity: 0.0
doppler_bin: 8
bearing: -3.55326104164
intensity: 24.871383667
---
header: 
  seq: 1349540
  stamp: 
    secs: 1561868317
    nsecs: 148169300
  frame_id: "ti_mmwave"
point_id: 8
x: 1.546875
y: -0.146484375
z: 0.001953125
range: 1.65592491627
velocity: 0.0
doppler_bin: 8
bearing: -5.40960502625
intensity: 26.6931686401
---
header: 
  seq: 1349541
  stamp: 
    secs: 1561868317
    nsecs: 148183742
  frame_id: "ti_mmwave"
point_id: 9
x: 2.60546875
y: -0.17578125
z: 1.07421875
range: 3.00681090355
velocity: 0.0
doppler_bin: 8
bearing: -3.85968351364
intensity: 28.8930168152
---
header: 
  seq: 1349542
  stamp: 
    secs: 1561868317
    nsecs: 148194911
  frame_id: "ti_mmwave"
point_id: 10
x: 2.65625
y: -0.1796875
z: 1.0546875
range: 3.05038785934
velocity: 0.0
doppler_bin: 8
bearing: -3.86999511719
intensity: 32.1616592407
---
header: 
  seq: 1349543
  stamp: 
    secs: 1561868317
    nsecs: 148243532
  frame_id: "ti_mmwave"
point_id: 11
x: 2.7578125
y: -0.08984375
z: 0.908203125
range: 3.09396481514
velocity: 0.0
doppler_bin: 8
bearing: -1.86591637135
intensity: 31.1859531403
---
header: 
  seq: 1349544
  stamp: 
    secs: 1561868317
    nsecs: 148252277
  frame_id: "ti_mmwave"
point_id: 12
x: 4.41015625
y: -0.142578125
z: 1.0703125
range: 4.83704376221
velocity: 0.0
doppler_bin: 8
bearing: -1.85169863701
intensity: 28.444770813
---
header: 
  seq: 1349545
  stamp: 
    secs: 1561868317
    nsecs: 148262457
  frame_id: "ti_mmwave"
point_id: 13
x: 4.416015625
y: -0.142578125
z: 1.2109375
range: 4.88062095642
velocity: 0.0
doppler_bin: 8
bearing: -1.84924340248
intensity: 31.8440742493
---
header: 
  seq: 1349546
  stamp: 
    secs: 1561868317
    nsecs: 148275569
  frame_id: "ti_mmwave"
point_id: 14
x: 4.44921875
y: -0.14453125
z: 1.244140625
range: 4.9241976738
velocity: 0.0
doppler_bin: 8
bearing: -1.86057829857
intensity: 31.559431076
---
header: 
  seq: 1349547
  stamp: 
    secs: 1561868317
    nsecs: 148288183
  frame_id: "ti_mmwave"
point_id: 16
x: 0.041015625
y: -0.033203125
z: 0.0625
range: 0.0871539413929
velocity: 0.0
doppler_bin: 8
bearing: -38.9909973145
intensity: 30.1029987335
---
header: 
  seq: 1349548
  stamp: 
    secs: 1561868317
    nsecs: 148301979
  frame_id: "ti_mmwave"
point_id: 17
x: 0.044921875
y: -0.046875
z: 0.103515625
range: 0.130730912089
velocity: 0.0
doppler_bin: 8
bearing: -46.218875885
intensity: 29.0145835876
---
header: 
  seq: 1349549
  stamp: 
    secs: 1561868317
    nsecs: 148316217
  frame_id: "ti_mmwave"
point_id: 19
x: 0.556640625
y: 0.568359375
z: 1.2890625
range: 1.61234796047
velocity: 0.0
doppler_bin: 8
bearing: 45.5968093872
intensity: 21.9312458038
---
header: 
  seq: 1349550
  stamp: 
    secs: 1561868317
    nsecs: 148329652
  frame_id: "ti_mmwave"
point_id: 20
x: 0.595703125
y: 0.630859375
z: 1.2890625
range: 1.65592491627
velocity: 0.0
doppler_bin: 8
bearing: 46.641784668
intensity: 23.9445171356
---
header: 
  seq: 1349551
  stamp: 
    secs: 1561868317
    nsecs: 206368307
  frame_id: "ti_mmwave"
point_id: 0
x: 0.01171875
y: -0.0390625
z: -0.0078125
range: 0.0435769706964
velocity: 0.0
doppler_bin: 8
bearing: -73.3007583618
intensity: 30.6408348083
---
header: 
  seq: 1349552
  stamp: 
    secs: 1561868317
    nsecs: 206418029
  frame_id: "ti_mmwave"
point_id: 1
x: 0.017578125
y: -0.080078125
z: -0.0078125
range: 0.0871539413929
velocity: 0.0
doppler_bin: 8
bearing: -77.6192398071
intensity: 31.9061183929
---
header: 
  seq: 1349553
  stamp: 
    secs: 1561868317
    nsecs: 206425022
  frame_id: "ti_mmwave"
point_id: 2
x: 0.029296875
y: -0.119140625
z: -0.005859375
range: 0.130730912089
velocity: 0.0
doppler_bin: 8
bearing: -76.1849746704
intensity: 30.1241531372
---
header: 
  seq: 1349554
  stamp: 
    secs: 1561868317
    nsecs: 206432570
  frame_id: "ti_mmwave"
point_id: 3
x: 0.056640625
y: -0.154296875
z: 0.0078125
range: 0.174307882786
velocity: 0.0
doppler_bin: 8
bearing: -69.8423843384
intensity: 25.4654273987
---
header: 
  seq: 1349555
  stamp: 
    secs: 1561868317
    nsecs: 206438442
  frame_id: "ti_mmwave"
point_id: 4
x: 0.171875
y: -0.080078125
z: 1.25390625
range: 1.35088610649
velocity: 0.0
doppler_bin: 8
bearing: -24.9812393188
intensity: 23.1175384521
---
header: 
  seq: 1349556
  stamp: 
    secs: 1561868317
    nsecs: 206443869
  frame_id: "ti_mmwave"
point_id: 5
x: 0.013671875
y: -0.08203125
z: 1.306640625
range: 1.39446306229
velocity: 0.0
doppler_bin: 8
bearing: -80.5376739502
intensity: 24.6239795685
---
header: 
  seq: 1349557
  stamp: 
    secs: 1561868317
    nsecs: 206450142
  frame_id: "ti_mmwave"
point_id: 6
x: 0.412109375
y: -0.083984375
z: -1.283203125
range: 1.43804001808
velocity: 0.0
doppler_bin: 8
bearing: -11.518658638
intensity: 23.0963020325
---
header: 
  seq: 1349558
  stamp: 
    secs: 1561868317
    nsecs: 206455774
  frame_id: "ti_mmwave"
point_id: 7
x: 0.560546875
y: -0.04296875
z: -1.271484375
range: 1.48161697388
velocity: 0.0
doppler_bin: 8
bearing: -4.38343858719
intensity: 21.7026176453
---
header: 
  seq: 1349559
  stamp: 
    secs: 1561868317
    nsecs: 206461538
  frame_id: "ti_mmwave"
point_id: 8
x: 1.5078125
y: -0.09375
z: -0.076171875
range: 1.61234796047
velocity: 0.0
doppler_bin: 8
bearing: -3.55785179138
intensity: 25.9988307953
---
header: 
  seq: 1349560
  stamp: 
    secs: 1561868317
    nsecs: 206467072
  frame_id: "ti_mmwave"
point_id: 9
x: 1.552734375
y: -0.048828125
z: -0.05078125
range: 1.65592491627
velocity: 0.0
doppler_bin: 8
bearing: -1.80116057396
intensity: 28.4509811401
---
header: 
  seq: 1349561
  stamp: 
    secs: 1561868317
    nsecs: 206473473
  frame_id: "ti_mmwave"
point_id: 10
x: 1.59375
y: -0.05078125
z: -0.05859375
range: 1.69950187206
velocity: 0.0
doppler_bin: 8
bearing: -1.82498347759
intensity: 27.5204849243
---
header: 
  seq: 1349562
  stamp: 
    secs: 1561868317
    nsecs: 206479524
  frame_id: "ti_mmwave"
point_id: 11
x: 1.72265625
y: 0.0546875
z: 0.349609375
range: 1.87380969524
velocity: 0.0
doppler_bin: 8
bearing: 1.81830310822
intensity: 26.8304710388
---
header: 
  seq: 1349563
  stamp: 
    secs: 1561868317
    nsecs: 206484809
  frame_id: "ti_mmwave"
point_id: 12
x: 1.814453125
y: -0.0
z: -0.314453125
range: 1.96096372604
velocity: 0.0
doppler_bin: 8
bearing: -0.0
intensity: 26.7209777832
---
header: 
  seq: 1349564
  stamp: 
    secs: 1561868317
    nsecs: 206490454
  frame_id: "ti_mmwave"
point_id: 13
x: 2.611328125
y: -0.17578125
z: 1.0546875
range: 3.00681090355
velocity: 0.0
doppler_bin: 8
bearing: -3.85104894638
intensity: 28.9042110443
---
header: 
  seq: 1349565
  stamp: 
    secs: 1561868317
    nsecs: 206496447
  frame_id: "ti_mmwave"
point_id: 14
x: 2.65625
y: -0.1796875
z: 1.052734375
range: 3.05038785934
velocity: 0.0
doppler_bin: 8
bearing: -3.86999511719
intensity: 32.1112060547
---
header: 
  seq: 1349566
  stamp: 
    secs: 1561868317
    nsecs: 206502725
  frame_id: "ti_mmwave"
point_id: 15
x: 2.75
y: -0.08984375
z: 0.927734375
range: 3.09396481514
velocity: 0.0
doppler_bin: 8
bearing: -1.87121355534
intensity: 31.0619087219
---
header: 
  seq: 1349567
  stamp: 
    secs: 1561868317
    nsecs: 206507949
  frame_id: "ti_mmwave"
point_id: 16
x: 4.40234375
y: -0.283203125
z: 1.078125
range: 4.83704376221
velocity: 0.0
doppler_bin: 8
bearing: -3.68077015877
intensity: 28.6746749878
---
header: 
  seq: 1349568
  stamp: 
    secs: 1561868317
    nsecs: 206515747
  frame_id: "ti_mmwave"
point_id: 17
x: 4.421875
y: -0.142578125
z: 1.19140625
range: 4.88062095642
velocity: 0.0
doppler_bin: 8
bearing: -1.84679484367
intensity: 32.240146637
---
header: 
  seq: 1349569
  stamp: 
    secs: 1561868317
    nsecs: 206622837
  frame_id: "ti_mmwave"
point_id: 18
x: 4.45703125
y: -0.14453125
z: 1.21484375
range: 4.9241976738
velocity: 0.0
doppler_bin: 8
bearing: -1.8573192358
intensity: 31.8554210663
---
header: 
  seq: 1349570
  stamp: 
    secs: 1561868317
    nsecs: 206638650
  frame_id: "ti_mmwave"
point_id: 19
x: 4.904296875
y: -0.30859375
z: 0.591796875
range: 5.27281332016
velocity: 0.0
doppler_bin: 8
bearing: -3.60048341751
intensity: 30.2978954315
---
header: 
  seq: 1349571
  stamp: 
    secs: 1561868317
    nsecs: 206645820
  frame_id: "ti_mmwave"
point_id: 21
x: 0.041015625
y: -0.033203125
z: 0.0625
range: 0.0871539413929
velocity: 0.0
doppler_bin: 8
bearing: -38.9909973145
intensity: 30.0987567902
---
header: 
  seq: 1349572
  stamp: 
    secs: 1561868317
    nsecs: 206651264
  frame_id: "ti_mmwave"
point_id: 22
x: 0.044921875
y: -0.046875
z: 0.103515625
range: 0.130730912089
velocity: 0.0
doppler_bin: 8
bearing: -46.218875885
intensity: 29.0145835876
---
header: 
  seq: 1349573
  stamp: 
    secs: 1561868317
    nsecs: 206658788
  frame_id: "ti_mmwave"
point_id: 25
x: 4.421875
y: -0.0
z: 1.033203125
range: 4.83704376221
velocity: 0.0
doppler_bin: 8
bearing: -0.0
intensity: 28.6628742218
---
header: 
  seq: 1349574
  stamp: 
    secs: 1561868317
    nsecs: 207401207
  frame_id: "ti_mmwave"
point_id: 0
x: 0.01171875
y: -0.0390625
z: -0.0078125
range: 0.0435769706964
velocity: 0.0
doppler_bin: 8
bearing: -73.3007583618
intensity: 30.6483230591
---
header: 
  seq: 1349575
  stamp: 
    secs: 1561868317
    nsecs: 207440689
  frame_id: "ti_mmwave"
point_id: 1
x: 0.017578125
y: -0.080078125
z: -0.0078125
range: 0.0871539413929
velocity: 0.0
doppler_bin: 8
bearing: -77.6192398071
intensity: 31.9061183929
---
header: 
  seq: 1349576
  stamp: 
    secs: 1561868317
    nsecs: 207448054
  frame_id: "ti_mmwave"
point_id: 2
x: 0.029296875
y: -0.119140625
z: -0.005859375
range: 0.130730912089
velocity: 0.0
doppler_bin: 8
bearing: -76.1849746704
intensity: 30.1241531372
---
header: 
  seq: 1349577
  stamp: 
    secs: 1561868317
    nsecs: 207455211
  frame_id: "ti_mmwave"
point_id: 3
x: 0.056640625
y: -0.154296875
z: 0.0078125
range: 0.174307882786
velocity: 0.0
doppler_bin: 8
bearing: -69.8423843384
intensity: 25.4530715942
---
header: 
  seq: 1349578
  stamp: 
    secs: 1561868317
    nsecs: 207461867
  frame_id: "ti_mmwave"
point_id: 4
x: 0.1640625
y: -0.080078125
z: 1.255859375
range: 1.35088610649
velocity: 0.0
doppler_bin: 8
bearing: -26.0167827606
intensity: 23.0963020325
---
header: 
  seq: 1349579
  stamp: 
    secs: 1561868317
    nsecs: 207468908
  frame_id: "ti_mmwave"
point_id: 6
x: 0.41796875
y: -0.083984375
z: -1.28125
range: 1.43804001808
velocity: 0.0
doppler_bin: 8
bearing: -11.3614110947
intensity: 23.0102996826
---
header: 
  seq: 1349580
  stamp: 
    secs: 1561868317
    nsecs: 207511452
  frame_id: "ti_mmwave"
point_id: 7
x: 0.548828125
y: -0.04296875
z: -1.27734375
range: 1.48161697388
velocity: 0.0
doppler_bin: 8
bearing: -4.47665882111
intensity: 21.6435279846
---
header: 
  seq: 1349581
  stamp: 
    secs: 1561868317
    nsecs: 207517941
  frame_id: "ti_mmwave"
point_id: 8
x: 1.505859375
y: -0.09375
z: 0.11328125
range: 1.61234796047
velocity: 0.0
doppler_bin: 8
bearing: -3.56245470047
intensity: 25.0920257568
---
header: 
  seq: 1349582
  stamp: 
    secs: 1561868317
    nsecs: 207524241
  frame_id: "ti_mmwave"
point_id: 9
x: 1.55078125
y: -0.09765625
z: 0.044921875
range: 1.65592491627
velocity: 0.0
doppler_bin: 8
bearing: -3.60328841209
intensity: 26.503074646
---
header: 
  seq: 1349583
  stamp: 
    secs: 1561868317
    nsecs: 207529348
  frame_id: "ti_mmwave"
point_id: 10
x: 1.798828125
y: 0.056640625
z: -0.05859375
range: 1.91738677025
velocity: 0.0
doppler_bin: 8
bearing: 1.8035056591
intensity: 26.4640369415
---
header: 
  seq: 1349584
  stamp: 
    secs: 1561868317
    nsecs: 207534406
  frame_id: "ti_mmwave"
point_id: 11
x: 1.830078125
y: 0.056640625
z: -0.19140625
range: 1.96096372604
velocity: 0.0
doppler_bin: 8
bearing: 1.77272939682
intensity: 27.3957233429
---
header: 
  seq: 1349585
  stamp: 
    secs: 1561868317
    nsecs: 207542142
  frame_id: "ti_mmwave"
point_id: 12
x: 2.62890625
y: -0.17578125
z: 1.013671875
range: 3.00681090355
velocity: 0.0
doppler_bin: 8
bearing: -3.82537555695
intensity: 29.0254669189
---
header: 
  seq: 1349586
  stamp: 
    secs: 1561868317
    nsecs: 207551329
  frame_id: "ti_mmwave"
point_id: 13
x: 2.6640625
y: -0.1796875
z: 1.03125
range: 3.05038785934
velocity: 0.0
doppler_bin: 8
bearing: -3.85868024826
intensity: 32.1827278137
---
header: 
  seq: 1349587
  stamp: 
    secs: 1561868317
    nsecs: 207558908
  frame_id: "ti_mmwave"
point_id: 14
x: 2.75390625
y: -0.08984375
z: 0.91796875
range: 3.09396481514
velocity: 0.0
doppler_bin: 8
bearing: -1.86856126785
intensity: 31.172712326
---
header: 
  seq: 1349588
  stamp: 
    secs: 1561868317
    nsecs: 207562772
  frame_id: "ti_mmwave"
point_id: 15
x: 4.404296875
y: -0.142578125
z: 1.095703125
range: 4.83704376221
velocity: 0.0
doppler_bin: 8
bearing: -1.85416030884
intensity: 28.8705444336
---
header: 
  seq: 1349589
  stamp: 
    secs: 1561868317
    nsecs: 207579434
  frame_id: "ti_mmwave"
point_id: 16
x: 4.412109375
y: -0.142578125
z: 1.228515625
range: 4.88062095642
velocity: 0.0
doppler_bin: 8
bearing: -1.85087943077
intensity: 32.2063102722
---
header: 
  seq: 1349590
  stamp: 
    secs: 1561868317
    nsecs: 207586475
  frame_id: "ti_mmwave"
point_id: 17
x: 4.44140625
y: -0.14453125
z: 1.26953125
range: 4.9241976738
velocity: 0.0
doppler_bin: 8
bearing: -1.86384868622
intensity: 31.8184356689
---
header: 
  seq: 1349591
  stamp: 
    secs: 1561868317
    nsecs: 207624414
  frame_id: "ti_mmwave"
point_id: 18
x: 4.890625
y: -0.30859375
z: 0.701171875
range: 5.27281332016
velocity: 0.0
doppler_bin: 8
bearing: -3.61052203178
intensity: 31.0174713135
---
header: 
  seq: 1349592
  stamp: 
    secs: 1561868317
    nsecs: 207633801
  frame_id: "ti_mmwave"
point_id: 19
x: 1.876953125
y: 0.1171875
z: -0.02734375
range: 2.00454068184
velocity: 0.614668667316
doppler_bin: 9
bearing: 3.57262253761
intensity: 28.2607479095
---
header: 
  seq: 1349593
  stamp: 
    secs: 1561868317
    nsecs: 207642340
  frame_id: "ti_mmwave"
point_id: 20
x: 1.9140625
y: 0.1796875
z: 0.05859375
range: 2.04811763763
velocity: 0.614668667316
doppler_bin: 9
bearing: 5.3630695343
intensity: 27.8816833496
---
header: 
  seq: 1349594
  stamp: 
    secs: 1561868317
    nsecs: 207651419
  frame_id: "ti_mmwave"
point_id: 21
x: 1.9453125
y: 0.24609375
z: 0.099609375
range: 2.09169459343
velocity: 0.614668667316
doppler_bin: 9
bearing: 7.20996236801
intensity: 25.5750713348
---
header: 
  seq: 1349595
  stamp: 
    secs: 1561868317
    nsecs: 207661580
  frame_id: "ti_mmwave"
point_id: 23
x: 0.041015625
y: -0.033203125
z: 0.0625
range: 0.0871539413929
velocity: 0.0
doppler_bin: 8
bearing: -38.9909973145
intensity: 30.0987567902
---
header: 
  seq: 1349596
  stamp: 
    secs: 1561868317
    nsecs: 207668087
  frame_id: "ti_mmwave"
point_id: 24
x: 0.044921875
y: -0.046875
z: 0.103515625
range: 0.130730912089
velocity: 0.0
doppler_bin: 8
bearing: -46.218875885
intensity: 29.0145835876
---
header: 
  seq: 1349597
  stamp: 
    secs: 1561868317
    nsecs: 266283414
  frame_id: "ti_mmwave"
point_id: 0
x: 0.01171875
y: -0.0390625
z: -0.0078125
range: 0.0435769706964
velocity: 0.0
doppler_bin: 8
bearing: -73.3007583618
intensity: 30.6557979584
---
header: 
  seq: 1349598
  stamp: 
    secs: 1561868317
    nsecs: 266362806
  frame_id: "ti_mmwave"
point_id: 1
x: 0.017578125
y: -0.080078125
z: -0.0078125
range: 0.0871539413929
velocity: 0.0
doppler_bin: 8
bearing: -77.6192398071
intensity: 31.9117145538
---
header: 
  seq: 1349599
  stamp: 
    secs: 1561868317
    nsecs: 266376076
  frame_id: "ti_mmwave"
point_id: 2
x: 0.029296875
y: -0.119140625
z: -0.005859375
range: 0.130730912089
velocity: 0.0
doppler_bin: 8
bearing: -76.1849746704
intensity: 30.1241531372
---
header: 
  seq: 1349600
  stamp: 
    secs: 1561868317
    nsecs: 266384693
  frame_id: "ti_mmwave"
point_id: 3
x: 0.056640625
y: -0.154296875
z: 0.005859375
range: 0.174307882786
velocity: 0.0
doppler_bin: 8
bearing: -69.8423843384
intensity: 25.4530715942
---
header: 
  seq: 1349601
  stamp: 
    secs: 1561868317
    nsecs: 266393326
  frame_id: "ti_mmwave"
point_id: 4
x: 0.169921875
y: -0.080078125
z: 1.25390625
range: 1.35088610649
velocity: 0.0
doppler_bin: 8
bearing: -25.232831955
intensity: 23.0963020325
---
header: 
  seq: 1349602
  stamp: 
    secs: 1561868317
    nsecs: 266403713
  frame_id: "ti_mmwave"
point_id: 6
x: 0.412109375
y: -0.083984375
z: -1.283203125
range: 1.43804001808
velocity: 0.0
doppler_bin: 8
bearing: -11.518658638
intensity: 23.138671875
---
header: 
  seq: 1349603
  stamp: 
    secs: 1561868317
    nsecs: 266412308
  frame_id: "ti_mmwave"
point_id: 7
x: 1.50390625
y: -0.142578125
z: -0.08203125
range: 1.61234796047
velocity: 0.0
doppler_bin: 8
bearing: -5.41575050354
intensity: 27.0243053436
---
header: 
  seq: 1349604
  stamp: 
    secs: 1561868317
    nsecs: 266419990
  frame_id: "ti_mmwave"
point_id: 8
x: 1.537109375
y: -0.146484375
z: -0.18359375
range: 1.65592491627
velocity: 0.0
doppler_bin: 8
bearing: -5.44376754761
intensity: 27.678976059
---
header: 
  seq: 1349605
  stamp: 
    secs: 1561868317
    nsecs: 266428477
  frame_id: "ti_mmwave"
point_id: 9
x: 1.822265625
y: -0.0
z: -0.25390625
range: 1.96096372604
velocity: 0.0
doppler_bin: 8
bearing: -0.0
intensity: 27.3319721222
---
header: 
  seq: 1349606
  stamp: 
    secs: 1561868317
    nsecs: 266439945
  frame_id: "ti_mmwave"
point_id: 10
x: 2.609375
y: -0.17578125
z: 1.0625
range: 3.00681090355
velocity: 0.0
doppler_bin: 8
bearing: -3.85392260551
intensity: 29.0036716461
---
header: 
  seq: 1349607
  stamp: 
    secs: 1561868317
    nsecs: 266449081
  frame_id: "ti_mmwave"
point_id: 11
x: 2.685546875
y: -0.08984375
z: 0.98828125
range: 3.05038785934
velocity: 0.0
doppler_bin: 8
bearing: -1.91608965397
intensity: 32.1510848999
---
header: 
  seq: 1349608
  stamp: 
    secs: 1561868317
    nsecs: 266457670
  frame_id: "ti_mmwave"
point_id: 12
x: 2.748046875
y: -0.08984375
z: 0.935546875
range: 3.09396481514
velocity: 0.0
doppler_bin: 8
bearing: -1.8725425005
intensity: 31.1826477051
---
header: 
  seq: 1349609
  stamp: 
    secs: 1561868317
    nsecs: 266468801
  frame_id: "ti_mmwave"
point_id: 13
x: 4.40234375
y: -0.142578125
z: 1.103515625
range: 4.83704376221
velocity: 0.0
doppler_bin: 8
bearing: -1.85498249531
intensity: 28.3695678711
---
header: 
  seq: 1349610
  stamp: 
    secs: 1561868317
    nsecs: 266565201
  frame_id: "ti_mmwave"
point_id: 14
x: 4.40625
y: -0.142578125
z: 1.248046875
range: 4.88062095642
velocity: 0.0
doppler_bin: 8
bearing: -1.85333895683
intensity: 31.5044937134
---
header: 
  seq: 1349611
  stamp: 
    secs: 1561868317
    nsecs: 266575545
  frame_id: "ti_mmwave"
point_id: 15
x: 4.43359375
y: -0.14453125
z: 1.298828125
range: 4.9241976738
velocity: 0.0
doppler_bin: 8
bearing: -1.86713063717
intensity: 30.9166698456
---
header: 
  seq: 1349612
  stamp: 
    secs: 1561868317
    nsecs: 266583443
  frame_id: "ti_mmwave"
point_id: 16
x: 4.88671875
y: -0.30859375
z: 0.720703125
range: 5.27281332016
velocity: 0.0
doppler_bin: 8
bearing: -3.61340069771
intensity: 31.4519634247
---
header: 
  seq: 1349613
  stamp: 
    secs: 1561868317
    nsecs: 266592331
  frame_id: "ti_mmwave"
point_id: 17
x: 4.96875
y: -0.46875
z: 0.080078125
range: 5.31639051437
velocity: 0.0
doppler_bin: 8
bearing: -5.38931179047
intensity: 29.8900470734
---
header: 
  seq: 1349614
  stamp: 
    secs: 1561868317
    nsecs: 266600649
  frame_id: "ti_mmwave"
point_id: 18
x: 1.900390625
y: 0.240234375
z: 0.1640625
range: 2.04811763763
velocity: 0.614668667316
doppler_bin: 9
bearing: 7.20472431183
intensity: 25.4654273987
---
header: 
  seq: 1349615
  stamp: 
    secs: 1561868317
    nsecs: 266610353
  frame_id: "ti_mmwave"
point_id: 20
x: 0.041015625
y: -0.033203125
z: 0.0625
range: 0.0871539413929
velocity: 0.0
doppler_bin: 8
bearing: -38.9909973145
intensity: 30.1029987335
---
header: 
  seq: 1349616
  stamp: 
    secs: 1561868317
    nsecs: 266619331
  frame_id: "ti_mmwave"
point_id: 21
x: 0.046875
y: -0.046875
z: 0.103515625
range: 0.130730912089
velocity: 0.0
doppler_bin: 8
bearing: -45.0
intensity: 29.020029068
---
header: 
  seq: 1349617
  stamp: 
    secs: 1561868317
    nsecs: 267599523
  frame_id: "ti_mmwave"
point_id: 0
x: 0.01171875
y: -0.0390625
z: -0.0078125
range: 0.0435769706964
velocity: 0.0
doppler_bin: 8
bearing: -73.3007583618
intensity: 30.6520614624
---
header: 
  seq: 1349618
  stamp: 
    secs: 1561868317
    nsecs: 267669069
  frame_id: "ti_mmwave"
point_id: 1
x: 0.017578125
y: -0.080078125
z: -0.0078125
range: 0.0871539413929
velocity: 0.0
doppler_bin: 8
bearing: -77.6192398071
intensity: 31.9089164734
---
header: 
  seq: 1349619
  stamp: 
    secs: 1561868317
    nsecs: 267689093
  frame_id: "ti_mmwave"
point_id: 2
x: 0.029296875
y: -0.119140625
z: -0.005859375
range: 0.130730912089
velocity: 0.0
doppler_bin: 8
bearing: -76.1849746704
intensity: 30.1241531372
---
header: 
  seq: 1349620
  stamp: 
    secs: 1561868317
    nsecs: 267703307
  frame_id: "ti_mmwave"
point_id: 3
x: 0.056640625
y: -0.154296875
z: 0.005859375
range: 0.174307882786
velocity: 0.0
doppler_bin: 8
bearing: -69.8423843384
intensity: 25.4406795502
---
header: 
  seq: 1349621
  stamp: 
    secs: 1561868317
    nsecs: 267717644
  frame_id: "ti_mmwave"
point_id: 4
x: 0.166015625
y: -0.080078125
z: 1.25390625
range: 1.35088610649
velocity: 0.0
doppler_bin: 8
bearing: -25.7504749298
intensity: 23.1175384521
---
header: 
  seq: 1349622
  stamp: 
    secs: 1561868317
    nsecs: 267769076
  frame_id: "ti_mmwave"
point_id: 6
x: 0.443359375
y: -0.083984375
z: -1.271484375
range: 1.43804001808
velocity: 0.0
doppler_bin: 8
bearing: -10.7262945175
intensity: 23.1175384521
---
header: 
  seq: 1349623
  stamp: 
    secs: 1561868317
    nsecs: 267778484
  frame_id: "ti_mmwave"
point_id: 7
x: 0.58203125
y: -0.04296875
z: -1.26171875
range: 1.48161697388
velocity: 0.0
doppler_bin: 8
bearing: -4.22222995758
intensity: 21.6731739044
---
header: 
  seq: 1349624
  stamp: 
    secs: 1561868317
    nsecs: 267786635
  frame_id: "ti_mmwave"
point_id: 8
x: 1.51171875
y: -0.046875
z: -0.02734375
range: 1.61234796047
velocity: 0.0
doppler_bin: 8
bearing: -1.77604424953
intensity: 26.8304710388
---
header: 
  seq: 1349625
  stamp: 
    secs: 1561868317
    nsecs: 267796080
  frame_id: "ti_mmwave"
point_id: 9
x: 1.552734375
y: -0.048828125
z: -0.0078125
range: 1.65592491627
velocity: 0.0
doppler_bin: 8
bearing: -1.80116057396
intensity: 27.7451705933
---
header: 
  seq: 1349626
  stamp: 
    secs: 1561868317
    nsecs: 267804039
  frame_id: "ti_mmwave"
point_id: 10
x: 2.603515625
y: -0.17578125
z: 1.07421875
range: 3.00681090355
velocity: 0.0
doppler_bin: 8
bearing: -3.86257004738
intensity: 28.9817657471
---
header: 
  seq: 1349627
  stamp: 
    secs: 1561868317
    nsecs: 267813195
  frame_id: "ti_mmwave"
point_id: 11
x: 2.6875
y: -0.08984375
z: 0.984375
range: 3.05038785934
velocity: 0.0
doppler_bin: 8
bearing: -1.91469812393
intensity: 32.1378326416
---
header: 
  seq: 1349628
  stamp: 
    secs: 1561868317
    nsecs: 267820910
  frame_id: "ti_mmwave"
point_id: 12
x: 2.75390625
y: -0.08984375
z: 0.916015625
range: 3.09396481514
velocity: 0.0
doppler_bin: 8
bearing: -1.86856126785
intensity: 31.209028244
---
header: 
  seq: 1349629
  stamp: 
    secs: 1561868317
    nsecs: 267828422
  frame_id: "ti_mmwave"
point_id: 13
x: 4.412109375
y: -0.142578125
z: 1.06640625
range: 4.83704376221
velocity: 0.0
doppler_bin: 8
bearing: -1.85087943077
intensity: 27.8887519836
---
header: 
  seq: 1349630
  stamp: 
    secs: 1561868317
    nsecs: 267836214
  frame_id: "ti_mmwave"
point_id: 14
x: 4.412109375
y: -0.142578125
z: 1.2265625
range: 4.88062095642
velocity: 0.0
doppler_bin: 8
bearing: -1.85087943077
intensity: 31.0414562225
---
header: 
  seq: 1349631
  stamp: 
    secs: 1561868317
    nsecs: 267843807
  frame_id: "ti_mmwave"
point_id: 15
x: 4.439453125
y: -0.14453125
z: 1.27734375
range: 4.9241976738
velocity: 0.0
doppler_bin: 8
bearing: -1.86466813087
intensity: 30.4178733826
---
header: 
  seq: 1349632
  stamp: 
    secs: 1561868317
    nsecs: 267852618
  frame_id: "ti_mmwave"
point_id: 16
x: 4.8125
y: -0.154296875
z: 0.95703125
range: 5.22923660278
velocity: 0.0
doppler_bin: 8
bearing: -1.83637046814
intensity: 30.588054657
---
header: 
  seq: 1349633
  stamp: 
    secs: 1561868317
    nsecs: 267860831
  frame_id: "ti_mmwave"
point_id: 17
x: 4.88671875
y: -0.30859375
z: 0.71875
range: 5.27281332016
velocity: 0.0
doppler_bin: 8
bearing: -3.61340069771
intensity: 31.8383903503
---
header: 
  seq: 1349634
  stamp: 
    secs: 1561868317
    nsecs: 267902467
  frame_id: "ti_mmwave"
point_id: 18
x: 4.966796875
y: -0.46875
z: 0.115234375
range: 5.31639051437
velocity: 0.0
doppler_bin: 8
bearing: -5.39141845703
intensity: 30.3542976379
---
header: 
  seq: 1349635
  stamp: 
    secs: 1561868317
    nsecs: 267915094
  frame_id: "ti_mmwave"
point_id: 20
x: 0.041015625
y: -0.033203125
z: 0.0625
range: 0.0871539413929
velocity: 0.0
doppler_bin: 8
bearing: -38.9909973145
intensity: 30.0987567902
---
header: 
  seq: 1349636
  stamp: 
    secs: 1561868317
    nsecs: 267923915
  frame_id: "ti_mmwave"
point_id: 21
x: 0.044921875
y: -0.046875
z: 0.103515625
range: 0.130730912089
velocity: 0.0
doppler_bin: 8
bearing: -46.218875885
intensity: 29.0145835876
---
header: 
  seq: 1349637
  stamp: 
    secs: 1561868317
    nsecs: 326825733
  frame_id: "ti_mmwave"
point_id: 0
x: 0.01171875
y: -0.0390625
z: -0.0078125
range: 0.0435769706964
velocity: 0.0
doppler_bin: 8
bearing: -73.3007583618
intensity: 30.6483230591
---
header: 
  seq: 1349638
  stamp: 
    secs: 1561868317
    nsecs: 326907591
  frame_id: "ti_mmwave"
point_id: 1
x: 0.017578125
y: -0.080078125
z: -0.0078125
range: 0.0871539413929
velocity: 0.0
doppler_bin: 8
bearing: -77.6192398071
intensity: 31.9089164734
---
header: 
  seq: 1349639
  stamp: 
    secs: 1561868317
    nsecs: 326925591
  frame_id: "ti_mmwave"
point_id: 2
x: 0.029296875
y: -0.119140625
z: -0.005859375
range: 0.130730912089
velocity: 0.0
doppler_bin: 8
bearing: -76.1849746704
intensity: 30.1241531372
---
header: 
  seq: 1349640
  stamp: 
    secs: 1561868317
    nsecs: 326939103
  frame_id: "ti_mmwave"
point_id: 3
x: 0.056640625
y: -0.154296875
z: 0.005859375
range: 0.174307882786
velocity: 0.0
doppler_bin: 8
bearing: -69.8423843384
intensity: 25.4530715942
---
header: 
  seq: 1349641
  stamp: 
    secs: 1561868317
    nsecs: 326950806
  frame_id: "ti_mmwave"
point_id: 4
x: 0.10546875
y: -0.080078125
z: 1.26171875
range: 1.35088610649
velocity: 0.0
doppler_bin: 8
bearing: -37.2079238892
intensity: 23.0749607086
---
header: 
  seq: 1349642
  stamp: 
    secs: 1561868317
    nsecs: 326965325
  frame_id: "ti_mmwave"
point_id: 6
x: 0.3984375
y: -0.083984375
z: -1.287109375
range: 1.43804001808
velocity: 0.0
doppler_bin: 8
bearing: -11.9028120041
intensity: 23.0535144806
---
header: 
  seq: 1349643
  stamp: 
    secs: 1561868317
    nsecs: 326977424
  frame_id: "ti_mmwave"
point_id: 7
x: 0.548828125
y: -0.04296875
z: -1.27734375
range: 1.48161697388
velocity: 0.0
doppler_bin: 8
bearing: -4.47665882111
intensity: 21.6731739044
---
header: 
  seq: 1349644
  stamp: 
    secs: 1561868317
    nsecs: 326989749
  frame_id: "ti_mmwave"
point_id: 8
x: 1.50390625
y: -0.142578125
z: -0.09375
range: 1.61234796047
velocity: 0.0
doppler_bin: 8
bearing: -5.41575050354
intensity: 26.7669353485
---
header: 
  seq: 1349645
  stamp: 
    secs: 1561868317
    nsecs: 327001540
  frame_id: "ti_mmwave"
point_id: 9
x: 1.548828125
y: -0.09765625
z: -0.095703125
range: 1.65592491627
velocity: 0.0
doppler_bin: 8
bearing: -3.60782027245
intensity: 28.5247993469
---
header: 
  seq: 1349646
  stamp: 
    secs: 1561868317
    nsecs: 327015854
  frame_id: "ti_mmwave"
point_id: 10
x: 2.60546875
y: -0.17578125
z: 1.068359375
range: 3.00681090355
velocity: 0.0
doppler_bin: 8
bearing: -3.85968351364
intensity: 29.0794849396
---
header: 
  seq: 1349647
  stamp: 
    secs: 1561868317
    nsecs: 327028212
  frame_id: "ti_mmwave"
point_id: 11
x: 2.654296875
y: -0.1796875
z: 1.060546875
range: 3.05038785934
velocity: 0.0
doppler_bin: 8
bearing: -3.87283420563
intensity: 32.2375526428
---
header: 
  seq: 1349648
  stamp: 
    secs: 1561868317
    nsecs: 327120707
  frame_id: "ti_mmwave"
point_id: 12
x: 2.748046875
y: -0.08984375
z: 0.935546875
range: 3.09396481514
velocity: 0.0
doppler_bin: 8
bearing: -1.8725425005
intensity: 31.2417812347
---
header: 
  seq: 1349649
  stamp: 
    secs: 1561868317
    nsecs: 327138385
  frame_id: "ti_mmwave"
point_id: 13
x: 4.404296875
y: -0.142578125
z: 1.25390625
range: 4.88062095642
velocity: 0.0
doppler_bin: 8
bearing: -1.85416030884
intensity: 30.9272060394
---
header: 
  seq: 1349650
  stamp: 
    secs: 1561868317
    nsecs: 327150703
  frame_id: "ti_mmwave"
point_id: 14
x: 4.435546875
y: -0.14453125
z: 1.294921875
range: 4.9241976738
velocity: 0.0
doppler_bin: 8
bearing: -1.86630904675
intensity: 30.3302135468
---
header: 
  seq: 1349651
  stamp: 
    secs: 1561868317
    nsecs: 327163301
  frame_id: "ti_mmwave"
point_id: 15
x: 4.80859375
y: -0.154296875
z: 0.9765625
range: 5.22923660278
velocity: 0.0
doppler_bin: 8
bearing: -1.8378610611
intensity: 30.8314418793
---
header: 
  seq: 1349652
  stamp: 
    secs: 1561868317
    nsecs: 327177045
  frame_id: "ti_mmwave"
point_id: 16
x: 4.884765625
y: -0.30859375
z: 0.73828125
range: 5.27281332016
velocity: 0.0
doppler_bin: 8
bearing: -3.6148416996
intensity: 32.1085319519
---
header: 
  seq: 1349653
  stamp: 
    secs: 1561868317
    nsecs: 327192103
  frame_id: "ti_mmwave"
point_id: 17
x: 4.966796875
y: -0.46875
z: 0.134765625
range: 5.31639051437
velocity: 0.0
doppler_bin: 8
bearing: -5.39141845703
intensity: 30.3382568359
---
header: 
  seq: 1349654
  stamp: 
    secs: 1561868317
    nsecs: 327206474
  frame_id: "ti_mmwave"
point_id: 19
x: 0.041015625
y: -0.033203125
z: 0.0625
range: 0.0871539413929
velocity: 0.0
doppler_bin: 8
bearing: -38.9909973145
intensity: 30.0987567902
---
header: 
  seq: 1349655
  stamp: 
    secs: 1561868317
    nsecs: 327217021
  frame_id: "ti_mmwave"
point_id: 20
x: 0.046875
y: -0.046875
z: 0.103515625
range: 0.130730912089
velocity: 0.0
doppler_bin: 8
bearing: -45.0
intensity: 29.0145835876
---
header: 
  seq: 1349656
  stamp: 
    secs: 1561868317
    nsecs: 386173980
  frame_id: "ti_mmwave"
point_id: 0
x: 0.01171875
y: -0.0390625
z: -0.0078125
range: 0.0435769706964
velocity: 0.0
doppler_bin: 8
bearing: -73.3007583618
intensity: 30.6445808411
---
header: 
  seq: 1349657
  stamp: 
    secs: 1561868317
    nsecs: 386256150
  frame_id: "ti_mmwave"
point_id: 1
x: 0.017578125
y: -0.080078125
z: -0.0078125
range: 0.0871539413929
velocity: 0.0
doppler_bin: 8
bearing: -77.6192398071
intensity: 31.9061183929
---
header: 
  seq: 1349658
  stamp: 
    secs: 1561868317
    nsecs: 386274814
  frame_id: "ti_mmwave"
point_id: 2
x: 0.029296875
y: -0.119140625
z: -0.005859375
range: 0.130730912089
velocity: 0.0
doppler_bin: 8
bearing: -76.1849746704
intensity: 30.1241531372
---
header: 
  seq: 1349659
  stamp: 
    secs: 1561868317
    nsecs: 386287188
  frame_id: "ti_mmwave"
point_id: 3
x: 0.056640625
y: -0.154296875
z: 0.0078125
range: 0.174307882786
velocity: 0.0
doppler_bin: 8
bearing: -69.8423843384
intensity: 25.4530715942
---
header: 
  seq: 1349660
  stamp: 
    secs: 1561868317
    nsecs: 386336580
  frame_id: "ti_mmwave"
point_id: 4
x: 0.171875
y: -0.080078125
z: 1.25390625
range: 1.35088610649
velocity: 0.0
doppler_bin: 8
bearing: -24.9812393188
intensity: 23.0535144806
---
header: 
  seq: 1349661
  stamp: 
    secs: 1561868317
    nsecs: 386427843
  frame_id: "ti_mmwave"
point_id: 5
x: 0.0625
y: -0.08203125
z: 1.3046875
range: 1.39446306229
velocity: 0.0
doppler_bin: 8
bearing: -52.6960487366
intensity: 24.6089782715
---
header: 
  seq: 1349662
  stamp: 
    secs: 1561868317
    nsecs: 386446231
  frame_id: "ti_mmwave"
point_id: 6
x: 0.3984375
y: -0.083984375
z: -1.287109375
range: 1.43804001808
velocity: 0.0
doppler_bin: 8
bearing: -11.9028120041
intensity: 23.0535144806
---
header: 
  seq: 1349663
  stamp: 
    secs: 1561868317
    nsecs: 386486129
  frame_id: "ti_mmwave"
point_id: 7
x: 0.5390625
y: -0.04296875
z: -1.28125
range: 1.48161697388
velocity: 0.0
doppler_bin: 8
bearing: -4.55741930008
intensity: 21.7026176453
---
header: 
  seq: 1349664
  stamp: 
    secs: 1561868317
    nsecs: 386511489
  frame_id: "ti_mmwave"
point_id: 8
x: 1.5
y: -0.142578125
z: -0.1328125
range: 1.61234796047
velocity: 0.0
doppler_bin: 8
bearing: -5.42977046967
intensity: 25.490032196
---
header: 
  seq: 1349665
  stamp: 
    secs: 1561868317
    nsecs: 386558660
  frame_id: "ti_mmwave"
point_id: 9
x: 1.53125
y: -0.146484375
z: -0.22265625
range: 1.65592491627
velocity: 0.0
doppler_bin: 8
bearing: -5.46447229385
intensity: 27.3078231812
---
header: 
  seq: 1349666
  stamp: 
    secs: 1561868317
    nsecs: 386595397
  frame_id: "ti_mmwave"
point_id: 10
x: 2.609375
y: -0.17578125
z: 1.060546875
range: 3.00681090355
velocity: 0.0
doppler_bin: 8
bearing: -3.85392260551
intensity: 29.1062431335
---
header: 
  seq: 1349667
  stamp: 
    secs: 1561868317
    nsecs: 386612937
  frame_id: "ti_mmwave"
point_id: 11
x: 2.6484375
y: -0.1796875
z: 1.072265625
range: 3.05038785934
velocity: 0.0
doppler_bin: 8
bearing: -3.88137626648
intensity: 32.2089233398
---
header: 
  seq: 1349668
  stamp: 
    secs: 1561868317
    nsecs: 386625121
  frame_id: "ti_mmwave"
point_id: 12
x: 2.740234375
y: -0.08984375
z: 0.955078125
range: 3.09396481514
velocity: 0.0
doppler_bin: 8
bearing: -1.87787723541
intensity: 31.25806427
---
header: 
  seq: 1349669
  stamp: 
    secs: 1561868317
    nsecs: 386636291
  frame_id: "ti_mmwave"
point_id: 13
x: 4.40625
y: -0.142578125
z: 1.25
range: 4.88062095642
velocity: 0.0
doppler_bin: 8
bearing: -1.85333895683
intensity: 30.979511261
---
header: 
  seq: 1349670
  stamp: 
    secs: 1561868317
    nsecs: 386647472
  frame_id: "ti_mmwave"
point_id: 14
x: 4.435546875
y: -0.14453125
z: 1.29296875
range: 4.9241976738
velocity: 0.0
doppler_bin: 8
bearing: -1.86630904675
intensity: 30.3542976379
---
header: 
  seq: 1349671
  stamp: 
    secs: 1561868317
    nsecs: 386692146
  frame_id: "ti_mmwave"
point_id: 15
x: 4.80078125
y: -0.154296875
z: 1.0078125
range: 5.22923660278
velocity: 0.0
doppler_bin: 8
bearing: -1.84084975719
intensity: 30.8493366241
---
header: 
  seq: 1349672
  stamp: 
    secs: 1561868317
    nsecs: 386708141
  frame_id: "ti_mmwave"
point_id: 16
x: 4.87890625
y: -0.30859375
z: 0.76953125
range: 5.27281332016
velocity: 0.0
doppler_bin: 8
bearing: -3.61917114258
intensity: 31.9865703583
---
header: 
  seq: 1349673
  stamp: 
    secs: 1561868317
    nsecs: 386716513
  frame_id: "ti_mmwave"
point_id: 17
x: 4.96484375
y: -0.46875
z: 0.205078125
range: 5.31639051437
velocity: 0.0
doppler_bin: 8
bearing: -5.39352655411
intensity: 30.2284069061
---
header: 
  seq: 1349674
  stamp: 
    secs: 1561868317
    nsecs: 386777242
  frame_id: "ti_mmwave"
point_id: 19
x: 0.041015625
y: -0.033203125
z: 0.0625
range: 0.0871539413929
velocity: 0.0
doppler_bin: 8
bearing: -38.9909973145
intensity: 30.1029987335
---
header: 
  seq: 1349675
  stamp: 
    secs: 1561868317
    nsecs: 386824395
  frame_id: "ti_mmwave"
point_id: 20
x: 0.044921875
y: -0.046875
z: 0.103515625
range: 0.130730912089
velocity: 0.0
doppler_bin: 8
bearing: -46.218875885
intensity: 29.020029068
---
header: 
  seq: 1349676
  stamp: 
    secs: 1561868317
    nsecs: 387428095
  frame_id: "ti_mmwave"
point_id: 0
x: 0.01171875
y: -0.0390625
z: -0.0078125
range: 0.0435769706964
velocity: 0.0
doppler_bin: 8
bearing: -73.3007583618
intensity: 30.6557979584
---
header: 
  seq: 1349677
  stamp: 
    secs: 1561868317
    nsecs: 387476967
  frame_id: "ti_mmwave"
point_id: 1
x: 0.017578125
y: -0.080078125
z: -0.0078125
range: 0.0871539413929
velocity: 0.0
doppler_bin: 8
bearing: -77.6192398071
intensity: 31.9089164734
---
header: 
  seq: 1349678
  stamp: 
    secs: 1561868317
    nsecs: 387494428
  frame_id: "ti_mmwave"
point_id: 2
x: 0.029296875
y: -0.119140625
z: -0.005859375
range: 0.130730912089
velocity: 0.0
doppler_bin: 8
bearing: -76.1849746704
intensity: 30.1241531372
---
header: 
  seq: 1349679
  stamp: 
    secs: 1561868317
    nsecs: 387508338
  frame_id: "ti_mmwave"
point_id: 3
x: 0.056640625
y: -0.154296875
z: 0.005859375
range: 0.174307882786
velocity: 0.0
doppler_bin: 8
bearing: -69.8423843384
intensity: 25.4406795502
---
header: 
  seq: 1349680
  stamp: 
    secs: 1561868317
    nsecs: 387522873
  frame_id: "ti_mmwave"
point_id: 4
x: 0.171875
y: -0.080078125
z: 1.25390625
range: 1.35088610649
velocity: 0.0
doppler_bin: 8
bearing: -24.9812393188
intensity: 23.138671875
---
header: 
  seq: 1349681
  stamp: 
    secs: 1561868317
    nsecs: 387609856
  frame_id: "ti_mmwave"
point_id: 5
x: 0.103515625
y: -0.08203125
z: 1.302734375
range: 1.39446306229
velocity: 0.0
doppler_bin: 8
bearing: -38.3951644897
intensity: 24.6538276672
---
header: 
  seq: 1349682
  stamp: 
    secs: 1561868317
    nsecs: 387627016
  frame_id: "ti_mmwave"
point_id: 6
x: 0.408203125
y: -0.083984375
z: -1.283203125
range: 1.43804001808
velocity: 0.0
doppler_bin: 8
bearing: -11.6258993149
intensity: 23.0535144806
---
header: 
  seq: 1349683
  stamp: 
    secs: 1561868317
    nsecs: 387638675
  frame_id: "ti_mmwave"
point_id: 7
x: 0.556640625
y: -0.04296875
z: -1.2734375
range: 1.48161697388
velocity: 0.0
doppler_bin: 8
bearing: -4.41407871246
intensity: 21.6731739044
---
header: 
  seq: 1349684
  stamp: 
    secs: 1561868317
    nsecs: 387651588
  frame_id: "ti_mmwave"
point_id: 8
x: 1.87890625
y: -0.0
z: -0.1015625
range: 2.00454068184
velocity: 0.0
doppler_bin: 8
bearing: -0.0
intensity: 27.1516742706
---
header: 
  seq: 1349685
  stamp: 
    secs: 1561868317
    nsecs: 387663956
  frame_id: "ti_mmwave"
point_id: 9
x: 2.623046875
y: -0.17578125
z: 1.025390625
range: 3.00681090355
velocity: 0.0
doppler_bin: 8
bearing: -3.83389568329
intensity: 28.9982051849
---
header: 
  seq: 1349686
  stamp: 
    secs: 1561868317
    nsecs: 387675325
  frame_id: "ti_mmwave"
point_id: 10
x: 2.6953125
y: -0.08984375
z: 0.96484375
range: 3.05038785934
velocity: 0.0
doppler_bin: 8
bearing: -1.90915250778
intensity: 32.1748390198
---
header: 
  seq: 1349687
  stamp: 
    secs: 1561868317
    nsecs: 387686701
  frame_id: "ti_mmwave"
point_id: 11
x: 2.7578125
y: -0.08984375
z: 0.904296875
range: 3.09396481514
velocity: 0.0
doppler_bin: 8
bearing: -1.86591637135
intensity: 31.2188796997
---
header: 
  seq: 1349688
  stamp: 
    secs: 1561868317
    nsecs: 387696884
  frame_id: "ti_mmwave"
point_id: 12
x: 4.4140625
y: -0.142578125
z: 1.220703125
range: 4.88062095642
velocity: 0.0
doppler_bin: 8
bearing: -1.850061059
intensity: 30.9725723267
---
header: 
  seq: 1349689
  stamp: 
    secs: 1561868317
    nsecs: 387718805
  frame_id: "ti_mmwave"
point_id: 13
x: 4.443359375
y: -0.14453125
z: 1.265625
range: 4.9241976738
velocity: 0.0
doppler_bin: 8
bearing: -1.86303019524
intensity: 30.248960495
---
header: 
  seq: 1349690
  stamp: 
    secs: 1561868317
    nsecs: 387737335
  frame_id: "ti_mmwave"
point_id: 14
x: 4.8046875
y: -0.154296875
z: 0.9921875
range: 5.22923660278
velocity: 0.0
doppler_bin: 8
bearing: -1.83935415745
intensity: 30.7224998474
---
header: 
  seq: 1349691
  stamp: 
    secs: 1561868317
    nsecs: 387891442
  frame_id: "ti_mmwave"
point_id: 15
x: 4.880859375
y: -0.30859375
z: 0.76171875
range: 5.27281332016
velocity: 0.0
doppler_bin: 8
bearing: -3.61772704124
intensity: 31.8667392731
---
header: 
  seq: 1349692
  stamp: 
    secs: 1561868317
    nsecs: 387912235
  frame_id: "ti_mmwave"
point_id: 16
x: 4.966796875
y: -0.46875
z: 0.162109375
range: 5.31639051437
velocity: 0.0
doppler_bin: 8
bearing: -5.39141845703
intensity: 30.248960495
---
header: 
  seq: 1349693
  stamp: 
    secs: 1561868317
    nsecs: 387927359
  frame_id: "ti_mmwave"
point_id: 18
x: 0.041015625
y: -0.033203125
z: 0.0625
range: 0.0871539413929
velocity: 0.0
doppler_bin: 8
bearing: -38.9909973145
intensity: 30.0987567902
---
header: 
  seq: 1349694
  stamp: 
    secs: 1561868317
    nsecs: 387939629
  frame_id: "ti_mmwave"
point_id: 19
x: 0.044921875
y: -0.046875
z: 0.103515625
range: 0.130730912089
velocity: 0.0
doppler_bin: 8
bearing: -46.218875885
intensity: 29.0145835876
---
header: 
  seq: 1349695
  stamp: 
    secs: 1561868317
    nsecs: 446253449
  frame_id: "ti_mmwave"
point_id: 0
x: 0.01171875
y: -0.0390625
z: -0.0078125
range: 0.0435769706964
velocity: 0.0
doppler_bin: 8
bearing: -73.3007583618
intensity: 30.6445808411
---
header: 
  seq: 1349696
  stamp: 
    secs: 1561868317
    nsecs: 446349402
  frame_id: "ti_mmwave"
point_id: 1
x: 0.017578125
y: -0.080078125
z: -0.0078125
range: 0.0871539413929
velocity: 0.0
doppler_bin: 8
bearing: -77.6192398071
intensity: 31.9061183929
---
header: 
  seq: 1349697
  stamp: 
    secs: 1561868317
    nsecs: 446363920
  frame_id: "ti_mmwave"
point_id: 2
x: 0.029296875
y: -0.119140625
z: -0.00390625
range: 0.130730912089
velocity: 0.0
doppler_bin: 8
bearing: -76.1849746704
intensity: 30.1241531372
---
header: 
  seq: 1349698
  stamp: 
    secs: 1561868317
    nsecs: 446372994
  frame_id: "ti_mmwave"
point_id: 3
x: 0.056640625
y: -0.154296875
z: 0.0078125
range: 0.174307882786
velocity: 0.0
doppler_bin: 8
bearing: -69.8423843384
intensity: 25.4530715942
---
header: 
  seq: 1349699
  stamp: 
    secs: 1561868317
    nsecs: 446381481
  frame_id: "ti_mmwave"
point_id: 4
x: 0.140625
y: -0.080078125
z: 1.2578125
range: 1.35088610649
velocity: 0.0
doppler_bin: 8
bearing: -29.6591091156
intensity: 23.138671875
---
header: 
  seq: 1349700
  stamp: 
    secs: 1561868317
    nsecs: 446389698
  frame_id: "ti_mmwave"
point_id: 5
x: 0.076171875
y: -0.08203125
z: 1.3046875
range: 1.39446306229
velocity: 0.0
doppler_bin: 8
bearing: -47.1210975647
intensity: 24.6538276672
---
header: 
  seq: 1349701
  stamp: 
    secs: 1561868317
    nsecs: 446398032
  frame_id: "ti_mmwave"
point_id: 6
x: 0.41796875
y: -0.083984375
z: -1.28125
range: 1.43804001808
velocity: 0.0
doppler_bin: 8
bearing: -11.3614110947
intensity: 23.0749607086
---
header: 
  seq: 1349702
  stamp: 
    secs: 1561868317
    nsecs: 446406036
  frame_id: "ti_mmwave"
point_id: 7
x: 0.55078125
y: -0.04296875
z: -1.275390625
range: 1.48161697388
velocity: 0.0
doppler_bin: 8
bearing: -4.46084880829
intensity: 21.6136798859
---
header: 
  seq: 1349703
  stamp: 
    secs: 1561868317
    nsecs: 446414069
  frame_id: "ti_mmwave"
point_id: 8
x: 1.513671875
y: -0.046875
z: -0.001953125
range: 1.61234796047
velocity: 0.0
doppler_bin: 8
bearing: -1.77375400066
intensity: 25.5750713348
---
header: 
  seq: 1349704
  stamp: 
    secs: 1561868317
    nsecs: 446425370
  frame_id: "ti_mmwave"
point_id: 9
x: 1.552734375
y: -0.048828125
z: -0.001953125
range: 1.65592491627
velocity: 0.0
doppler_bin: 8
bearing: -1.80116057396
intensity: 26.9108142853
---
header: 
  seq: 1349705
  stamp: 
    secs: 1561868317
    nsecs: 446433519
  frame_id: "ti_mmwave"
point_id: 10
x: 1.8359375
y: 0.056640625
z: -0.11328125
range: 1.96096372604
velocity: 0.0
doppler_bin: 8
bearing: 1.76707530022
intensity: 27.5587482452
---
header: 
  seq: 1349706
  stamp: 
    secs: 1561868317
    nsecs: 446441526
  frame_id: "ti_mmwave"
point_id: 11
x: 2.62109375
y: -0.17578125
z: 1.03515625
range: 3.00681090355
velocity: 0.0
doppler_bin: 8
bearing: -3.83674383163
intensity: 28.9762706757
---
header: 
  seq: 1349707
  stamp: 
    secs: 1561868317
    nsecs: 446553245
  frame_id: "ti_mmwave"
point_id: 12
x: 2.662109375
y: -0.1796875
z: 1.041015625
range: 3.05038785934
velocity: 0.0
doppler_bin: 8
bearing: -3.86150240898
intensity: 32.1616592407
---
header: 
  seq: 1349708
  stamp: 
    secs: 1561868317
    nsecs: 446565227
  frame_id: "ti_mmwave"
point_id: 13
x: 2.7578125
y: -0.08984375
z: 0.908203125
range: 3.09396481514
velocity: 0.0
doppler_bin: 8
bearing: -1.86591637135
intensity: 31.1793384552
---
header: 
  seq: 1349709
  stamp: 
    secs: 1561868317
    nsecs: 446573273
  frame_id: "ti_mmwave"
point_id: 14
x: 4.404296875
y: -0.142578125
z: 1.09765625
range: 4.83704376221
velocity: 0.0
doppler_bin: 8
bearing: -1.85416030884
intensity: 28.0550079346
---
header: 
  seq: 1349710
  stamp: 
    secs: 1561868317
    nsecs: 446581203
  frame_id: "ti_mmwave"
point_id: 15
x: 4.396484375
y: -0.287109375
z: 1.259765625
range: 4.88062095642
velocity: 0.0
doppler_bin: 8
bearing: -3.73635601997
intensity: 31.0243377686
---
header: 
  seq: 1349711
  stamp: 
    secs: 1561868317
    nsecs: 446590324
  frame_id: "ti_mmwave"
point_id: 16
x: 4.431640625
y: -0.14453125
z: 1.306640625
range: 4.9241976738
velocity: 0.0
doppler_bin: 8
bearing: -1.86795306206
intensity: 30.4060230255
---
header: 
  seq: 1349712
  stamp: 
    secs: 1561868317
    nsecs: 446598710
  frame_id: "ti_mmwave"
point_id: 17
x: 4.814453125
y: -0.154296875
z: 0.94921875
range: 5.22923660278
velocity: 0.0
doppler_bin: 8
bearing: -1.83562576771
intensity: 30.5230903625
---
header: 
  seq: 1349713
  stamp: 
    secs: 1561868317
    nsecs: 446606760
  frame_id: "ti_mmwave"
point_id: 18
x: 4.884765625
y: -0.30859375
z: 0.73046875
range: 5.27281332016
velocity: 0.0
doppler_bin: 8
bearing: -3.6148416996
intensity: 31.7289466858
---
header: 
  seq: 1349714
  stamp: 
    secs: 1561868317
    nsecs: 446616600
  frame_id: "ti_mmwave"
point_id: 19
x: 4.966796875
y: -0.46875
z: 0.138671875
range: 5.31639051437
velocity: 0.0
doppler_bin: 8
bearing: -5.39141845703
intensity: 30.2201576233
---
header: 
  seq: 1349715
  stamp: 
    secs: 1561868317
    nsecs: 446628121
  frame_id: "ti_mmwave"
point_id: 21
x: 0.041015625
y: -0.033203125
z: 0.0625
range: 0.0871539413929
velocity: 0.0
doppler_bin: 8
bearing: -38.9909973145
intensity: 30.0987567902
---
header: 
  seq: 1349716
  stamp: 
    secs: 1561868317
    nsecs: 446637026
  frame_id: "ti_mmwave"
point_id: 22
x: 0.044921875
y: -0.046875
z: 0.103515625
range: 0.130730912089
velocity: 0.0
doppler_bin: 8
bearing: -46.218875885
intensity: 29.0145835876
---
header: 
  seq: 1349717
  stamp: 
    secs: 1561868317
    nsecs: 447738552
  frame_id: "ti_mmwave"
point_id: 0
x: 0.01171875
y: -0.0390625
z: -0.0078125
range: 0.0435769706964
velocity: 0.0
doppler_bin: 8
bearing: -73.3007583618
intensity: 30.6445808411
---
header: 
  seq: 1349718
  stamp: 
    secs: 1561868317
    nsecs: 447799784
  frame_id: "ti_mmwave"
point_id: 1
x: 0.017578125
y: -0.080078125
z: -0.0078125
range: 0.0871539413929
velocity: 0.0
doppler_bin: 8
bearing: -77.6192398071
intensity: 31.9061183929
---
header: 
  seq: 1349719
  stamp: 
    secs: 1561868317
    nsecs: 447818677
  frame_id: "ti_mmwave"
point_id: 2
x: 0.029296875
y: -0.119140625
z: -0.005859375
range: 0.130730912089
velocity: 0.0
doppler_bin: 8
bearing: -76.1849746704
intensity: 30.1241531372
---
header: 
  seq: 1349720
  stamp: 
    secs: 1561868317
    nsecs: 447830706
  frame_id: "ti_mmwave"
point_id: 3
x: 0.056640625
y: -0.154296875
z: 0.005859375
range: 0.174307882786
velocity: 0.0
doppler_bin: 8
bearing: -69.8423843384
intensity: 25.4530715942
---
header: 
  seq: 1349721
  stamp: 
    secs: 1561868317
    nsecs: 447848361
  frame_id: "ti_mmwave"
point_id: 4
x: 0.1484375
y: -0.080078125
z: 1.2578125
range: 1.35088610649
velocity: 0.0
doppler_bin: 8
bearing: -28.3456954956
intensity: 23.0963020325
---
header: 
  seq: 1349722
  stamp: 
    secs: 1561868317
    nsecs: 447862333
  frame_id: "ti_mmwave"
point_id: 5
x: 0.095703125
y: -0.08203125
z: 1.302734375
range: 1.39446306229
velocity: 0.0
doppler_bin: 8
bearing: -40.6012954712
intensity: 24.6239795685
---
header: 
  seq: 1349723
  stamp: 
    secs: 1561868317
    nsecs: 447875885
  frame_id: "ti_mmwave"
point_id: 6
x: 0.392578125
y: -0.083984375
z: -1.2890625
range: 1.43804001808
velocity: 0.0
doppler_bin: 8
bearing: -12.0752887726
intensity: 23.0535144806
---
header: 
  seq: 1349724
  stamp: 
    secs: 1561868317
    nsecs: 447889360
  frame_id: "ti_mmwave"
point_id: 7
x: 2.623046875
y: -0.17578125
z: 1.025390625
range: 3.00681090355
velocity: 0.0
doppler_bin: 8
bearing: -3.83389568329
intensity: 29.0633506775
---
header: 
  seq: 1349725
  stamp: 
    secs: 1561868317
    nsecs: 447902627
  frame_id: "ti_mmwave"
point_id: 8
x: 2.6640625
y: -0.1796875
z: 1.03515625
range: 3.05038785934
velocity: 0.0
doppler_bin: 8
bearing: -3.85868024826
intensity: 32.2089233398
---
header: 
  seq: 1349726
  stamp: 
    secs: 1561868317
    nsecs: 447916690
  frame_id: "ti_mmwave"
point_id: 9
x: 2.76171875
y: -0.08984375
z: 0.896484375
range: 3.09396481514
velocity: 0.0
doppler_bin: 8
bearing: -1.86327898502
intensity: 31.1527767181
---
header: 
  seq: 1349727
  stamp: 
    secs: 1561868317
    nsecs: 447930920
  frame_id: "ti_mmwave"
point_id: 10
x: 4.41015625
y: -0.142578125
z: 1.07421875
range: 4.83704376221
velocity: 0.0
doppler_bin: 8
bearing: -1.85169863701
intensity: 28.5853729248
---
header: 
  seq: 1349728
  stamp: 
    secs: 1561868317
    nsecs: 447975166
  frame_id: "ti_mmwave"
point_id: 11
x: 4.412109375
y: -0.142578125
z: 1.22265625
range: 4.88062095642
velocity: 0.0
doppler_bin: 8
bearing: -1.85087943077
intensity: 31.7638072968
---
header: 
  seq: 1349729
  stamp: 
    secs: 1561868317
    nsecs: 448026621
  frame_id: "ti_mmwave"
point_id: 12
x: 4.443359375
y: -0.14453125
z: 1.267578125
range: 4.9241976738
velocity: 0.0
doppler_bin: 8
bearing: -1.86303019524
intensity: 31.3129787445
---
header: 
  seq: 1349730
  stamp: 
    secs: 1561868317
    nsecs: 448036776
  frame_id: "ti_mmwave"
point_id: 13
x: 4.892578125
y: -0.30859375
z: 0.68359375
range: 5.27281332016
velocity: 0.0
doppler_bin: 8
bearing: -3.60908436775
intensity: 31.3767051697
---
header: 
  seq: 1349731
  stamp: 
    secs: 1561868317
    nsecs: 448045098
  frame_id: "ti_mmwave"
point_id: 14
x: 4.96875
y: -0.46875
z: -0.01171875
range: 5.31639051437
velocity: 0.0
doppler_bin: 8
bearing: -5.38931179047
intensity: 29.8900470734
---
header: 
  seq: 1349732
  stamp: 
    secs: 1561868317
    nsecs: 448053199
  frame_id: "ti_mmwave"
point_id: 15
x: 1.46484375
y: -0.046875
z: 0.138671875
range: 1.56877088547
velocity: -0.614668667316
doppler_bin: 7
bearing: -1.83283960819
intensity: 24.5331840515
---
header: 
  seq: 1349733
  stamp: 
    secs: 1561868317
    nsecs: 448061699
  frame_id: "ti_mmwave"
point_id: 16
x: 1.509765625
y: -0.09375
z: 0.056640625
range: 1.61234796047
velocity: -0.614668667316
doppler_bin: 7
bearing: -3.55326104164
intensity: 28.4073314667
---
header: 
  seq: 1349734
  stamp: 
    secs: 1561868317
    nsecs: 448071365
  frame_id: "ti_mmwave"
point_id: 17
x: 1.552734375
y: -0.048828125
z: 0.05859375
range: 1.65592491627
velocity: -0.614668667316
doppler_bin: 7
bearing: -1.80116057396
intensity: 28.6981811523
---
header: 
  seq: 1349735
  stamp: 
    secs: 1561868317
    nsecs: 448080906
  frame_id: "ti_mmwave"
point_id: 19
x: 0.041015625
y: -0.033203125
z: 0.0625
range: 0.0871539413929
velocity: 0.0
doppler_bin: 8
bearing: -38.9909973145
intensity: 30.0987567902
---
header: 
  seq: 1349736
  stamp: 
    secs: 1561868317
    nsecs: 448089574
  frame_id: "ti_mmwave"
point_id: 20
x: 0.044921875
y: -0.046875
z: 0.103515625
range: 0.130730912089
velocity: 0.0
doppler_bin: 8
bearing: -46.218875885
intensity: 29.0145835876
---
header: 
  seq: 1349737
  stamp: 
    secs: 1561868317
    nsecs: 506233110
  frame_id: "ti_mmwave"
point_id: 0
x: 0.01171875
y: -0.0390625
z: -0.0078125
range: 0.0435769706964
velocity: 0.0
doppler_bin: 8
bearing: -73.3007583618
intensity: 30.6483230591
---
header: 
  seq: 1349738
  stamp: 
    secs: 1561868317
    nsecs: 506318145
  frame_id: "ti_mmwave"
point_id: 1
x: 0.017578125
y: -0.080078125
z: -0.0078125
range: 0.0871539413929
velocity: 0.0
doppler_bin: 8
bearing: -77.6192398071
intensity: 31.9089164734
---
header: 
  seq: 1349739
  stamp: 
    secs: 1561868317
    nsecs: 506331542
  frame_id: "ti_mmwave"
point_id: 2
x: 0.029296875
y: -0.119140625
z: -0.005859375
range: 0.130730912089
velocity: 0.0
doppler_bin: 8
bearing: -76.1849746704
intensity: 30.1241531372
---
header: 
  seq: 1349740
  stamp: 
    secs: 1561868317
    nsecs: 506340270
  frame_id: "ti_mmwave"
point_id: 3
x: 0.056640625
y: -0.154296875
z: 0.005859375
range: 0.174307882786
velocity: 0.0
doppler_bin: 8
bearing: -69.8423843384
intensity: 25.4530715942
---
header: 
  seq: 1349741
  stamp: 
    secs: 1561868317
    nsecs: 506349004
  frame_id: "ti_mmwave"
point_id: 4
x: 0.1640625
y: -0.080078125
z: 1.255859375
range: 1.35088610649
velocity: 0.0
doppler_bin: 8
bearing: -26.0167827606
intensity: 23.0963020325
---
header: 
  seq: 1349742
  stamp: 
    secs: 1561868317
    nsecs: 506359299
  frame_id: "ti_mmwave"
point_id: 6
x: 0.408203125
y: -0.083984375
z: -1.283203125
range: 1.43804001808
velocity: 0.0
doppler_bin: 8
bearing: -11.6258993149
intensity: 23.0749607086
---
header: 
  seq: 1349743
  stamp: 
    secs: 1561868317
    nsecs: 506367317
  frame_id: "ti_mmwave"
point_id: 7
x: 2.611328125
y: -0.17578125
z: 1.056640625
range: 3.00681090355
velocity: 0.0
doppler_bin: 8
bearing: -3.85104894638
intensity: 28.9597473145
---
header: 
  seq: 1349744
  stamp: 
    secs: 1561868317
    nsecs: 506375971
  frame_id: "ti_mmwave"
point_id: 8
x: 2.689453125
