header: 
  seq: 946494
  stamp: 
    secs: 1561864984
    nsecs: 187863398
  frame_id: "ti_mmwave"
point_id: 0
x: 0.01171875
y: -0.0390625
z: -0.0078125
range: 0.0435769706964
velocity: 0.0
doppler_bin: 8
bearing: -73.3007583618
intensity: 30.6445808411
---
header: 
  seq: 946495
  stamp: 
    secs: 1561864984
    nsecs: 188051713
  frame_id: "ti_mmwave"
point_id: 1
x: 0.017578125
y: -0.080078125
z: -0.0078125
range: 0.0871539413929
velocity: 0.0
doppler_bin: 8
bearing: -77.6192398071
intensity: 31.9033164978
---
header: 
  seq: 946496
  stamp: 
    secs: 1561864984
    nsecs: 188120422
  frame_id: "ti_mmwave"
point_id: 2
x: 0.029296875
y: -0.119140625
z: -0.005859375
range: 0.130730912089
velocity: 0.0
doppler_bin: 8
bearing: -76.1849746704
intensity: 30.1494026184
---
header: 
  seq: 946497
  stamp: 
    secs: 1561864984
    nsecs: 188131891
  frame_id: "ti_mmwave"
point_id: 3
x: 0.056640625
y: -0.154296875
z: 0.005859375
range: 0.174307882786
velocity: 0.0
doppler_bin: 8
bearing: -69.8423843384
intensity: 25.4406795502
---
header: 
  seq: 946498
  stamp: 
    secs: 1561864984
    nsecs: 188143456
  frame_id: "ti_mmwave"
point_id: 4
x: 0.130859375
y: -0.080078125
z: 1.259765625
range: 1.35088610649
velocity: 0.0
doppler_bin: 8
bearing: -31.4641437531
intensity: 23.1175384521
---
header: 
  seq: 946499
  stamp: 
    secs: 1561864984
    nsecs: 188197552
  frame_id: "ti_mmwave"
point_id: 5
x: 0.041015625
y: -0.08203125
z: -1.306640625
range: 1.39446306229
velocity: 0.0
doppler_bin: 8
bearing: -63.4349517822
intensity: 24.6089782715
---
header: 
  seq: 946500
  stamp: 
    secs: 1561864984
    nsecs: 188206535
  frame_id: "ti_mmwave"
point_id: 6
x: 0.455078125
y: -0.083984375
z: -1.267578125
range: 1.43804001808
velocity: 0.0
doppler_bin: 8
bearing: -10.4562511444
intensity: 22.9666519165
---
header: 
  seq: 946501
  stamp: 
    secs: 1561864984
    nsecs: 188213731
  frame_id: "ti_mmwave"
point_id: 7
x: 0.494140625
y: -0.087890625
z: -1.296875
range: 1.48161697388
velocity: 0.0
doppler_bin: 8
bearing: -10.0854759216
intensity: 21.430147171
---
header: 
  seq: 946502
  stamp: 
    secs: 1561864984
    nsecs: 188221051
  frame_id: "ti_mmwave"
point_id: 8
x: 2.61328125
y: -0.17578125
z: 1.05078125
range: 3.00681090355
velocity: 0.0
doppler_bin: 8
bearing: -3.84817934036
intensity: 28.9597473145
---
header: 
  seq: 946503
  stamp: 
    secs: 1561864984
    nsecs: 188231034
  frame_id: "ti_mmwave"
point_id: 9
x: 2.689453125
y: -0.08984375
z: 0.98046875
range: 3.05038785934
velocity: 0.0
doppler_bin: 8
bearing: -1.91330885887
intensity: 32.1800994873
---
header: 
  seq: 946504
  stamp: 
    secs: 1561864984
    nsecs: 188242744
  frame_id: "ti_mmwave"
point_id: 10
x: 2.751953125
y: -0.08984375
z: 0.92578125
range: 3.09396481514
velocity: 0.0
doppler_bin: 8
bearing: -1.86988639832
intensity: 31.1594314575
---
header: 
  seq: 946505
  stamp: 
    secs: 1561864984
    nsecs: 188250679
  frame_id: "ti_mmwave"
point_id: 11
x: 4.41796875
y: -0.142578125
z: 1.208984375
range: 4.88062095642
velocity: 0.0
doppler_bin: 8
bearing: -1.84842634201
intensity: 31.3956432343
---
header: 
  seq: 946506
  stamp: 
    secs: 1561864984
    nsecs: 188262524
  frame_id: "ti_mmwave"
point_id: 12
x: 4.453125
y: -0.14453125
z: 1.232421875
range: 4.9241976738
velocity: 0.0
doppler_bin: 8
bearing: -1.85894739628
intensity: 31.1991539001
---
header: 
  seq: 946507
  stamp: 
    secs: 1561864984
    nsecs: 188271682
  frame_id: "ti_mmwave"
point_id: 13
x: 4.740234375
y: -0.298828125
z: -0.5859375
range: 5.09850549698
velocity: 0.0
doppler_bin: 8
bearing: -3.60719799995
intensity: 33.2263259888
---
header: 
  seq: 946508
  stamp: 
    secs: 1561864984
    nsecs: 188279864
  frame_id: "ti_mmwave"
point_id: 14
x: 4.779296875
y: -0.30078125
z: -0.61328125
range: 5.14208269119
velocity: 0.0
doppler_bin: 8
bearing: -3.60111522675
intensity: 33.8756790161
---
header: 
  seq: 946509
  stamp: 
    secs: 1561864984
    nsecs: 188290355
  frame_id: "ti_mmwave"
point_id: 15
x: 4.810546875
y: -0.15234375
z: -0.73046875
range: 5.18565940857
velocity: 0.0
doppler_bin: 8
bearing: -1.81387650967
intensity: 30.5804615021
---
header: 
  seq: 946510
  stamp: 
    secs: 1561864984
    nsecs: 188302394
  frame_id: "ti_mmwave"
point_id: 16
x: 4.9140625
y: -0.30859375
z: 0.501953125
range: 5.27281332016
velocity: 0.0
doppler_bin: 8
bearing: -3.59334683418
intensity: 31.1693973541
---
header: 
  seq: 946511
  stamp: 
    secs: 1561864984
    nsecs: 188310869
  frame_id: "ti_mmwave"
point_id: 17
x: 4.951171875
y: -0.623046875
z: -0.060546875
range: 5.31639051437
velocity: 0.0
doppler_bin: 8
bearing: -7.17230129242
intensity: 29.9694919586
---
header: 
  seq: 946512
  stamp: 
    secs: 1561864984
    nsecs: 188319780
  frame_id: "ti_mmwave"
point_id: 18
x: 1.189453125
y: 0.970703125
z: -0.23828125
range: 1.65592491627
velocity: 0.614668667316
doppler_bin: 9
bearing: 39.2176055908
intensity: 26.6558094025
---
header: 
  seq: 946513
  stamp: 
    secs: 1561864984
    nsecs: 188330239
  frame_id: "ti_mmwave"
point_id: 19
x: 1.30078125
y: 0.896484375
z: -0.21875
range: 1.69950187206
velocity: 0.614668667316
doppler_bin: 9
bearing: 34.5741920471
intensity: 27.466342926
---
header: 
  seq: 946514
  stamp: 
    secs: 1561864984
    nsecs: 188383942
  frame_id: "ti_mmwave"
point_id: 20
x: 1.37890625
y: 0.869140625
z: -0.134765625
range: 1.74307882786
velocity: 0.614668667316
doppler_bin: 9
bearing: 32.2237052917
intensity: 27.1096305847
---
header: 
  seq: 946515
  stamp: 
    secs: 1561864984
    nsecs: 188393719
  frame_id: "ti_mmwave"
point_id: 21
x: 1.38671875
y: 0.943359375
z: 0.037109375
range: 1.78665578365
velocity: 0.614668667316
doppler_bin: 9
bearing: 34.2267379761
intensity: 25.3907604218
---
header: 
  seq: 946516
  stamp: 
    secs: 1561864984
    nsecs: 188401251
  frame_id: "ti_mmwave"
point_id: 22
x: 0.009765625
y: 0.03125
z: 0.025390625
range: 0.0435769706964
velocity: 0.0
doppler_bin: 8
bearing: 72.6459732056
intensity: 29.31457901
---
header: 
  seq: 946517
  stamp: 
    secs: 1561864984
    nsecs: 188410326
  frame_id: "ti_mmwave"
point_id: 23
x: 0.041015625
y: -0.033203125
z: 0.0625
range: 0.0871539413929
velocity: 0.0
doppler_bin: 8
bearing: -38.9909973145
intensity: 30.0860023499
---
header: 
  seq: 946518
  stamp: 
    secs: 1561864984
    nsecs: 188417776
  frame_id: "ti_mmwave"
point_id: 24
x: 0.044921875
y: -0.046875
z: 0.103515625
range: 0.130730912089
velocity: 0.0
doppler_bin: 8
bearing: -46.218875885
intensity: 28.9707698822
---
header: 
  seq: 946519
  stamp: 
    secs: 1561864984
    nsecs: 188427417
  frame_id: "ti_mmwave"
point_id: 26
x: 1.126953125
y: 0.67578125
z: -0.30859375
range: 1.43804001808
velocity: 0.0
doppler_bin: 8
bearing: 30.9491519928
intensity: 20.2530593872
---
header: 
  seq: 946520
  stamp: 
    secs: 1561864984
    nsecs: 188435209
  frame_id: "ti_mmwave"
point_id: 27
x: 1.193359375
y: 0.6953125
z: -0.16796875
range: 1.48161697388
velocity: 0.0
doppler_bin: 8
bearing: 30.2272758484
intensity: 19.9122600555
---
header: 
  seq: 946521
  stamp: 
    secs: 1561864984
    nsecs: 189840250
  frame_id: "ti_mmwave"
point_id: 0
x: 0.01171875
y: -0.0390625
z: -0.0078125
range: 0.0435769706964
velocity: 0.0
doppler_bin: 8
bearing: -73.3007583618
intensity: 30.6557979584
---
header: 
  seq: 946522
  stamp: 
    secs: 1561864984
    nsecs: 189907933
  frame_id: "ti_mmwave"
point_id: 1
x: 0.017578125
y: -0.080078125
z: -0.0078125
range: 0.0871539413929
velocity: 0.0
doppler_bin: 8
bearing: -77.6192398071
intensity: 31.9033164978
---
header: 
  seq: 946523
  stamp: 
    secs: 1561864984
    nsecs: 189926020
  frame_id: "ti_mmwave"
point_id: 2
x: 0.029296875
y: -0.119140625
z: -0.005859375
range: 0.130730912089
velocity: 0.0
doppler_bin: 8
bearing: -76.1849746704
intensity: 30.1494026184
---
header: 
  seq: 946524
  stamp: 
    secs: 1561864984
    nsecs: 189938614
  frame_id: "ti_mmwave"
point_id: 3
x: 0.056640625
y: -0.154296875
z: 0.005859375
range: 0.174307882786
velocity: 0.0
doppler_bin: 8
bearing: -69.8423843384
intensity: 25.4530715942
---
header: 
  seq: 946525
  stamp: 
    secs: 1561864984
    nsecs: 189952251
  frame_id: "ti_mmwave"
point_id: 4
x: 0.16015625
y: -0.080078125
z: 1.255859375
range: 1.35088610649
velocity: 0.0
doppler_bin: 8
bearing: -26.5650501251
intensity: 23.1175384521
---
header: 
  seq: 946526
  stamp: 
    secs: 1561864984
    nsecs: 189972174
  frame_id: "ti_mmwave"
point_id: 6
x: 0.4140625
y: -0.083984375
z: -1.283203125
range: 1.43804001808
velocity: 0.0
doppler_bin: 8
bearing: -11.4657688141
intensity: 23.0963020325
---
header: 
  seq: 946527
  stamp: 
    secs: 1561864984
    nsecs: 189987423
  frame_id: "ti_mmwave"
point_id: 7
x: 0.541015625
y: -0.04296875
z: -1.28125
range: 1.48161697388
velocity: 0.0
doppler_bin: 8
bearing: -4.54103565216
intensity: 21.8184356689
---
header: 
  seq: 946528
  stamp: 
    secs: 1561864984
    nsecs: 190000553
  frame_id: "ti_mmwave"
point_id: 8
x: 2.615234375
y: -0.17578125
z: 1.046875
range: 3.00681090355
velocity: 0.0
doppler_bin: 8
bearing: -3.84531402588
intensity: 29.0308990479
---
header: 
  seq: 946529
  stamp: 
    secs: 1561864984
    nsecs: 190014280
  frame_id: "ti_mmwave"
point_id: 9
x: 2.693359375
y: -0.08984375
z: 0.96875
range: 3.05038785934
velocity: 0.0
doppler_bin: 8
bearing: -1.91053581238
intensity: 32.1774711609
---
header: 
  seq: 946530
  stamp: 
    secs: 1561864984
    nsecs: 190026930
  frame_id: "ti_mmwave"
point_id: 10
x: 2.755859375
y: -0.08984375
z: 0.9140625
range: 3.09396481514
velocity: 0.0
doppler_bin: 8
bearing: -1.86723792553
intensity: 31.1527767181
---
header: 
  seq: 946531
  stamp: 
    secs: 1561864984
    nsecs: 190041284
  frame_id: "ti_mmwave"
point_id: 11
x: 4.41796875
y: -0.142578125
z: 1.203125
range: 4.88062095642
velocity: 0.0
doppler_bin: 8
bearing: -1.84842634201
intensity: 31.3735408783
---
header: 
  seq: 946532
  stamp: 
    secs: 1561864984
    nsecs: 190055268
  frame_id: "ti_mmwave"
point_id: 12
x: 4.443359375
y: -0.14453125
z: 1.267578125
range: 4.9241976738
velocity: 0.0
doppler_bin: 8
bearing: -1.86303019524
intensity: 31.1660766602
---
header: 
  seq: 946533
  stamp: 
    secs: 1561864984
    nsecs: 190067368
  frame_id: "ti_mmwave"
point_id: 13
x: 4.748046875
y: -0.298828125
z: -0.517578125
range: 5.09850549698
velocity: 0.0
doppler_bin: 8
bearing: -3.60127830505
intensity: 33.3545799255
---
header: 
  seq: 946534
  stamp: 
    secs: 1561864984
    nsecs: 190080155
  frame_id: "ti_mmwave"
point_id: 14
x: 4.783203125
y: -0.30078125
z: -0.568359375
range: 5.14208269119
velocity: 0.0
doppler_bin: 8
bearing: -3.59818196297
intensity: 33.9950065613
---
header: 
  seq: 946535
  stamp: 
    secs: 1561864984
    nsecs: 190093598
  frame_id: "ti_mmwave"
point_id: 15
x: 4.8125
y: -0.15234375
z: -0.71484375
range: 5.18565940857
velocity: 0.0
doppler_bin: 8
bearing: -1.81314074993
intensity: 30.6557979584
---
header: 
  seq: 946536
  stamp: 
    secs: 1561864984
    nsecs: 190107974
  frame_id: "ti_mmwave"
point_id: 16
x: 4.916015625
y: -0.30859375
z: 0.494140625
range: 5.27281332016
velocity: 0.0
doppler_bin: 8
bearing: -3.59192347527
intensity: 30.9760437012
---
header: 
  seq: 946537
  stamp: 
    secs: 1561864984
    nsecs: 190121135
  frame_id: "ti_mmwave"
point_id: 17
x: 4.951171875
y: -0.623046875
z: -0.04296875
range: 5.31639051437
velocity: 0.0
doppler_bin: 8
bearing: -7.17230129242
intensity: 29.7909297943
---
header: 
  seq: 946538
  stamp: 
    secs: 1561864984
    nsecs: 190132614
  frame_id: "ti_mmwave"
point_id: 18
x: 1.248046875
y: 0.8515625
z: -0.09765625
range: 1.61234796047
velocity: 0.614668667316
doppler_bin: 9
bearing: 34.306350708
intensity: 24.7567119598
---
header: 
  seq: 946539
  stamp: 
    secs: 1561864984
    nsecs: 190143593
  frame_id: "ti_mmwave"
point_id: 19
x: 1.224609375
y: 0.923828125
z: -0.25
range: 1.65592491627
velocity: 0.614668667316
doppler_bin: 9
bearing: 37.0303878784
intensity: 27.7959651947
---
header: 
  seq: 946540
  stamp: 
    secs: 1561864984
    nsecs: 190155498
  frame_id: "ti_mmwave"
point_id: 20
x: 1.306640625
y: 0.896484375
z: -0.173828125
range: 1.69950187206
velocity: 0.614668667316
doppler_bin: 9
bearing: 34.4539680481
intensity: 29.3298072815
---
header: 
  seq: 946541
  stamp: 
    secs: 1561864984
    nsecs: 190169114
  frame_id: "ti_mmwave"
point_id: 21
x: 1.37109375
y: 0.869140625
z: 0.203125
range: 1.74307882786
velocity: 0.614668667316
doppler_bin: 9
bearing: 32.3707389832
intensity: 29.5036487579
---
header: 
  seq: 946542
  stamp: 
    secs: 1561864984
    nsecs: 190182647
  frame_id: "ti_mmwave"
point_id: 22
x: 1.392578125
y: 0.890625
z: 0.28125
range: 1.78665578365
velocity: 0.614668667316
doppler_bin: 9
bearing: 32.6009941101
intensity: 26.294095993
---
header: 
  seq: 946543
  stamp: 
    secs: 1561864984
    nsecs: 190197614
  frame_id: "ti_mmwave"
point_id: 23
x: 0.009765625
y: 0.03125
z: 0.025390625
range: 0.0435769706964
velocity: 0.0
doppler_bin: 8
bearing: 72.6459732056
intensity: 29.31457901
---
header: 
  seq: 946544
  stamp: 
    secs: 1561864984
    nsecs: 190213344
  frame_id: "ti_mmwave"
point_id: 24
x: 0.041015625
y: -0.033203125
z: 0.0625
range: 0.0871539413929
velocity: 0.0
doppler_bin: 8
bearing: -38.9909973145
intensity: 30.0860023499
---
header: 
  seq: 946545
  stamp: 
    secs: 1561864984
    nsecs: 190225976
  frame_id: "ti_mmwave"
point_id: 25
x: 0.046875
y: -0.046875
z: 0.103515625
range: 0.130730912089
velocity: 0.0
doppler_bin: 8
bearing: -45.0
intensity: 28.9652614594
---
header: 
  seq: 946546
  stamp: 
    secs: 1561864984
    nsecs: 190241335
  frame_id: "ti_mmwave"
point_id: 27
x: 0.833984375
y: 0.33203125
z: 1.21875
range: 1.61234796047
velocity: 0.614668667316
doppler_bin: 9
bearing: 21.7088108063
intensity: 22.0412006378
---
header: 
  seq: 946547
  stamp: 
    secs: 1561864984
    nsecs: 190256708
  frame_id: "ti_mmwave"
point_id: 28
x: 0.333984375
y: 0.388671875
z: 1.466796875
range: 1.65592491627
velocity: 0.614668667316
doppler_bin: 9
bearing: 49.3276481628
intensity: 25.3402614594
---
header: 
  seq: 946548
  stamp: 
    secs: 1561864984
    nsecs: 247705911
  frame_id: "ti_mmwave"
point_id: 0
x: 0.01171875
y: -0.0390625
z: -0.0078125
range: 0.0435769706964
velocity: 0.0
doppler_bin: 8
bearing: -73.3007583618
intensity: 30.6483230591
---
header: 
  seq: 946549
  stamp: 
    secs: 1561864984
    nsecs: 247793784
  frame_id: "ti_mmwave"
point_id: 1
x: 0.017578125
y: -0.080078125
z: -0.0078125
range: 0.0871539413929
velocity: 0.0
doppler_bin: 8
bearing: -77.6192398071
intensity: 31.9005146027
---
header: 
  seq: 946550
  stamp: 
    secs: 1561864984
    nsecs: 247806566
  frame_id: "ti_mmwave"
point_id: 2
x: 0.029296875
y: -0.119140625
z: -0.005859375
range: 0.130730912089
velocity: 0.0
doppler_bin: 8
bearing: -76.1849746704
intensity: 30.1452045441
---
header: 
  seq: 946551
  stamp: 
    secs: 1561864984
    nsecs: 247815073
  frame_id: "ti_mmwave"
point_id: 3
x: 0.056640625
y: -0.154296875
z: 0.005859375
range: 0.174307882786
velocity: 0.0
doppler_bin: 8
bearing: -69.8423843384
intensity: 25.4406795502
---
header: 
  seq: 946552
  stamp: 
    secs: 1561864984
    nsecs: 247823779
  frame_id: "ti_mmwave"
point_id: 4
x: 0.169921875
y: -0.080078125
z: 1.25390625
range: 1.35088610649
velocity: 0.0
doppler_bin: 8
bearing: -25.232831955
intensity: 23.1175384521
---
header: 
  seq: 946553
  stamp: 
    secs: 1561864984
    nsecs: 247833380
  frame_id: "ti_mmwave"
point_id: 5
x: 0.091796875
y: -0.08203125
z: 1.302734375
range: 1.39446306229
velocity: 0.0
doppler_bin: 8
bearing: -41.7845153809
intensity: 24.5939254761
---
header: 
  seq: 946554
  stamp: 
    secs: 1561864984
    nsecs: 247841775
  frame_id: "ti_mmwave"
point_id: 6
x: 0.435546875
y: -0.083984375
z: -1.275390625
range: 1.43804001808
velocity: 0.0
doppler_bin: 8
bearing: -10.9141130447
intensity: 22.9225616455
---
header: 
  seq: 946555
  stamp: 
    secs: 1561864984
    nsecs: 247852850
  frame_id: "ti_mmwave"
point_id: 7
x: 1.208984375
y: 0.6484375
z: 0.814453125
range: 1.69950187206
velocity: 0.0
doppler_bin: 8
bearing: 28.2068367004
intensity: 26.8574180603
---
header: 
  seq: 946556
  stamp: 
    secs: 1561864984
    nsecs: 247936232
  frame_id: "ti_mmwave"
point_id: 8
x: 2.611328125
y: -0.17578125
z: 1.056640625
range: 3.00681090355
velocity: 0.0
doppler_bin: 8
bearing: -3.85104894638
intensity: 29.0579586029
---
header: 
  seq: 946557
  stamp: 
    secs: 1561864984
    nsecs: 247985672
  frame_id: "ti_mmwave"
point_id: 9
x: 2.69140625
y: -0.08984375
z: 0.97265625
range: 3.05038785934
velocity: 0.0
doppler_bin: 8
bearing: -1.91192126274
intensity: 32.2063102722
---
header: 
  seq: 946558
  stamp: 
    secs: 1561864984
    nsecs: 247996041
  frame_id: "ti_mmwave"
point_id: 10
x: 2.7578125
y: -0.08984375
z: 0.90625
range: 3.09396481514
velocity: 0.0
doppler_bin: 8
bearing: -1.86591637135
intensity: 31.1561050415
---
header: 
  seq: 946559
  stamp: 
    secs: 1561864984
    nsecs: 248003977
  frame_id: "ti_mmwave"
point_id: 11
x: 4.4140625
y: -0.142578125
z: 1.22265625
range: 4.88062095642
velocity: 0.0
doppler_bin: 8
bearing: -1.850061059
intensity: 31.4019374847
---
header: 
  seq: 946560
  stamp: 
    secs: 1561864984
    nsecs: 248011761
  frame_id: "ti_mmwave"
point_id: 12
x: 4.44140625
y: -0.14453125
z: 1.2734375
range: 4.9241976738
velocity: 0.0
doppler_bin: 8
bearing: -1.86384868622
intensity: 31.2123146057
---
header: 
  seq: 946561
  stamp: 
    secs: 1561864984
    nsecs: 248020107
  frame_id: "ti_mmwave"
point_id: 13
x: 4.748046875
y: -0.298828125
z: -0.53125
range: 5.09850549698
velocity: 0.0
doppler_bin: 8
bearing: -3.60127830505
intensity: 33.3984870911
---
header: 
  seq: 946562
  stamp: 
    secs: 1561864984
    nsecs: 248028604
  frame_id: "ti_mmwave"
point_id: 14
x: 4.78125
y: -0.30078125
z: -0.58203125
range: 5.14208269119
velocity: 0.0
doppler_bin: 8
bearing: -3.59964799881
intensity: 34.0346374512
---
header: 
  seq: 946563
  stamp: 
    secs: 1561864984
    nsecs: 248038828
  frame_id: "ti_mmwave"
point_id: 15
x: 4.806640625
y: -0.15234375
z: -0.751953125
range: 5.18565940857
velocity: 0.0
doppler_bin: 8
bearing: -1.81534969807
intensity: 30.678144455
---
header: 
  seq: 946564
  stamp: 
    secs: 1561864984
    nsecs: 248046395
  frame_id: "ti_mmwave"
point_id: 16
x: 4.90234375
y: -0.30859375
z: 0.603515625
range: 5.27281332016
velocity: 0.0
doppler_bin: 8
bearing: -3.60191392899
intensity: 30.9586639404
---
header: 
  seq: 946565
  stamp: 
    secs: 1561864984
    nsecs: 248058820
  frame_id: "ti_mmwave"
point_id: 17
x: 4.951171875
y: -0.623046875
z: 0.0390625
range: 5.31639051437
velocity: 0.0
doppler_bin: 8
bearing: -7.17230129242
intensity: 29.8000335693
---
header: 
  seq: 946566
  stamp: 
    secs: 1561864984
    nsecs: 248071345
  frame_id: "ti_mmwave"
point_id: 18
x: 1.2265625
y: 0.65234375
z: -0.052734375
range: 1.48161697388
velocity: 0.614668667316
doppler_bin: 9
bearing: 28.006149292
intensity: 22.6717166901
---
header: 
  seq: 946567
  stamp: 
    secs: 1561864984
    nsecs: 248080668
  frame_id: "ti_mmwave"
point_id: 19
x: 1.306640625
y: 0.970703125
z: 0.158203125
range: 1.74307882786
velocity: 0.614668667316
doppler_bin: 9
bearing: 36.6086540222
intensity: 26.4836006165
---
header: 
  seq: 946568
  stamp: 
    secs: 1561864984
    nsecs: 248110849
  frame_id: "ti_mmwave"
point_id: 20
x: 1.31640625
y: 0.99609375
z: 0.294921875
range: 1.78665578365
velocity: 0.614668667316
doppler_bin: 9
bearing: 37.1139373779
intensity: 24.9968700409
---
header: 
  seq: 946569
  stamp: 
    secs: 1561864984
    nsecs: 248138005
  frame_id: "ti_mmwave"
point_id: 21
x: 0.009765625
y: 0.03125
z: 0.025390625
range: 0.0435769706964
velocity: 0.0
doppler_bin: 8
bearing: 72.6459732056
intensity: 29.3094902039
---
header: 
  seq: 946570
  stamp: 
    secs: 1561864984
    nsecs: 248156512
  frame_id: "ti_mmwave"
point_id: 22
x: 0.041015625
y: -0.033203125
z: 0.0625
range: 0.0871539413929
velocity: 0.0
doppler_bin: 8
bearing: -38.9909973145
intensity: 30.0860023499
---
header: 
  seq: 946571
  stamp: 
    secs: 1561864984
    nsecs: 248175977
  frame_id: "ti_mmwave"
point_id: 23
x: 0.044921875
y: -0.046875
z: 0.103515625
range: 0.130730912089
velocity: 0.0
doppler_bin: 8
bearing: -46.218875885
intensity: 28.9707698822
---
header: 
  seq: 946572
  stamp: 
    secs: 1561864984
    nsecs: 248200411
  frame_id: "ti_mmwave"
point_id: 25
x: 1.21875
y: 0.548828125
z: -0.185546875
range: 1.43804001808
velocity: 0.0
doppler_bin: 8
bearing: 24.2430152893
intensity: 21.3672065735
---
header: 
  seq: 946573
  stamp: 
    secs: 1561864984
    nsecs: 248222373
  frame_id: "ti_mmwave"
point_id: 26
x: 1.001953125
y: 1.146484375
z: -0.474609375
range: 1.69950187206
velocity: 0.0
doppler_bin: 8
bearing: 48.8486442566
intensity: 24.7856655121
---
header: 
  seq: 946574
  stamp: 
    secs: 1561864984
    nsecs: 249347332
  frame_id: "ti_mmwave"
point_id: 0
x: 0.01171875
y: -0.0390625
z: -0.0078125
range: 0.0435769706964
velocity: 0.0
doppler_bin: 8
bearing: -73.3007583618
intensity: 30.6595306396
---
header: 
  seq: 946575
  stamp: 
    secs: 1561864984
    nsecs: 249401457
  frame_id: "ti_mmwave"
point_id: 1
x: 0.017578125
y: -0.080078125
z: -0.0078125
range: 0.0871539413929
velocity: 0.0
doppler_bin: 8
bearing: -77.6192398071
intensity: 31.9061183929
---
header: 
  seq: 946576
  stamp: 
    secs: 1561864984
    nsecs: 249420607
  frame_id: "ti_mmwave"
point_id: 2
x: 0.029296875
y: -0.119140625
z: -0.005859375
range: 0.130730912089
velocity: 0.0
doppler_bin: 8
bearing: -76.1849746704
intensity: 30.1494026184
---
header: 
  seq: 946577
  stamp: 
    secs: 1561864984
    nsecs: 249445526
  frame_id: "ti_mmwave"
point_id: 3
x: 0.056640625
y: -0.154296875
z: 0.005859375
range: 0.174307882786
velocity: 0.0
doppler_bin: 8
bearing: -69.8423843384
intensity: 25.4282550812
---
header: 
  seq: 946578
  stamp: 
    secs: 1561864984
    nsecs: 249467730
  frame_id: "ti_mmwave"
point_id: 4
x: 0.103515625
y: -0.080078125
z: 1.26171875
range: 1.35088610649
velocity: 0.0
doppler_bin: 8
bearing: -37.7249946594
intensity: 23.1175384521
---
header: 
  seq: 946579
  stamp: 
    secs: 1561864984
    nsecs: 249543315
  frame_id: "ti_mmwave"
point_id: 6
x: 0.42578125
y: -0.083984375
z: -1.27734375
range: 1.43804001808
velocity: 0.0
doppler_bin: 8
bearing: -11.1582231522
intensity: 23.0535144806
---
header: 
  seq: 946580
  stamp: 
    secs: 1561864984
    nsecs: 249557710
  frame_id: "ti_mmwave"
point_id: 7
x: 0.576171875
y: -0.04296875
z: -1.265625
range: 1.48161697388
velocity: 0.0
doppler_bin: 8
bearing: -4.2650103569
intensity: 21.6136798859
---
header: 
  seq: 946581
  stamp: 
    secs: 1561864984
    nsecs: 249573328
  frame_id: "ti_mmwave"
point_id: 8
x: 2.61328125
y: -0.17578125
z: 1.052734375
range: 3.00681090355
velocity: 0.0
doppler_bin: 8
bearing: -3.84817934036
intensity: 29.0308990479
---
header: 
  seq: 946582
  stamp: 
    secs: 1561864984
    nsecs: 249586557
  frame_id: "ti_mmwave"
point_id: 9
x: 2.69140625
y: -0.08984375
z: 0.970703125
range: 3.05038785934
velocity: 0.0
doppler_bin: 8
bearing: -1.91192126274
intensity: 32.1984634399
---
header: 
  seq: 946583
  stamp: 
    secs: 1561864984
    nsecs: 249613232
  frame_id: "ti_mmwave"
point_id: 10
x: 2.759765625
y: -0.08984375
z: 0.90234375
range: 3.09396481514
velocity: 0.0
doppler_bin: 8
bearing: -1.86459684372
intensity: 31.1527767181
---
header: 
  seq: 946584
  stamp: 
    secs: 1561864984
    nsecs: 249634762
  frame_id: "ti_mmwave"
point_id: 11
x: 4.4140625
y: -0.142578125
z: 1.216796875
range: 4.88062095642
velocity: 0.0
doppler_bin: 8
bearing: -1.850061059
intensity: 31.4176330566
---
header: 
  seq: 946585
  stamp: 
    secs: 1561864984
    nsecs: 249684552
  frame_id: "ti_mmwave"
point_id: 12
x: 4.447265625
y: -0.14453125
z: 1.251953125
range: 4.9241976738
velocity: 0.0
doppler_bin: 8
bearing: -1.86139500141
intensity: 31.2155990601
---
header: 
  seq: 946586
  stamp: 
    secs: 1561864984
    nsecs: 249699799
  frame_id: "ti_mmwave"
point_id: 13
x: 4.74609375
y: -0.298828125
z: -0.537109375
range: 5.09850549698
velocity: 0.0
doppler_bin: 8
bearing: -3.60275626183
intensity: 33.26745224
---
header: 
  seq: 946587
  stamp: 
    secs: 1561864984
    nsecs: 249713062
  frame_id: "ti_mmwave"
point_id: 14
x: 4.783203125
y: -0.30078125
z: -0.576171875
range: 5.14208269119
velocity: 0.0
doppler_bin: 8
bearing: -3.59818196297
intensity: 33.9199295044
---
header: 
  seq: 946588
  stamp: 
    secs: 1561864984
    nsecs: 249726146
  frame_id: "ti_mmwave"
point_id: 15
x: 4.814453125
y: -0.15234375
z: -0.703125
range: 5.18565940857
velocity: 0.0
doppler_bin: 8
bearing: -1.81240582466
intensity: 30.6032009125
---
header: 
  seq: 946589
  stamp: 
    secs: 1561864984
    nsecs: 249741445
  frame_id: "ti_mmwave"
point_id: 16
x: 4.87890625
y: -0.30859375
z: 0.77734375
range: 5.27281332016
velocity: 0.0
doppler_bin: 8
bearing: -3.61917114258
intensity: 31.1958580017
---
header: 
  seq: 946590
  stamp: 
    secs: 1561864984
    nsecs: 249825803
  frame_id: "ti_mmwave"
point_id: 17
x: 4.94921875
y: -0.623046875
z: 0.171875
range: 5.31639051437
velocity: 0.0
doppler_bin: 8
bearing: -7.17510271072
intensity: 29.8944988251
---
header: 
  seq: 946591
  stamp: 
    secs: 1561864984
    nsecs: 249841100
  frame_id: "ti_mmwave"
point_id: 18
x: 1.361328125
y: 0.728515625
z: -0.17578125
range: 1.65592491627
velocity: 0.614668667316
doppler_bin: 9
bearing: 28.1534919739
intensity: 29.0794849396
---
header: 
  seq: 946592
  stamp: 
    secs: 1561864984
    nsecs: 249864495
  frame_id: "ti_mmwave"
point_id: 19
x: 1.3515625
y: 0.84765625
z: -0.03125
range: 1.69950187206
velocity: 0.614668667316
doppler_bin: 9
bearing: 32.0946044922
intensity: 31.6435279846
---
header: 
  seq: 946593
  stamp: 
    secs: 1561864984
    nsecs: 249885159
  frame_id: "ti_mmwave"
point_id: 20
x: 1.384765625
y: 0.869140625
z: 0.04296875
range: 1.74307882786
velocity: 0.614668667316
doppler_bin: 9
bearing: 32.1142158508
intensity: 31.8780269623
---
header: 
  seq: 946594
  stamp: 
    secs: 1561864984
    nsecs: 249906278
  frame_id: "ti_mmwave"
point_id: 21
x: 1.416015625
y: 0.890625
z: 0.11328125
range: 1.78665578365
velocity: 0.614668667316
doppler_bin: 9
bearing: 32.1684761047
intensity: 30.5499591827
---
header: 
  seq: 946595
  stamp: 
    secs: 1561864984
    nsecs: 249927125
  frame_id: "ti_mmwave"
point_id: 22
x: 1.41015625
y: 0.966796875
z: 0.177734375
range: 1.83023273945
velocity: 0.614668667316
doppler_bin: 9
bearing: 34.4343643188
intensity: 28.1291332245
---
header: 
  seq: 946596
  stamp: 
    secs: 1561864984
    nsecs: 249948632
  frame_id: "ti_mmwave"
point_id: 23
x: 0.009765625
y: 0.03125
z: 0.025390625
range: 0.0435769706964
velocity: 0.0
doppler_bin: 8
bearing: 72.6459732056
intensity: 29.31457901
---
header: 
  seq: 946597
  stamp: 
    secs: 1561864984
    nsecs: 249973625
  frame_id: "ti_mmwave"
point_id: 24
x: 0.041015625
y: -0.033203125
z: 0.0625
range: 0.0871539413929
velocity: 0.0
doppler_bin: 8
bearing: -38.9909973145
intensity: 30.0902576447
---
header: 
  seq: 946598
  stamp: 
    secs: 1561864984
    nsecs: 249993775
  frame_id: "ti_mmwave"
point_id: 25
x: 0.044921875
y: -0.046875
z: 0.103515625
range: 0.130730912089
velocity: 0.0
doppler_bin: 8
bearing: -46.218875885
intensity: 28.9652614594
---
header: 
  seq: 946599
  stamp: 
    secs: 1561864984
    nsecs: 307789250
  frame_id: "ti_mmwave"
point_id: 0
x: 0.01171875
y: -0.0390625
z: -0.0078125
range: 0.0435769706964
velocity: 0.0
doppler_bin: 8
bearing: -73.3007583618
intensity: 30.6632595062
---
header: 
  seq: 946600
  stamp: 
    secs: 1561864984
    nsecs: 307880093
  frame_id: "ti_mmwave"
point_id: 1
x: 0.017578125
y: -0.080078125
z: -0.0078125
range: 0.0871539413929
velocity: 0.0
doppler_bin: 8
bearing: -77.6192398071
intensity: 31.9061183929
---
header: 
  seq: 946601
  stamp: 
    secs: 1561864984
    nsecs: 307895750
  frame_id: "ti_mmwave"
point_id: 2
x: 0.029296875
y: -0.119140625
z: -0.005859375
range: 0.130730912089
velocity: 0.0
doppler_bin: 8
bearing: -76.1849746704
intensity: 30.1535968781
---
header: 
  seq: 946602
  stamp: 
    secs: 1561864984
    nsecs: 307910880
  frame_id: "ti_mmwave"
point_id: 3
x: 0.056640625
y: -0.154296875
z: 0.005859375
range: 0.174307882786
velocity: 0.0
doppler_bin: 8
bearing: -69.8423843384
intensity: 25.4530715942
---
header: 
  seq: 946603
  stamp: 
    secs: 1561864984
    nsecs: 307928000
  frame_id: "ti_mmwave"
point_id: 4
x: 0.115234375
y: -0.080078125
z: 1.259765625
range: 1.35088610649
velocity: 0.0
doppler_bin: 8
bearing: -34.7960281372
intensity: 23.1175384521
---
header: 
  seq: 946604
  stamp: 
    secs: 1561864984
    nsecs: 308037285
  frame_id: "ti_mmwave"
point_id: 6
x: 0.435546875
y: -0.083984375
z: -1.275390625
range: 1.43804001808
velocity: 0.0
doppler_bin: 8
bearing: -10.9141130447
intensity: 23.0102996826
---
header: 
  seq: 946605
  stamp: 
    secs: 1561864984
    nsecs: 308054691
  frame_id: "ti_mmwave"
point_id: 7
x: 2.615234375
y: -0.17578125
z: 1.048828125
range: 3.00681090355
velocity: 0.0
doppler_bin: 8
bearing: -3.84531402588
intensity: 28.9817657471
---
header: 
  seq: 946606
  stamp: 
    secs: 1561864984
    nsecs: 308067888
  frame_id: "ti_mmwave"
point_id: 8
x: 2.689453125
y: -0.08984375
z: 0.98046875
range: 3.05038785934
velocity: 0.0
doppler_bin: 8
bearing: -1.91330885887
intensity: 32.1906051636
---
header: 
  seq: 946607
  stamp: 
    secs: 1561864984
    nsecs: 308080667
  frame_id: "ti_mmwave"
point_id: 9
x: 2.751953125
y: -0.08984375
z: 0.92578125
range: 3.09396481514
velocity: 0.0
doppler_bin: 8
bearing: -1.86988639832
intensity: 31.1660766602
---
header: 
  seq: 946608
  stamp: 
    secs: 1561864984
    nsecs: 308093904
  frame_id: "ti_mmwave"
point_id: 10
x: 4.412109375
y: -0.142578125
z: 1.224609375
range: 4.88062095642
velocity: 0.0
doppler_bin: 8
bearing: -1.85087943077
intensity: 31.3956432343
---
header: 
  seq: 946609
  stamp: 
    secs: 1561864984
    nsecs: 308106988
  frame_id: "ti_mmwave"
point_id: 11
x: 4.44140625
y: -0.14453125
z: 1.271484375
range: 4.9241976738
velocity: 0.0
doppler_bin: 8
bearing: -1.86384868622
intensity: 31.1958580017
---
header: 
  seq: 946610
  stamp: 
    secs: 1561864984
    nsecs: 308123115
  frame_id: "ti_mmwave"
point_id: 12
x: 4.736328125
y: -0.298828125
z: -0.6171875
range: 5.09850549698
velocity: 0.0
doppler_bin: 8
bearing: -3.61016488075
intensity: 33.350566864
---
header: 
  seq: 946611
  stamp: 
    secs: 1561864984
    nsecs: 308132034
  frame_id: "ti_mmwave"
point_id: 13
x: 4.7734375
y: -0.30078125
z: -0.650390625
range: 5.14208269119
velocity: 0.0
doppler_bin: 8
bearing: -3.60552406311
intensity: 33.9898109436
---
header: 
  seq: 946612
  stamp: 
    secs: 1561864984
    nsecs: 308158964
  frame_id: "ti_mmwave"
point_id: 14
x: 4.802734375
y: -0.15234375
z: -0.7734375
range: 5.18565940857
velocity: 0.0
doppler_bin: 8
bearing: -1.81682503223
intensity: 30.6333332062
---
header: 
  seq: 946613
  stamp: 
    secs: 1561864984
    nsecs: 308181007
  frame_id: "ti_mmwave"
point_id: 15
x: 4.890625
y: -0.30859375
z: 0.69140625
range: 5.27281332016
velocity: 0.0
doppler_bin: 8
bearing: -3.61052203178
intensity: 31.1427726746
---
header: 
  seq: 946614
  stamp: 
    secs: 1561864984
    nsecs: 308197922
  frame_id: "ti_mmwave"
point_id: 16
x: 4.966796875
y: -0.46875
z: 0.150390625
range: 5.31639051437
velocity: 0.0
doppler_bin: 8
bearing: -5.39141845703
intensity: 29.8677177429
---
header: 
  seq: 946615
  stamp: 
    secs: 1561864984
    nsecs: 308272338
  frame_id: "ti_mmwave"
point_id: 17
x: 1.408203125
y: 0.748046875
z: -0.041015625
range: 1.69950187206
velocity: 0.614668667316
doppler_bin: 9
bearing: 27.9775371552
intensity: 29.5664863586
---
header: 
  seq: 946616
  stamp: 
    secs: 1561864984
    nsecs: 308288296
  frame_id: "ti_mmwave"
point_id: 18
x: 1.4453125
y: 0.767578125
z: -0.009765625
range: 1.74307882786
velocity: 0.614668667316
doppler_bin: 9
bearing: 27.9719257355
intensity: 31.027765274
---
header: 
  seq: 946617
  stamp: 
    secs: 1561864984
    nsecs: 308304771
  frame_id: "ti_mmwave"
point_id: 19
x: 1.48046875
y: 0.787109375
z: 0.0625
range: 1.78665578365
velocity: 0.614668667316
doppler_bin: 9
bearing: 27.9978942871
intensity: 29.4546852112
---
header: 
  seq: 946618
  stamp: 
    secs: 1561864984
    nsecs: 308318200
  frame_id: "ti_mmwave"
point_id: 20
x: 0.009765625
y: 0.03125
z: 0.025390625
range: 0.0435769706964
velocity: 0.0
doppler_bin: 8
bearing: 72.6459732056
intensity: 29.31457901
---
header: 
  seq: 946619
  stamp: 
    secs: 1561864984
    nsecs: 308331443
  frame_id: "ti_mmwave"
point_id: 21
x: 0.041015625
y: -0.033203125
z: 0.0625
range: 0.0871539413929
velocity: 0.0
doppler_bin: 8
bearing: -38.9909973145
intensity: 30.0902576447
---
header: 
  seq: 946620
  stamp: 
    secs: 1561864984
    nsecs: 308344247
  frame_id: "ti_mmwave"
point_id: 22
x: 0.052734375
y: -0.04296875
z: 0.1015625
range: 0.130730912089
velocity: 0.0
doppler_bin: 8
bearing: -39.1736602783
intensity: 28.9707698822
---
header: 
  seq: 946621
  stamp: 
    secs: 1561864984
    nsecs: 309522266
  frame_id: "ti_mmwave"
point_id: 0
x: 0.01171875
y: -0.0390625
z: -0.0078125
range: 0.0435769706964
velocity: 0.0
doppler_bin: 8
bearing: -73.3007583618
intensity: 30.6595306396
---
header: 
  seq: 946622
  stamp: 
    secs: 1561864984
    nsecs: 309571185
  frame_id: "ti_mmwave"
point_id: 1
x: 0.017578125
y: -0.080078125
z: -0.0078125
range: 0.0871539413929
velocity: 0.0
doppler_bin: 8
bearing: -77.6192398071
intensity: 31.9061183929
---
header: 
  seq: 946623
  stamp: 
    secs: 1561864984
    nsecs: 309587289
  frame_id: "ti_mmwave"
point_id: 2
x: 0.029296875
y: -0.119140625
z: -0.005859375
range: 0.130730912089
velocity: 0.0
doppler_bin: 8
bearing: -76.1849746704
intensity: 30.1535968781
---
header: 
  seq: 946624
  stamp: 
    secs: 1561864984
    nsecs: 309600239
  frame_id: "ti_mmwave"
point_id: 3
x: 0.056640625
y: -0.154296875
z: 0.005859375
range: 0.174307882786
velocity: 0.0
doppler_bin: 8
bearing: -69.8423843384
intensity: 25.4530715942
---
header: 
  seq: 946625
  stamp: 
    secs: 1561864984
    nsecs: 309613084
  frame_id: "ti_mmwave"
point_id: 4
x: 0.12890625
y: -0.080078125
z: 1.259765625
range: 1.35088610649
velocity: 0.0
doppler_bin: 8
bearing: -31.8490524292
intensity: 23.0963020325
---
header: 
  seq: 946626
  stamp: 
    secs: 1561864984
    nsecs: 309625629
  frame_id: "ti_mmwave"
point_id: 5
x: 0.046875
y: -0.08203125
z: 1.3046875
range: 1.39446306229
velocity: 0.0
doppler_bin: 8
bearing: -60.255115509
intensity: 24.5939254761
---
header: 
  seq: 946627
  stamp: 
    secs: 1561864984
    nsecs: 309638194
  frame_id: "ti_mmwave"
point_id: 6
x: 0.40234375
y: -0.083984375
z: -1.28515625
range: 1.43804001808
velocity: 0.0
doppler_bin: 8
bearing: -11.7905015945
intensity: 23.031961441
---
header: 
  seq: 946628
  stamp: 
    secs: 1561864984
    nsecs: 309651422
  frame_id: "ti_mmwave"
point_id: 7
x: 0.431640625
y: -0.087890625
z: -1.3203125
range: 1.48161697388
velocity: 0.0
doppler_bin: 8
bearing: -11.509221077
intensity: 21.7897701263
---
header: 
  seq: 946629
  stamp: 
    secs: 1561864984
    nsecs: 309677725
  frame_id: "ti_mmwave"
point_id: 8
x: 2.609375
y: -0.17578125
z: 1.060546875
range: 3.00681090355
velocity: 0.0
doppler_bin: 8
bearing: -3.85392260551
intensity: 29.0091304779
---
header: 
  seq: 946630
  stamp: 
    secs: 1561864984
    nsecs: 309697121
  frame_id: "ti_mmwave"
point_id: 9
x: 2.689453125
y: -0.08984375
z: 0.978515625
range: 3.05038785934
velocity: 0.0
doppler_bin: 8
bearing: -1.91330885887
intensity: 32.1748390198
---
header: 
  seq: 946631
  stamp: 
    secs: 1561864984
    nsecs: 309709490
  frame_id: "ti_mmwave"
point_id: 10
x: 2.755859375
y: -0.08984375
z: 0.9140625
range: 3.09396481514
velocity: 0.0
doppler_bin: 8
bearing: -1.86723792553
intensity: 31.1394329071
---
header: 
  seq: 946632
  stamp: 
    secs: 1561864984
    nsecs: 309776255
  frame_id: "ti_mmwave"
point_id: 11
x: 4.416015625
y: -0.142578125
z: 1.212890625
range: 4.88062095642
velocity: 0.0
doppler_bin: 8
bearing: -1.84924340248
intensity: 31.3798675537
---
header: 
  seq: 946633
  stamp: 
    secs: 1561864984
    nsecs: 309789424
  frame_id: "ti_mmwave"
point_id: 12
x: 4.44921875
y: -0.14453125
z: 1.244140625
range: 4.9241976738
velocity: 0.0
doppler_bin: 8
bearing: -1.86057829857
intensity: 31.2024478912
---
header: 
  seq: 946634
  stamp: 
    secs: 1561864984
    nsecs: 309801459
  frame_id: "ti_mmwave"
point_id: 13
x: 4.740234375
y: -0.298828125
z: -0.58984375
range: 5.09850549698
velocity: 0.0
doppler_bin: 8
bearing: -3.60719799995
intensity: 33.3465461731
---
header: 
  seq: 946635
  stamp: 
    secs: 1561864984
    nsecs: 309813757
  frame_id: "ti_mmwave"
point_id: 14
x: 4.775390625
y: -0.30078125
z: -0.638671875
range: 5.14208269119
velocity: 0.0
doppler_bin: 8
bearing: -3.60405302048
intensity: 33.9776611328
---
header: 
  seq: 946636
  stamp: 
    secs: 1561864984
    nsecs: 309825954
  frame_id: "ti_mmwave"
point_id: 15
x: 4.802734375
y: -0.15234375
z: -0.77734375
range: 5.18565940857
velocity: 0.0
doppler_bin: 8
bearing: -1.81682503223
intensity: 30.6069774628
---
header: 
  seq: 946637
  stamp: 
    secs: 1561864984
    nsecs: 309840875
  frame_id: "ti_mmwave"
point_id: 16
x: 4.884765625
y: -0.30859375
z: 0.73046875
range: 5.27281332016
velocity: 0.0
doppler_bin: 8
bearing: -3.6148416996
intensity: 31.0448703766
---
header: 
  seq: 946638
  stamp: 
    secs: 1561864984
    nsecs: 309853292
  frame_id: "ti_mmwave"
point_id: 17
x: 4.94921875
y: -0.623046875
z: 0.150390625
range: 5.31639051437
velocity: 0.0
doppler_bin: 8
bearing: -7.17510271072
intensity: 29.8136558533
---
header: 
  seq: 946639
  stamp: 
    secs: 1561864984
    nsecs: 309873596
  frame_id: "ti_mmwave"
point_id: 18
x: 1.234375
y: 0.716796875
z: -0.107421875
range: 1.52519392967
velocity: 0.614668667316
doppler_bin: 9
bearing: 30.1435756683
intensity: 22.2788677216
---
header: 
  seq: 946640
  stamp: 
    secs: 1561864984
    nsecs: 309923654
  frame_id: "ti_mmwave"
point_id: 19
x: 1.384765625
y: 0.869140625
z: -0.060546875
range: 1.74307882786
velocity: 0.614668667316
doppler_bin: 9
bearing: 32.1142158508
intensity: 28.0753498077
---
header: 
  seq: 946641
  stamp: 
    secs: 1561864984
    nsecs: 309937303
  frame_id: "ti_mmwave"
point_id: 20
x: 1.4453125
y: 0.837890625
z: 0.142578125
range: 1.78665578365
velocity: 0.614668667316
doppler_bin: 9
bearing: 30.1021461487
intensity: 29.2272548676
---
header: 
  seq: 946642
  stamp: 
    secs: 1561864984
    nsecs: 309949801
  frame_id: "ti_mmwave"
point_id: 21
x: 1.4765625
y: 0.859375
z: 0.189453125
range: 1.83023273945
velocity: 0.614668667316
doppler_bin: 9
bearing: 30.1998596191
intensity: 27.9726753235
---
header: 
  seq: 946643
  stamp: 
    secs: 1561864984
    nsecs: 309962267
  frame_id: "ti_mmwave"
point_id: 22
x: 1.453125
y: 0.990234375
z: 0.03515625
range: 1.87380969524
velocity: 0.614668667316
doppler_bin: 9
bearing: 34.2725372314
intensity: 25.5990657806
---
header: 
  seq: 946644
  stamp: 
    secs: 1561864984
    nsecs: 309976516
  frame_id: "ti_mmwave"
point_id: 23
x: 0.01171875
y: 0.03125
z: 0.025390625
range: 0.0435769706964
velocity: 0.0
doppler_bin: 8
bearing: 69.4439544678
intensity: 29.3196620941
---
header: 
  seq: 946645
  stamp: 
    secs: 1561864984
    nsecs: 309998000
  frame_id: "ti_mmwave"
point_id: 24
x: 0.041015625
y: -0.033203125
z: 0.0625
range: 0.0871539413929
velocity: 0.0
doppler_bin: 8
bearing: -38.9909973145
intensity: 30.0902576447
---
header: 
  seq: 946646
  stamp: 
    secs: 1561864984
    nsecs: 310081018
  frame_id: "ti_mmwave"
point_id: 25
x: 0.044921875
y: -0.046875
z: 0.103515625
range: 0.130730912089
velocity: 0.0
doppler_bin: 8
bearing: -46.218875885
intensity: 28.9707698822
---
header: 
  seq: 946647
  stamp: 
    secs: 1561864984
    nsecs: 310119643
  frame_id: "ti_mmwave"
point_id: 27
x: 1.103515625
y: 0.73828125
z: -0.4140625
range: 1.48161697388
velocity: 0.0
doppler_bin: 8
bearing: 33.7835731506
intensity: 19.1907806396
---
header: 
  seq: 946648
  stamp: 
    secs: 1561864984
    nsecs: 310256368
  frame_id: "ti_mmwave"
point_id: 28
x: 0.62109375
y: 0.306640625
z: 1.482421875
range: 1.74307882786
velocity: 0.614668667316
doppler_bin: 9
bearing: 26.2760467529
intensity: 25.2504482269
---
header: 
  seq: 946649
  stamp: 
    secs: 1561864984
    nsecs: 367759468
  frame_id: "ti_mmwave"
point_id: 0
x: 0.01171875
y: -0.0390625
z: -0.0078125
range: 0.0435769706964
velocity: 0.0
doppler_bin: 8
bearing: -73.3007583618
intensity: 30.6669845581
---
header: 
  seq: 946650
  stamp: 
    secs: 1561864984
    nsecs: 367831819
  frame_id: "ti_mmwave"
point_id: 1
x: 0.017578125
y: -0.080078125
z: -0.0078125
range: 0.0871539413929
velocity: 0.0
doppler_bin: 8
bearing: -77.6192398071
intensity: 31.9061183929
---
header: 
  seq: 946651
  stamp: 
    secs: 1561864984
    nsecs: 367842873
  frame_id: "ti_mmwave"
point_id: 2
x: 0.029296875
y: -0.119140625
z: -0.005859375
range: 0.130730912089
velocity: 0.0
doppler_bin: 8
bearing: -76.1849746704
intensity: 30.1494026184
---
header: 
  seq: 946652
  stamp: 
    secs: 1561864984
    nsecs: 367853620
  frame_id: "ti_mmwave"
point_id: 3
x: 0.056640625
y: -0.154296875
z: 0.005859375
range: 0.174307882786
velocity: 0.0
doppler_bin: 8
bearing: -69.8423843384
intensity: 25.4406795502
---
header: 
  seq: 946653
  stamp: 
    secs: 1561864984
    nsecs: 367862548
  frame_id: "ti_mmwave"
point_id: 4
x: 0.142578125
y: -0.080078125
z: 1.2578125
range: 1.35088610649
velocity: 0.0
doppler_bin: 8
bearing: -29.3204746246
intensity: 23.1175384521
---
header: 
  seq: 946654
  stamp: 
    secs: 1561864984
    nsecs: 367873851
  frame_id: "ti_mmwave"
point_id: 6
x: 0.431640625
y: -0.083984375
z: -1.275390625
range: 1.43804001808
velocity: 0.0
doppler_bin: 8
bearing: -11.0104799271
intensity: 23.031961441
---
header: 
  seq: 946655
  stamp: 
    secs: 1561864984
    nsecs: 367882533
  frame_id: "ti_mmwave"
point_id: 7
x: 2.619140625
y: -0.17578125
z: 1.0390625
range: 3.00681090355
velocity: 0.0
doppler_bin: 8
bearing: -3.83959650993
intensity: 29.0036716461
---
header: 
  seq: 946656
  stamp: 
    secs: 1561864984
    nsecs: 367891158
  frame_id: "ti_mmwave"
point_id: 8
x: 2.693359375
y: -0.08984375
z: 0.96875
range: 3.05038785934
velocity: 0.0
doppler_bin: 8
bearing: -1.91053581238
intensity: 32.166934967
---
header: 
  seq: 946657
  stamp: 
    secs: 1561864984
    nsecs: 367899861
  frame_id: "ti_mmwave"
point_id: 9
x: 2.755859375
y: -0.08984375
z: 0.91015625
range: 3.09396481514
velocity: 0.0
doppler_bin: 8
bearing: -1.86723792553
intensity: 31.1294002533
---
header: 
  seq: 946658
  stamp: 
    secs: 1561864984
    nsecs: 367911331
  frame_id: "ti_mmwave"
point_id: 10
x: 4.412109375
y: -0.142578125
z: 1.224609375
range: 4.88062095642
velocity: 0.0
doppler_bin: 8
bearing: -1.85087943077
intensity: 31.3987903595
---
header: 
  seq: 946659
  stamp: 
    secs: 1561864984
    nsecs: 367924623
  frame_id: "ti_mmwave"
point_id: 11
x: 4.443359375
y: -0.14453125
z: 1.263671875
range: 4.9241976738
velocity: 0.0
doppler_bin: 8
bearing: -1.86303019524
intensity: 31.225435257
---
header: 
  seq: 946660
  stamp: 
    secs: 1561864984
    nsecs: 367934893
  frame_id: "ti_mmwave"
point_id: 12
x: 4.73828125
y: -0.298828125
z: -0.59765625
range: 5.09850549698
velocity: 0.0
doppler_bin: 8
bearing: -3.60868048668
intensity: 33.4202766418
---
header: 
  seq: 946661
  stamp: 
    secs: 1561864984
    nsecs: 367976559
  frame_id: "ti_mmwave"
point_id: 13
x: 4.779296875
y: -0.30078125
z: -0.611328125
range: 5.14208269119
velocity: 0.0
doppler_bin: 8
bearing: -3.60111522675
intensity: 34.0346374512
---
header: 
  seq: 946662
  stamp: 
    secs: 1561864984
    nsecs: 368141928
  frame_id: "ti_mmwave"
point_id: 14
x: 4.810546875
y: -0.15234375
z: -0.724609375
range: 5.18565940857
velocity: 0.0
doppler_bin: 8
bearing: -1.81387650967
intensity: 30.678144455
---
header: 
  seq: 946663
  stamp: 
    secs: 1561864984
    nsecs: 368163995
  frame_id: "ti_mmwave"
point_id: 15
x: 4.888671875
y: -0.30859375
z: 0.71484375
range: 5.27281332016
velocity: 0.0
doppler_bin: 8
bearing: -3.61196112633
intensity: 31.0991592407
---
header: 
  seq: 946664
  stamp: 
    secs: 1561864984
    nsecs: 368185820
  frame_id: "ti_mmwave"
point_id: 16
x: 4.951171875
y: -0.623046875
z: 0.08203125
range: 5.31639051437
velocity: 0.0
doppler_bin: 8
bearing: -7.17230129242
intensity: 29.8900470734
---
header: 
  seq: 946665
  stamp: 
    secs: 1561864984
    nsecs: 368205283
  frame_id: "ti_mmwave"
point_id: 17
x: 1.408203125
y: 0.748046875
z: -0.0390625
range: 1.69950187206
velocity: 0.614668667316
doppler_bin: 9
bearing: 27.9775371552
intensity: 26.541765213
---
header: 
  seq: 946666
  stamp: 
    secs: 1561864984
    nsecs: 368260564
  frame_id: "ti_mmwave"
point_id: 18
x: 1.40234375
y: 0.818359375
z: -0.203125
range: 1.74307882786
velocity: 0.614668667316
doppler_bin: 9
bearing: 30.2663612366
intensity: 30.1452045441
---
header: 
  seq: 946667
  stamp: 
    secs: 1561864984
    nsecs: 368270915
  frame_id: "ti_mmwave"
point_id: 19
x: 1.41015625
y: 0.890625
z: -0.16796875
range: 1.78665578365
velocity: 0.614668667316
doppler_bin: 9
bearing: 32.275642395
intensity: 30.484418869
---
header: 
  seq: 946668
  stamp: 
    secs: 1561864984
    nsecs: 368279332
  frame_id: "ti_mmwave"
point_id: 20
x: 1.455078125
y: 0.912109375
z: -0.013671875
range: 1.83023273945
velocity: 0.614668667316
doppler_bin: 9
bearing: 32.081363678
intensity: 27.9028511047
---
header: 
  seq: 946669
  stamp: 
    secs: 1561864984
    nsecs: 368288230
  frame_id: "ti_mmwave"
point_id: 21
x: 0.009765625
y: 0.03125
z: 0.025390625
range: 0.0435769706964
velocity: 0.0
doppler_bin: 8
bearing: 72.6459732056
intensity: 29.31457901
---
header: 
  seq: 946670
  stamp: 
    secs: 1561864984
    nsecs: 368299083
  frame_id: "ti_mmwave"
point_id: 22
x: 0.041015625
y: -0.033203125
z: 0.0625
range: 0.0871539413929
velocity: 0.0
doppler_bin: 8
bearing: -38.9909973145
intensity: 30.0860023499
---
header: 
  seq: 946671
  stamp: 
    secs: 1561864984
    nsecs: 368306018
  frame_id: "ti_mmwave"
point_id: 23
x: 0.044921875
y: -0.046875
z: 0.103515625
range: 0.130730912089
velocity: 0.0
doppler_bin: 8
bearing: -46.218875885
intensity: 28.9652614594
---
header: 
  seq: 946672
  stamp: 
    secs: 1561864984
    nsecs: 369261903
  frame_id: "ti_mmwave"
point_id: 0
x: 0.01171875
y: -0.0390625
z: -0.0078125
range: 0.0435769706964
velocity: 0.0
doppler_bin: 8
bearing: -73.3007583618
intensity: 30.6632595062
---
header: 
  seq: 946673
  stamp: 
    secs: 1561864984
    nsecs: 369334923
  frame_id: "ti_mmwave"
point_id: 1
x: 0.017578125
y: -0.080078125
z: -0.0078125
range: 0.0871539413929
velocity: 0.0
doppler_bin: 8
bearing: -77.6192398071
intensity: 31.9061183929
---
header: 
  seq: 946674
  stamp: 
    secs: 1561864984
    nsecs: 369352173
  frame_id: "ti_mmwave"
point_id: 2
x: 0.029296875
y: -0.119140625
z: -0.005859375
range: 0.130730912089
velocity: 0.0
doppler_bin: 8
bearing: -76.1849746704
intensity: 30.1535968781
---
header: 
  seq: 946675
  stamp: 
    secs: 1561864984
    nsecs: 369367375
  frame_id: "ti_mmwave"
point_id: 3
x: 0.056640625
y: -0.154296875
z: 0.005859375
range: 0.174307882786
velocity: 0.0
doppler_bin: 8
bearing: -69.8423843384
intensity: 25.4654273987
---
header: 
  seq: 946676
  stamp: 
    secs: 1561864984
    nsecs: 369462774
  frame_id: "ti_mmwave"
point_id: 4
x: 0.11328125
y: -0.080078125
z: 1.259765625
range: 1.35088610649
velocity: 0.0
doppler_bin: 8
bearing: -35.2563591003
intensity: 23.0963020325
---
header: 
  seq: 946677
  stamp: 
    secs: 1561864984
    nsecs: 369491596
  frame_id: "ti_mmwave"
point_id: 6
x: 0.443359375
y: -0.083984375
z: -1.271484375
range: 1.43804001808
velocity: 0.0
doppler_bin: 8
bearing: -10.7262945175
intensity: 23.0535144806
---
header: 
  seq: 946678
  stamp: 
    secs: 1561864984
    nsecs: 369525006
  frame_id: "ti_mmwave"
point_id: 7
x: 0.591796875
y: -0.04296875
z: -1.2578125
range: 1.48161697388
velocity: 0.0
doppler_bin: 8
bearing: -4.15280246735
intensity: 21.6435279846
---
header: 
  seq: 946679
  stamp: 
    secs: 1561864984
    nsecs: 369548907
  frame_id: "ti_mmwave"
point_id: 8
x: 2.61328125
y: -0.17578125
z: 1.05078125
range: 3.00681090355
velocity: 0.0
doppler_bin: 8
bearing: -3.84817934036
intensity: 29.1169013977
---
header: 
  seq: 946680
  stamp: 
    secs: 1561864984
    nsecs: 369614756
  frame_id: "ti_mmwave"
point_id: 9
x: 2.69140625
y: -0.08984375
z: 0.974609375
range: 3.05038785934
velocity: 0.0
doppler_bin: 8
bearing: -1.91192126274
intensity: 32.2219619751
---
header: 
  seq: 946681
  stamp: 
    secs: 1561864984
    nsecs: 369632756
  frame_id: "ti_mmwave"
point_id: 10
x: 2.755859375
y: -0.08984375
z: 0.9140625
range: 3.09396481514
velocity: 0.0
doppler_bin: 8
bearing: -1.86723792553
intensity: 31.1660766602
---
header: 
  seq: 946682
  stamp: 
    secs: 1561864984
    nsecs: 369646714
  frame_id: "ti_mmwave"
point_id: 11
x: 4.41796875
y: -0.142578125
z: 1.205078125
range: 4.88062095642
velocity: 0.0
doppler_bin: 8
bearing: -1.84842634201
intensity: 31.3987903595
---
header: 
  seq: 946683
  stamp: 
    secs: 1561864984
    nsecs: 369660793
  frame_id: "ti_mmwave"
point_id: 12
x: 4.44921875
y: -0.14453125
z: 1.244140625
range: 4.9241976738
velocity: 0.0
doppler_bin: 8
bearing: -1.86057829857
intensity: 31.2123146057
---
header: 
  seq: 946684
  stamp: 
    secs: 1561864984
    nsecs: 369672991
  frame_id: "ti_mmwave"
point_id: 13
x: 4.734375
y: -0.298828125
z: -0.634765625
range: 5.09850549698
velocity: 0.0
doppler_bin: 8
bearing: -3.61165046692
intensity: 33.4163246155
---
header: 
  seq: 946685
  stamp: 
    secs: 1561864984
    nsecs: 369691237
  frame_id: "ti_mmwave"
point_id: 14
x: 4.775390625
y: -0.30078125
z: -0.642578125
range: 5.14208269119
velocity: 0.0
doppler_bin: 8
bearing: -3.60405302048
intensity: 34.0226135254
---
header: 
  seq: 946686
  stamp: 
    secs: 1561864984
    nsecs: 369743767
  frame_id: "ti_mmwave"
point_id: 15
x: 4.806640625
y: -0.15234375
z: -0.75
range: 5.18565940857
velocity: 0.0
doppler_bin: 8
bearing: -1.81534969807
intensity: 30.6669845581
---
header: 
  seq: 946687
  stamp: 
    secs: 1561864984
    nsecs: 369760760
  frame_id: "ti_mmwave"
point_id: 16
x: 4.89453125
y: -0.30859375
z: 0.673828125
range: 5.27281332016
velocity: 0.0
doppler_bin: 8
bearing: -3.60764837265
intensity: 31.1826477051
---
header: 
  seq: 946688
  stamp: 
    secs: 1561864984
    nsecs: 369772298
  frame_id: "ti_mmwave"
point_id: 17
x: 4.951171875
y: -0.623046875
z: 0.09375
range: 5.31639051437
velocity: 0.0
doppler_bin: 8
bearing: -7.17230129242
intensity: 29.9343624115
---
header: 
  seq: 946689
  stamp: 
    secs: 1561864984
    nsecs: 369785728
  frame_id: "ti_mmwave"
point_id: 18
x: 1.482421875
y: 0.787109375
z: -0.0078125
range: 1.78665578365
velocity: 0.614668667316
doppler_bin: 9
bearing: 27.966594696
intensity: 24.857213974
---
header: 
  seq: 946690
  stamp: 
    secs: 1561864984
    nsecs: 369799861
  frame_id: "ti_mmwave"
point_id: 19
x: 1.484375
y: 0.859375
z: 0.10546875
range: 1.83023273945
velocity: 0.614668667316
doppler_bin: 9
bearing: 30.0685825348
intensity: 25.490032196
---
header: 
  seq: 946691
  stamp: 
    secs: 1561864984
    nsecs: 369813600
  frame_id: "ti_mmwave"
point_id: 20
x: 0.009765625
y: 0.03125
z: 0.025390625
range: 0.0435769706964
velocity: 0.0
doppler_bin: 8
bearing: 72.6459732056
intensity: 29.31457901
---
header: 
  seq: 946692
  stamp: 
    secs: 1561864984
    nsecs: 369836787
  frame_id: "ti_mmwave"
point_id: 21
x: 0.041015625
y: -0.033203125
z: 0.0625
range: 0.0871539413929
velocity: 0.0
doppler_bin: 8
bearing: -38.9909973145
intensity: 30.0860023499
---
header: 
  seq: 946693
  stamp: 
    secs: 1561864984
    nsecs: 369860214
  frame_id: "ti_mmwave"
point_id: 22
x: 0.044921875
y: -0.046875
z: 0.103515625
range: 0.130730912089
velocity: 0.0
doppler_bin: 8
bearing: -46.218875885
intensity: 28.9652614594
---
header: 
  seq: 946694
  stamp: 
    secs: 1561864984
    nsecs: 427757891
  frame_id: "ti_mmwave"
point_id: 0
x: 0.01171875
y: -0.0390625
z: -0.0078125
range: 0.0435769706964
velocity: 0.0
doppler_bin: 8
bearing: -73.3007583618
intensity: 30.6632595062
---
header: 
  seq: 946695
  stamp: 
    secs: 1561864984
    nsecs: 427827970
  frame_id: "ti_mmwave"
point_id: 1
x: 0.017578125
y: -0.080078125
z: -0.0078125
range: 0.0871539413929
velocity: 0.0
doppler_bin: 8
bearing: -77.6192398071
intensity: 31.9089164734
---
header: 
  seq: 946696
  stamp: 
    secs: 1561864984
    nsecs: 427839558
  frame_id: "ti_mmwave"
point_id: 2
x: 0.029296875
y: -0.119140625
z: -0.005859375
range: 0.130730912089
velocity: 0.0
doppler_bin: 8
bearing: -76.1849746704
intensity: 30.1535968781
---
header: 
  seq: 946697
  stamp: 
    secs: 1561864984
    nsecs: 427848148
  frame_id: "ti_mmwave"
point_id: 3
x: 0.056640625
y: -0.154296875
z: 0.005859375
range: 0.174307882786
velocity: 0.0
doppler_bin: 8
bearing: -69.8423843384
intensity: 25.4530715942
---
header: 
  seq: 946698
  stamp: 
    secs: 1561864984
    nsecs: 427860163
  frame_id: "ti_mmwave"
point_id: 4
x: 0.048828125
y: -0.080078125
z: 1.265625
range: 1.35088610649
velocity: 0.0
doppler_bin: 8
bearing: -58.6269989014
intensity: 23.1175384521
---
header: 
  seq: 946699
  stamp: 
    secs: 1561864984
    nsecs: 427868759
  frame_id: "ti_mmwave"
point_id: 5
x: 0.078125
y: -0.08203125
z: -1.3046875
range: 1.39446306229
velocity: 0.0
doppler_bin: 8
bearing: -46.3971824646
intensity: 24.6089782715
---
header: 
  seq: 946700
  stamp: 
    secs: 1561864984
    nsecs: 427876827
  frame_id: "ti_mmwave"
point_id: 6
x: 0.41796875
y: -0.083984375
z: -1.28125
range: 1.43804001808
velocity: 0.0
doppler_bin: 8
bearing: -11.3614110947
intensity: 23.0535144806
---
header: 
  seq: 946701
  stamp: 
    secs: 1561864984
    nsecs: 427884345
  frame_id: "ti_mmwave"
point_id: 7
x: 0.51171875
y: -0.04296875
z: -1.29296875
range: 1.48161697388
velocity: 0.0
doppler_bin: 8
bearing: -4.79983615875
intensity: 21.7318630219
---
header: 
  seq: 946702
  stamp: 
    secs: 1561864984
    nsecs: 427892570
  frame_id: "ti_mmwave"
point_id: 8
x: 1.48046875
y: 0.859375
z: 0.1484375
range: 1.83023273945
velocity: 0.0
doppler_bin: 8
bearing: 30.1340904236
intensity: 28.0821094513
---
header: 
  seq: 946703
  stamp: 
    secs: 1561864984
    nsecs: 427900579
  frame_id: "ti_mmwave"
point_id: 9
x: 1.5234375
y: 0.87890625
z: -0.046875
range: 1.87380969524
velocity: 0.0
doppler_bin: 8
bearing: 29.9816379547
intensity: 27.8532981873
---
header: 
  seq: 946704
  stamp: 
    secs: 1561864984
    nsecs: 427908579
  frame_id: "ti_mmwave"
point_id: 10
x: 2.62109375
y: -0.17578125
z: 1.03125
range: 3.00681090355
velocity: 0.0
doppler_bin: 8
bearing: -3.83674383163
intensity: 28.9376182556
---
header: 
  seq: 946705
  stamp: 
    secs: 1561864984
    nsecs: 427917584
  frame_id: "ti_mmwave"
point_id: 11
x: 2.6953125
y: -0.08984375
z: 0.962890625
range: 3.05038785934
velocity: 0.0
doppler_bin: 8
bearing: -1.90915250778
intensity: 32.1722068787
---
header: 
  seq: 946706
  stamp: 
    secs: 1561864984
    nsecs: 427926042
  frame_id: "ti_mmwave"
point_id: 12
x: 2.759765625
y: -0.08984375
z: 0.90234375
range: 3.09396481514
velocity: 0.0
doppler_bin: 8
bearing: -1.86459684372
intensity: 31.119342804
---
header: 
  seq: 946707
  stamp: 
    secs: 1561864984
    nsecs: 427970648
  frame_id: "ti_mmwave"
point_id: 13
x: 4.416015625
y: -0.142578125
z: 1.212890625
range: 4.88062095642
velocity: 0.0
doppler_bin: 8
bearing: -1.84924340248
intensity: 31.4019374847
---
header: 
  seq: 946708
  stamp: 
    secs: 1561864984
    nsecs: 428141749
  frame_id: "ti_mmwave"
point_id: 14
x: 4.443359375
y: -0.14453125
z: 1.265625
range: 4.9241976738
velocity: 0.0
doppler_bin: 8
bearing: -1.86303019524
intensity: 31.205739975
---
header: 
  seq: 946709
  stamp: 
    secs: 1561864984
    nsecs: 428165512
  frame_id: "ti_mmwave"
point_id: 15
x: 4.7421875
y: -0.298828125
z: -0.57421875
range: 5.09850549698
velocity: 0.0
doppler_bin: 8
bearing: -3.60571622849
intensity: 33.3041381836
---
header: 
  seq: 946710
  stamp: 
    secs: 1561864984
    nsecs: 428174307
  frame_id: "ti_mmwave"
point_id: 16
x: 4.779296875
y: -0.30078125
z: -0.603515625
range: 5.14208269119
velocity: 0.0
doppler_bin: 8
bearing: -3.60111522675
intensity: 33.9863433838
---
header: 
  seq: 946711
  stamp: 
    secs: 1561864984
    nsecs: 428182450
  frame_id: "ti_mmwave"
point_id: 17
x: 4.80859375
y: -0.15234375
z: -0.73828125
range: 5.18565940857
velocity: 0.0
doppler_bin: 8
bearing: -1.81461262703
intensity: 30.700378418
---
header: 
  seq: 946712
  stamp: 
    secs: 1561864984
    nsecs: 428190833
  frame_id: "ti_mmwave"
point_id: 18
x: 4.8984375
y: -0.30859375
z: 0.64453125
range: 5.27281332016
velocity: 0.0
doppler_bin: 8
bearing: -3.60477876663
intensity: 31.0720996857
---
header: 
  seq: 946713
  stamp: 
    secs: 1561864984
    nsecs: 428214288
  frame_id: "ti_mmwave"
point_id: 19
x: 4.966796875
y: -0.46875
z: 0.107421875
range: 5.31639051437
velocity: 0.0
doppler_bin: 8
bearing: -5.39141845703
intensity: 29.8136558533
---
header: 
  seq: 946714
  stamp: 
    secs: 1561864984
    nsecs: 428223046
  frame_id: "ti_mmwave"
point_id: 20
x: 1.4453125
y: 0.767578125
z: -0.025390625
range: 1.74307882786
velocity: 0.614668667316
doppler_bin: 9
bearing: 27.9719257355
intensity: 27.9934062958
---
header: 
  seq: 946715
  stamp: 
    secs: 1561864984
    nsecs: 428241678
  frame_id: "ti_mmwave"
point_id: 21
x: 1.4765625
y: 0.787109375
z: 0.111328125
range: 1.78665578365
velocity: 0.614668667316
doppler_bin: 9
bearing: 28.0606842041
intensity: 28.2736930847
---
header: 
  seq: 946716
  stamp: 
    secs: 1561864984
    nsecs: 428257034
  frame_id: "ti_mmwave"
point_id: 22
x: 0.009765625
y: 0.03125
z: 0.025390625
range: 0.0435769706964
velocity: 0.0
doppler_bin: 8
bearing: 72.6459732056
intensity: 29.31457901
---
header: 
  seq: 946717
  stamp: 
    secs: 1561864984
    nsecs: 428265970
  frame_id: "ti_mmwave"
point_id: 23
x: 0.041015625
y: -0.033203125
z: 0.0625
range: 0.0871539413929
velocity: 0.0
doppler_bin: 8
bearing: -38.9909973145
intensity: 30.0902576447
---
header: 
  seq: 946718
  stamp: 
    secs: 1561864984
    nsecs: 428279224
  frame_id: "ti_mmwave"
point_id: 24
x: 0.044921875
y: -0.046875
z: 0.103515625
range: 0.130730912089
velocity: 0.0
doppler_bin: 8
bearing: -46.218875885
intensity: 28.9707698822
---
header: 
  seq: 946719
  stamp: 
    secs: 1561864984
    nsecs: 487666593
  frame_id: "ti_mmwave"
point_id: 0
x: 0.01171875
y: -0.0390625
z: -0.0078125
range: 0.0435769706964
velocity: 0.0
doppler_bin: 8
bearing: -73.3007583618
intensity: 30.6595306396
---
header: 
  seq: 946720
  stamp: 
    secs: 1561864984
    nsecs: 487752409
  frame_id: "ti_mmwave"
point_id: 1
x: 0.017578125
y: -0.080078125
z: -0.0078125
range: 0.0871539413929
velocity: 0.0
doppler_bin: 8
bearing: -77.6192398071
intensity: 31.9033164978
---
header: 
  seq: 946721
  stamp: 
    secs: 1561864984
    nsecs: 487772630
  frame_id: "ti_mmwave"
point_id: 2
x: 0.029296875
y: -0.119140625
z: -0.005859375
range: 0.130730912089
velocity: 0.0
doppler_bin: 8
bearing: -76.1849746704
intensity: 30.1494026184
---
header: 
  seq: 946722
  stamp: 
    secs: 1561864984
    nsecs: 487787331
  frame_id: "ti_mmwave"
point_id: 3
x: 0.056640625
y: -0.154296875
z: 0.005859375
range: 0.174307882786
velocity: 0.0
doppler_bin: 8
bearing: -69.8423843384
intensity: 25.4530715942
---
header: 
  seq: 946723
  stamp: 
    secs: 1561864984
    nsecs: 487800785
  frame_id: "ti_mmwave"
point_id: 4
x: 0.109375
y: -0.080078125
z: 1.26171875
range: 1.35088610649
velocity: 0.0
doppler_bin: 8
bearing: -36.2094573975
intensity: 23.1175384521
---
header: 
  seq: 946724
  stamp: 
    secs: 1561864984
    nsecs: 487814201
  frame_id: "ti_mmwave"
point_id: 5
x: 0.0625
y: -0.08203125
z: 1.3046875
range: 1.39446306229
velocity: 0.0
doppler_bin: 8
bearing: -52.6960487366
