header: 
  seq: 963487
  stamp: 
    secs: 1561865006
    nsecs:  87720947
  frame_id: "ti_mmwave"
point_id: 0
x: 0.01171875
y: -0.0390625
z: -0.0078125
range: 0.0435769706964
velocity: 0.0
doppler_bin: 8
bearing: -73.3007583618
intensity: 30.6557979584
---
header: 
  seq: 963488
  stamp: 
    secs: 1561865006
    nsecs:  87849927
  frame_id: "ti_mmwave"
point_id: 1
x: 0.017578125
y: -0.080078125
z: -0.0078125
range: 0.0871539413929
velocity: 0.0
doppler_bin: 8
bearing: -77.6192398071
intensity: 31.9033164978
---
header: 
  seq: 963489
  stamp: 
    secs: 1561865006
    nsecs:  87868817
  frame_id: "ti_mmwave"
point_id: 2
x: 0.029296875
y: -0.119140625
z: -0.005859375
range: 0.130730912089
velocity: 0.0
doppler_bin: 8
bearing: -76.1849746704
intensity: 30.1494026184
---
header: 
  seq: 963490
  stamp: 
    secs: 1561865006
    nsecs:  87882881
  frame_id: "ti_mmwave"
point_id: 3
x: 0.056640625
y: -0.154296875
z: 0.005859375
range: 0.174307882786
velocity: 0.0
doppler_bin: 8
bearing: -69.8423843384
intensity: 25.4406795502
---
header: 
  seq: 963491
  stamp: 
    secs: 1561865006
    nsecs:  87899818
  frame_id: "ti_mmwave"
point_id: 4
x: 0.62890625
y: -0.0390625
z: -1.1015625
range: 1.35088610649
velocity: 0.0
doppler_bin: 8
bearing: -3.55417847633
intensity: 23.0963020325
---
header: 
  seq: 963492
  stamp: 
    secs: 1561865006
    nsecs:  87917019
  frame_id: "ti_mmwave"
point_id: 5
x: 0.560546875
y: -0.08203125
z: -1.1796875
range: 1.39446306229
velocity: 0.0
doppler_bin: 8
bearing: -8.32564926147
intensity: 24.2324581146
---
header: 
  seq: 963493
  stamp: 
    secs: 1561865006
    nsecs:  87930890
  frame_id: "ti_mmwave"
point_id: 6
x: 0.330078125
y: -0.087890625
z: -1.34765625
range: 1.48161697388
velocity: 0.0
doppler_bin: 8
bearing: -14.9103136063
intensity: 21.172712326
---
header: 
  seq: 963494
  stamp: 
    secs: 1561865006
    nsecs:  87996306
  frame_id: "ti_mmwave"
point_id: 7
x: 2.615234375
y: -0.17578125
z: 1.048828125
range: 3.00681090355
velocity: 0.0
doppler_bin: 8
bearing: -3.84531402588
intensity: 29.0633506775
---
header: 
  seq: 963495
  stamp: 
    secs: 1561865006
    nsecs:  88024119
  frame_id: "ti_mmwave"
point_id: 8
x: 2.69140625
y: -0.08984375
z: 0.97265625
range: 3.05038785934
velocity: 0.0
doppler_bin: 8
bearing: -1.91192126274
intensity: 32.2089233398
---
header: 
  seq: 963496
  stamp: 
    secs: 1561865006
    nsecs:  88039657
  frame_id: "ti_mmwave"
point_id: 9
x: 2.75390625
y: -0.08984375
z: 0.919921875
range: 3.09396481514
velocity: 0.0
doppler_bin: 8
bearing: -1.86856126785
intensity: 31.1892566681
---
header: 
  seq: 963497
  stamp: 
    secs: 1561865006
    nsecs:  88130173
  frame_id: "ti_mmwave"
point_id: 10
x: 4.419921875
y: -0.142578125
z: 1.1953125
range: 4.88062095642
velocity: 0.0
doppler_bin: 8
bearing: -1.847610116
intensity: 31.1793384552
---
header: 
  seq: 963498
  stamp: 
    secs: 1561865006
    nsecs:  88146379
  frame_id: "ti_mmwave"
point_id: 11
x: 4.453125
y: -0.14453125
z: 1.234375
range: 4.9241976738
velocity: 0.0
doppler_bin: 8
bearing: -1.85894739628
intensity: 30.6483230591
---
header: 
  seq: 963499
  stamp: 
    secs: 1561865006
    nsecs:  88161020
  frame_id: "ti_mmwave"
point_id: 12
x: 4.744140625
y: -0.298828125
z: -0.5625
range: 5.09850549698
velocity: 0.0
doppler_bin: 8
bearing: -3.60423564911
intensity: 33.6229400635
---
header: 
  seq: 963500
  stamp: 
    secs: 1561865006
    nsecs:  88175102
  frame_id: "ti_mmwave"
point_id: 13
x: 4.78125
y: -0.30078125
z: -0.587890625
range: 5.14208269119
velocity: 0.0
doppler_bin: 8
bearing: -3.59964799881
intensity: 34.1863250732
---
header: 
  seq: 963501
  stamp: 
    secs: 1561865006
    nsecs:  88187675
  frame_id: "ti_mmwave"
point_id: 14
x: 4.7890625
y: -0.15234375
z: -0.85546875
range: 5.18565940857
velocity: 0.0
doppler_bin: 8
bearing: -1.82200825214
intensity: 30.3702793121
---
header: 
  seq: 963502
  stamp: 
    secs: 1561865006
    nsecs:  88202278
  frame_id: "ti_mmwave"
point_id: 15
x: 4.876953125
y: -0.30859375
z: 0.7890625
range: 5.27281332016
velocity: 0.0
doppler_bin: 8
bearing: -3.62061715126
intensity: 31.1327476501
---
header: 
  seq: 963503
  stamp: 
    secs: 1561865006
    nsecs:  88216894
  frame_id: "ti_mmwave"
point_id: 16
x: 4.94921875
y: -0.623046875
z: 0.115234375
range: 5.31639051437
velocity: 0.0
doppler_bin: 8
bearing: -7.17510271072
intensity: 29.9122600555
---
header: 
  seq: 963504
  stamp: 
    secs: 1561865006
    nsecs:  88230674
  frame_id: "ti_mmwave"
point_id: 17
x: 1.3203125
y: 0.2109375
z: -0.189453125
range: 1.43804001808
velocity: 0.614668667316
doppler_bin: 9
bearing: 9.07705307007
intensity: 22.4551258087
---
header: 
  seq: 963505
  stamp: 
    secs: 1561865006
    nsecs:  88246542
  frame_id: "ti_mmwave"
point_id: 18
x: 1.498046875
y: 0.142578125
z: 0.171875
range: 1.61234796047
velocity: 0.614668667316
doppler_bin: 9
bearing: 5.43680667877
intensity: 26.8214511871
---
header: 
  seq: 963506
  stamp: 
    secs: 1561865006
    nsecs:  88259908
  frame_id: "ti_mmwave"
point_id: 19
x: 1.541015625
y: 0.146484375
z: 0.138671875
range: 1.65592491627
velocity: 0.614668667316
doppler_bin: 9
bearing: 5.43005132675
intensity: 30.7040729523
---
header: 
  seq: 963507
  stamp: 
    secs: 1561865006
    nsecs:  88274004
  frame_id: "ti_mmwave"
point_id: 20
x: 1.5859375
y: 0.150390625
z: 0.09375
range: 1.69950187206
velocity: 0.614668667316
doppler_bin: 9
bearing: 5.41702222824
intensity: 31.1892566681
---
header: 
  seq: 963508
  stamp: 
    secs: 1561865006
    nsecs:  88288292
  frame_id: "ti_mmwave"
point_id: 21
x: 1.6328125
y: 0.1015625
z: 0.05078125
range: 1.74307882786
velocity: 0.614668667316
doppler_bin: 9
bearing: 3.55926680565
intensity: 28.0413951874
---
header: 
  seq: 963509
  stamp: 
    secs: 1561865006
    nsecs:  88303548
  frame_id: "ti_mmwave"
point_id: 22
x: 0.009765625
y: 0.03125
z: 0.025390625
range: 0.0435769706964
velocity: 0.0
doppler_bin: 8
bearing: 72.6459732056
intensity: 29.3094902039
---
header: 
  seq: 963510
  stamp: 
    secs: 1561865006
    nsecs:  88317485
  frame_id: "ti_mmwave"
point_id: 23
x: 0.041015625
y: -0.033203125
z: 0.0625
range: 0.0871539413929
velocity: 0.0
doppler_bin: 8
bearing: -38.9909973145
intensity: 30.0860023499
---
header: 
  seq: 963511
  stamp: 
    secs: 1561865006
    nsecs:  88331306
  frame_id: "ti_mmwave"
point_id: 24
x: 0.044921875
y: -0.046875
z: 0.103515625
range: 0.130730912089
velocity: 0.0
doppler_bin: 8
bearing: -46.218875885
intensity: 28.9707698822
---
header: 
  seq: 963512
  stamp: 
    secs: 1561865006
    nsecs:  88349083
  frame_id: "ti_mmwave"
point_id: 26
x: 0.4765625
y: -0.25390625
z: 1.236328125
range: 1.43804001808
velocity: 0.614668667316
doppler_bin: 9
bearing: -28.0481071472
intensity: 20.7918128967
---
header: 
  seq: 963513
  stamp: 
    secs: 1561865006
    nsecs:  89458542
  frame_id: "ti_mmwave"
point_id: 0
x: 0.01171875
y: -0.0390625
z: -0.0078125
range: 0.0435769706964
velocity: 0.0
doppler_bin: 8
bearing: -73.3007583618
intensity: 30.6557979584
---
header: 
  seq: 963514
  stamp: 
    secs: 1561865006
    nsecs:  89511723
  frame_id: "ti_mmwave"
point_id: 1
x: 0.017578125
y: -0.080078125
z: -0.0078125
range: 0.0871539413929
velocity: 0.0
doppler_bin: 8
bearing: -77.6192398071
intensity: 31.9061183929
---
header: 
  seq: 963515
  stamp: 
    secs: 1561865006
    nsecs:  89527015
  frame_id: "ti_mmwave"
point_id: 2
x: 0.029296875
y: -0.119140625
z: -0.005859375
range: 0.130730912089
velocity: 0.0
doppler_bin: 8
bearing: -76.1849746704
intensity: 30.1494026184
---
header: 
  seq: 963516
  stamp: 
    secs: 1561865006
    nsecs:  89540561
  frame_id: "ti_mmwave"
point_id: 3
x: 0.056640625
y: -0.154296875
z: 0.005859375
range: 0.174307882786
velocity: 0.0
doppler_bin: 8
bearing: -69.8423843384
intensity: 25.4406795502
---
header: 
  seq: 963517
  stamp: 
    secs: 1561865006
    nsecs:  89555752
  frame_id: "ti_mmwave"
point_id: 4
x: 0.173828125
y: -0.080078125
z: 1.25390625
range: 1.35088610649
velocity: 0.0
doppler_bin: 8
bearing: -24.7343044281
intensity: 23.1806335449
---
header: 
  seq: 963518
  stamp: 
    secs: 1561865006
    nsecs:  89572624
  frame_id: "ti_mmwave"
point_id: 5
x: 0.08203125
y: -0.08203125
z: -1.3046875
range: 1.39446306229
velocity: 0.0
doppler_bin: 8
bearing: -45.0
intensity: 24.7421627045
---
header: 
  seq: 963519
  stamp: 
    secs: 1561865006
    nsecs:  89587504
  frame_id: "ti_mmwave"
point_id: 6
x: 0.65234375
y: -0.04296875
z: -1.181640625
range: 1.43804001808
velocity: 0.0
doppler_bin: 8
bearing: -3.76852989197
intensity: 23.3645973206
---
header: 
  seq: 963520
  stamp: 
    secs: 1561865006
    nsecs:  89601859
  frame_id: "ti_mmwave"
point_id: 7
x: 0.73046875
y: -0.04296875
z: -1.18359375
range: 1.48161697388
velocity: 0.0
doppler_bin: 8
bearing: -3.36646056175
intensity: 21.9589958191
---
header: 
  seq: 963521
  stamp: 
    secs: 1561865006
    nsecs:  89673156
  frame_id: "ti_mmwave"
point_id: 8
x: 1.62109375
y: 0.154296875
z: -0.15234375
range: 1.74307882786
velocity: 0.0
doppler_bin: 8
bearing: 5.43707418442
intensity: 27.3078231812
---
header: 
  seq: 963522
  stamp: 
    secs: 1561865006
    nsecs:  89689605
  frame_id: "ti_mmwave"
point_id: 9
x: 2.609375
y: -0.17578125
z: 1.060546875
range: 3.00681090355
velocity: 0.0
doppler_bin: 8
bearing: -3.85392260551
intensity: 28.9762706757
---
header: 
  seq: 963523
  stamp: 
    secs: 1561865006
    nsecs:  89702506
  frame_id: "ti_mmwave"
point_id: 10
x: 2.689453125
y: -0.08984375
z: 0.98046875
range: 3.05038785934
velocity: 0.0
doppler_bin: 8
bearing: -1.91330885887
intensity: 32.1537322998
---
header: 
  seq: 963524
  stamp: 
    secs: 1561865006
    nsecs:  89714573
  frame_id: "ti_mmwave"
point_id: 11
x: 2.75390625
y: -0.08984375
z: 0.919921875
range: 3.09396481514
velocity: 0.0
doppler_bin: 8
bearing: -1.86856126785
intensity: 31.119342804
---
header: 
  seq: 963525
  stamp: 
    secs: 1561865006
    nsecs:  89727864
  frame_id: "ti_mmwave"
point_id: 12
x: 4.40625
y: -0.142578125
z: 1.087890625
range: 4.83704376221
velocity: 0.0
doppler_bin: 8
bearing: -1.85333895683
intensity: 27.8318862915
---
header: 
  seq: 963526
  stamp: 
    secs: 1561865006
    nsecs:  89742432
  frame_id: "ti_mmwave"
point_id: 13
x: 4.41796875
y: -0.142578125
z: 1.20703125
range: 4.88062095642
velocity: 0.0
doppler_bin: 8
bearing: -1.84842634201
intensity: 31.3417701721
---
header: 
  seq: 963527
  stamp: 
    secs: 1561865006
    nsecs:  89864916
  frame_id: "ti_mmwave"
point_id: 14
x: 4.447265625
y: -0.14453125
z: 1.25390625
range: 4.9241976738
velocity: 0.0
doppler_bin: 8
bearing: -1.86139500141
intensity: 30.9482040405
---
header: 
  seq: 963528
  stamp: 
    secs: 1561865006
    nsecs:  89887647
  frame_id: "ti_mmwave"
point_id: 15
x: 4.7109375
y: -0.296875
z: -0.484375
range: 5.0549287796
velocity: 0.0
doppler_bin: 8
bearing: -3.60591077805
intensity: 29.1009063721
---
header: 
  seq: 963529
  stamp: 
    secs: 1561865006
    nsecs:  89901209
  frame_id: "ti_mmwave"
point_id: 16
x: 4.7421875
y: -0.298828125
z: -0.57421875
range: 5.09850549698
velocity: 0.0
doppler_bin: 8
bearing: -3.60571622849
intensity: 33.7584648132
---
header: 
  seq: 963530
  stamp: 
    secs: 1561865006
    nsecs:  89930036
  frame_id: "ti_mmwave"
point_id: 17
x: 4.78125
y: -0.30078125
z: -0.587890625
range: 5.14208269119
velocity: 0.0
doppler_bin: 8
bearing: -3.59964799881
intensity: 34.3584442139
---
header: 
  seq: 963531
  stamp: 
    secs: 1561865006
    nsecs:  89967199
  frame_id: "ti_mmwave"
point_id: 18
x: 4.802734375
y: -0.15234375
z: -0.78515625
range: 5.18565940857
velocity: 0.0
doppler_bin: 8
bearing: -1.81682503223
intensity: 30.696680069
---
header: 
  seq: 963532
  stamp: 
    secs: 1561865006
    nsecs:  90017778
  frame_id: "ti_mmwave"
point_id: 19
x: 4.87890625
y: -0.30859375
z: 0.76953125
range: 5.27281332016
velocity: 0.0
doppler_bin: 8
bearing: -3.61917114258
intensity: 31.427022934
---
header: 
  seq: 963533
  stamp: 
    secs: 1561865006
    nsecs:  90034158
  frame_id: "ti_mmwave"
point_id: 20
x: 4.94921875
y: -0.623046875
z: 0.140625
range: 5.31639051437
velocity: 0.0
doppler_bin: 8
bearing: -7.17510271072
intensity: 30.2036132812
---
header: 
  seq: 963534
  stamp: 
    secs: 1561865006
    nsecs:  90047485
  frame_id: "ti_mmwave"
point_id: 21
x: 1.546875
y: 0.146484375
z: 0.03125
range: 1.65592491627
velocity: 0.614668667316
doppler_bin: 9
bearing: 5.40960502625
intensity: 28.6213130951
---
header: 
  seq: 963535
  stamp: 
    secs: 1561865006
    nsecs:  90062864
  frame_id: "ti_mmwave"
point_id: 22
x: 1.587890625
y: 0.150390625
z: 0.0078125
range: 1.69950187206
velocity: 0.614668667316
doppler_bin: 9
bearing: 5.41039848328
intensity: 29.6614170074
---
header: 
  seq: 963536
  stamp: 
    secs: 1561865006
    nsecs:  90076379
  frame_id: "ti_mmwave"
point_id: 23
x: 1.416015625
y: 0.3671875
z: -0.16015625
range: 1.56877088547
velocity: 1.22933733463
doppler_bin: 10
bearing: 14.537197113
intensity: 21.2385158539
---
header: 
  seq: 963537
  stamp: 
    secs: 1561865006
    nsecs:  90085610
  frame_id: "ti_mmwave"
point_id: 24
x: 0.009765625
y: 0.03125
z: 0.025390625
range: 0.0435769706964
velocity: 0.0
doppler_bin: 8
bearing: 72.6459732056
intensity: 29.31457901
---
header: 
  seq: 963538
  stamp: 
    secs: 1561865006
    nsecs:  90146912
  frame_id: "ti_mmwave"
point_id: 25
x: 0.041015625
y: -0.033203125
z: 0.0625
range: 0.0871539413929
velocity: 0.0
doppler_bin: 8
bearing: -38.9909973145
intensity: 30.0774784088
---
header: 
  seq: 963539
  stamp: 
    secs: 1561865006
    nsecs:  90161352
  frame_id: "ti_mmwave"
point_id: 26
x: 0.044921875
y: -0.046875
z: 0.103515625
range: 0.130730912089
velocity: 0.0
doppler_bin: 8
bearing: -46.218875885
intensity: 28.9652614594
---
header: 
  seq: 963540
  stamp: 
    secs: 1561865006
    nsecs: 147730908
  frame_id: "ti_mmwave"
point_id: 0
x: 0.01171875
y: -0.0390625
z: -0.0078125
range: 0.0435769706964
velocity: 0.0
doppler_bin: 8
bearing: -73.3007583618
intensity: 30.6595306396
---
header: 
  seq: 963541
  stamp: 
    secs: 1561865006
    nsecs: 147828734
  frame_id: "ti_mmwave"
point_id: 1
x: 0.017578125
y: -0.080078125
z: -0.0078125
range: 0.0871539413929
velocity: 0.0
doppler_bin: 8
bearing: -77.6192398071
intensity: 31.9061183929
---
header: 
  seq: 963542
  stamp: 
    secs: 1561865006
    nsecs: 147845834
  frame_id: "ti_mmwave"
point_id: 2
x: 0.029296875
y: -0.119140625
z: -0.005859375
range: 0.130730912089
velocity: 0.0
doppler_bin: 8
bearing: -76.1849746704
intensity: 30.1535968781
---
header: 
  seq: 963543
  stamp: 
    secs: 1561865006
    nsecs: 147859792
  frame_id: "ti_mmwave"
point_id: 3
x: 0.056640625
y: -0.154296875
z: 0.005859375
range: 0.174307882786
velocity: 0.0
doppler_bin: 8
bearing: -69.8423843384
intensity: 25.4406795502
---
header: 
  seq: 963544
  stamp: 
    secs: 1561865006
    nsecs: 147873762
  frame_id: "ti_mmwave"
point_id: 4
x: 0.15625
y: -0.080078125
z: 1.255859375
range: 1.35088610649
velocity: 0.0
doppler_bin: 8
bearing: -27.1351394653
intensity: 23.1175384521
---
header: 
  seq: 963545
  stamp: 
    secs: 1561865006
    nsecs: 147900885
  frame_id: "ti_mmwave"
point_id: 5
x: 0.041015625
y: -0.08203125
z: 1.306640625
range: 1.39446306229
velocity: 0.0
doppler_bin: 8
bearing: -63.4349517822
intensity: 24.7129173279
---
header: 
  seq: 963546
  stamp: 
    secs: 1561865006
    nsecs: 148038506
  frame_id: "ti_mmwave"
point_id: 6
x: 0.630859375
y: -0.04296875
z: -1.193359375
range: 1.43804001808
velocity: 0.0
doppler_bin: 8
bearing: -3.89648079872
intensity: 23.4635295868
---
header: 
  seq: 963547
  stamp: 
    secs: 1561865006
    nsecs: 148056026
  frame_id: "ti_mmwave"
point_id: 7
x: 0.76171875
y: -0.04296875
z: -1.1640625
range: 1.48161697388
velocity: 0.0
doppler_bin: 8
bearing: -3.22864794731
intensity: 22.3044891357
---
header: 
  seq: 963548
  stamp: 
    secs: 1561865006
    nsecs: 148071006
  frame_id: "ti_mmwave"
point_id: 8
x: 2.619140625
y: -0.17578125
z: 1.0390625
range: 3.00681090355
velocity: 0.0
doppler_bin: 8
bearing: -3.83959650993
intensity: 29.0794849396
---
header: 
  seq: 963549
  stamp: 
    secs: 1561865006
    nsecs: 148083698
  frame_id: "ti_mmwave"
point_id: 9
x: 2.689453125
y: -0.08984375
z: 0.978515625
range: 3.05038785934
velocity: 0.0
doppler_bin: 8
bearing: -1.91330885887
intensity: 32.1906051636
---
header: 
  seq: 963550
  stamp: 
    secs: 1561865006
    nsecs: 148097069
  frame_id: "ti_mmwave"
point_id: 10
x: 2.751953125
y: -0.08984375
z: 0.921875
range: 3.09396481514
velocity: 0.0
doppler_bin: 8
bearing: -1.86988639832
intensity: 31.1294002533
---
header: 
  seq: 963551
  stamp: 
    secs: 1561865006
    nsecs: 148109884
  frame_id: "ti_mmwave"
point_id: 11
x: 4.41015625
y: -0.142578125
z: 1.068359375
range: 4.83704376221
velocity: 0.0
doppler_bin: 8
bearing: -1.85169863701
intensity: 28.034570694
---
header: 
  seq: 963552
  stamp: 
    secs: 1561865006
    nsecs: 148122800
  frame_id: "ti_mmwave"
point_id: 12
x: 4.41796875
y: -0.142578125
z: 1.203125
range: 4.88062095642
velocity: 0.0
doppler_bin: 8
bearing: -1.84842634201
intensity: 31.4674797058
---
header: 
  seq: 963553
  stamp: 
    secs: 1561865006
    nsecs: 148135414
  frame_id: "ti_mmwave"
point_id: 13
x: 4.443359375
y: -0.14453125
z: 1.263671875
range: 4.9241976738
velocity: 0.0
doppler_bin: 8
bearing: -1.86303019524
intensity: 30.9898967743
---
header: 
  seq: 963554
  stamp: 
    secs: 1561865006
    nsecs: 148150604
  frame_id: "ti_mmwave"
point_id: 14
x: 4.74609375
y: -0.298828125
z: -0.5390625
range: 5.09850549698
velocity: 0.0
doppler_bin: 8
bearing: -3.60275626183
intensity: 32.5671768188
---
header: 
  seq: 963555
  stamp: 
    secs: 1561865006
    nsecs: 148162459
  frame_id: "ti_mmwave"
point_id: 15
x: 4.77734375
y: -0.30078125
z: -0.6171875
range: 5.14208269119
velocity: 0.0
doppler_bin: 8
bearing: -3.60258316994
intensity: 33.003780365
---
header: 
  seq: 963556
  stamp: 
    secs: 1561865006
    nsecs: 148179914
  frame_id: "ti_mmwave"
point_id: 16
x: 4.8828125
y: -0.30859375
z: 0.74609375
range: 5.27281332016
velocity: 0.0
doppler_bin: 8
bearing: -3.61628341675
intensity: 30.9236965179
---
header: 
  seq: 963557
  stamp: 
    secs: 1561865006
    nsecs: 148245052
  frame_id: "ti_mmwave"
point_id: 17
x: 4.94921875
y: -0.623046875
z: 0.14453125
range: 5.31639051437
velocity: 0.0
doppler_bin: 8
bearing: -7.17510271072
intensity: 29.7680835724
---
header: 
  seq: 963558
  stamp: 
    secs: 1561865006
    nsecs: 148260829
  frame_id: "ti_mmwave"
point_id: 18
x: 1.431640625
y: 0.322265625
z: -0.12890625
range: 1.56877088547
velocity: 1.22933733463
doppler_bin: 10
bearing: 12.685962677
intensity: 22.7415790558
---
header: 
  seq: 963559
  stamp: 
    secs: 1561865006
    nsecs: 148274264
  frame_id: "ti_mmwave"
point_id: 19
x: 1.470703125
y: 0.33203125
z: -0.142578125
range: 1.61234796047
velocity: 1.22933733463
doppler_bin: 10
bearing: 12.7220201492
intensity: 26.4640369415
---
header: 
  seq: 963560
  stamp: 
    secs: 1561865006
    nsecs: 148287073
  frame_id: "ti_mmwave"
point_id: 20
x: 1.509765625
y: 0.33984375
z: -0.138671875
range: 1.65592491627
velocity: 1.22933733463
doppler_bin: 10
bearing: 12.6856746674
intensity: 26.3447723389
---
header: 
  seq: 963561
  stamp: 
    secs: 1561865006
    nsecs: 148300334
  frame_id: "ti_mmwave"
point_id: 21
x: 0.009765625
y: 0.03125
z: 0.025390625
range: 0.0435769706964
velocity: 0.0
doppler_bin: 8
bearing: 72.6459732056
intensity: 29.31457901
---
header: 
  seq: 963562
  stamp: 
    secs: 1561865006
    nsecs: 148314784
  frame_id: "ti_mmwave"
point_id: 22
x: 0.041015625
y: -0.033203125
z: 0.0625
range: 0.0871539413929
velocity: 0.0
doppler_bin: 8
bearing: -38.9909973145
intensity: 30.0860023499
---
header: 
  seq: 963563
  stamp: 
    secs: 1561865006
    nsecs: 148327922
  frame_id: "ti_mmwave"
point_id: 23
x: 0.044921875
y: -0.046875
z: 0.103515625
range: 0.130730912089
velocity: 0.0
doppler_bin: 8
bearing: -46.218875885
intensity: 28.9707698822
---
header: 
  seq: 963564
  stamp: 
    secs: 1561865006
    nsecs: 149220312
  frame_id: "ti_mmwave"
point_id: 0
x: 0.01171875
y: -0.0390625
z: -0.0078125
range: 0.0435769706964
velocity: 0.0
doppler_bin: 8
bearing: -73.3007583618
intensity: 30.6595306396
---
header: 
  seq: 963565
  stamp: 
    secs: 1561865006
    nsecs: 149275608
  frame_id: "ti_mmwave"
point_id: 1
x: 0.017578125
y: -0.080078125
z: -0.0078125
range: 0.0871539413929
velocity: 0.0
doppler_bin: 8
bearing: -77.6192398071
intensity: 31.9061183929
---
header: 
  seq: 963566
  stamp: 
    secs: 1561865006
    nsecs: 149291907
  frame_id: "ti_mmwave"
point_id: 2
x: 0.029296875
y: -0.119140625
z: -0.005859375
range: 0.130730912089
velocity: 0.0
doppler_bin: 8
bearing: -76.1849746704
intensity: 30.1494026184
---
header: 
  seq: 963567
  stamp: 
    secs: 1561865006
    nsecs: 149305854
  frame_id: "ti_mmwave"
point_id: 3
x: 0.056640625
y: -0.154296875
z: 0.005859375
range: 0.174307882786
velocity: 0.0
doppler_bin: 8
bearing: -69.8423843384
intensity: 25.4406795502
---
header: 
  seq: 963568
  stamp: 
    secs: 1561865006
    nsecs: 149326033
  frame_id: "ti_mmwave"
point_id: 4
x: 0.125
y: -0.080078125
z: 1.259765625
range: 1.35088610649
velocity: 0.0
doppler_bin: 8
bearing: -32.6446380615
intensity: 23.0535144806
---
header: 
  seq: 963569
  stamp: 
    secs: 1561865006
    nsecs: 149444708
  frame_id: "ti_mmwave"
point_id: 5
x: 0.12890625
y: -0.08203125
z: -1.30078125
range: 1.39446306229
velocity: 0.0
doppler_bin: 8
bearing: -32.4711914062
intensity: 24.5788192749
---
header: 
  seq: 963570
  stamp: 
    secs: 1561865006
    nsecs: 149466133
  frame_id: "ti_mmwave"
point_id: 6
x: 0.654296875
y: -0.04296875
z: -1.1796875
range: 1.43804001808
velocity: 0.0
doppler_bin: 8
bearing: -3.75731277466
intensity: 22.9885311127
---
header: 
  seq: 963571
  stamp: 
    secs: 1561865006
    nsecs: 149474842
  frame_id: "ti_mmwave"
point_id: 7
x: 1.61328125
y: 0.154296875
z: -0.228515625
range: 1.74307882786
velocity: 0.0
doppler_bin: 8
bearing: 5.46324491501
intensity: 27.032913208
---
header: 
  seq: 963572
  stamp: 
    secs: 1561865006
    nsecs: 149483361
  frame_id: "ti_mmwave"
point_id: 8
x: 2.599609375
y: -0.17578125
z: 1.0859375
range: 3.00681090355
velocity: 0.0
doppler_bin: 8
bearing: -3.86835670471
intensity: 28.9762706757
---
header: 
  seq: 963573
  stamp: 
    secs: 1561865006
    nsecs: 149493062
  frame_id: "ti_mmwave"
point_id: 9
x: 2.6875
y: -0.08984375
z: 0.984375
range: 3.05038785934
velocity: 0.0
doppler_bin: 8
bearing: -1.91469812393
intensity: 32.1800994873
---
header: 
  seq: 963574
  stamp: 
    secs: 1561865006
    nsecs: 149501108
  frame_id: "ti_mmwave"
point_id: 10
x: 2.755859375
y: -0.08984375
z: 0.9140625
range: 3.09396481514
velocity: 0.0
doppler_bin: 8
bearing: -1.86723792553
intensity: 31.119342804
---
header: 
  seq: 963575
  stamp: 
    secs: 1561865006
    nsecs: 149510271
  frame_id: "ti_mmwave"
point_id: 11
x: 4.408203125
y: -0.142578125
z: 1.080078125
range: 4.83704376221
velocity: 0.0
doppler_bin: 8
bearing: -1.85251843929
intensity: 27.9865055084
---
header: 
  seq: 963576
  stamp: 
    secs: 1561865006
    nsecs: 149518651
  frame_id: "ti_mmwave"
point_id: 12
x: 4.416015625
y: -0.142578125
z: 1.208984375
range: 4.88062095642
velocity: 0.0
doppler_bin: 8
bearing: -1.84924340248
intensity: 31.2904510498
---
header: 
  seq: 963577
  stamp: 
    secs: 1561865006
    nsecs: 149540653
  frame_id: "ti_mmwave"
point_id: 13
x: 4.4453125
y: -0.14453125
z: 1.2578125
range: 4.9241976738
velocity: 0.0
doppler_bin: 8
bearing: -1.86221218109
intensity: 30.696680069
---
header: 
  seq: 963578
  stamp: 
    secs: 1561865006
    nsecs: 149548538
  frame_id: "ti_mmwave"
point_id: 14
x: 4.744140625
y: -0.298828125
z: -0.5546875
range: 5.09850549698
velocity: 0.0
doppler_bin: 8
bearing: -3.60423564911
intensity: 32.030330658
---
header: 
  seq: 963579
  stamp: 
    secs: 1561865006
    nsecs: 149611923
  frame_id: "ti_mmwave"
point_id: 15
x: 4.771484375
y: -0.30078125
z: -0.66796875
range: 5.14208269119
velocity: 0.0
doppler_bin: 8
bearing: -3.60699558258
intensity: 32.5041999817
---
header: 
  seq: 963580
  stamp: 
    secs: 1561865006
    nsecs: 149626990
  frame_id: "ti_mmwave"
point_id: 16
x: 4.890625
y: -0.30859375
z: 0.69140625
range: 5.27281332016
velocity: 0.0
doppler_bin: 8
bearing: -3.61052203178
intensity: 30.4139270782
---
header: 
  seq: 963581
  stamp: 
    secs: 1561865006
    nsecs: 149640405
  frame_id: "ti_mmwave"
point_id: 17
x: 1.501953125
y: 0.189453125
z: -0.025390625
range: 1.61234796047
velocity: 0.614668667316
doppler_bin: 9
bearing: 7.18919754028
intensity: 27.201593399
---
header: 
  seq: 963582
  stamp: 
    secs: 1561865006
    nsecs: 149654375
  frame_id: "ti_mmwave"
point_id: 18
x: 1.54296875
y: 0.193359375
z: 0.00390625
range: 1.65592491627
velocity: 0.614668667316
doppler_bin: 9
bearing: 7.14286851883
intensity: 28.9927310944
---
header: 
  seq: 963583
  stamp: 
    secs: 1561865006
    nsecs: 149666967
  frame_id: "ti_mmwave"
point_id: 19
x: 1.58203125
y: 0.19921875
z: 0.0
range: 1.69950187206
velocity: 0.614668667316
doppler_bin: 9
bearing: 7.17724561691
intensity: 28.4818916321
---
header: 
  seq: 963584
  stamp: 
    secs: 1561865006
    nsecs: 149675383
  frame_id: "ti_mmwave"
point_id: 20
x: 0.009765625
y: 0.03125
z: 0.025390625
range: 0.0435769706964
velocity: 0.0
doppler_bin: 8
bearing: 72.6459732056
intensity: 29.31457901
---
header: 
  seq: 963585
  stamp: 
    secs: 1561865006
    nsecs: 149683162
  frame_id: "ti_mmwave"
point_id: 21
x: 0.041015625
y: -0.033203125
z: 0.0625
range: 0.0871539413929
velocity: 0.0
doppler_bin: 8
bearing: -38.9909973145
intensity: 30.0902576447
---
header: 
  seq: 963586
  stamp: 
    secs: 1561865006
    nsecs: 149693806
  frame_id: "ti_mmwave"
point_id: 22
x: 0.044921875
y: -0.046875
z: 0.103515625
range: 0.130730912089
velocity: 0.0
doppler_bin: 8
bearing: -46.218875885
intensity: 28.9707698822
---
header: 
  seq: 963587
  stamp: 
    secs: 1561865006
    nsecs: 207699952
  frame_id: "ti_mmwave"
point_id: 0
x: 0.01171875
y: -0.0390625
z: -0.0078125
range: 0.0435769706964
velocity: 0.0
doppler_bin: 8
bearing: -73.3007583618
intensity: 30.6557979584
---
header: 
  seq: 963588
  stamp: 
    secs: 1561865006
    nsecs: 207806247
  frame_id: "ti_mmwave"
point_id: 1
x: 0.017578125
y: -0.080078125
z: -0.0078125
range: 0.0871539413929
velocity: 0.0
doppler_bin: 8
bearing: -77.6192398071
intensity: 31.9061183929
---
header: 
  seq: 963589
  stamp: 
    secs: 1561865006
    nsecs: 207817847
  frame_id: "ti_mmwave"
point_id: 2
x: 0.029296875
y: -0.119140625
z: -0.005859375
range: 0.130730912089
velocity: 0.0
doppler_bin: 8
bearing: -76.1849746704
intensity: 30.1535968781
---
header: 
  seq: 963590
  stamp: 
    secs: 1561865006
    nsecs: 207826579
  frame_id: "ti_mmwave"
point_id: 3
x: 0.056640625
y: -0.154296875
z: 0.005859375
range: 0.174307882786
velocity: 0.0
doppler_bin: 8
bearing: -69.8423843384
intensity: 25.4530715942
---
header: 
  seq: 963591
  stamp: 
    secs: 1561865006
    nsecs: 207837193
  frame_id: "ti_mmwave"
point_id: 4
x: 0.134765625
y: -0.080078125
z: 1.2578125
range: 1.35088610649
velocity: 0.0
doppler_bin: 8
bearing: -30.7189025879
intensity: 23.138671875
---
header: 
  seq: 963592
  stamp: 
    secs: 1561865006
    nsecs: 207845377
  frame_id: "ti_mmwave"
point_id: 5
x: 0.021484375
y: -0.08203125
z: 1.306640625
range: 1.39446306229
velocity: 0.0
doppler_bin: 8
bearing: -75.3236083984
intensity: 24.6089782715
---
header: 
  seq: 963593
  stamp: 
    secs: 1561865006
    nsecs: 207854026
  frame_id: "ti_mmwave"
point_id: 6
x: 0.240234375
y: -0.083984375
z: -1.326171875
range: 1.43804001808
velocity: 0.0
doppler_bin: 8
bearing: -19.2692947388
intensity: 22.9885311127
---
header: 
  seq: 963594
  stamp: 
    secs: 1561865006
    nsecs: 207864386
  frame_id: "ti_mmwave"
point_id: 7
x: 0.357421875
y: -0.087890625
z: 1.341796875
range: 1.48161697388
velocity: 0.0
doppler_bin: 8
bearing: -13.8150253296
intensity: 21.5228843689
---
header: 
  seq: 963595
  stamp: 
    secs: 1561865006
    nsecs: 207935305
  frame_id: "ti_mmwave"
point_id: 8
x: 1.5078125
y: 0.150390625
z: -0.501953125
range: 1.69950187206
velocity: 0.0
doppler_bin: 8
bearing: 5.69589614868
intensity: 27.9169063568
---
header: 
  seq: 963596
  stamp: 
    secs: 1561865006
    nsecs: 207993590
  frame_id: "ti_mmwave"
point_id: 9
x: 1.556640625
y: 0.205078125
z: -0.458984375
range: 1.74307882786
velocity: 0.0
doppler_bin: 8
bearing: 7.50515508652
intensity: 26.981004715
---
header: 
  seq: 963597
  stamp: 
    secs: 1561865006
    nsecs: 208008680
  frame_id: "ti_mmwave"
point_id: 10
x: 2.6015625
y: -0.17578125
z: 1.078125
range: 3.00681090355
velocity: 0.0
doppler_bin: 8
bearing: -3.86546111107
intensity: 28.9486961365
---
header: 
  seq: 963598
  stamp: 
    secs: 1561865006
    nsecs: 208021371
  frame_id: "ti_mmwave"
point_id: 11
x: 2.689453125
y: -0.08984375
z: 0.98046875
range: 3.05038785934
velocity: 0.0
doppler_bin: 8
bearing: -1.91330885887
intensity: 32.1984634399
---
header: 
  seq: 963599
  stamp: 
    secs: 1561865006
    nsecs: 208031482
  frame_id: "ti_mmwave"
point_id: 12
x: 2.75390625
y: -0.08984375
z: 0.91796875
range: 3.09396481514
velocity: 0.0
doppler_bin: 8
bearing: -1.86856126785
intensity: 31.176027298
---
header: 
  seq: 963600
  stamp: 
    secs: 1561865006
    nsecs: 208042651
  frame_id: "ti_mmwave"
point_id: 13
x: 4.4140625
y: -0.142578125
z: 1.21484375
range: 4.88062095642
velocity: 0.0
doppler_bin: 8
bearing: -1.850061059
intensity: 31.1058979034
---
header: 
  seq: 963601
  stamp: 
    secs: 1561865006
    nsecs: 208052761
  frame_id: "ti_mmwave"
point_id: 14
x: 4.44140625
y: -0.14453125
z: 1.271484375
range: 4.9241976738
velocity: 0.0
doppler_bin: 8
bearing: -1.86384868622
intensity: 30.3981056213
---
header: 
  seq: 963602
  stamp: 
    secs: 1561865006
    nsecs: 208062764
  frame_id: "ti_mmwave"
point_id: 15
x: 4.740234375
y: -0.298828125
z: -0.595703125
range: 5.09850549698
velocity: 0.0
doppler_bin: 8
bearing: -3.60719799995
intensity: 31.8127174377
---
header: 
  seq: 963603
  stamp: 
    secs: 1561865006
    nsecs: 208073094
  frame_id: "ti_mmwave"
point_id: 16
x: 4.765625
y: -0.150390625
z: -0.755859375
range: 5.14208269119
velocity: 0.0
doppler_bin: 8
bearing: -1.80750477314
intensity: 32.2608413696
---
header: 
  seq: 963604
  stamp: 
    secs: 1561865006
    nsecs: 208084776
  frame_id: "ti_mmwave"
point_id: 17
x: 4.8828125
y: -0.46484375
z: 0.666015625
range: 5.27281332016
velocity: 0.0
doppler_bin: 8
bearing: -5.43816900253
intensity: 30.3221569061
---
header: 
  seq: 963605
  stamp: 
    secs: 1561865006
    nsecs: 208095188
  frame_id: "ti_mmwave"
point_id: 18
x: 4.951171875
y: -0.623046875
z: -0.005859375
range: 5.31639051437
velocity: 0.0
doppler_bin: 8
bearing: -7.17230129242
intensity: 29.1855449677
---
header: 
  seq: 963606
  stamp: 
    secs: 1561865006
    nsecs: 208106742
  frame_id: "ti_mmwave"
point_id: 19
x: 0.009765625
y: 0.03125
z: 0.025390625
range: 0.0435769706964
velocity: 0.0
doppler_bin: 8
bearing: 72.6459732056
intensity: 29.3196620941
---
header: 
  seq: 963607
  stamp: 
    secs: 1561865006
    nsecs: 208121503
  frame_id: "ti_mmwave"
point_id: 20
x: 0.041015625
y: -0.033203125
z: 0.0625
range: 0.0871539413929
velocity: 0.0
doppler_bin: 8
bearing: -38.9909973145
intensity: 30.0902576447
---
header: 
  seq: 963608
  stamp: 
    secs: 1561865006
    nsecs: 208133242
  frame_id: "ti_mmwave"
point_id: 21
x: 0.044921875
y: -0.046875
z: 0.103515625
range: 0.130730912089
velocity: 0.0
doppler_bin: 8
bearing: -46.218875885
intensity: 28.9707698822
---
header: 
  seq: 963609
  stamp: 
    secs: 1561865006
    nsecs: 208201735
  frame_id: "ti_mmwave"
point_id: 23
x: 4.75390625
y: -0.453125
z: -0.703125
range: 5.14208269119
velocity: 0.0
doppler_bin: 8
bearing: -5.44477558136
intensity: 32.2582588196
---
header: 
  seq: 963610
  stamp: 
    secs: 1561865006
    nsecs: 209504605
  frame_id: "ti_mmwave"
point_id: 0
x: 0.01171875
y: -0.0390625
z: -0.0078125
range: 0.0435769706964
velocity: 0.0
doppler_bin: 8
bearing: -73.3007583618
intensity: 30.6557979584
---
header: 
  seq: 963611
  stamp: 
    secs: 1561865006
    nsecs: 209571655
  frame_id: "ti_mmwave"
point_id: 1
x: 0.017578125
y: -0.080078125
z: -0.0078125
range: 0.0871539413929
velocity: 0.0
doppler_bin: 8
bearing: -77.6192398071
intensity: 31.9089164734
---
header: 
  seq: 963612
  stamp: 
    secs: 1561865006
    nsecs: 209584264
  frame_id: "ti_mmwave"
point_id: 2
x: 0.029296875
y: -0.119140625
z: -0.005859375
range: 0.130730912089
velocity: 0.0
doppler_bin: 8
bearing: -76.1849746704
intensity: 30.157787323
---
header: 
  seq: 963613
  stamp: 
    secs: 1561865006
    nsecs: 209593512
  frame_id: "ti_mmwave"
point_id: 3
x: 0.056640625
y: -0.154296875
z: 0.005859375
range: 0.174307882786
velocity: 0.0
doppler_bin: 8
bearing: -69.8423843384
intensity: 25.4530715942
---
header: 
  seq: 963614
  stamp: 
    secs: 1561865006
    nsecs: 209602128
  frame_id: "ti_mmwave"
point_id: 4
x: 0.107421875
y: -0.080078125
z: 1.26171875
range: 1.35088610649
velocity: 0.0
doppler_bin: 8
bearing: -36.7028541565
intensity: 23.138671875
---
header: 
  seq: 963615
  stamp: 
    secs: 1561865006
    nsecs: 209670756
  frame_id: "ti_mmwave"
point_id: 5
x: 0.01171875
y: -0.08203125
z: 1.306640625
range: 1.39446306229
velocity: 0.0
doppler_bin: 8
bearing: -81.8698959351
intensity: 24.5939254761
---
header: 
  seq: 963616
  stamp: 
    secs: 1561865006
    nsecs: 209681292
  frame_id: "ti_mmwave"
point_id: 6
x: 0.47265625
y: -0.04296875
z: -1.263671875
range: 1.43804001808
velocity: 0.0
doppler_bin: 8
bearing: -5.19442892075
intensity: 23.0535144806
---
header: 
  seq: 963617
  stamp: 
    secs: 1561865006
    nsecs: 209691344
  frame_id: "ti_mmwave"
point_id: 7
x: 0.8359375
y: -0.0
z: -1.111328125
range: 1.48161697388
velocity: 0.0
doppler_bin: 8
bearing: -0.0
intensity: 22.5767860413
---
header: 
  seq: 963618
  stamp: 
    secs: 1561865006
    nsecs: 209703651
  frame_id: "ti_mmwave"
point_id: 8
x: 1.5234375
y: 0.2421875
z: -0.19921875
range: 1.65592491627
velocity: 0.0
doppler_bin: 8
bearing: 9.03296947479
intensity: 26.5127792358
---
header: 
  seq: 963619
  stamp: 
    secs: 1561865006
    nsecs: 209722210
  frame_id: "ti_mmwave"
point_id: 9
x: 1.572265625
y: 0.19921875
z: -0.189453125
range: 1.69950187206
velocity: 0.0
doppler_bin: 8
bearing: 7.22135591507
intensity: 28.6093654633
---
header: 
  seq: 963620
  stamp: 
    secs: 1561865006
    nsecs: 209760926
  frame_id: "ti_mmwave"
point_id: 10
x: 1.626953125
y: 0.1015625
z: -0.138671875
range: 1.74307882786
velocity: 0.0
doppler_bin: 8
bearing: 3.57205200195
intensity: 29.2220630646
---
header: 
  seq: 963621
  stamp: 
    secs: 1561865006
    nsecs: 209774121
  frame_id: "ti_mmwave"
point_id: 11
x: 1.671875
y: 0.10546875
z: -0.060546875
range: 1.78665578365
velocity: 0.0
doppler_bin: 8
bearing: 3.60966992378
intensity: 27.6267852783
---
header: 
  seq: 963622
  stamp: 
    secs: 1561865006
    nsecs: 209784727
  frame_id: "ti_mmwave"
point_id: 12
x: 2.58984375
y: -0.17578125
z: 1.107421875
range: 3.00681090355
velocity: 0.0
doppler_bin: 8
bearing: -3.88289904594
intensity: 28.9872512817
---
header: 
  seq: 963623
  stamp: 
    secs: 1561865006
    nsecs: 209795030
  frame_id: "ti_mmwave"
point_id: 13
x: 2.685546875
y: -0.08984375
z: 0.990234375
range: 3.05038785934
velocity: 0.0
doppler_bin: 8
bearing: -1.91608965397
intensity: 32.1774711609
---
header: 
  seq: 963624
  stamp: 
    secs: 1561865006
    nsecs: 209805580
  frame_id: "ti_mmwave"
point_id: 14
x: 2.7578125
y: -0.08984375
z: 0.908203125
range: 3.09396481514
velocity: 0.0
doppler_bin: 8
bearing: -1.86591637135
intensity: 31.1494445801
---
header: 
  seq: 963625
  stamp: 
    secs: 1561865006
    nsecs: 209816224
  frame_id: "ti_mmwave"
point_id: 15
x: 4.421875
y: -0.142578125
z: 1.19140625
range: 4.88062095642
velocity: 0.0
doppler_bin: 8
bearing: -1.84679484367
intensity: 31.0822658539
---
header: 
  seq: 963626
  stamp: 
    secs: 1561865006
    nsecs: 209829143
  frame_id: "ti_mmwave"
point_id: 16
x: 4.451171875
y: -0.14453125
z: 1.236328125
range: 4.9241976738
velocity: 0.0
doppler_bin: 8
bearing: -1.8597625494
intensity: 30.3782482147
---
header: 
  seq: 963627
  stamp: 
    secs: 1561865006
    nsecs: 209841787
  frame_id: "ti_mmwave"
point_id: 17
x: 4.7265625
y: -0.44921875
z: -0.60546875
range: 5.09850549698
velocity: 0.0
doppler_bin: 8
bearing: -5.42915868759
intensity: 30.934217453
---
header: 
  seq: 963628
  stamp: 
    secs: 1561865006
    nsecs: 209853435
  frame_id: "ti_mmwave"
point_id: 18
x: 4.751953125
y: -0.30078125
z: -0.7890625
range: 5.14208269119
velocity: 0.0
doppler_bin: 8
bearing: -3.6217815876
intensity: 31.5685195923
---
header: 
  seq: 963629
  stamp: 
    secs: 1561865006
    nsecs: 209868387
  frame_id: "ti_mmwave"
point_id: 19
x: 4.88671875
y: -0.30859375
z: 0.720703125
range: 5.27281332016
velocity: 0.0
doppler_bin: 8
bearing: -3.61340069771
intensity: 30.546131134
---
header: 
  seq: 963630
  stamp: 
    secs: 1561865006
    nsecs: 209912735
  frame_id: "ti_mmwave"
point_id: 20
x: 4.9296875
y: -0.779296875
z: -0.03125
range: 5.31639051437
velocity: 0.0
doppler_bin: 8
bearing: -8.98311805725
intensity: 29.3751792908
---
header: 
  seq: 963631
  stamp: 
    secs: 1561865006
    nsecs: 209927579
  frame_id: "ti_mmwave"
point_id: 21
x: 0.009765625
y: 0.03125
z: 0.025390625
range: 0.0435769706964
velocity: 0.0
doppler_bin: 8
bearing: 72.6459732056
intensity: 29.31457901
---
header: 
  seq: 963632
  stamp: 
    secs: 1561865006
    nsecs: 209940459
  frame_id: "ti_mmwave"
point_id: 22
x: 0.041015625
y: -0.033203125
z: 0.0625
range: 0.0871539413929
velocity: 0.0
doppler_bin: 8
bearing: -38.9909973145
intensity: 30.0902576447
---
header: 
  seq: 963633
  stamp: 
    secs: 1561865006
    nsecs: 209953890
  frame_id: "ti_mmwave"
point_id: 23
x: 0.044921875
y: -0.046875
z: 0.103515625
range: 0.130730912089
velocity: 0.0
doppler_bin: 8
bearing: -46.218875885
intensity: 28.9762706757
---
header: 
  seq: 963634
  stamp: 
    secs: 1561865006
    nsecs: 267702145
  frame_id: "ti_mmwave"
point_id: 0
x: 0.01171875
y: -0.0390625
z: -0.0078125
range: 0.0435769706964
velocity: 0.0
doppler_bin: 8
bearing: -73.3007583618
intensity: 30.6557979584
---
header: 
  seq: 963635
  stamp: 
    secs: 1561865006
    nsecs: 267781646
  frame_id: "ti_mmwave"
point_id: 1
x: 0.017578125
y: -0.080078125
z: -0.0078125
range: 0.0871539413929
velocity: 0.0
doppler_bin: 8
bearing: -77.6192398071
intensity: 31.9061183929
---
header: 
  seq: 963636
  stamp: 
    secs: 1561865006
    nsecs: 267799684
  frame_id: "ti_mmwave"
point_id: 2
x: 0.029296875
y: -0.119140625
z: -0.005859375
range: 0.130730912089
velocity: 0.0
doppler_bin: 8
bearing: -76.1849746704
intensity: 30.1535968781
---
header: 
  seq: 963637
  stamp: 
    secs: 1561865006
    nsecs: 267813824
  frame_id: "ti_mmwave"
point_id: 3
x: 0.056640625
y: -0.154296875
z: 0.005859375
range: 0.174307882786
velocity: 0.0
doppler_bin: 8
bearing: -69.8423843384
intensity: 25.4406795502
---
header: 
  seq: 963638
  stamp: 
    secs: 1561865006
    nsecs: 267829475
  frame_id: "ti_mmwave"
point_id: 4
x: 0.134765625
y: -0.080078125
z: 1.2578125
range: 1.35088610649
velocity: 0.0
doppler_bin: 8
bearing: -30.7189025879
intensity: 23.138671875
---
header: 
  seq: 963639
  stamp: 
    secs: 1561865006
    nsecs: 267844988
  frame_id: "ti_mmwave"
point_id: 6
x: 0.3671875
y: -0.083984375
z: -1.296875
range: 1.43804001808
velocity: 0.0
doppler_bin: 8
bearing: -12.8832769394
intensity: 22.9666519165
---
header: 
  seq: 963640
  stamp: 
    secs: 1561865006
    nsecs: 267857539
  frame_id: "ti_mmwave"
point_id: 7
x: 1.525390625
y: 0.193359375
z: -0.234375
range: 1.65592491627
velocity: 0.0
doppler_bin: 8
bearing: 7.22431516647
intensity: 26.7117290497
---
header: 
  seq: 963641
  stamp: 
    secs: 1561865006
    nsecs: 267866087
  frame_id: "ti_mmwave"
point_id: 8
x: 1.56640625
y: 0.150390625
z: -0.2578125
range: 1.69950187206
velocity: 0.0
doppler_bin: 8
bearing: 5.48415708542
intensity: 26.8304710388
---
header: 
  seq: 963642
  stamp: 
    secs: 1561865006
    nsecs: 267876340
  frame_id: "ti_mmwave"
point_id: 9
x: 1.6328125
y: 0.1015625
z: 0.037109375
range: 1.74307882786
velocity: 0.0
doppler_bin: 8
bearing: 3.55926680565
intensity: 27.2098579407
---
header: 
  seq: 963643
  stamp: 
    secs: 1561865006
    nsecs: 267884715
  frame_id: "ti_mmwave"
point_id: 10
x: 1.669921875
y: 0.052734375
z: 0.15234375
range: 1.78665578365
velocity: 0.0
doppler_bin: 8
bearing: 1.80873930454
intensity: 26.1909332275
---
header: 
  seq: 963644
  stamp: 
    secs: 1561865006
    nsecs: 267893882
  frame_id: "ti_mmwave"
point_id: 11
x: 2.654296875
y: -0.17578125
z: 0.943359375
range: 3.00681090355
velocity: 0.0
doppler_bin: 8
bearing: -3.78888988495
intensity: 29.0955600739
---
header: 
  seq: 963645
  stamp: 
    secs: 1561865006
    nsecs: 267904490
  frame_id: "ti_mmwave"
point_id: 12
x: 2.69921875
y: -0.08984375
z: 0.951171875
range: 3.05038785934
velocity: 0.0
doppler_bin: 8
bearing: -1.90639162064
intensity: 32.1984634399
---
header: 
  seq: 963646
  stamp: 
    secs: 1561865006
    nsecs: 267913136
  frame_id: "ti_mmwave"
point_id: 13
x: 2.755859375
y: -0.08984375
z: 0.9140625
range: 3.09396481514
velocity: 0.0
doppler_bin: 8
bearing: -1.86723792553
intensity: 31.119342804
---
header: 
  seq: 963647
  stamp: 
    secs: 1561865006
    nsecs: 268035441
  frame_id: "ti_mmwave"
point_id: 14
x: 4.416015625
y: -0.142578125
z: 1.212890625
range: 4.88062095642
velocity: 0.0
doppler_bin: 8
bearing: -1.84924340248
intensity: 31.1126251221
---
header: 
  seq: 963648
  stamp: 
    secs: 1561865006
    nsecs: 268046571
  frame_id: "ti_mmwave"
point_id: 15
x: 4.44140625
y: -0.14453125
z: 1.271484375
range: 4.9241976738
velocity: 0.0
doppler_bin: 8
bearing: -1.86384868622
intensity: 30.5037975311
---
header: 
  seq: 963649
  stamp: 
    secs: 1561865006
    nsecs: 268054696
  frame_id: "ti_mmwave"
point_id: 16
x: 4.720703125
y: -0.44921875
z: -0.6484375
range: 5.09850549698
velocity: 0.0
doppler_bin: 8
bearing: -5.43585729599
intensity: 30.0518054962
---
header: 
  seq: 963650
  stamp: 
    secs: 1561865006
    nsecs: 268063824
  frame_id: "ti_mmwave"
point_id: 17
x: 4.73828125
y: -0.30078125
z: -0.87109375
range: 5.14208269119
velocity: 0.0
doppler_bin: 8
bearing: -3.63220405579
intensity: 30.7298469543
---
header: 
  seq: 963651
  stamp: 
    secs: 1561865006
    nsecs: 268072787
  frame_id: "ti_mmwave"
point_id: 18
x: 4.88671875
y: -0.30859375
z: 0.7265625
range: 5.27281332016
velocity: 0.0
doppler_bin: 8
bearing: -3.61340069771
intensity: 30.7809410095
---
header: 
  seq: 963652
  stamp: 
    secs: 1561865006
    nsecs: 268085192
  frame_id: "ti_mmwave"
point_id: 19
x: 4.951171875
y: -0.623046875
z: 0.025390625
range: 5.31639051437
velocity: 0.0
doppler_bin: 8
bearing: -7.17230129242
intensity: 29.4299964905
---
header: 
  seq: 963653
  stamp: 
    secs: 1561865006
    nsecs: 268098703
  frame_id: "ti_mmwave"
point_id: 20
x: 0.009765625
y: 0.03125
z: 0.025390625
range: 0.0435769706964
velocity: 0.0
doppler_bin: 8
bearing: 72.6459732056
intensity: 29.3094902039
---
header: 
  seq: 963654
  stamp: 
    secs: 1561865006
    nsecs: 268109975
  frame_id: "ti_mmwave"
point_id: 21
x: 0.041015625
y: -0.033203125
z: 0.0625
range: 0.0871539413929
velocity: 0.0
doppler_bin: 8
bearing: -38.9909973145
intensity: 30.0902576447
---
header: 
  seq: 963655
  stamp: 
    secs: 1561865006
    nsecs: 268121975
  frame_id: "ti_mmwave"
point_id: 22
x: 0.044921875
y: -0.046875
z: 0.103515625
range: 0.130730912089
velocity: 0.0
doppler_bin: 8
bearing: -46.218875885
intensity: 28.9762706757
---
header: 
  seq: 963656
  stamp: 
    secs: 1561865006
    nsecs: 269332108
  frame_id: "ti_mmwave"
point_id: 0
x: 0.01171875
y: -0.0390625
z: -0.0078125
range: 0.0435769706964
velocity: 0.0
doppler_bin: 8
bearing: -73.3007583618
intensity: 30.6632595062
---
header: 
  seq: 963657
  stamp: 
    secs: 1561865006
    nsecs: 269453866
  frame_id: "ti_mmwave"
point_id: 1
x: 0.017578125
y: -0.080078125
z: -0.0078125
range: 0.0871539413929
velocity: 0.0
doppler_bin: 8
bearing: -77.6192398071
intensity: 31.9061183929
---
header: 
  seq: 963658
  stamp: 
    secs: 1561865006
    nsecs: 269473515
  frame_id: "ti_mmwave"
point_id: 2
x: 0.029296875
y: -0.119140625
z: -0.005859375
range: 0.130730912089
velocity: 0.0
doppler_bin: 8
bearing: -76.1849746704
intensity: 30.1494026184
---
header: 
  seq: 963659
  stamp: 
    secs: 1561865006
    nsecs: 269500017
  frame_id: "ti_mmwave"
point_id: 3
x: 0.056640625
y: -0.154296875
z: 0.005859375
range: 0.174307882786
velocity: 0.0
doppler_bin: 8
bearing: -69.8423843384
intensity: 25.4282550812
---
header: 
  seq: 963660
  stamp: 
    secs: 1561865006
    nsecs: 269548434
  frame_id: "ti_mmwave"
point_id: 4
x: 0.1328125
y: -0.080078125
z: 1.2578125
range: 1.35088610649
velocity: 0.0
doppler_bin: 8
bearing: -31.0875034332
intensity: 23.0749607086
---
header: 
  seq: 963661
  stamp: 
    secs: 1561865006
    nsecs: 269568475
  frame_id: "ti_mmwave"
point_id: 6
x: 0.53125
y: -0.083984375
z: -1.23828125
range: 1.43804001808
velocity: 0.0
doppler_bin: 8
bearing: -8.98344326019
intensity: 23.0535144806
---
header: 
  seq: 963662
  stamp: 
    secs: 1561865006
    nsecs: 269580763
  frame_id: "ti_mmwave"
point_id: 7
x: 0.70703125
y: -0.087890625
z: -1.1953125
range: 1.48161697388
velocity: 0.0
doppler_bin: 8
bearing: -7.08605289459
intensity: 21.3987903595
---
header: 
  seq: 963663
  stamp: 
    secs: 1561865006
    nsecs: 269591620
  frame_id: "ti_mmwave"
point_id: 8
x: 1.35546875
y: 0.267578125
z: -0.37109375
range: 1.52519392967
velocity: 0.0
doppler_bin: 8
bearing: 11.1669712067
intensity: 21.9312458038
---
header: 
  seq: 963664
  stamp: 
    secs: 1561865006
    nsecs: 269602100
  frame_id: "ti_mmwave"
point_id: 9
x: 1.626953125
y: 0.1015625
z: 0.13671875
range: 1.74307882786
velocity: 0.0
doppler_bin: 8
bearing: 3.57205200195
intensity: 27.2591171265
---
header: 
  seq: 963665
  stamp: 
    secs: 1561865006
    nsecs: 269614835
  frame_id: "ti_mmwave"
point_id: 10
x: 2.62890625
y: -0.17578125
z: 1.01171875
range: 3.00681090355
velocity: 0.0
doppler_bin: 8
bearing: -3.82537555695
intensity: 29.1169013977
---
header: 
  seq: 963666
  stamp: 
    secs: 1561865006
    nsecs: 269624346
  frame_id: "ti_mmwave"
point_id: 11
x: 2.693359375
y: -0.08984375
z: 0.970703125
range: 3.05038785934
velocity: 0.0
doppler_bin: 8
bearing: -1.91053581238
intensity: 32.1827278137
---
header: 
  seq: 963667
  stamp: 
    secs: 1561865006
    nsecs: 269669265
  frame_id: "ti_mmwave"
point_id: 12
x: 2.75390625
y: -0.08984375
z: 0.916015625
range: 3.09396481514
velocity: 0.0
doppler_bin: 8
bearing: -1.86856126785
intensity: 31.0822658539
---
header: 
  seq: 963668
  stamp: 
    secs: 1561865006
    nsecs: 269686407
  frame_id: "ti_mmwave"
point_id: 13
x: 4.4140625
y: -0.142578125
z: 1.21875
range: 4.88062095642
velocity: 0.0
doppler_bin: 8
bearing: -1.850061059
intensity: 31.1327476501
---
header: 
  seq: 963669
  stamp: 
    secs: 1561865006
    nsecs: 269697829
  frame_id: "ti_mmwave"
point_id: 14
x: 4.447265625
y: -0.14453125
z: 1.251953125
range: 4.9241976738
velocity: 0.0
doppler_bin: 8
bearing: -1.86139500141
intensity: 30.6145248413
---
header: 
  seq: 963670
  stamp: 
    secs: 1561865006
    nsecs: 269708991
  frame_id: "ti_mmwave"
point_id: 15
x: 4.875
y: -0.30859375
z: 0.796875
range: 5.27281332016
velocity: 0.0
doppler_bin: 8
bearing: -3.62206339836
intensity: 30.9551811218
---
header: 
  seq: 963671
  stamp: 
    secs: 1561865006
    nsecs: 269719970
  frame_id: "ti_mmwave"
point_id: 16
x: 4.951171875
y: -0.623046875
z: 0.1015625
range: 5.31639051437
velocity: 0.0
doppler_bin: 8
bearing: -7.17230129242
intensity: 29.4596061707
---
header: 
  seq: 963672
  stamp: 
    secs: 1561865006
    nsecs: 269728018
  frame_id: "ti_mmwave"
point_id: 17
x: 0.009765625
y: 0.03125
z: 0.025390625
range: 0.0435769706964
velocity: 0.0
doppler_bin: 8
bearing: 72.6459732056
intensity: 29.31457901
---
header: 
  seq: 963673
  stamp: 
    secs: 1561865006
    nsecs: 269752304
  frame_id: "ti_mmwave"
point_id: 18
x: 0.041015625
y: -0.033203125
z: 0.0625
range: 0.0871539413929
velocity: 0.0
doppler_bin: 8
bearing: -38.9909973145
intensity: 30.0945091248
---
header: 
  seq: 963674
  stamp: 
    secs: 1561865006
    nsecs: 269771495
  frame_id: "ti_mmwave"
point_id: 19
x: 0.044921875
y: -0.046875
z: 0.103515625
range: 0.130730912089
velocity: 0.0
doppler_bin: 8
bearing: -46.218875885
intensity: 28.9762706757
---
header: 
  seq: 963675
  stamp: 
    secs: 1561865006
    nsecs: 269796465
  frame_id: "ti_mmwave"
point_id: 21
x: 0.349609375
y: -0.1796875
z: 1.376953125
range: 1.52519392967
velocity: 0.0
doppler_bin: 8
bearing: -27.2016448975
intensity: 20.4921798706
---
header: 
  seq: 963676
  stamp: 
    secs: 1561865006
    nsecs: 269848558
  frame_id: "ti_mmwave"
point_id: 22
x: 0.470703125
y: -0.4609375
z: -1.498046875
range: 1.74307882786
velocity: 0.0
doppler_bin: 8
bearing: -44.3994369507
intensity: 24.3775062561
---
header: 
  seq: 963677
  stamp: 
    secs: 1561865006
    nsecs: 327705118
  frame_id: "ti_mmwave"
point_id: 0
x: 0.01171875
y: -0.0390625
z: -0.0078125
range: 0.0435769706964
velocity: 0.0
doppler_bin: 8
bearing: -73.3007583618
intensity: 30.6520614624
---
header: 
  seq: 963678
  stamp: 
    secs: 1561865006
    nsecs: 327776958
  frame_id: "ti_mmwave"
point_id: 1
x: 0.017578125
y: -0.080078125
z: -0.0078125
range: 0.0871539413929
velocity: 0.0
doppler_bin: 8
bearing: -77.6192398071
intensity: 31.9033164978
---
header: 
  seq: 963679
  stamp: 
    secs: 1561865006
    nsecs: 327787972
  frame_id: "ti_mmwave"
point_id: 2
x: 0.029296875
y: -0.119140625
z: -0.005859375
range: 0.130730912089
velocity: 0.0
doppler_bin: 8
bearing: -76.1849746704
intensity: 30.1535968781
---
header: 
  seq: 963680
  stamp: 
    secs: 1561865006
    nsecs: 327796806
  frame_id: "ti_mmwave"
point_id: 3
x: 0.056640625
y: -0.154296875
z: 0.005859375
range: 0.174307882786
velocity: 0.0
doppler_bin: 8
bearing: -69.8423843384
intensity: 25.4530715942
---
header: 
  seq: 963681
  stamp: 
    secs: 1561865006
    nsecs: 327809597
  frame_id: "ti_mmwave"
point_id: 4
x: 0.171875
y: -0.080078125
z: 1.25390625
range: 1.35088610649
velocity: 0.0
doppler_bin: 8
bearing: -24.9812393188
intensity: 23.138671875
---
header: 
  seq: 963682
  stamp: 
    secs: 1561865006
    nsecs: 327820138
  frame_id: "ti_mmwave"
point_id: 6
x: 0.458984375
y: -0.083984375
z: -1.265625
range: 1.43804001808
velocity: 0.0
doppler_bin: 8
bearing: -10.3691997528
intensity: 23.031961441
---
header: 
  seq: 963683
  stamp: 
    secs: 1561865006
    nsecs: 327828810
  frame_id: "ti_mmwave"
point_id: 7
x: 0.5
y: -0.087890625
z: -1.294921875
range: 1.48161697388
velocity: 0.0
doppler_bin: 8
bearing: -9.96967220306
intensity: 21.4612808228
---
header: 
  seq: 963684
  stamp: 
    secs: 1561865006
    nsecs: 327839779
  frame_id: "ti_mmwave"
point_id: 8
x: 1.517578125
y: 0.146484375
z: -0.306640625
range: 1.65592491627
velocity: 0.0
doppler_bin: 8
bearing: 5.51340007782
intensity: 26.1066017151
---
header: 
  seq: 963685
  stamp: 
    secs: 1561865006
    nsecs: 327909940
  frame_id: "ti_mmwave"
point_id: 9
x: 1.5625
y: 0.150390625
z: -0.28515625
range: 1.69950187206
velocity: 0.0
doppler_bin: 8
bearing: 5.49778318405
intensity: 27.3319721222
---
header: 
  seq: 963686
  stamp: 
    secs: 1561865006
    nsecs: 327919746
  frame_id: "ti_mmwave"
point_id: 10
x: 1.607421875
y: 0.205078125
z: -0.232421875
range: 1.74307882786
velocity: 0.0
doppler_bin: 8
bearing: 7.270632267
intensity: 26.2531242371
---
header: 
  seq: 963687
  stamp: 
    secs: 1561865006
    nsecs: 327927333
  frame_id: "ti_mmwave"
point_id: 11
x: 2.611328125
y: -0.17578125
z: 1.056640625
range: 3.00681090355
velocity: 0.0
doppler_bin: 8
bearing: -3.85104894638
intensity: 28.9652614594
---
header: 
  seq: 963688
  stamp: 
    secs: 1561865006
    nsecs: 327936579
  frame_id: "ti_mmwave"
point_id: 12
x: 2.689453125
y: -0.08984375
z: 0.98046875
range: 3.05038785934
velocity: 0.0
doppler_bin: 8
bearing: -1.91330885887
intensity: 32.1695709229
---
header: 
  seq: 963689
  stamp: 
    secs: 1561865006
    nsecs: 327977864
  frame_id: "ti_mmwave"
point_id: 13
x: 2.75390625
y: -0.08984375
z: 0.91796875
range: 3.09396481514
velocity: 0.0
doppler_bin: 8
bearing: -1.86856126785
intensity: 31.0856494904
---
header: 
  seq: 963690
  stamp: 
    secs: 1561865006
    nsecs: 327991753
  frame_id: "ti_mmwave"
point_id: 14
x: 4.421875
y: -0.142578125
z: 1.193359375
range: 4.88062095642
velocity: 0.0
doppler_bin: 8
bearing: -1.84679484367
intensity: 31.1327476501
---
header: 
  seq: 963691
  stamp: 
    secs: 1561865006
    nsecs: 327999779
  frame_id: "ti_mmwave"
point_id: 15
x: 4.458984375
y: -0.14453125
z: 1.20703125
range: 4.9241976738
velocity: 0.0
doppler_bin: 8
bearing: -1.85650622845
intensity: 30.6707077026
---
header: 
  seq: 963692
  stamp: 
    secs: 1561865006
    nsecs: 328007462
  frame_id: "ti_mmwave"
point_id: 16
x: 4.876953125
y: -0.30859375
z: 0.78125
range: 5.27281332016
velocity: 0.0
doppler_bin: 8
bearing: -3.62061715126
intensity: 30.8955192566
---
header: 
  seq: 963693
  stamp: 
    secs: 1561865006
    nsecs: 328015398
  frame_id: "ti_mmwave"
point_id: 17
x: 4.951171875
y: -0.623046875
z: 0.064453125
range: 5.31639051437
velocity: 0.0
doppler_bin: 8
bearing: -7.17230129242
intensity: 29.380191803
---
header: 
  seq: 963694
  stamp: 
    secs: 1561865006
    nsecs: 328023217
  frame_id: "ti_mmwave"
point_id: 18
x: 0.009765625
y: 0.03125
z: 0.025390625
range: 0.0435769706964
velocity: 0.0
doppler_bin: 8
bearing: 72.6459732056
intensity: 29.3196620941
---
header: 
  seq: 963695
  stamp: 
    secs: 1561865006
    nsecs: 328032217
  frame_id: "ti_mmwave"
point_id: 19
x: 0.041015625
y: -0.033203125
z: 0.0625
range: 0.0871539413929
velocity: 0.0
doppler_bin: 8
bearing: -38.9909973145
intensity: 30.0945091248
---
header: 
  seq: 963696
  stamp: 
    secs: 1561865006
    nsecs: 328040038
  frame_id: "ti_mmwave"
point_id: 20
x: 0.044921875
y: -0.046875
z: 0.103515625
range: 0.130730912089
velocity: 0.0
doppler_bin: 8
bearing: -46.218875885
intensity: 28.9762706757
---
header: 
  seq: 963697
  stamp: 
    secs: 1561865006
    nsecs: 328054967
  frame_id: "ti_mmwave"
point_id: 23
x: 0.4140625
y: -0.3984375
z: 1.48828125
range: 1.69950187206
velocity: 0.0
doppler_bin: 8
bearing: -43.8982963562
intensity: 25.1321754456
---
header: 
  seq: 963698
  stamp: 
    secs: 1561865006
    nsecs: 328060378
  frame_id: "ti_mmwave"
point_id: 24
x: 0.66796875
y: -0.408203125
z: 1.435546875
range: 1.74307882786
velocity: 0.0
doppler_bin: 8
bearing: -31.4295654297
intensity: 23.6735591888
---
header: 
  seq: 963699
  stamp: 
    secs: 1561865006
    nsecs: 387903388
  frame_id: "ti_mmwave"
point_id: 0
x: 0.01171875
y: -0.0390625
z: -0.0078125
range: 0.0435769706964
velocity: 0.0
doppler_bin: 8
bearing: -73.3007583618
intensity: 30.6520614624
---
header: 
  seq: 963700
  stamp: 
    secs: 1561865006
    nsecs: 388016774
  frame_id: "ti_mmwave"
point_id: 1
x: 0.017578125
y: -0.080078125
z: -0.0078125
range: 0.0871539413929
velocity: 0.0
doppler_bin: 8
bearing: -77.6192398071
intensity: 31.9089164734
---
header: 
  seq: 963701
  stamp: 
    secs: 1561865006
    nsecs: 388028923
  frame_id: "ti_mmwave"
point_id: 2
x: 0.029296875
y: -0.119140625
z: -0.005859375
range: 0.130730912089
velocity: 0.0
doppler_bin: 8
bearing: -76.1849746704
intensity: 30.157787323
---
header: 
  seq: 963702
  stamp: 
    secs: 1561865006
    nsecs: 388037131
  frame_id: "ti_mmwave"
point_id: 3
x: 0.056640625
y: -0.154296875
z: 0.005859375
range: 0.174307882786
velocity: 0.0
doppler_bin: 8
bearing: -69.8423843384
intensity: 25.4530715942
---
header: 
  seq: 963703
  stamp: 
    secs: 1561865006
    nsecs: 388045631
  frame_id: "ti_mmwave"
point_id: 4
x: 0.095703125
y: -0.080078125
z: 1.26171875
range: 1.35088610649
velocity: 0.0
doppler_bin: 8
bearing: -39.9203910828
intensity: 23.1175384521
---
header: 
  seq: 963704
  stamp: 
    secs: 1561865006
    nsecs: 388055560
  frame_id: "ti_mmwave"
point_id: 6
x: 0.427734375
y: -0.083984375
z: -1.27734375
range: 1.43804001808
velocity: 0.0
doppler_bin: 8
bearing: -11.1085424423
intensity: 23.0963020325
---
header: 
  seq: 963705
  stamp: 
    secs: 1561865006
    nsecs: 388065562
  frame_id: "ti_mmwave"
point_id: 7
x: 0.5078125
y: -0.04296875
z: -1.294921875
range: 1.48161697388
velocity: 0.0
doppler_bin: 8
bearing: -4.83658361435
intensity: 21.7026176453
---
header: 
  seq: 963706
  stamp: 
    secs: 1561865006
    nsecs: 388073518
  frame_id: "ti_mmwave"
point_id: 8
x: 1.498046875
y: 0.33984375
z: -0.23828125
range: 1.65592491627
velocity: 0.0
doppler_bin: 8
bearing: 12.781662941
intensity: 25.7403125763
---
header: 
  seq: 963707
  stamp: 
    secs: 1561865006
    nsecs: 388082821
  frame_id: "ti_mmwave"
point_id: 9
x: 1.57421875
y: 0.19921875
z: -0.171875
range: 1.69950187206
velocity: 0.0
doppler_bin: 8
bearing: 7.21249103546
intensity: 28.7448177338
---
header: 
  seq: 963708
  stamp: 
    secs: 1561865006
    nsecs: 388090556
  frame_id: "ti_mmwave"
point_id: 10
x: 1.6171875
y: 0.205078125
z: -0.142578125
range: 1.74307882786
velocity: 0.0
doppler_bin: 8
bearing: 7.22719287872
intensity: 29.2220630646
---
header: 
  seq: 963709
  stamp: 
    secs: 1561865006
    nsecs: 388098259
  frame_id: "ti_mmwave"
point_id: 11
x: 2.611328125
y: -0.17578125
z: 1.056640625
range: 3.00681090355
velocity: 0.0
doppler_bin: 8
bearing: -3.85104894638
intensity: 28.9542255402
---
header: 
  seq: 963710
  stamp: 
    secs: 1561865006
    nsecs: 388106299
  frame_id: "ti_mmwave"
point_id: 12
x: 2.689453125
y: -0.08984375
z: 0.978515625
range: 3.05038785934
velocity: 0.0
doppler_bin: 8
bearing: -1.91330885887
intensity: 32.1932258606
---
header: 
  seq: 963711
  stamp: 
    secs: 1561865006
    nsecs: 388114403
  frame_id: "ti_mmwave"
point_id: 13
x: 2.755859375
y: -0.08984375
z: 0.91015625
range: 3.09396481514
velocity: 0.0
doppler_bin: 8
bearing: -1.86723792553
intensity: 31.1561050415
---
header: 
  seq: 963712
  stamp: 
    secs: 1561865006
    nsecs: 388123264
  frame_id: "ti_mmwave"
point_id: 14
x: 4.419921875
y: -0.142578125
z: 1.19921875
range: 4.88062095642
velocity: 0.0
doppler_bin: 8
bearing: -1.847610116
intensity: 31.1294002533
---
header: 
  seq: 963713
  stamp: 
    secs: 1561865006
    nsecs: 388133149
  frame_id: "ti_mmwave"
point_id: 15
x: 4.453125
y: -0.14453125
z: 1.232421875
range: 4.9241976738
velocity: 0.0
doppler_bin: 8
bearing: -1.85894739628
intensity: 30.6295776367
---
header: 
  seq: 963714
  stamp: 
    secs: 1561865006
    nsecs: 388142666
  frame_id: "ti_mmwave"
point_id: 16
x: 4.876953125
y: -0.30859375
z: 0.7890625
range: 5.27281332016
velocity: 0.0
doppler_bin: 8
bearing: -3.62061715126
intensity: 30.8278541565
---
header: 
  seq: 963715
  stamp: 
    secs: 1561865006
    nsecs: 388150881
  frame_id: "ti_mmwave"
point_id: 17
x: 4.9296875
y: -0.779296875
z: 0.0625
range: 5.31639051437
velocity: 0.0
doppler_bin: 8
bearing: -8.98311805725
intensity: 29.3951931
---
header: 
  seq: 963716
  stamp: 
    secs: 1561865006
    nsecs: 388158702
  frame_id: "ti_mmwave"
point_id: 18
x: 0.009765625
y: 0.03125
z: 0.025390625
range: 0.0435769706964
velocity: 0.0
doppler_bin: 8
bearing: 72.6459732056
intensity: 29.31457901
---
header: 
  seq: 963717
  stamp: 
    secs: 1561865006
    nsecs: 388166881
  frame_id: "ti_mmwave"
point_id: 19
x: 0.041015625
y: -0.033203125
z: 0.0625
range: 0.0871539413929
velocity: 0.0
doppler_bin: 8
bearing: -38.9909973145
intensity: 30.0860023499
---
header: 
  seq: 963718
  stamp: 
    secs: 1561865006
    nsecs: 388175472
  frame_id: "ti_mmwave"
point_id: 20
x: 0.044921875
y: -0.046875
z: 0.103515625
range: 0.130730912089
velocity: 0.0
doppler_bin: 8
bearing: -46.218875885
intensity: 28.9707698822
---
header: 
