header: 
  seq: 979431
  stamp: 
    secs: 1561865028
    nsecs: 707725121
  frame_id: "ti_mmwave"
point_id: 0
x: 0.01171875
y: -0.0390625
z: -0.0078125
range: 0.0435769706964
velocity: 0.0
doppler_bin: 8
bearing: -73.3007583618
intensity: 30.6520614624
---
header: 
  seq: 979432
  stamp: 
    secs: 1561865028
    nsecs: 707803065
  frame_id: "ti_mmwave"
point_id: 1
x: 0.017578125
y: -0.080078125
z: -0.0078125
range: 0.0871539413929
velocity: 0.0
doppler_bin: 8
bearing: -77.6192398071
intensity: 31.9033164978
---
header: 
  seq: 979433
  stamp: 
    secs: 1561865028
    nsecs: 707820956
  frame_id: "ti_mmwave"
point_id: 2
x: 0.029296875
y: -0.119140625
z: -0.005859375
range: 0.130730912089
velocity: 0.0
doppler_bin: 8
bearing: -76.1849746704
intensity: 30.1494026184
---
header: 
  seq: 979434
  stamp: 
    secs: 1561865028
    nsecs: 707835423
  frame_id: "ti_mmwave"
point_id: 3
x: 0.056640625
y: -0.154296875
z: 0.005859375
range: 0.174307882786
velocity: 0.0
doppler_bin: 8
bearing: -69.8423843384
intensity: 25.4406795502
---
header: 
  seq: 979435
  stamp: 
    secs: 1561865028
    nsecs: 707844784
  frame_id: "ti_mmwave"
point_id: 4
x: 0.865234375
y: 0.59765625
z: -0.15625
range: 1.13300120831
velocity: 0.0
doppler_bin: 8
bearing: 34.6345825195
intensity: 26.0097293854
---
header: 
  seq: 979436
  stamp: 
    secs: 1561865028
    nsecs: 707853211
  frame_id: "ti_mmwave"
point_id: 5
x: 1.0078125
y: 0.537109375
z: -0.08984375
range: 1.22015523911
velocity: 0.0
doppler_bin: 8
bearing: 28.0551948547
intensity: 28.9376182556
---
header: 
  seq: 979437
  stamp: 
    secs: 1561865028
    nsecs: 707862419
  frame_id: "ti_mmwave"
point_id: 6
x: 1.044921875
y: 0.556640625
z: -0.0703125
range: 1.2637321949
velocity: 0.0
doppler_bin: 8
bearing: 28.0446853638
intensity: 27.4741172791
---
header: 
  seq: 979438
  stamp: 
    secs: 1561865028
    nsecs: 707870966
  frame_id: "ti_mmwave"
point_id: 7
x: 1.056640625
y: 0.61328125
z: -0.115234375
range: 1.3073091507
velocity: 0.0
doppler_bin: 8
bearing: 30.1311645508
intensity: 22.2530937195
---
header: 
  seq: 979439
  stamp: 
    secs: 1561865028
    nsecs: 707878697
  frame_id: "ti_mmwave"
point_id: 8
x: 0.26953125
y: -0.08203125
z: -1.27734375
range: 1.39446306229
velocity: 0.0
doppler_bin: 8
bearing: -16.9275131226
intensity: 25.3781909943
---
header: 
  seq: 979440
  stamp: 
    secs: 1561865028
    nsecs: 707887179
  frame_id: "ti_mmwave"
point_id: 9
x: 2.615234375
y: -0.17578125
z: 1.046875
range: 3.00681090355
velocity: 0.0
doppler_bin: 8
bearing: -3.84531402588
intensity: 29.0902080536
---
header: 
  seq: 979441
  stamp: 
    secs: 1561865028
    nsecs: 707896437
  frame_id: "ti_mmwave"
point_id: 10
x: 2.69140625
y: -0.08984375
z: 0.970703125
range: 3.05038785934
velocity: 0.0
doppler_bin: 8
bearing: -1.91192126274
intensity: 32.2010803223
---
header: 
  seq: 979442
  stamp: 
    secs: 1561865028
    nsecs: 707906645
  frame_id: "ti_mmwave"
point_id: 11
x: 2.7578125
y: -0.08984375
z: 0.908203125
range: 3.09396481514
velocity: 0.0
doppler_bin: 8
bearing: -1.86591637135
intensity: 31.1126251221
---
header: 
  seq: 979443
  stamp: 
    secs: 1561865028
    nsecs: 707915572
  frame_id: "ti_mmwave"
point_id: 12
x: 4.4140625
y: -0.142578125
z: 1.21484375
range: 4.88062095642
velocity: 0.0
doppler_bin: 8
bearing: -1.850061059
intensity: 31.3861846924
---
header: 
  seq: 979444
  stamp: 
    secs: 1561865028
    nsecs: 707924652
  frame_id: "ti_mmwave"
point_id: 13
x: 4.443359375
y: -0.14453125
z: 1.265625
range: 4.9241976738
velocity: 0.0
doppler_bin: 8
bearing: -1.86303019524
intensity: 31.1925582886
---
header: 
  seq: 979445
  stamp: 
    secs: 1561865028
    nsecs: 707975663
  frame_id: "ti_mmwave"
point_id: 14
x: 4.7421875
y: -0.298828125
z: -0.5703125
range: 5.09850549698
velocity: 0.0
doppler_bin: 8
bearing: -3.60571622849
intensity: 33.3485565186
---
header: 
  seq: 979446
  stamp: 
    secs: 1561865028
    nsecs: 708003145
  frame_id: "ti_mmwave"
point_id: 15
x: 4.779296875
y: -0.30078125
z: -0.611328125
range: 5.14208269119
velocity: 0.0
doppler_bin: 8
bearing: -3.60111522675
intensity: 33.9759254456
---
header: 
  seq: 979447
  stamp: 
    secs: 1561865028
    nsecs: 708025345
  frame_id: "ti_mmwave"
point_id: 16
x: 4.8125
y: -0.15234375
z: -0.7109375
range: 5.18565940857
velocity: 0.0
doppler_bin: 8
bearing: -1.81314074993
intensity: 30.6295776367
---
header: 
  seq: 979448
  stamp: 
    secs: 1561865028
    nsecs: 708041674
  frame_id: "ti_mmwave"
point_id: 17
x: 4.89453125
y: -0.30859375
z: 0.67578125
range: 5.27281332016
velocity: 0.0
doppler_bin: 8
bearing: -3.60764837265
intensity: 31.0788803101
---
header: 
  seq: 979449
  stamp: 
    secs: 1561865028
    nsecs: 708050225
  frame_id: "ti_mmwave"
point_id: 18
x: 4.951171875
y: -0.623046875
z: 0.083984375
range: 5.31639051437
velocity: 0.0
doppler_bin: 8
bearing: -7.17230129242
intensity: 29.7909297943
---
header: 
  seq: 979450
  stamp: 
    secs: 1561865028
    nsecs: 708231865
  frame_id: "ti_mmwave"
point_id: 19
x: 0.955078125
y: 0.552734375
z: -0.060546875
range: 1.1765781641
velocity: 0.614668667316
doppler_bin: 9
bearing: 30.0593452454
intensity: 27.2672729492
---
header: 
  seq: 979451
  stamp: 
    secs: 1561865028
    nsecs: 708253015
  frame_id: "ti_mmwave"
point_id: 20
x: 0.7109375
y: 0.61328125
z: -0.2890625
range: 1.04584729671
velocity: -0.614668667316
doppler_bin: 7
bearing: 40.7822799683
intensity: 21.3033370972
---
header: 
  seq: 979452
  stamp: 
    secs: 1561865028
    nsecs: 708262485
  frame_id: "ti_mmwave"
point_id: 21
x: 0.763671875
y: 0.638671875
z: -0.23046875
range: 1.08942425251
velocity: -0.614668667316
doppler_bin: 7
bearing: 39.9063148499
intensity: 25.0515003204
---
header: 
  seq: 979453
  stamp: 
    secs: 1561865028
    nsecs: 708271289
  frame_id: "ti_mmwave"
point_id: 22
x: 0.9140625
y: 0.87109375
z: 0.119140625
range: 1.35088610649
velocity: -0.614668667316
doppler_bin: 7
bearing: 43.6211547852
intensity: 24.5939254761
---
header: 
  seq: 979454
  stamp: 
    secs: 1561865028
    nsecs: 708280286
  frame_id: "ti_mmwave"
point_id: 23
x: 0.009765625
y: 0.03125
z: 0.025390625
range: 0.0435769706964
velocity: 0.0
doppler_bin: 8
bearing: 72.6459732056
intensity: 29.3094902039
---
header: 
  seq: 979455
  stamp: 
    secs: 1561865028
    nsecs: 708288928
  frame_id: "ti_mmwave"
point_id: 24
x: 0.041015625
y: -0.033203125
z: 0.0625
range: 0.0871539413929
velocity: 0.0
doppler_bin: 8
bearing: -38.9909973145
intensity: 30.0860023499
---
header: 
  seq: 979456
  stamp: 
    secs: 1561865028
    nsecs: 708297761
  frame_id: "ti_mmwave"
point_id: 25
x: 0.044921875
y: -0.046875
z: 0.103515625
range: 0.130730912089
velocity: 0.0
doppler_bin: 8
bearing: -46.218875885
intensity: 28.9707698822
---
header: 
  seq: 979457
  stamp: 
    secs: 1561865028
    nsecs: 708308413
  frame_id: "ti_mmwave"
point_id: 27
x: 0.59765625
y: -0.19140625
z: 1.0546875
range: 1.3073091507
velocity: 0.0
doppler_bin: 8
bearing: -17.7582588196
intensity: 20.3342380524
---
header: 
  seq: 979458
  stamp: 
    secs: 1561865028
    nsecs: 708316996
  frame_id: "ti_mmwave"
point_id: 28
x: 1.052734375
y: 0.736328125
z: 0.251953125
range: 1.39446306229
velocity: 0.0
doppler_bin: 8
bearing: 34.9706077576
intensity: 24.7129173279
---
header: 
  seq: 979459
  stamp: 
    secs: 1561865028
    nsecs: 708325494
  frame_id: "ti_mmwave"
point_id: 29
x: 0.97265625
y: -0.197265625
z: 0.7890625
range: 1.35088610649
velocity: -0.614668667316
doppler_bin: 7
bearing: -11.4647254944
intensity: 22.2530937195
---
header: 
  seq: 979460
  stamp: 
    secs: 1561865028
    nsecs: 709472170
  frame_id: "ti_mmwave"
point_id: 0
x: 0.01171875
y: -0.0390625
z: -0.0078125
range: 0.0435769706964
velocity: 0.0
doppler_bin: 8
bearing: -73.3007583618
intensity: 30.6595306396
---
header: 
  seq: 979461
  stamp: 
    secs: 1561865028
    nsecs: 709532756
  frame_id: "ti_mmwave"
point_id: 1
x: 0.017578125
y: -0.080078125
z: -0.0078125
range: 0.0871539413929
velocity: 0.0
doppler_bin: 8
bearing: -77.6192398071
intensity: 31.9061183929
---
header: 
  seq: 979462
  stamp: 
    secs: 1561865028
    nsecs: 709550507
  frame_id: "ti_mmwave"
point_id: 2
x: 0.029296875
y: -0.119140625
z: -0.005859375
range: 0.130730912089
velocity: 0.0
doppler_bin: 8
bearing: -76.1849746704
intensity: 30.1494026184
---
header: 
  seq: 979463
  stamp: 
    secs: 1561865028
    nsecs: 709562793
  frame_id: "ti_mmwave"
point_id: 3
x: 0.056640625
y: -0.154296875
z: 0.005859375
range: 0.174307882786
velocity: 0.0
doppler_bin: 8
bearing: -69.8423843384
intensity: 25.4282550812
---
header: 
  seq: 979464
  stamp: 
    secs: 1561865028
    nsecs: 709575902
  frame_id: "ti_mmwave"
point_id: 4
x: 2.607421875
y: -0.17578125
z: 1.06640625
range: 3.00681090355
velocity: 0.0
doppler_bin: 8
bearing: -3.8568007946
intensity: 28.9817657471
---
header: 
  seq: 979465
  stamp: 
    secs: 1561865028
    nsecs: 709587705
  frame_id: "ti_mmwave"
point_id: 5
x: 2.6875
y: -0.08984375
z: 0.986328125
range: 3.05038785934
velocity: 0.0
doppler_bin: 8
bearing: -1.91469812393
intensity: 32.1695709229
---
header: 
  seq: 979466
  stamp: 
    secs: 1561865028
    nsecs: 709601199
  frame_id: "ti_mmwave"
point_id: 6
x: 2.75
y: -0.08984375
z: 0.9296875
range: 3.09396481514
velocity: 0.0
doppler_bin: 8
bearing: -1.87121355534
intensity: 31.1594314575
---
header: 
  seq: 979467
  stamp: 
    secs: 1561865028
    nsecs: 709614303
  frame_id: "ti_mmwave"
point_id: 7
x: 4.412109375
y: -0.142578125
z: 1.228515625
range: 4.88062095642
velocity: 0.0
doppler_bin: 8
bearing: -1.85087943077
intensity: 31.389339447
---
header: 
  seq: 979468
  stamp: 
    secs: 1561865028
    nsecs: 709627054
  frame_id: "ti_mmwave"
point_id: 8
x: 4.4375
y: -0.14453125
z: 1.283203125
range: 4.9241976738
velocity: 0.0
doppler_bin: 8
bearing: -1.86548817158
intensity: 31.2188796997
---
header: 
  seq: 979469
  stamp: 
    secs: 1561865028
    nsecs: 709640657
  frame_id: "ti_mmwave"
point_id: 9
x: 4.740234375
y: -0.298828125
z: -0.58984375
range: 5.09850549698
velocity: 0.0
doppler_bin: 8
bearing: -3.60719799995
intensity: 33.4064254761
---
header: 
  seq: 979470
  stamp: 
    secs: 1561865028
    nsecs: 709652413
  frame_id: "ti_mmwave"
point_id: 10
x: 4.77734375
y: -0.30078125
z: -0.623046875
range: 5.14208269119
velocity: 0.0
doppler_bin: 8
bearing: -3.60258316994
intensity: 34.0053787231
---
header: 
  seq: 979471
  stamp: 
    secs: 1561865028
    nsecs: 709666239
  frame_id: "ti_mmwave"
point_id: 11
x: 4.806640625
y: -0.15234375
z: -0.75
range: 5.18565940857
velocity: 0.0
doppler_bin: 8
bearing: -1.81534969807
intensity: 30.7188205719
---
header: 
  seq: 979472
  stamp: 
    secs: 1561865028
    nsecs: 709678669
  frame_id: "ti_mmwave"
point_id: 12
x: 4.904296875
y: -0.30859375
z: 0.59765625
range: 5.27281332016
velocity: 0.0
doppler_bin: 8
bearing: -3.60048341751
intensity: 31.0243377686
---
header: 
  seq: 979473
  stamp: 
    secs: 1561865028
    nsecs: 709690889
  frame_id: "ti_mmwave"
point_id: 13
x: 4.951171875
y: -0.623046875
z: 0.1015625
range: 5.31639051437
velocity: 0.0
doppler_bin: 8
bearing: -7.17230129242
intensity: 29.7818050385
---
header: 
  seq: 979474
  stamp: 
    secs: 1561865028
    nsecs: 709702656
  frame_id: "ti_mmwave"
point_id: 14
x: 1.0078125
y: 0.4140625
z: -0.17578125
range: 1.1765781641
velocity: 0.614668667316
doppler_bin: 9
bearing: 22.3354434967
intensity: 24.9276046753
---
header: 
  seq: 979475
  stamp: 
    secs: 1561865028
    nsecs: 709717449
  frame_id: "ti_mmwave"
point_id: 15
x: 1.041015625
y: 0.4296875
z: -0.2109375
range: 1.22015523911
velocity: 0.614668667316
doppler_bin: 9
bearing: 22.4287776947
intensity: 27.2427577972
---
header: 
  seq: 979476
  stamp: 
    secs: 1561865028
    nsecs: 709731307
  frame_id: "ti_mmwave"
point_id: 16
x: 1.06640625
y: 0.4453125
z: -0.265625
range: 1.2637321949
velocity: 0.614668667316
doppler_bin: 9
bearing: 22.6645565033
intensity: 25.6702632904
---
header: 
  seq: 979477
  stamp: 
    secs: 1561865028
    nsecs: 709744407
  frame_id: "ti_mmwave"
point_id: 17
x: 0.923828125
y: 0.8046875
z: 0.046875
range: 1.3073091507
velocity: -0.614668667316
doppler_bin: 7
bearing: 41.0570373535
intensity: 24.0823993683
---
header: 
  seq: 979478
  stamp: 
    secs: 1561865028
    nsecs: 709758371
  frame_id: "ti_mmwave"
point_id: 18
x: 0.953125
y: 0.83203125
z: 0.078125
range: 1.35088610649
velocity: -0.614668667316
doppler_bin: 7
bearing: 41.1193580627
intensity: 27.5358314514
---
header: 
  seq: 979479
  stamp: 
    secs: 1561865028
    nsecs: 709771706
  frame_id: "ti_mmwave"
point_id: 19
x: 1.017578125
y: 0.818359375
z: 0.087890625
range: 1.39446306229
velocity: -0.614668667316
doppler_bin: 7
bearing: 38.8070259094
intensity: 27.8247261047
---
header: 
  seq: 979480
  stamp: 
    secs: 1561865028
    nsecs: 709787444
  frame_id: "ti_mmwave"
point_id: 20
x: 1.046875
y: 0.84375
z: 0.126953125
range: 1.43804001808
velocity: -0.614668667316
doppler_bin: 7
bearing: 38.8677787781
intensity: 25.2504482269
---
header: 
  seq: 979481
  stamp: 
    secs: 1561865028
    nsecs: 709801527
  frame_id: "ti_mmwave"
point_id: 21
x: 0.009765625
y: 0.03125
z: 0.025390625
range: 0.0435769706964
velocity: 0.0
doppler_bin: 8
bearing: 72.6459732056
intensity: 29.31457901
---
header: 
  seq: 979482
  stamp: 
    secs: 1561865028
    nsecs: 709816733
  frame_id: "ti_mmwave"
point_id: 22
x: 0.041015625
y: -0.033203125
z: 0.0625
range: 0.0871539413929
velocity: 0.0
doppler_bin: 8
bearing: -38.9909973145
intensity: 30.0902576447
---
header: 
  seq: 979483
  stamp: 
    secs: 1561865028
    nsecs: 709830336
  frame_id: "ti_mmwave"
point_id: 23
x: 0.044921875
y: -0.046875
z: 0.103515625
range: 0.130730912089
velocity: 0.0
doppler_bin: 8
bearing: -46.218875885
intensity: 28.9762706757
---
header: 
  seq: 979484
  stamp: 
    secs: 1561865028
    nsecs: 767825167
  frame_id: "ti_mmwave"
point_id: 0
x: 0.01171875
y: -0.0390625
z: -0.0078125
range: 0.0435769706964
velocity: 0.0
doppler_bin: 8
bearing: -73.3007583618
intensity: 30.6557979584
---
header: 
  seq: 979485
  stamp: 
    secs: 1561865028
    nsecs: 767920496
  frame_id: "ti_mmwave"
point_id: 1
x: 0.017578125
y: -0.080078125
z: -0.0078125
range: 0.0871539413929
velocity: 0.0
doppler_bin: 8
bearing: -77.6192398071
intensity: 31.9061183929
---
header: 
  seq: 979486
  stamp: 
    secs: 1561865028
    nsecs: 767937685
  frame_id: "ti_mmwave"
point_id: 2
x: 0.029296875
y: -0.119140625
z: -0.005859375
range: 0.130730912089
velocity: 0.0
doppler_bin: 8
bearing: -76.1849746704
intensity: 30.1535968781
---
header: 
  seq: 979487
  stamp: 
    secs: 1561865028
    nsecs: 767990355
  frame_id: "ti_mmwave"
point_id: 3
x: 0.056640625
y: -0.154296875
z: 0.005859375
range: 0.174307882786
velocity: 0.0
doppler_bin: 8
bearing: -69.8423843384
intensity: 25.4530715942
---
header: 
  seq: 979488
  stamp: 
    secs: 1561865028
    nsecs: 768007120
  frame_id: "ti_mmwave"
point_id: 4
x: 2.626953125
y: -0.17578125
z: 1.017578125
range: 3.00681090355
velocity: 0.0
doppler_bin: 8
bearing: -3.82821130753
intensity: 29.0091304779
---
header: 
  seq: 979489
  stamp: 
    secs: 1561865028
    nsecs: 768020449
  frame_id: "ti_mmwave"
point_id: 5
x: 2.6953125
y: -0.08984375
z: 0.962890625
range: 3.05038785934
velocity: 0.0
doppler_bin: 8
bearing: -1.90915250778
intensity: 32.1853561401
---
header: 
  seq: 979490
  stamp: 
    secs: 1561865028
    nsecs: 768036312
  frame_id: "ti_mmwave"
point_id: 6
x: 2.759765625
y: -0.08984375
z: 0.90234375
range: 3.09396481514
velocity: 0.0
doppler_bin: 8
bearing: -1.86459684372
intensity: 31.1527767181
---
header: 
  seq: 979491
  stamp: 
    secs: 1561865028
    nsecs: 768049967
  frame_id: "ti_mmwave"
point_id: 7
x: 4.4140625
y: -0.142578125
z: 1.21875
range: 4.88062095642
velocity: 0.0
doppler_bin: 8
bearing: -1.850061059
intensity: 31.3987903595
---
header: 
  seq: 979492
  stamp: 
    secs: 1561865028
    nsecs: 768132524
  frame_id: "ti_mmwave"
point_id: 8
x: 4.4453125
y: -0.14453125
z: 1.259765625
range: 4.9241976738
velocity: 0.0
doppler_bin: 8
bearing: -1.86221218109
intensity: 31.205739975
---
header: 
  seq: 979493
  stamp: 
    secs: 1561865028
    nsecs: 768149585
  frame_id: "ti_mmwave"
point_id: 9
x: 4.740234375
y: -0.298828125
z: -0.58984375
range: 5.09850549698
velocity: 0.0
doppler_bin: 8
bearing: -3.60719799995
intensity: 33.3445358276
---
header: 
  seq: 979494
  stamp: 
    secs: 1561865028
    nsecs: 768162544
  frame_id: "ti_mmwave"
point_id: 10
x: 4.775390625
y: -0.30078125
z: -0.640625
range: 5.14208269119
velocity: 0.0
doppler_bin: 8
bearing: -3.60405302048
intensity: 33.9550094604
---
header: 
  seq: 979495
  stamp: 
    secs: 1561865028
    nsecs: 768175392
  frame_id: "ti_mmwave"
point_id: 11
x: 4.80859375
y: -0.15234375
z: -0.748046875
range: 5.18565940857
velocity: 0.0
doppler_bin: 8
bearing: -1.81461262703
intensity: 30.5537834167
---
header: 
  seq: 979496
  stamp: 
    secs: 1561865028
    nsecs: 768187970
  frame_id: "ti_mmwave"
point_id: 12
x: 4.888671875
y: -0.30859375
z: 0.703125
range: 5.27281332016
velocity: 0.0
doppler_bin: 8
bearing: -3.61196112633
intensity: 31.1360912323
---
header: 
  seq: 979497
  stamp: 
    secs: 1561865028
    nsecs: 768201520
  frame_id: "ti_mmwave"
point_id: 13
x: 4.951171875
y: -0.623046875
z: 0.076171875
range: 5.31639051437
velocity: 0.0
doppler_bin: 8
bearing: -7.17230129242
intensity: 29.8944988251
---
header: 
  seq: 979498
  stamp: 
    secs: 1561865028
    nsecs: 768215211
  frame_id: "ti_mmwave"
point_id: 14
x: 0.990234375
y: 0.482421875
z: -0.083984375
range: 1.1765781641
velocity: 0.614668667316
doppler_bin: 9
bearing: 25.9743938446
intensity: 25.3529415131
---
header: 
  seq: 979499
  stamp: 
    secs: 1561865028
    nsecs: 768231138
  frame_id: "ti_mmwave"
point_id: 15
x: 1.009765625
y: 0.537109375
z: -0.064453125
range: 1.22015523911
velocity: 0.614668667316
doppler_bin: 9
bearing: 28.0091762543
intensity: 29.3901977539
---
header: 
  seq: 979500
  stamp: 
    secs: 1561865028
    nsecs: 768244105
  frame_id: "ti_mmwave"
point_id: 16
x: 1.046875
y: 0.556640625
z: -0.046875
range: 1.2637321949
velocity: 0.614668667316
doppler_bin: 9
bearing: 28.0003108978
intensity: 29.7589111328
---
header: 
  seq: 979501
  stamp: 
    secs: 1561865028
    nsecs: 768272221
  frame_id: "ti_mmwave"
point_id: 17
x: 1.083984375
y: 0.576171875
z: -0.01171875
range: 1.3073091507
velocity: 0.614668667316
doppler_bin: 9
bearing: 27.9920520782
intensity: 26.4542236328
---
header: 
  seq: 979502
  stamp: 
    secs: 1561865028
    nsecs: 768294199
  frame_id: "ti_mmwave"
point_id: 18
x: 0.955078125
y: 0.767578125
z: 0.072265625
range: 1.3073091507
velocity: -0.614668667316
doppler_bin: 7
bearing: 38.7881774902
intensity: 27.2916469574
---
header: 
  seq: 979503
  stamp: 
    secs: 1561865028
    nsecs: 768315283
  frame_id: "ti_mmwave"
point_id: 19
x: 0.951171875
y: 0.83203125
z: 0.099609375
range: 1.35088610649
velocity: -0.614668667316
doppler_bin: 7
bearing: 41.1775970459
intensity: 28.5125827789
---
header: 
  seq: 979504
  stamp: 
    secs: 1561865028
    nsecs: 768328270
  frame_id: "ti_mmwave"
point_id: 20
x: 1.015625
y: 0.818359375
z: 0.111328125
range: 1.39446306229
velocity: -0.614668667316
doppler_bin: 7
bearing: 38.8607978821
intensity: 27.1096305847
---
header: 
  seq: 979505
  stamp: 
    secs: 1561865028
    nsecs: 768348517
  frame_id: "ti_mmwave"
point_id: 21
x: 1.05078125
y: 0.84375
z: 0.07421875
range: 1.43804001808
velocity: -0.614668667316
doppler_bin: 7
bearing: 38.7635574341
intensity: 23.6735591888
---
header: 
  seq: 979506
  stamp: 
    secs: 1561865028
    nsecs: 768419370
  frame_id: "ti_mmwave"
point_id: 22
x: 0.009765625
y: 0.03125
z: 0.025390625
range: 0.0435769706964
velocity: 0.0
doppler_bin: 8
bearing: 72.6459732056
intensity: 29.31457901
---
header: 
  seq: 979507
  stamp: 
    secs: 1561865028
    nsecs: 768434745
  frame_id: "ti_mmwave"
point_id: 23
x: 0.041015625
y: -0.033203125
z: 0.0625
range: 0.0871539413929
velocity: 0.0
doppler_bin: 8
bearing: -38.9909973145
intensity: 30.0860023499
---
header: 
  seq: 979508
  stamp: 
    secs: 1561865028
    nsecs: 768449199
  frame_id: "ti_mmwave"
point_id: 24
x: 0.044921875
y: -0.046875
z: 0.103515625
range: 0.130730912089
velocity: 0.0
doppler_bin: 8
bearing: -46.218875885
intensity: 28.9707698822
---
header: 
  seq: 979509
  stamp: 
    secs: 1561865028
    nsecs: 769566919
  frame_id: "ti_mmwave"
point_id: 0
x: 0.01171875
y: -0.0390625
z: -0.0078125
range: 0.0435769706964
velocity: 0.0
doppler_bin: 8
bearing: -73.3007583618
intensity: 30.6445808411
---
header: 
  seq: 979510
  stamp: 
    secs: 1561865028
    nsecs: 769626002
  frame_id: "ti_mmwave"
point_id: 1
x: 0.017578125
y: -0.080078125
z: -0.0078125
range: 0.0871539413929
velocity: 0.0
doppler_bin: 8
bearing: -77.6192398071
intensity: 31.9005146027
---
header: 
  seq: 979511
  stamp: 
    secs: 1561865028
    nsecs: 769643498
  frame_id: "ti_mmwave"
point_id: 2
x: 0.029296875
y: -0.119140625
z: -0.005859375
range: 0.130730912089
velocity: 0.0
doppler_bin: 8
bearing: -76.1849746704
intensity: 30.1452045441
---
header: 
  seq: 979512
  stamp: 
    secs: 1561865028
    nsecs: 769667216
  frame_id: "ti_mmwave"
point_id: 3
x: 0.056640625
y: -0.154296875
z: 0.005859375
range: 0.174307882786
velocity: 0.0
doppler_bin: 8
bearing: -69.8423843384
intensity: 25.4406795502
---
header: 
  seq: 979513
  stamp: 
    secs: 1561865028
    nsecs: 769681716
  frame_id: "ti_mmwave"
point_id: 4
x: 1.09765625
y: 0.759765625
z: 0.197265625
range: 1.43804001808
velocity: 0.0
doppler_bin: 8
bearing: 34.6898498535
intensity: 23.7106781006
---
header: 
  seq: 979514
  stamp: 
    secs: 1561865028
    nsecs: 769694824
  frame_id: "ti_mmwave"
point_id: 5
x: 2.611328125
y: -0.17578125
z: 1.056640625
range: 3.00681090355
velocity: 0.0
doppler_bin: 8
bearing: -3.85104894638
intensity: 29.0741138458
---
header: 
  seq: 979515
  stamp: 
    secs: 1561865028
    nsecs: 769706550
  frame_id: "ti_mmwave"
point_id: 6
x: 2.689453125
y: -0.08984375
z: 0.9765625
range: 3.05038785934
velocity: 0.0
doppler_bin: 8
bearing: -1.91330885887
intensity: 32.2063102722
---
header: 
  seq: 979516
  stamp: 
    secs: 1561865028
    nsecs: 769719699
  frame_id: "ti_mmwave"
point_id: 7
x: 2.755859375
y: -0.08984375
z: 0.912109375
range: 3.09396481514
velocity: 0.0
doppler_bin: 8
bearing: -1.86723792553
intensity: 31.1427726746
---
header: 
  seq: 979517
  stamp: 
    secs: 1561865028
    nsecs: 769732799
  frame_id: "ti_mmwave"
point_id: 8
x: 4.412109375
y: -0.142578125
z: 1.228515625
range: 4.88062095642
velocity: 0.0
doppler_bin: 8
bearing: -1.85087943077
intensity: 31.3924922943
---
header: 
  seq: 979518
  stamp: 
    secs: 1561865028
    nsecs: 769744377
  frame_id: "ti_mmwave"
point_id: 9
x: 4.44140625
y: -0.14453125
z: 1.26953125
range: 4.9241976738
velocity: 0.0
doppler_bin: 8
bearing: -1.86384868622
intensity: 31.205739975
---
header: 
  seq: 979519
  stamp: 
    secs: 1561865028
    nsecs: 769763912
  frame_id: "ti_mmwave"
point_id: 10
x: 4.7421875
y: -0.298828125
z: -0.578125
range: 5.09850549698
velocity: 0.0
doppler_bin: 8
bearing: -3.60571622849
intensity: 33.3324584961
---
header: 
  seq: 979520
  stamp: 
    secs: 1561865028
    nsecs: 769842283
  frame_id: "ti_mmwave"
point_id: 11
x: 4.779296875
y: -0.30078125
z: -0.609375
range: 5.14208269119
velocity: 0.0
doppler_bin: 8
bearing: -3.60111522675
intensity: 33.9672241211
---
header: 
  seq: 979521
  stamp: 
    secs: 1561865028
    nsecs: 769860625
  frame_id: "ti_mmwave"
point_id: 12
x: 4.814453125
y: -0.15234375
z: -0.697265625
range: 5.18565940857
velocity: 0.0
doppler_bin: 8
bearing: -1.81240582466
intensity: 30.5994186401
---
header: 
  seq: 979522
  stamp: 
    secs: 1561865028
    nsecs: 769871632
  frame_id: "ti_mmwave"
point_id: 13
x: 4.890625
y: -0.30859375
z: 0.6953125
range: 5.27281332016
velocity: 0.0
doppler_bin: 8
bearing: -3.61052203178
intensity: 31.1427726746
---
header: 
  seq: 979523
  stamp: 
    secs: 1561865028
    nsecs: 769883127
  frame_id: "ti_mmwave"
point_id: 14
x: 4.966796875
y: -0.46875
z: 0.126953125
range: 5.31639051437
velocity: 0.0
doppler_bin: 8
bearing: -5.39141845703
intensity: 29.8855895996
---
header: 
  seq: 979524
  stamp: 
    secs: 1561865028
    nsecs: 769896377
  frame_id: "ti_mmwave"
point_id: 15
x: 0.953125
y: 0.552734375
z: -0.078125
range: 1.1765781641
velocity: 0.614668667316
doppler_bin: 9
bearing: 30.1102199554
intensity: 21.205739975
---
header: 
  seq: 979525
  stamp: 
    secs: 1561865028
    nsecs: 769907586
  frame_id: "ti_mmwave"
point_id: 16
x: 1.01171875
y: 0.537109375
z: -0.033203125
range: 1.22015523911
velocity: 0.614668667316
doppler_bin: 9
bearing: 27.9632968903
intensity: 25.1982803345
---
header: 
  seq: 979526
  stamp: 
    secs: 1561865028
    nsecs: 769921074
  frame_id: "ti_mmwave"
point_id: 17
x: 1.046875
y: 0.556640625
z: -0.02734375
range: 1.2637321949
velocity: 0.614668667316
doppler_bin: 9
bearing: 28.0003108978
intensity: 26.1172332764
---
header: 
  seq: 979527
  stamp: 
    secs: 1561865028
    nsecs: 769933360
  frame_id: "ti_mmwave"
point_id: 18
x: 1.099609375
y: 0.537109375
z: -0.083984375
range: 1.3073091507
velocity: 0.614668667316
doppler_bin: 9
bearing: 26.0334129333
intensity: 23.5793476105
---
header: 
  seq: 979528
  stamp: 
    secs: 1561865028
    nsecs: 769944605
  frame_id: "ti_mmwave"
point_id: 19
x: 0.94140625
y: 0.767578125
z: 0.177734375
range: 1.3073091507
velocity: -0.614668667316
doppler_bin: 7
bearing: 39.1921768188
intensity: 22.6245117188
---
header: 
  seq: 979529
  stamp: 
    secs: 1561865028
    nsecs: 769956371
  frame_id: "ti_mmwave"
point_id: 20
x: 0.978515625
y: 0.79296875
z: 0.14453125
range: 1.35088610649
velocity: -0.614668667316
doppler_bin: 7
bearing: 39.0205917358
intensity: 26.7486114502
---
header: 
  seq: 979530
  stamp: 
    secs: 1561865028
    nsecs: 769970081
  frame_id: "ti_mmwave"
point_id: 21
x: 1.013671875
y: 0.818359375
z: 0.12890625
range: 1.39446306229
velocity: -0.614668667316
doppler_bin: 7
bearing: 38.914691925
intensity: 27.058637619
---
header: 
  seq: 979531
  stamp: 
    secs: 1561865028
    nsecs: 769983012
  frame_id: "ti_mmwave"
point_id: 22
x: 0.009765625
y: 0.03125
z: 0.025390625
range: 0.0435769706964
velocity: 0.0
doppler_bin: 8
bearing: 72.6459732056
intensity: 29.31457901
---
header: 
  seq: 979532
  stamp: 
    secs: 1561865028
    nsecs: 769996434
  frame_id: "ti_mmwave"
point_id: 23
x: 0.041015625
y: -0.033203125
z: 0.0625
range: 0.0871539413929
velocity: 0.0
doppler_bin: 8
bearing: -38.9909973145
intensity: 30.0860023499
---
header: 
  seq: 979533
  stamp: 
    secs: 1561865028
    nsecs: 770019378
  frame_id: "ti_mmwave"
point_id: 24
x: 0.044921875
y: -0.046875
z: 0.103515625
range: 0.130730912089
velocity: 0.0
doppler_bin: 8
bearing: -46.218875885
intensity: 28.9707698822
---
header: 
  seq: 979534
  stamp: 
    secs: 1561865028
    nsecs: 770041057
  frame_id: "ti_mmwave"
point_id: 26
x: 0.80859375
y: -0.16796875
z: 1.068359375
range: 1.43804001808
velocity: 0.0
doppler_bin: 8
bearing: -11.7351255417
intensity: 22.8555736542
---
header: 
  seq: 979535
  stamp: 
    secs: 1561865028
    nsecs: 827735453
  frame_id: "ti_mmwave"
point_id: 0
x: 0.01171875
y: -0.0390625
z: -0.0078125
range: 0.0435769706964
velocity: 0.0
doppler_bin: 8
bearing: -73.3007583618
intensity: 30.6557979584
---
header: 
  seq: 979536
  stamp: 
    secs: 1561865028
    nsecs: 827815234
  frame_id: "ti_mmwave"
point_id: 1
x: 0.017578125
y: -0.080078125
z: -0.0078125
range: 0.0871539413929
velocity: 0.0
doppler_bin: 8
bearing: -77.6192398071
intensity: 31.9061183929
---
header: 
  seq: 979537
  stamp: 
    secs: 1561865028
    nsecs: 827832718
  frame_id: "ti_mmwave"
point_id: 2
x: 0.029296875
y: -0.119140625
z: -0.005859375
range: 0.130730912089
velocity: 0.0
doppler_bin: 8
bearing: -76.1849746704
intensity: 30.1535968781
---
header: 
  seq: 979538
  stamp: 
    secs: 1561865028
    nsecs: 827846232
  frame_id: "ti_mmwave"
point_id: 3
x: 0.056640625
y: -0.154296875
z: 0.005859375
range: 0.174307882786
velocity: 0.0
doppler_bin: 8
bearing: -69.8423843384
intensity: 25.4406795502
---
header: 
  seq: 979539
  stamp: 
    secs: 1561865028
    nsecs: 827862285
  frame_id: "ti_mmwave"
point_id: 4
x: 0.939453125
y: 0.552734375
z: -0.181640625
range: 1.1765781641
velocity: 0.0
doppler_bin: 8
bearing: 30.4707508087
intensity: 21.2710475922
---
header: 
  seq: 979540
  stamp: 
    secs: 1561865028
    nsecs: 827973476
  frame_id: "ti_mmwave"
point_id: 5
x: 0.98828125
y: 0.572265625
z: -0.091796875
range: 1.22015523911
velocity: 0.0
doppler_bin: 8
bearing: 30.0730457306
intensity: 28.6272754669
---
header: 
  seq: 979541
  stamp: 
    secs: 1561865028
    nsecs: 827996472
  frame_id: "ti_mmwave"
point_id: 6
x: 1.02734375
y: 0.59375
z: -0.017578125
range: 1.2637321949
velocity: 0.0
doppler_bin: 8
bearing: 30.0256271362
intensity: 30.6892757416
---
header: 
  seq: 979542
  stamp: 
    secs: 1561865028
    nsecs: 828008509
  frame_id: "ti_mmwave"
point_id: 7
x: 1.013671875
y: 0.689453125
z: 0.048828125
range: 1.3073091507
velocity: 0.0
doppler_bin: 8
bearing: 34.2217407227
intensity: 29.8452739716
---
header: 
  seq: 979543
  stamp: 
    secs: 1561865028
    nsecs: 828019447
  frame_id: "ti_mmwave"
point_id: 8
x: 0.271484375
y: -0.08203125
z: 1.27734375
range: 1.39446306229
velocity: 0.0
doppler_bin: 8
bearing: -16.812625885
intensity: 24.9692974091
---
header: 
  seq: 979544
  stamp: 
    secs: 1561865028
    nsecs: 828030703
  frame_id: "ti_mmwave"
point_id: 9
x: 2.61328125
y: -0.17578125
z: 1.05078125
range: 3.00681090355
velocity: 0.0
doppler_bin: 8
bearing: -3.84817934036
intensity: 29.0471553802
---
header: 
  seq: 979545
  stamp: 
    secs: 1561865028
    nsecs: 828042675
  frame_id: "ti_mmwave"
point_id: 10
x: 2.689453125
y: -0.08984375
z: 0.978515625
range: 3.05038785934
velocity: 0.0
doppler_bin: 8
bearing: -1.91330885887
intensity: 32.1906051636
---
header: 
  seq: 979546
  stamp: 
    secs: 1561865028
    nsecs: 828054815
  frame_id: "ti_mmwave"
point_id: 11
x: 2.751953125
y: -0.08984375
z: 0.923828125
range: 3.09396481514
velocity: 0.0
doppler_bin: 8
bearing: -1.86988639832
intensity: 31.1360912323
---
header: 
  seq: 979547
  stamp: 
    secs: 1561865028
    nsecs: 828068627
  frame_id: "ti_mmwave"
point_id: 12
x: 4.412109375
y: -0.142578125
z: 1.224609375
range: 4.88062095642
velocity: 0.0
doppler_bin: 8
bearing: -1.85087943077
intensity: 31.3924922943
---
header: 
  seq: 979548
  stamp: 
    secs: 1561865028
    nsecs: 828082323
  frame_id: "ti_mmwave"
point_id: 13
x: 4.4375
y: -0.14453125
z: 1.287109375
range: 4.9241976738
velocity: 0.0
doppler_bin: 8
bearing: -1.86548817158
intensity: 31.2155990601
---
header: 
  seq: 979549
  stamp: 
    secs: 1561865028
    nsecs: 828097484
  frame_id: "ti_mmwave"
point_id: 14
x: 4.75
y: -0.298828125
z: -0.51171875
range: 5.09850549698
velocity: 0.0
doppler_bin: 8
bearing: -3.59980130196
intensity: 33.3825721741
---
header: 
  seq: 979550
  stamp: 
    secs: 1561865028
    nsecs: 828155351
  frame_id: "ti_mmwave"
point_id: 15
x: 4.779296875
y: -0.30078125
z: -0.607421875
range: 5.14208269119
velocity: 0.0
doppler_bin: 8
bearing: -3.60111522675
intensity: 33.9967384338
---
header: 
  seq: 979551
  stamp: 
    secs: 1561865028
    nsecs: 828173417
  frame_id: "ti_mmwave"
point_id: 16
x: 4.810546875
y: -0.15234375
z: -0.73046875
range: 5.18565940857
velocity: 0.0
doppler_bin: 8
bearing: -1.81387650967
intensity: 30.6483230591
---
header: 
  seq: 979552
  stamp: 
    secs: 1561865028
    nsecs: 828186857
  frame_id: "ti_mmwave"
point_id: 17
x: 4.892578125
y: -0.30859375
z: 0.689453125
range: 5.27281332016
velocity: 0.0
doppler_bin: 8
bearing: -3.60908436775
intensity: 31.0991592407
---
header: 
  seq: 979553
  stamp: 
    secs: 1561865028
    nsecs: 828201531
  frame_id: "ti_mmwave"
point_id: 18
x: 4.94921875
y: -0.623046875
z: 0.13671875
range: 5.31639051437
velocity: 0.0
doppler_bin: 8
bearing: -7.17510271072
intensity: 29.7680835724
---
header: 
  seq: 979554
  stamp: 
    secs: 1561865028
    nsecs: 828214337
  frame_id: "ti_mmwave"
point_id: 19
x: 0.98828125
y: 0.79296875
z: 0.060546875
range: 1.35088610649
velocity: -0.614668667316
doppler_bin: 7
bearing: 38.7425689697
intensity: 26.839471817
---
header: 
  seq: 979555
  stamp: 
    secs: 1561865028
    nsecs: 828228060
  frame_id: "ti_mmwave"
point_id: 20
x: 0.009765625
y: 0.03125
z: 0.025390625
range: 0.0435769706964
velocity: 0.0
doppler_bin: 8
bearing: 72.6459732056
intensity: 29.3094902039
---
header: 
  seq: 979556
  stamp: 
    secs: 1561865028
    nsecs: 828243626
  frame_id: "ti_mmwave"
point_id: 21
x: 0.041015625
y: -0.033203125
z: 0.0625
range: 0.0871539413929
velocity: 0.0
doppler_bin: 8
bearing: -38.9909973145
intensity: 30.0860023499
---
header: 
  seq: 979557
  stamp: 
    secs: 1561865028
    nsecs: 828256087
  frame_id: "ti_mmwave"
point_id: 22
x: 0.052734375
y: -0.04296875
z: 0.1015625
range: 0.130730912089
velocity: 0.0
doppler_bin: 8
bearing: -39.1736602783
intensity: 28.9652614594
---
header: 
  seq: 979558
  stamp: 
    secs: 1561865028
    nsecs: 887861832
  frame_id: "ti_mmwave"
point_id: 0
x: 0.01171875
y: -0.0390625
z: -0.0078125
range: 0.0435769706964
velocity: 0.0
doppler_bin: 8
bearing: -73.3007583618
intensity: 30.6520614624
---
header: 
  seq: 979559
  stamp: 
    secs: 1561865028
    nsecs: 887937264
  frame_id: "ti_mmwave"
point_id: 1
x: 0.017578125
y: -0.080078125
z: -0.0078125
range: 0.0871539413929
velocity: 0.0
doppler_bin: 8
bearing: -77.6192398071
intensity: 31.9005146027
---
header: 
  seq: 979560
  stamp: 
    secs: 1561865028
    nsecs: 887984758
  frame_id: "ti_mmwave"
point_id: 2
x: 0.029296875
y: -0.119140625
z: -0.005859375
range: 0.130730912089
velocity: 0.0
doppler_bin: 8
bearing: -76.1849746704
intensity: 30.1452045441
---
header: 
  seq: 979561
  stamp: 
    secs: 1561865028
    nsecs: 888002706
  frame_id: "ti_mmwave"
point_id: 3
x: 0.056640625
y: -0.154296875
z: 0.005859375
range: 0.174307882786
velocity: 0.0
doppler_bin: 8
bearing: -69.8423843384
intensity: 25.4282550812
---
header: 
  seq: 979562
  stamp: 
    secs: 1561865028
    nsecs: 888012586
  frame_id: "ti_mmwave"
point_id: 4
x: 0.91015625
y: 0.53125
z: -0.134765625
range: 1.13300120831
velocity: 0.0
doppler_bin: 8
bearing: 30.2717266083
intensity: 20.0432128906
---
header: 
  seq: 979563
  stamp: 
    secs: 1561865028
    nsecs: 888034752
  frame_id: "ti_mmwave"
point_id: 5
x: 0.966796875
y: 0.609375
z: 0.076171875
range: 1.22015523911
velocity: 0.0
doppler_bin: 8
bearing: 32.2233581543
intensity: 21.7026176453
---
header: 
  seq: 979564
  stamp: 
    secs: 1561865028
    nsecs: 888046882
  frame_id: "ti_mmwave"
point_id: 6
x: 1.001953125
y: 0.630859375
z: 0.080078125
range: 1.2637321949
velocity: 0.0
doppler_bin: 8
bearing: 32.1957321167
intensity: 25.2374649048
---
header: 
  seq: 979565
  stamp: 
    secs: 1561865028
    nsecs: 888189820
  frame_id: "ti_mmwave"
point_id: 7
x: 1.02734375
y: 0.65234375
z: 0.1640625
range: 1.3073091507
velocity: 0.0
doppler_bin: 8
bearing: 32.414768219
intensity: 27.2509460449
---
header: 
  seq: 979566
  stamp: 
    secs: 1561865028
    nsecs: 888218163
  frame_id: "ti_mmwave"
point_id: 8
x: 1.0234375
y: 0.712890625
z: 0.2265625
range: 1.35088610649
velocity: 0.0
doppler_bin: 8
bearing: 34.8597145081
intensity: 27.2509460449
---
header: 
  seq: 979567
  stamp: 
    secs: 1561865028
    nsecs: 888230733
  frame_id: "ti_mmwave"
point_id: 9
x: 0.396484375
y: -0.08203125
z: -1.244140625
range: 1.39446306229
velocity: 0.0
doppler_bin: 8
bearing: -11.6893692017
intensity: 24.6239795685
---
header: 
  seq: 979568
  stamp: 
    secs: 1561865028
    nsecs: 888243141
  frame_id: "ti_mmwave"
point_id: 10
x: 2.609375
y: -0.17578125
z: 1.060546875
range: 3.00681090355
velocity: 0.0
doppler_bin: 8
bearing: -3.85392260551
intensity: 28.9927310944
---
header: 
  seq: 979569
  stamp: 
    secs: 1561865028
    nsecs: 888307412
  frame_id: "ti_mmwave"
point_id: 11
x: 2.69140625
y: -0.08984375
z: 0.97265625
range: 3.05038785934
velocity: 0.0
doppler_bin: 8
bearing: -1.91192126274
intensity: 32.166934967
---
header: 
  seq: 979570
  stamp: 
    secs: 1561865028
    nsecs: 888325020
  frame_id: "ti_mmwave"
point_id: 12
x: 2.7578125
y: -0.08984375
z: 0.908203125
range: 3.09396481514
velocity: 0.0
doppler_bin: 8
bearing: -1.86591637135
intensity: 31.119342804
---
header: 
  seq: 979571
  stamp: 
    secs: 1561865028
    nsecs: 888337685
  frame_id: "ti_mmwave"
point_id: 13
x: 4.41796875
y: -0.142578125
z: 1.20703125
range: 4.88062095642
velocity: 0.0
doppler_bin: 8
bearing: -1.84842634201
intensity: 31.3735408783
---
header: 
  seq: 979572
  stamp: 
    secs: 1561865028
    nsecs: 888351794
  frame_id: "ti_mmwave"
point_id: 14
x: 4.451171875
y: -0.14453125
z: 1.2421875
range: 4.9241976738
velocity: 0.0
doppler_bin: 8
bearing: -1.8597625494
intensity: 31.1958580017
---
header: 
  seq: 979573
  stamp: 
    secs: 1561865028
    nsecs: 888366615
  frame_id: "ti_mmwave"
point_id: 15
x: 4.73828125
y: -0.298828125
z: -0.609375
range: 5.09850549698
velocity: 0.0
doppler_bin: 8
bearing: -3.60868048668
intensity: 33.3102226257
---
header: 
  seq: 979574
  stamp: 
    secs: 1561865028
    nsecs: 888428534
  frame_id: "ti_mmwave"
point_id: 16
x: 4.77734375
y: -0.30078125
z: -0.626953125
range: 5.14208269119
velocity: 0.0
doppler_bin: 8
bearing: -3.60258316994
intensity: 33.9724464417
---
header: 
  seq: 979575
  stamp: 
    secs: 1561865028
    nsecs: 888444883
  frame_id: "ti_mmwave"
point_id: 17
x: 4.810546875
y: -0.15234375
z: -0.724609375
range: 5.18565940857
velocity: 0.0
doppler_bin: 8
bearing: -1.81387650967
intensity: 30.6744289398
---
header: 
  seq: 979576
  stamp: 
    secs: 1561865028
    nsecs: 888456742
  frame_id: "ti_mmwave"
point_id: 18
x: 4.8984375
y: -0.30859375
z: 0.642578125
range: 5.27281332016
velocity: 0.0
doppler_bin: 8
bearing: -3.60477876663
intensity: 31.0551013947
---
header: 
  seq: 979577
  stamp: 
    secs: 1561865028
    nsecs: 888489157
  frame_id: "ti_mmwave"
point_id: 19
x: 4.951171875
y: -0.623046875
z: 0.095703125
range: 5.31639051437
velocity: 0.0
doppler_bin: 8
bearing: -7.17230129242
intensity: 29.8091201782
---
header: 
  seq: 979578
  stamp: 
    secs: 1561865028
    nsecs: 888503299
  frame_id: "ti_mmwave"
point_id: 20
x: 0.009765625
y: 0.03125
z: 0.025390625
range: 0.0435769706964
velocity: 0.0
doppler_bin: 8
bearing: 72.6459732056
intensity: 29.31457901
---
header: 
  seq: 979579
  stamp: 
    secs: 1561865028
    nsecs: 888516441
  frame_id: "ti_mmwave"
point_id: 21
x: 0.041015625
y: -0.033203125
z: 0.0625
range: 0.0871539413929
velocity: 0.0
doppler_bin: 8
bearing: -38.9909973145
intensity: 30.0902576447
---
header: 
  seq: 979580
  stamp: 
    secs: 1561865028
    nsecs: 888533494
  frame_id: "ti_mmwave"
point_id: 22
x: 0.044921875
y: -0.046875
z: 0.103515625
range: 0.130730912089
velocity: 0.0
doppler_bin: 8
bearing: -46.218875885
intensity: 28.9707698822
---
header: 
  seq: 979581
  stamp: 
    secs: 1561865028
    nsecs: 888586711
  frame_id: "ti_mmwave"
point_id: 24
x: 1.025390625
y: 0.736328125
z: 0.345703125
range: 1.39446306229
velocity: 0.0
doppler_bin: 8
bearing: 35.6819458008
intensity: 23.4830493927
---
header: 
  seq: 979582
  stamp: 
    secs: 1561865028
    nsecs: 889503389
  frame_id: "ti_mmwave"
point_id: 0
x: 0.01171875
y: -0.0390625
z: -0.0078125
range: 0.0435769706964
velocity: 0.0
doppler_bin: 8
bearing: -73.3007583618
intensity: 30.6520614624
---
header: 
  seq: 979583
  stamp: 
    secs: 1561865028
    nsecs: 889539586
  frame_id: "ti_mmwave"
point_id: 1
x: 0.017578125
y: -0.080078125
z: -0.0078125
range: 0.0871539413929
velocity: 0.0
doppler_bin: 8
bearing: -77.6192398071
intensity: 31.9033164978
---
header: 
  seq: 979584
  stamp: 
    secs: 1561865028
    nsecs: 889549904
  frame_id: "ti_mmwave"
point_id: 2
x: 0.029296875
y: -0.119140625
z: -0.005859375
range: 0.130730912089
velocity: 0.0
doppler_bin: 8
bearing: -76.1849746704
intensity: 30.1494026184
---
header: 
  seq: 979585
  stamp: 
    secs: 1561865028
    nsecs: 889558336
  frame_id: "ti_mmwave"
point_id: 3
x: 0.056640625
y: -0.154296875
z: 0.005859375
range: 0.174307882786
velocity: 0.0
doppler_bin: 8
bearing: -69.8423843384
intensity: 25.4406795502
---
header: 
  seq: 979586
  stamp: 
    secs: 1561865028
    nsecs: 889568029
  frame_id: "ti_mmwave"
point_id: 4
x: 0.94921875
y: 0.552734375
z: -0.12109375
range: 1.1765781641
velocity: 0.0
doppler_bin: 8
bearing: 30.212436676
intensity: 21.3672065735
---
header: 
  seq: 979587
  stamp: 
    secs: 1561865028
    nsecs: 889577003
  frame_id: "ti_mmwave"
point_id: 5
x: 0.96484375
y: 0.609375
z: -0.095703125
range: 1.22015523911
velocity: 0.0
doppler_bin: 8
bearing: 32.275642395
intensity: 27.5511226654
---
header: 
  seq: 979588
  stamp: 
    secs: 1561865028
    nsecs: 889586124
  frame_id: "ti_mmwave"
point_id: 6
x: 1.001953125
y: 0.630859375
z: -0.078125
range: 1.2637321949
velocity: 0.0
doppler_bin: 8
bearing: 32.1957321167
intensity: 28.9320678711
---
header: 
  seq: 979589
  stamp: 
    secs: 1561865028
    nsecs: 889604895
  frame_id: "ti_mmwave"
point_id: 7
x: 1.0625
y: 0.61328125
z: -0.009765625
range: 1.3073091507
velocity: 0.0
doppler_bin: 8
bearing: 29.9937953949
intensity: 26.4147415161
---
header: 
  seq: 979590
  stamp: 
    secs: 1561865028
    nsecs: 889615044
  frame_id: "ti_mmwave"
point_id: 8
x: 1.041015625
y: 0.712890625
z: 0.126953125
range: 1.35088610649
velocity: 0.0
doppler_bin: 8
bearing: 34.4034614563
intensity: 26.0745506287
---
header: 
  seq: 979591
  stamp: 
    secs: 1561865028
    nsecs: 889673079
  frame_id: "ti_mmwave"
point_id: 9
x: 0.291015625
y: -0.041015625
z: -1.275390625
range: 1.39446306229
velocity: 0.0
doppler_bin: 8
bearing: -8.02240371704
intensity: 24.7129173279
---
header: 
  seq: 979592
  stamp: 
    secs: 1561865028
    nsecs: 889681307
  frame_id: "ti_mmwave"
point_id: 10
x: 2.62109375
y: -0.17578125
z: 1.033203125
range: 3.00681090355
velocity: 0.0
doppler_bin: 8
bearing: -3.83674383163
intensity: 29.0417442322
---
header: 
  seq: 979593
  stamp: 
    secs: 1561865028
    nsecs: 889690811
  frame_id: "ti_mmwave"
point_id: 11
x: 2.69140625
y: -0.08984375
z: 0.974609375
range: 3.05038785934
velocity: 0.0
doppler_bin: 8
bearing: -1.91192126274
intensity: 32.1906051636
---
header: 
  seq: 979594
  stamp: 
    secs: 1561865028
    nsecs: 889698608
  frame_id: "ti_mmwave"
point_id: 12
x: 2.755859375
y: -0.08984375
z: 0.9140625
range: 3.09396481514
velocity: 0.0
doppler_bin: 8
bearing: -1.86723792553
intensity: 31.1294002533
---
header: 
  seq: 979595
  stamp: 
    secs: 1561865028
    nsecs: 889706206
  frame_id: "ti_mmwave"
point_id: 13
x: 4.416015625
y: -0.142578125
z: 1.212890625
range: 4.88062095642
velocity: 0.0
doppler_bin: 8
bearing: -1.84924340248
intensity: 31.3956432343
---
header: 
  seq: 979596
  stamp: 
    secs: 1561865028
    nsecs: 889714878
  frame_id: "ti_mmwave"
point_id: 14
x: 4.4453125
y: -0.14453125
z: 1.2578125
range: 4.9241976738
velocity: 0.0
doppler_bin: 8
bearing: -1.86221218109
intensity: 31.1958580017
---
header: 
  seq: 979597
  stamp: 
    secs: 1561865028
    nsecs: 889722169
  frame_id: "ti_mmwave"
point_id: 15
x: 4.734375
y: -0.298828125
z: -0.638671875
range: 5.09850549698
velocity: 0.0
doppler_bin: 8
bearing: -3.61165046692
intensity: 33.3223648071
---
header: 
  seq: 979598
  stamp: 
    secs: 1561865028
    nsecs: 889729358
  frame_id: "ti_mmwave"
point_id: 16
x: 4.775390625
y: -0.30078125
z: -0.634765625
range: 5.14208269119
velocity: 0.0
doppler_bin: 8
bearing: -3.60405302048
intensity: 33.9392585754
---
header: 
  seq: 979599
  stamp: 
    secs: 1561865028
    nsecs: 889736957
  frame_id: "ti_mmwave"
point_id: 17
x: 4.8046875
y: -0.15234375
z: -0.767578125
range: 5.18565940857
velocity: 0.0
doppler_bin: 8
bearing: -1.81608688831
intensity: 30.5499591827
---
header: 
  seq: 979600
  stamp: 
    secs: 1561865028
    nsecs: 889746299
  frame_id: "ti_mmwave"
point_id: 18
x: 4.83203125
y: -0.154296875
z: 0.853515625
range: 5.22923660278
velocity: 0.0
doppler_bin: 8
bearing: -1.8289526701
intensity: 28.70403862
---
header: 
  seq: 979601
  stamp: 
    secs: 1561865028
    nsecs: 889753801
  frame_id: "ti_mmwave"
point_id: 19
x: 4.892578125
y: -0.30859375
z: 0.6875
range: 5.27281332016
velocity: 0.0
doppler_bin: 8
bearing: -3.60908436775
intensity: 31.0243377686
---
header: 
  seq: 979602
  stamp: 
    secs: 1561865028
    nsecs: 889761083
  frame_id: "ti_mmwave"
point_id: 20
x: 4.951171875
y: -0.623046875
z: 0.02734375
range: 5.31639051437
velocity: 0.0
doppler_bin: 8
bearing: -7.17230129242
intensity: 29.7818050385
---
header: 
  seq: 979603
  stamp: 
    secs: 1561865028
    nsecs: 889768774
  frame_id: "ti_mmwave"
point_id: 21
x: 0.009765625
y: 0.03125
z: 0.025390625
range: 0.0435769706964
velocity: 0.0
doppler_bin: 8
bearing: 72.6459732056
intensity: 29.31457901
---
header: 
  seq: 979604
  stamp: 
    secs: 1561865028
    nsecs: 889778078
  frame_id: "ti_mmwave"
point_id: 22
x: 0.041015625
y: -0.033203125
z: 0.0625
range: 0.0871539413929
velocity: 0.0
doppler_bin: 8
bearing: -38.9909973145
intensity: 30.0860023499
---
header: 
  seq: 979605
  stamp: 
    secs: 1561865028
    nsecs: 889783040
  frame_id: "ti_mmwave"
point_id: 23
x: 0.044921875
y: -0.046875
z: 0.103515625
range: 0.130730912089
velocity: 0.0
doppler_bin: 8
bearing: -46.218875885
intensity: 28.9652614594
---
header: 
  seq: 979606
  stamp: 
    secs: 1561865028
    nsecs: 889805275
  frame_id: "ti_mmwave"
point_id: 25
x: 0.49609375
y: -0.0390625
z: -1.166015625
range: 1.35088610649
velocity: 0.0
doppler_bin: 8
bearing: -4.50218963623
intensity: 24.0654010773
---
header: 
  seq: 979607
  stamp: 
    secs: 1561865028
    nsecs: 889820369
  frame_id: "ti_mmwave"
point_id: 26
x: 1.021484375
y: 0.818359375
z: 0.052734375
range: 1.39446306229
velocity: 0.0
doppler_bin: 8
bearing: 38.6998672485
intensity: 23.6921577454
---
header: 
  seq: 979608
  stamp: 
    secs: 1561865028
    nsecs: 948074587
  frame_id: "ti_mmwave"
point_id: 0
x: 0.01171875
y: -0.0390625
z: -0.0078125
range: 0.0435769706964
velocity: 0.0
doppler_bin: 8
bearing: -73.3007583618
intensity: 30.6557979584
---
header: 
  seq: 979609
  stamp: 
    secs: 1561865028
    nsecs: 948152805
  frame_id: "ti_mmwave"
point_id: 1
x: 0.017578125
y: -0.080078125
z: -0.0078125
range: 0.0871539413929
velocity: 0.0
doppler_bin: 8
bearing: -77.6192398071
intensity: 31.9033164978
---
header: 
  seq: 979610
  stamp: 
    secs: 1561865028
    nsecs: 948169576
  frame_id: "ti_mmwave"
point_id: 2
x: 0.029296875
y: -0.119140625
z: -0.005859375
range: 0.130730912089
velocity: 0.0
doppler_bin: 8
bearing: -76.1849746704
intensity: 30.1535968781
---
header: 
  seq: 979611
  stamp: 
    secs: 1561865028
    nsecs: 948182338
  frame_id: "ti_mmwave"
point_id: 3
x: 0.056640625
y: -0.154296875
z: 0.005859375
range: 0.174307882786
velocity: 0.0
doppler_bin: 8
bearing: -69.8423843384
intensity: 25.4406795502
---
header: 
  seq: 979612
  stamp: 
    secs: 1561865028
    nsecs: 948197863
  frame_id: "ti_mmwave"
point_id: 4
x: 0.93359375
y: 0.498046875
z: -0.099609375
range: 1.13300120831
velocity: 0.0
doppler_bin: 8
bearing: 28.0787067413
intensity: 20.0860023499
---
header: 
  seq: 979613
  stamp: 
    secs: 1561865028
    nsecs: 948280554
  frame_id: "ti_mmwave"
point_id: 5
x: 0.984375
y: 0.572265625
z: -0.123046875
range: 1.22015523911
velocity: 0.0
doppler_bin: 8
bearing: 30.1715450287
intensity: 22.8330116272
---
header: 
  seq: 979614
  stamp: 
    secs: 1561865028
    nsecs: 948295721
  frame_id: "ti_mmwave"
point_id: 6
x: 1.021484375
y: 0.51953125
z: -0.3046875
range: 1.2637321949
velocity: 0.0
doppler_bin: 8
bearing: 26.9580802917
intensity: 21.1058979034
---
header: 
  seq: 979615
  stamp: 
    secs: 1561865028
    nsecs: 948306983
  frame_id: "ti_mmwave"
point_id: 7
x: 1.037109375
y: 0.65234375
z: -0.05859375
range: 1.3073091507
velocity: 0.0
doppler_bin: 8
bearing: 32.1699676514
intensity: 26.3346843719
---
header: 
  seq: 979616
  stamp: 
    secs: 1561865028
    nsecs: 948317452
  frame_id: "ti_mmwave"
point_id: 8
x: 1.08984375
y: 0.634765625
z: -0.142578125
range: 1.35088610649
velocity: 0.0
doppler_bin: 8
bearing: 30.2181167603
intensity: 28.0753498077
---
header: 
  seq: 979617
  stamp: 
    secs: 1561865028
    nsecs: 948327971
  frame_id: "ti_mmwave"
point_id: 9
x: 1.052734375
y: 0.736328125
z: -0.248046875
range: 1.39446306229
velocity: 0.0
doppler_bin: 8
bearing: 34.9706077576
intensity: 25.4406795502
---
header: 
  seq: 979618
  stamp: 
    secs: 1561865028
    nsecs: 948338342
  frame_id: "ti_mmwave"
point_id: 10
x: 2.611328125
y: -0.17578125
z: 1.05859375
range: 3.00681090355
velocity: 0.0
doppler_bin: 8
bearing: -3.85104894638
intensity: 29.0363254547
---
header: 
  seq: 979619
  stamp: 
    secs: 1561865028
    nsecs: 948349154
  frame_id: "ti_mmwave"
point_id: 11
x: 2.689453125
y: -0.08984375
z: 0.978515625
range: 3.05038785934
velocity: 0.0
doppler_bin: 8
bearing: -1.91330885887
intensity: 32.1984634399
---
header: 
  seq: 979620
  stamp: 
    secs: 1561865028
    nsecs: 948363614
  frame_id: "ti_mmwave"
point_id: 12
x: 2.755859375
y: -0.08984375
z: 0.9140625
range: 3.09396481514
velocity: 0.0
doppler_bin: 8
bearing: -1.86723792553
intensity: 31.1461105347
---
header: 
  seq: 979621
  stamp: 
    secs: 1561865028
    nsecs: 948373821
  frame_id: "ti_mmwave"
point_id: 13
x: 4.416015625
y: -0.142578125
z: 1.21484375
range: 4.88062095642
velocity: 0.0
doppler_bin: 8
bearing: -1.84924340248
intensity: 31.3672065735
---
header: 
  seq: 979622
  stamp: 
    secs: 1561865028
    nsecs: 948386834
  frame_id: "ti_mmwave"
point_id: 14
x: 4.443359375
y: -0.14453125
z: 1.263671875
range: 4.9241976738
velocity: 0.0
doppler_bin: 8
bearing: -1.86303019524
intensity: 31.1925582886
---
header: 
  seq: 979623
  stamp: 
    secs: 1561865028
    nsecs: 948399614
  frame_id: "ti_mmwave"
point_id: 15
x: 4.75
y: -0.298828125
z: -0.5
range: 5.09850549698
velocity: 0.0
doppler_bin: 8
bearing: -3.59980130196
intensity: 33.3485565186
---
header: 
  seq: 979624
  stamp: 
    secs: 1561865028
    nsecs: 948415110
  frame_id: "ti_mmwave"
point_id: 16
x: 4.787109375
y: -0.30078125
z: -0.5390625
range: 5.14208269119
velocity: 0.0
doppler_bin: 8
bearing: -3.59525370598
intensity: 33.968963623
---
header: 
  seq: 979625
  stamp: 
    secs: 1561865028
    nsecs: 948476597
  frame_id: "ti_mmwave"
point_id: 17
x: 4.82421875
y: -0.15234375
z: -0.63671875
range: 5.18565940857
velocity: 0.0
doppler_bin: 8
bearing: -1.80873930454
intensity: 30.6107540131
---
header: 
  seq: 979626
  stamp: 
    secs: 1561865028
    nsecs: 948493603
  frame_id: "ti_mmwave"
point_id: 18
x: 4.83984375
y: -0.154296875
z: 0.80859375
range: 5.22923660278
velocity: 0.0
doppler_bin: 8
bearing: -1.82600235939
intensity: 28.8705444336
---
header: 
  seq: 979627
  stamp: 
    secs: 1561865028
    nsecs: 948509501
  frame_id: "ti_mmwave"
point_id: 19
x: 4.892578125
y: -0.30859375
z: 0.681640625
range: 5.27281332016
velocity: 0.0
doppler_bin: 8
bearing: -3.60908436775
intensity: 31.0754909515
---
header: 
  seq: 979628
  stamp: 
    secs: 1561865028
    nsecs: 948523401
  frame_id: "ti_mmwave"
point_id: 20
x: 4.94921875
y: -0.623046875
z: 0.1171875
range: 5.31639051437
velocity: 0.0
doppler_bin: 8
bearing: -7.17510271072
intensity: 29.8362636566
---
header: 
  seq: 979629
  stamp: 
    secs: 1561865028
    nsecs: 948537013
  frame_id: "ti_mmwave"
point_id: 21
x: 4.85546875
y: 1.59765625
z: -0.087890625
range: 5.44712114334
velocity: 0.0
doppler_bin: 8
bearing: 18.2134094238
intensity: 27.8532981873
---
header: 
  seq: 979630
  stamp: 
    secs: 1561865028
    nsecs: 948550535
  frame_id: "ti_mmwave"
point_id: 22
x: 0.01171875
y: 0.03125
z: 0.025390625
range: 0.0435769706964
velocity: 0.0
doppler_bin: 8
bearing: 69.4439544678
intensity: 29.31457901
---
header: 
  seq: 979631
  stamp: 
    secs: 1561865028
    nsecs: 948563337
  frame_id: "ti_mmwave"
point_id: 23
x: 0.041015625
y: -0.033203125
z: 0.0625
range: 0.0871539413929
velocity: 0.0
doppler_bin: 8
bearing: -38.9909973145
intensity: 30.0902576447
---
header: 
  seq: 979632
  stamp: 
    secs: 1561865028
    nsecs: 948576313
  frame_id: "ti_mmwave"
point_id: 24
x: 0.044921875
y: -0.046875
z: 0.103515625
range: 0.130730912089
velocity: 0.0
doppler_bin: 8
bearing: -46.218875885
intensity: 28.9762706757
---
header: 
  seq: 979633
  stamp: 
    secs: 1561865028
    nsecs: 948593084
  frame_id: "ti_mmwave"
point_id: 26
x: 0.87890625
y: 0.779296875
z: 0.171875
range: 1.2637321949
velocity: 0.0
doppler_bin: 8
bearing: 41.562335968
intensity: 20.7554702759
---
header: 
  seq: 979634
  stamp: 
    secs: 1561865028
    nsecs: 948606623
  frame_id: "ti_mmwave"
point_id: 27
x: 0.083984375
y: -0.08203125
z: 1.3046875
range: 1.39446306229
velocity: 0.0
doppler_bin: 8
bearing: -44.3259658813
intensity: 25.3907604218
---
header: 
  seq: 979635
  stamp: 
    secs: 1561865028
    nsecs: 949688717
  frame_id: "ti_mmwave"
point_id: 0
x: 0.01171875
y: -0.0390625
z: -0.0078125
range: 0.0435769706964
velocity: 0.0
doppler_bin: 8
bearing: -73.3007583618
intensity: 30.6483230591
---
header: 
  seq: 979636
  stamp: 
    secs: 1561865028
    nsecs: 949755297
  frame_id: "ti_mmwave"
point_id: 1
x: 0.017578125
y: -0.080078125
z: -0.0078125
range: 0.0871539413929
velocity: 0.0
doppler_bin: 8
bearing: -77.6192398071
intensity: 31.9005146027
---
header: 
  seq: 979637
  stamp: 
    secs: 1561865028
    nsecs: 949767146
  frame_id: "ti_mmwave"
point_id: 2
x: 0.029296875
y: -0.119140625
z: -0.005859375
range: 0.130730912089
velocity: 0.0
doppler_bin: 8
bearing: -76.1849746704
intensity: 30.1494026184
---
header: 
  seq: 979638
  stamp: 
    secs: 1561865028
    nsecs: 949777088
  frame_id: "ti_mmwave"
point_id: 3
x: 0.056640625
y: -0.154296875
z: 0.005859375
range: 0.174307882786
velocity: 0.0
doppler_bin: 8
bearing: -69.8423843384
intensity: 25.4530715942
---
header: 
  seq: 979639
  stamp: 
    secs: 1561865028
    nsecs: 949791224
  frame_id: "ti_mmwave"
point_id: 4
x: 0.91796875
y: 0.6796875
z: -0.083984375
range: 1.22015523911
velocity: 0.0
doppler_bin: 8
bearing: 36.5171928406
intensity: 23.7291202545
---
header: 
  seq: 979640
  stamp: 
    secs: 1561865028
    nsecs: 949804353
  frame_id: "ti_mmwave"
point_id: 5
x: 0.94921875
y: 0.705078125
z: -0.091796875
range: 1.2637321949
velocity: 0.0
doppler_bin: 8
bearing: 36.6049041748
intensity: 28.3442077637
---
header: 
  seq: 979641
  stamp: 
    secs: 1561865028
    nsecs: 949817395
  frame_id: "ti_mmwave"
point_id: 6
x: 1.0078125
y: 0.689453125
z: -0.125
range: 1.3073091507
velocity: 0.0
doppler_bin: 8
bearing: 34.3763656616
intensity: 29.6284275055
---
header: 
  seq: 979642
  stamp: 
    secs: 1561865028
    nsecs: 949826442
  frame_id: "ti_mmwave"
point_id: 7
x: 1.07421875
y: 0.634765625
z: -0.23046875
range: 1.35088610649
velocity: 0.0
doppler_bin: 8
bearing: 30.5792255402
intensity: 27.8318862915
---
header: 
  seq: 979643
  stamp: 
    secs: 1561865028
    nsecs: 949834822
  frame_id: "ti_mmwave"
point_id: 8
x: 0.251953125
y: -0.041015625
z: -1.283203125
range: 1.39446306229
velocity: 0.0
doppler_bin: 8
bearing: -9.24611377716
intensity: 25.3019962311
---
header: 
  seq: 979644
  stamp: 
    secs: 1561865028
    nsecs: 949843642
  frame_id: "ti_mmwave"
point_id: 9
x: 2.615234375
y: -0.17578125
z: 1.046875
range: 3.00681090355
velocity: 0.0
doppler_bin: 8
bearing: -3.84531402588
intensity: 28.9872512817
---
header: 
  seq: 979645
  stamp: 
    secs: 1561865028
    nsecs: 949851339
  frame_id: "ti_mmwave"
point_id: 10
x: 2.689453125
y: -0.08984375
z: 0.978515625
range: 3.05038785934
velocity: 0.0
doppler_bin: 8
bearing: -1.91330885887
intensity: 32.166934967
---
header: 
  seq: 979646
  stamp: 
    secs: 1561865028
    nsecs: 949969478
  frame_id: "ti_mmwave"
point_id: 11
x: 2.75390625
y: -0.08984375
z: 0.919921875
range: 3.09396481514
velocity: 0.0
doppler_bin: 8
bearing: -1.86856126785
intensity: 31.0890312195
---
header: 
  seq: 979647
  stamp: 
    secs: 1561865028
    nsecs: 949999701
  frame_id: "ti_mmwave"
point_id: 12
x: 4.421875
y: -0.142578125
z: 1.193359375
range: 4.88062095642
velocity: 0.0
doppler_bin: 8
bearing: -1.84679484367
intensity: 31.3861846924
---
header: 
  seq: 979648
  stamp: 
    secs: 1561865028
    nsecs: 950013226
  frame_id: "ti_mmwave"
point_id: 13
x: 4.451171875
y: -0.14453125
z: 1.236328125
range: 4.9241976738
velocity: 0.0
doppler_bin: 8
bearing: -1.8597625494
intensity: 31.2155990601
---
header: 
  seq: 979649
  stamp: 
    secs: 1561865028
    nsecs: 950032364
  frame_id: "ti_mmwave"
point_id: 14
x: 4.74609375
y: -0.298828125
z: -0.54296875
range: 5.09850549698
velocity: 0.0
doppler_bin: 8
bearing: -3.60275626183
intensity: 33.4163246155
---
header: 
  seq: 979650
  stamp: 
    secs: 1561865028
    nsecs: 950080072
  frame_id: "ti_mmwave"
point_id: 15
x: 4.78125
y: -0.30078125
z: -0.58984375
range: 5.14208269119
velocity: 0.0
doppler_bin: 8
bearing: -3.59964799881
intensity: 34.0449180603
---
header: 
  seq: 979651
  stamp: 
    secs: 1561865028
    nsecs: 950098018
  frame_id: "ti_mmwave"
point_id: 16
x: 4.806640625
y: -0.15234375
z: -0.759765625
range: 5.18565940857
velocity: 0.0
doppler_bin: 8
bearing: -1.81534969807
intensity: 30.7664051056
---
header: 
  seq: 979652
  stamp: 
    secs: 1561865028
    nsecs: 950113067
  frame_id: "ti_mmwave"
point_id: 17
x: 4.849609375
y: -0.154296875
z: 0.744140625
range: 5.22923660278
velocity: 0.0
doppler_bin: 8
bearing: -1.82232797146
intensity: 28.7966918945
---
header: 
  seq: 979653
  stamp: 
    secs: 1561865028
    nsecs: 950124807
  frame_id: "ti_mmwave"
point_id: 18
x: 4.896484375
y: -0.30859375
z: 0.65625
range: 5.27281332016
velocity: 0.0
doppler_bin: 8
bearing: -3.6062130928
intensity: 31.0720996857
---
header: 
  seq: 979654
  stamp: 
    secs: 1561865028
    nsecs: 950133533
  frame_id: "ti_mmwave"
point_id: 19
x: 4.951171875
y: -0.623046875
z: 0.0625
range: 5.31639051437
velocity: 0.0
doppler_bin: 8
bearing: -7.17230129242
intensity: 29.8272342682
---
header: 
  seq: 979655
  stamp: 
    secs: 1561865028
    nsecs: 950156442
  frame_id: "ti_mmwave"
point_id: 20
x: 4.857421875
y: 1.59765625
z: 0.07421875
range: 5.44712114334
velocity: 0.0
doppler_bin: 8
bearing: 18.2065696716
intensity: 27.4741172791
---
header: 
  seq: 979656
  stamp: 
    secs: 1561865028
    nsecs: 950175355
  frame_id: "ti_mmwave"
point_id: 21
x: 1.095703125
y: 0.994140625
z: -0.318359375
range: 1.61234796047
velocity: -1.84400606155
doppler_bin: 5
bearing: 42.2177200317
intensity: 20.4532299042
---
header: 
  seq: 979657
  stamp: 
    secs: 1561865028
    nsecs: 950195775
  frame_id: "ti_mmwave"
point_id: 22
x: 0.01171875
y: 0.03125
z: 0.025390625
range: 0.0435769706964
velocity: 0.0
doppler_bin: 8
bearing: 69.4439544678
intensity: 29.3094902039
---
header: 
  seq: 979658
  stamp: 
    secs: 1561865028
    nsecs: 950212359
  frame_id: "ti_mmwave"
point_id: 23
x: 0.041015625
y: -0.033203125
z: 0.0625
range: 0.0871539413929
velocity: 0.0
doppler_bin: 8
bearing: -38.9909973145
intensity: 30.0945091248
---
header: 
  seq: 979659
  stamp: 
    secs: 1561865028
    nsecs: 950220897
  frame_id: "ti_mmwave"
point_id: 24
x: 0.044921875
y: -0.046875
z: 0.103515625
range: 0.130730912089
velocity: 0.0
doppler_bin: 8
bearing: -46.218875885
intensity: 28.9762706757
---
header: 
  seq: 979660
  stamp: 
    secs: 1561865028
    nsecs: 950238754
  frame_id: "ti_mmwave"
point_id: 26
x: 1.12890625
y: 0.490234375
z: -0.4453125
range: 1.39446306229
velocity: 0.0
doppler_bin: 8
bearing: 23.4731884003
intensity: 23.8021125793
---
header: 
  seq: 979661
  stamp: 
    secs: 1561865028
    nsecs: 950310873
  frame_id: "ti_mmwave"
point_id: 27
x: 3.6171875
y: -0.3203125
z: -3.6015625
range: 5.44712114334
velocity: 0.0
doppler_bin: 8
bearing: -5.06050872803
intensity: 25.0920257568
---
header: 
  seq: 979662
  stamp: 
    secs: 1561865029
    nsecs:   8043181
  frame_id: "ti_mmwave"
point_id: 0
