header: 
  seq: 997731
  stamp: 
    secs: 1561865053
    nsecs: 847770527
  frame_id: "ti_mmwave"
point_id: 0
x: 0.01171875
y: -0.0390625
z: -0.0078125
range: 0.0435769706964
velocity: 0.0
doppler_bin: 8
bearing: -73.3007583618
intensity: 30.6445808411
---
header: 
  seq: 997732
  stamp: 
    secs: 1561865053
    nsecs: 847858025
  frame_id: "ti_mmwave"
point_id: 1
x: 0.017578125
y: -0.080078125
z: -0.0078125
range: 0.0871539413929
velocity: 0.0
doppler_bin: 8
bearing: -77.6192398071
intensity: 31.9033164978
---
header: 
  seq: 997733
  stamp: 
    secs: 1561865053
    nsecs: 847878192
  frame_id: "ti_mmwave"
point_id: 2
x: 0.029296875
y: -0.119140625
z: -0.005859375
range: 0.130730912089
velocity: 0.0
doppler_bin: 8
bearing: -76.1849746704
intensity: 30.1535968781
---
header: 
  seq: 997734
  stamp: 
    secs: 1561865053
    nsecs: 847891573
  frame_id: "ti_mmwave"
point_id: 3
x: 0.056640625
y: -0.154296875
z: 0.005859375
range: 0.174307882786
velocity: 0.0
doppler_bin: 8
bearing: -69.8423843384
intensity: 25.4530715942
---
header: 
  seq: 997735
  stamp: 
    secs: 1561865053
    nsecs: 847918898
  frame_id: "ti_mmwave"
point_id: 4
x: 0.939453125
y: 0.029296875
z: -0.0546875
range: 1.00227034092
velocity: 0.0
doppler_bin: 8
bearing: 1.7861918211
intensity: 22.0139713287
---
header: 
  seq: 997736
  stamp: 
    secs: 1561865053
    nsecs: 848055434
  frame_id: "ti_mmwave"
point_id: 5
x: 0.978515625
y: 0.060546875
z: -0.048828125
range: 1.04584729671
velocity: 0.0
doppler_bin: 8
bearing: 3.54073381424
intensity: 25.2762985229
---
header: 
  seq: 997737
  stamp: 
    secs: 1561865053
    nsecs: 848067955
  frame_id: "ti_mmwave"
point_id: 6
x: 1.01953125
y: 0.03125
z: -0.06640625
range: 1.08942425251
velocity: 0.0
doppler_bin: 8
bearing: 1.75564265251
intensity: 24.9415454865
---
header: 
  seq: 997738
  stamp: 
    secs: 1561865053
    nsecs: 848077714
  frame_id: "ti_mmwave"
point_id: 7
x: 1.056640625
y: -0.0
z: -0.11328125
range: 1.13300120831
velocity: 0.0
doppler_bin: 8
bearing: -0.0
intensity: 20.8635978699
---
header: 
  seq: 997739
  stamp: 
    secs: 1561865053
    nsecs: 848086690
  frame_id: "ti_mmwave"
point_id: 8
x: 2.615234375
y: -0.17578125
z: 1.044921875
range: 3.00681090355
velocity: 0.0
doppler_bin: 8
bearing: -3.84531402588
intensity: 28.9872512817
---
header: 
  seq: 997740
  stamp: 
    secs: 1561865053
    nsecs: 848095845
  frame_id: "ti_mmwave"
point_id: 9
x: 2.66015625
y: -0.1796875
z: 1.044921875
range: 3.05038785934
velocity: 0.0
doppler_bin: 8
bearing: -3.86432933807
intensity: 32.3095970154
---
header: 
  seq: 997741
  stamp: 
    secs: 1561865053
    nsecs: 848105377
  frame_id: "ti_mmwave"
point_id: 10
x: 2.75
y: -0.08984375
z: 0.9296875
range: 3.09396481514
velocity: 0.0
doppler_bin: 8
bearing: -1.87121355534
intensity: 31.5136985779
---
header: 
  seq: 997742
  stamp: 
    secs: 1561865053
    nsecs: 848119631
  frame_id: "ti_mmwave"
point_id: 11
x: 4.408203125
y: -0.142578125
z: 1.08203125
range: 4.83704376221
velocity: 0.0
doppler_bin: 8
bearing: -1.85251843929
intensity: 28.6093654633
---
header: 
  seq: 997743
  stamp: 
    secs: 1561865053
    nsecs: 848132795
  frame_id: "ti_mmwave"
point_id: 12
x: 4.421875
y: -0.142578125
z: 1.189453125
range: 4.88062095642
velocity: 0.0
doppler_bin: 8
bearing: -1.84679484367
intensity: 31.945142746
---
header: 
  seq: 997744
  stamp: 
    secs: 1561865053
    nsecs: 848147907
  frame_id: "ti_mmwave"
point_id: 13
x: 4.462890625
y: -0.14453125
z: 1.193359375
range: 4.9241976738
velocity: 0.0
doppler_bin: 8
bearing: -1.85488259792
intensity: 31.344959259
---
header: 
  seq: 997745
  stamp: 
    secs: 1561865053
    nsecs: 848162887
  frame_id: "ti_mmwave"
point_id: 14
x: 4.8828125
y: -0.30859375
z: 0.755859375
range: 5.27281332016
velocity: 0.0
doppler_bin: 8
bearing: -3.61628341675
intensity: 31.3861846924
---
header: 
  seq: 997746
  stamp: 
    secs: 1561865053
    nsecs: 848179668
  frame_id: "ti_mmwave"
point_id: 15
x: 4.966796875
y: -0.46875
z: 0.125
range: 5.31639051437
velocity: 0.0
doppler_bin: 8
bearing: -5.39141845703
intensity: 29.8000335693
---
header: 
  seq: 997747
  stamp: 
    secs: 1561865053
    nsecs: 848189490
  frame_id: "ti_mmwave"
point_id: 16
x: 1.052734375
y: 0.03515625
z: 0.333984375
range: 1.1765781641
velocity: -0.614668667316
doppler_bin: 7
bearing: 1.91269183159
intensity: 23.0535144806
---
header: 
  seq: 997748
  stamp: 
    secs: 1561865053
    nsecs: 848198537
  frame_id: "ti_mmwave"
point_id: 17
x: 1.103515625
y: 0.03515625
z: 0.302734375
range: 1.22015523911
velocity: -0.614668667316
doppler_bin: 7
bearing: 1.82473492622
intensity: 28.2085800171
---
header: 
  seq: 997749
  stamp: 
    secs: 1561865053
    nsecs: 848204089
  frame_id: "ti_mmwave"
point_id: 18
x: 1.16796875
y: 0.07421875
z: 0.197265625
range: 1.2637321949
velocity: -0.614668667316
doppler_bin: 7
bearing: 3.63598036766
intensity: 29.8721923828
---
header: 
  seq: 997750
  stamp: 
    secs: 1561865053
    nsecs: 848216507
  frame_id: "ti_mmwave"
point_id: 19
x: 1.224609375
y: 0.076171875
z: 0.03125
range: 1.3073091507
velocity: -0.614668667316
doppler_bin: 7
bearing: 3.55926680565
intensity: 28.864906311
---
header: 
  seq: 997751
  stamp: 
    secs: 1561865053
    nsecs: 848397069
  frame_id: "ti_mmwave"
point_id: 20
x: 1.265625
y: 0.080078125
z: -0.01171875
range: 1.35088610649
velocity: -0.614668667316
doppler_bin: 7
bearing: 3.62036991119
intensity: 26.3245735168
---
header: 
  seq: 997752
  stamp: 
    secs: 1561865053
    nsecs: 848427558
  frame_id: "ti_mmwave"
point_id: 21
x: 0.009765625
y: 0.03125
z: 0.025390625
range: 0.0435769706964
velocity: 0.0
doppler_bin: 8
bearing: 72.6459732056
intensity: 29.3196620941
---
header: 
  seq: 997753
  stamp: 
    secs: 1561865053
    nsecs: 848442203
  frame_id: "ti_mmwave"
point_id: 22
x: 0.041015625
y: -0.033203125
z: 0.0625
range: 0.0871539413929
velocity: 0.0
doppler_bin: 8
bearing: -38.9909973145
intensity: 30.081741333
---
header: 
  seq: 997754
  stamp: 
    secs: 1561865053
    nsecs: 848455173
  frame_id: "ti_mmwave"
point_id: 23
x: 0.044921875
y: -0.046875
z: 0.103515625
range: 0.130730912089
velocity: 0.0
doppler_bin: 8
bearing: -46.218875885
intensity: 28.9652614594
---
header: 
  seq: 997755
  stamp: 
    secs: 1561865053
    nsecs: 849488757
  frame_id: "ti_mmwave"
point_id: 0
x: 0.01171875
y: -0.0390625
z: -0.0078125
range: 0.0435769706964
velocity: 0.0
doppler_bin: 8
bearing: -73.3007583618
intensity: 30.6520614624
---
header: 
  seq: 997756
  stamp: 
    secs: 1561865053
    nsecs: 849555649
  frame_id: "ti_mmwave"
point_id: 1
x: 0.017578125
y: -0.080078125
z: -0.0078125
range: 0.0871539413929
velocity: 0.0
doppler_bin: 8
bearing: -77.6192398071
intensity: 31.9061183929
---
header: 
  seq: 997757
  stamp: 
    secs: 1561865053
    nsecs: 849574556
  frame_id: "ti_mmwave"
point_id: 2
x: 0.029296875
y: -0.119140625
z: -0.005859375
range: 0.130730912089
velocity: 0.0
doppler_bin: 8
bearing: -76.1849746704
intensity: 30.1535968781
---
header: 
  seq: 997758
  stamp: 
    secs: 1561865053
    nsecs: 849588924
  frame_id: "ti_mmwave"
point_id: 3
x: 0.056640625
y: -0.154296875
z: 0.005859375
range: 0.174307882786
velocity: 0.0
doppler_bin: 8
bearing: -69.8423843384
intensity: 25.4406795502
---
header: 
  seq: 997759
  stamp: 
    secs: 1561865053
    nsecs: 849602166
  frame_id: "ti_mmwave"
point_id: 4
x: 0.927734375
y: 0.05859375
z: -0.140625
range: 1.00227034092
velocity: 0.0
doppler_bin: 8
bearing: 3.61388087273
intensity: 19.7772369385
---
header: 
  seq: 997760
  stamp: 
    secs: 1561865053
    nsecs: 849615605
  frame_id: "ti_mmwave"
point_id: 5
x: 0.96875
y: 0.060546875
z: -0.140625
range: 1.04584729671
velocity: 0.0
doppler_bin: 8
bearing: 3.57633447647
intensity: 22.1748390198
---
header: 
  seq: 997761
  stamp: 
    secs: 1561865053
    nsecs: 849627444
  frame_id: "ti_mmwave"
point_id: 6
x: 1.009765625
y: 0.064453125
z: -0.14453125
range: 1.08942425251
velocity: 0.0
doppler_bin: 8
bearing: 3.65222287178
intensity: 20.7554702759
---
header: 
  seq: 997762
  stamp: 
    secs: 1561865053
    nsecs: 849675126
  frame_id: "ti_mmwave"
point_id: 7
x: 1.048828125
y: -0.0390625
z: 0.7109375
range: 1.35088610649
velocity: 0.0
doppler_bin: 8
bearing: -2.13293504715
intensity: 25.5388298035
---
header: 
  seq: 997763
  stamp: 
    secs: 1561865053
    nsecs: 849693982
  frame_id: "ti_mmwave"
point_id: 8
x: 0.3359375
y: -0.041015625
z: 1.265625
range: 1.39446306229
velocity: 0.0
doppler_bin: 8
bearing: -6.96096277237
intensity: 25.9217681885
---
header: 
  seq: 997764
  stamp: 
    secs: 1561865053
    nsecs: 849707684
  frame_id: "ti_mmwave"
point_id: 9
x: 2.623046875
y: -0.17578125
z: 1.02734375
range: 3.00681090355
velocity: 0.0
doppler_bin: 8
bearing: -3.83389568329
intensity: 28.7794704437
---
header: 
  seq: 997765
  stamp: 
    secs: 1561865053
    nsecs: 849720032
  frame_id: "ti_mmwave"
point_id: 10
x: 2.6953125
y: -0.08984375
z: 0.9609375
range: 3.05038785934
velocity: 0.0
doppler_bin: 8
bearing: -1.90915250778
intensity: 31.8836593628
---
header: 
  seq: 997766
  stamp: 
    secs: 1561865053
    nsecs: 849757247
  frame_id: "ti_mmwave"
point_id: 11
x: 2.763671875
y: -0.08984375
z: 0.888671875
range: 3.09396481514
velocity: 0.0
doppler_bin: 8
bearing: -1.8619633913
intensity: 30.7518177032
---
header: 
  seq: 997767
  stamp: 
    secs: 1561865053
    nsecs: 849784462
  frame_id: "ti_mmwave"
point_id: 12
x: 4.400390625
y: -0.287109375
z: 1.24609375
range: 4.88062095642
velocity: 0.0
doppler_bin: 8
bearing: -3.73304843903
intensity: 30.4532299042
---
header: 
  seq: 997768
  stamp: 
    secs: 1561865053
    nsecs: 849797137
  frame_id: "ti_mmwave"
point_id: 13
x: 4.4609375
y: -0.14453125
z: 1.201171875
range: 4.9241976738
velocity: 0.0
doppler_bin: 8
bearing: -1.85569405556
intensity: 29.863237381
---
header: 
  seq: 997769
  stamp: 
    secs: 1561865053
    nsecs: 849809328
  frame_id: "ti_mmwave"
point_id: 14
x: 4.89453125
y: -0.46484375
z: 0.572265625
range: 5.27281332016
velocity: 0.0
doppler_bin: 8
bearing: -5.42522668839
intensity: 30.1494026184
---
header: 
  seq: 997770
  stamp: 
    secs: 1561865053
    nsecs: 849846761
  frame_id: "ti_mmwave"
point_id: 15
x: 1.234375
y: 0.27734375
z: -0.080078125
range: 1.35088610649
velocity: -1.22933733463
doppler_bin: 6
bearing: 12.6631240845
intensity: 24.9415454865
---
header: 
  seq: 997771
  stamp: 
    secs: 1561865053
    nsecs: 849871407
  frame_id: "ti_mmwave"
point_id: 16
x: 1.25
y: 0.3671875
z: -0.1171875
range: 1.39446306229
velocity: -1.22933733463
doppler_bin: 6
bearing: 16.3701496124
intensity: 22.900346756
---
header: 
  seq: 997772
  stamp: 
    secs: 1561865053
    nsecs: 849888595
  frame_id: "ti_mmwave"
point_id: 17
x: 0.9609375
y: 0.060546875
z: -0.193359375
range: 1.04584729671
velocity: -0.614668667316
doppler_bin: 7
bearing: 3.60533380508
intensity: 21.9589958191
---
header: 
  seq: 997773
  stamp: 
    secs: 1561865053
    nsecs: 849902997
  frame_id: "ti_mmwave"
point_id: 18
x: 1.056640625
y: 0.06640625
z: 0.091796875
range: 1.13300120831
velocity: -0.614668667316
doppler_bin: 7
bearing: 3.59611415863
intensity: 19.9563522339
---
header: 
  seq: 997774
  stamp: 
    secs: 1561865053
    nsecs: 849915870
  frame_id: "ti_mmwave"
point_id: 19
x: 1.0859375
y: 0.068359375
z: 0.189453125
range: 1.1765781641
velocity: -0.614668667316
doppler_bin: 7
bearing: 3.60199594498
intensity: 24.3136367798
---
header: 
  seq: 997775
  stamp: 
    secs: 1561865053
    nsecs: 849927108
  frame_id: "ti_mmwave"
point_id: 20
x: 1.060546875
y: 0.072265625
z: 0.427734375
range: 1.22015523911
velocity: -0.614668667316
doppler_bin: 7
bearing: 3.89810681343
intensity: 22.5767860413
---
header: 
  seq: 997776
  stamp: 
    secs: 1561865053
    nsecs: 849940340
  frame_id: "ti_mmwave"
point_id: 21
x: 1.18359375
y: 0.07421875
z: 0.033203125
range: 1.2637321949
velocity: -0.614668667316
doppler_bin: 7
bearing: 3.58810663223
intensity: 27.6937732697
---
header: 
  seq: 997777
  stamp: 
    secs: 1561865053
    nsecs: 849981316
  frame_id: "ti_mmwave"
point_id: 22
x: 1.224609375
y: 0.076171875
z: 0.0078125
range: 1.3073091507
velocity: -0.614668667316
doppler_bin: 7
bearing: 3.55926680565
intensity: 28.633228302
---
header: 
  seq: 997778
  stamp: 
    secs: 1561865053
    nsecs: 850011627
  frame_id: "ti_mmwave"
point_id: 23
x: 0.009765625
y: 0.03125
z: 0.025390625
range: 0.0435769706964
velocity: 0.0
doppler_bin: 8
bearing: 72.6459732056
intensity: 29.31457901
---
header: 
  seq: 997779
  stamp: 
    secs: 1561865053
    nsecs: 850158960
  frame_id: "ti_mmwave"
point_id: 24
x: 0.041015625
y: -0.033203125
z: 0.0625
range: 0.0871539413929
velocity: 0.0
doppler_bin: 8
bearing: -38.9909973145
intensity: 30.0902576447
---
header: 
  seq: 997780
  stamp: 
    secs: 1561865053
    nsecs: 850191043
  frame_id: "ti_mmwave"
point_id: 25
x: 0.044921875
y: -0.046875
z: 0.103515625
range: 0.130730912089
velocity: 0.0
doppler_bin: 8
bearing: -46.218875885
intensity: 28.9652614594
---
header: 
  seq: 997781
  stamp: 
    secs: 1561865053
    nsecs: 850208553
  frame_id: "ti_mmwave"
point_id: 27
x: 0.765625
y: -0.197265625
z: 0.9921875
range: 1.35088610649
velocity: -1.22933733463
doppler_bin: 6
bearing: -14.4481897354
intensity: 22.6481781006
---
header: 
  seq: 997782
  stamp: 
    secs: 1561865053
    nsecs: 850221264
  frame_id: "ti_mmwave"
point_id: 28
x: 0.701171875
y: -0.1640625
z: 1.09375
range: 1.39446306229
velocity: -1.22933733463
doppler_bin: 6
bearing: -13.1693344116
intensity: 22.1748390198
---
header: 
  seq: 997783
  stamp: 
    secs: 1561865053
    nsecs: 907813730
  frame_id: "ti_mmwave"
point_id: 0
x: 0.01171875
y: -0.0390625
z: -0.0078125
range: 0.0435769706964
velocity: 0.0
doppler_bin: 8
bearing: -73.3007583618
intensity: 30.6408348083
---
header: 
  seq: 997784
  stamp: 
    secs: 1561865053
    nsecs: 907895351
  frame_id: "ti_mmwave"
point_id: 1
x: 0.017578125
y: -0.080078125
z: -0.0078125
range: 0.0871539413929
velocity: 0.0
doppler_bin: 8
bearing: -77.6192398071
intensity: 31.9005146027
---
header: 
  seq: 997785
  stamp: 
    secs: 1561865053
    nsecs: 907907101
  frame_id: "ti_mmwave"
point_id: 2
x: 0.029296875
y: -0.119140625
z: -0.005859375
range: 0.130730912089
velocity: 0.0
doppler_bin: 8
bearing: -76.1849746704
intensity: 30.1494026184
---
header: 
  seq: 997786
  stamp: 
    secs: 1561865053
    nsecs: 907915209
  frame_id: "ti_mmwave"
point_id: 3
x: 0.056640625
y: -0.154296875
z: 0.005859375
range: 0.174307882786
velocity: 0.0
doppler_bin: 8
bearing: -69.8423843384
intensity: 25.4406795502
---
header: 
  seq: 997787
  stamp: 
    secs: 1561865053
    nsecs: 907923257
  frame_id: "ti_mmwave"
point_id: 4
x: 1.0625
y: -0.033203125
z: -0.017578125
range: 1.13300120831
velocity: 0.0
doppler_bin: 8
bearing: -1.7899106741
intensity: 21.7026176453
---
header: 
  seq: 997788
  stamp: 
    secs: 1561865053
    nsecs: 907931079
  frame_id: "ti_mmwave"
point_id: 5
x: 1.1015625
y: -0.03515625
z: -0.078125
range: 1.1765781641
velocity: 0.0
doppler_bin: 8
bearing: -1.82796823978
intensity: 27.4741172791
---
header: 
  seq: 997789
  stamp: 
    secs: 1561865053
    nsecs: 907939231
  frame_id: "ti_mmwave"
point_id: 6
x: 1.142578125
y: -0.03515625
z: -0.072265625
range: 1.22015523911
velocity: 0.0
doppler_bin: 8
bearing: -1.76239109039
intensity: 29.4890174866
---
header: 
  seq: 997790
  stamp: 
    secs: 1561865053
    nsecs: 907990577
  frame_id: "ti_mmwave"
point_id: 7
x: 1.185546875
y: -0.037109375
z: -0.0234375
range: 1.2637321949
velocity: 0.0
doppler_bin: 8
bearing: -1.79285740852
intensity: 27.9865055084
---
header: 
  seq: 997791
  stamp: 
    secs: 1561865053
    nsecs: 908010827
  frame_id: "ti_mmwave"
point_id: 8
x: 2.607421875
y: -0.17578125
z: 1.06640625
range: 3.00681090355
velocity: 0.0
doppler_bin: 8
bearing: -3.8568007946
intensity: 29.1697998047
---
header: 
  seq: 997792
  stamp: 
    secs: 1561865053
    nsecs: 908023049
  frame_id: "ti_mmwave"
point_id: 9
x: 2.685546875
y: -0.08984375
z: 0.9921875
range: 3.05038785934
velocity: 0.0
doppler_bin: 8
bearing: -1.91608965397
intensity: 32.3350372314
---
header: 
  seq: 997793
  stamp: 
    secs: 1561865053
    nsecs: 908031939
  frame_id: "ti_mmwave"
point_id: 10
x: 2.76171875
y: -0.0
z: 0.900390625
range: 3.09396481514
velocity: 0.0
doppler_bin: 8
bearing: -0.0
intensity: 31.2839927673
---
header: 
  seq: 997794
  stamp: 
    secs: 1561865053
    nsecs: 908045012
  frame_id: "ti_mmwave"
point_id: 11
x: 4.39453125
y: -0.287109375
z: 1.265625
range: 4.88062095642
velocity: 0.0
doppler_bin: 8
bearing: -3.73801183701
intensity: 29.0417442322
---
header: 
  seq: 997795
  stamp: 
    secs: 1561865053
    nsecs: 908215652
  frame_id: "ti_mmwave"
point_id: 12
x: 1.099609375
y: 0.322265625
z: 0.00390625
range: 1.22015523911
velocity: -1.84400606155
doppler_bin: 5
bearing: 16.3344268799
intensity: 23.7839794159
---
header: 
  seq: 997796
  stamp: 
    secs: 1561865053
    nsecs: 908234167
  frame_id: "ti_mmwave"
point_id: 13
x: 1.1484375
y: 0.296875
z: -0.013671875
range: 1.2637321949
velocity: -1.84400606155
doppler_bin: 5
bearing: 14.4938678741
intensity: 24.9968700409
---
header: 
  seq: 997797
  stamp: 
    secs: 1561865053
    nsecs: 908258459
  frame_id: "ti_mmwave"
point_id: 14
x: 1.1875
y: 0.306640625
z: -0.04296875
range: 1.3073091507
velocity: -1.84400606155
doppler_bin: 5
bearing: 14.478843689
intensity: 22.7415790558
---
header: 
  seq: 997798
  stamp: 
    secs: 1561865053
    nsecs: 908274588
  frame_id: "ti_mmwave"
point_id: 15
x: 1.3046875
y: 0.337890625
z: -0.080078125
range: 1.43804001808
velocity: -1.84400606155
doppler_bin: 5
bearing: 14.5195703506
intensity: 25.490032196
---
header: 
  seq: 997799
  stamp: 
    secs: 1561865053
    nsecs: 908282855
  frame_id: "ti_mmwave"
point_id: 16
x: 1.33203125
y: 0.390625
z: -0.0703125
range: 1.48161697388
velocity: -1.84400606155
doppler_bin: 5
bearing: 16.344045639
intensity: 23.6172790527
---
header: 
  seq: 997800
  stamp: 
    secs: 1561865053
    nsecs: 908356863
  frame_id: "ti_mmwave"
point_id: 17
x: 1.267578125
y: 0.328125
z: -0.037109375
range: 1.39446306229
velocity: -1.22933733463
doppler_bin: 6
bearing: 14.5130062103
intensity: 23.8560619354
---
header: 
  seq: 997801
  stamp: 
    secs: 1561865053
    nsecs: 908366400
  frame_id: "ti_mmwave"
point_id: 18
x: 0.923828125
y: 0.05859375
z: -0.16796875
range: 1.00227034092
velocity: -0.614668667316
doppler_bin: 7
bearing: 3.6291205883
intensity: 20.0432128906
---
header: 
  seq: 997802
  stamp: 
    secs: 1561865053
    nsecs: 908374090
  frame_id: "ti_mmwave"
point_id: 19
x: 0.96484375
y: 0.060546875
z: -0.166015625
range: 1.04584729671
velocity: -0.614668667316
doppler_bin: 7
bearing: 3.59077548981
intensity: 21.3987903595
---
header: 
  seq: 997803
  stamp: 
    secs: 1561865053
    nsecs: 908382291
  frame_id: "ti_mmwave"
point_id: 20
x: 1.212890625
y: 0.154296875
z: -0.10546875
range: 1.3073091507
velocity: -0.614668667316
doppler_bin: 7
bearing: 7.2498922348
intensity: 24.1830120087
---
header: 
  seq: 997804
  stamp: 
    secs: 1561865053
    nsecs: 908403431
  frame_id: "ti_mmwave"
point_id: 21
x: 0.009765625
y: 0.03125
z: 0.025390625
range: 0.0435769706964
velocity: 0.0
doppler_bin: 8
bearing: 72.6459732056
intensity: 29.31457901
---
header: 
  seq: 997805
  stamp: 
    secs: 1561865053
    nsecs: 908466508
  frame_id: "ti_mmwave"
point_id: 22
x: 0.041015625
y: -0.033203125
z: 0.0625
range: 0.0871539413929
velocity: 0.0
doppler_bin: 8
bearing: -38.9909973145
intensity: 30.0902576447
---
header: 
  seq: 997806
  stamp: 
    secs: 1561865053
    nsecs: 908476382
  frame_id: "ti_mmwave"
point_id: 23
x: 0.044921875
y: -0.046875
z: 0.103515625
range: 0.130730912089
velocity: 0.0
doppler_bin: 8
bearing: -46.218875885
intensity: 28.9707698822
---
header: 
  seq: 997807
  stamp: 
    secs: 1561865053
    nsecs: 908489970
  frame_id: "ti_mmwave"
point_id: 25
x: 0.720703125
y: -0.267578125
z: 0.955078125
range: 1.3073091507
velocity: -0.614668667316
doppler_bin: 7
bearing: -20.3686389923
intensity: 22.1748390198
---
header: 
  seq: 997808
  stamp: 
    secs: 1561865053
    nsecs: 909362875
  frame_id: "ti_mmwave"
point_id: 0
x: 0.01171875
y: -0.0390625
z: -0.0078125
range: 0.0435769706964
velocity: 0.0
doppler_bin: 8
bearing: -73.3007583618
intensity: 30.6408348083
---
header: 
  seq: 997809
  stamp: 
    secs: 1561865053
    nsecs: 909419876
  frame_id: "ti_mmwave"
point_id: 1
x: 0.017578125
y: -0.080078125
z: -0.0078125
range: 0.0871539413929
velocity: 0.0
doppler_bin: 8
bearing: -77.6192398071
intensity: 31.9005146027
---
header: 
  seq: 997810
  stamp: 
    secs: 1561865053
    nsecs: 909437795
  frame_id: "ti_mmwave"
point_id: 2
x: 0.029296875
y: -0.119140625
z: -0.005859375
range: 0.130730912089
velocity: 0.0
doppler_bin: 8
bearing: -76.1849746704
intensity: 30.1494026184
---
header: 
  seq: 997811
  stamp: 
    secs: 1561865053
    nsecs: 909457038
  frame_id: "ti_mmwave"
point_id: 3
x: 0.056640625
y: -0.154296875
z: 0.005859375
range: 0.174307882786
velocity: 0.0
doppler_bin: 8
bearing: -69.8423843384
intensity: 25.4406795502
---
header: 
  seq: 997812
  stamp: 
    secs: 1561865053
    nsecs: 909471284
  frame_id: "ti_mmwave"
point_id: 4
x: 1.240234375
y: 0.080078125
z: -0.251953125
range: 1.35088610649
velocity: 0.0
doppler_bin: 8
bearing: 3.69428443909
intensity: 26.532125473
---
header: 
  seq: 997813
  stamp: 
    secs: 1561865053
    nsecs: 909484196
  frame_id: "ti_mmwave"
point_id: 5
x: 2.607421875
y: -0.17578125
z: 1.06640625
range: 3.00681090355
velocity: 0.0
doppler_bin: 8
bearing: -3.8568007946
intensity: 29.1645393372
---
header: 
  seq: 997814
  stamp: 
    secs: 1561865053
    nsecs: 909496767
  frame_id: "ti_mmwave"
point_id: 6
x: 2.689453125
y: -0.08984375
z: 0.978515625
range: 3.05038785934
velocity: 0.0
doppler_bin: 8
bearing: -1.91330885887
intensity: 32.1695709229
---
header: 
  seq: 997815
  stamp: 
    secs: 1561865053
    nsecs: 909508471
  frame_id: "ti_mmwave"
point_id: 7
x: 2.76171875
y: -0.08984375
z: 0.896484375
range: 3.09396481514
velocity: 0.0
doppler_bin: 8
bearing: -1.86327898502
intensity: 31.0174713135
---
header: 
  seq: 997816
  stamp: 
    secs: 1561865053
    nsecs: 909520055
  frame_id: "ti_mmwave"
point_id: 8
x: 4.40625
y: -0.142578125
z: 1.25
range: 4.88062095642
velocity: 0.0
doppler_bin: 8
bearing: -1.85333895683
intensity: 28.4010601044
---
header: 
  seq: 997817
  stamp: 
    secs: 1561865053
    nsecs: 909532746
  frame_id: "ti_mmwave"
point_id: 9
x: 1.177734375
y: 0.345703125
z: -0.033203125
range: 1.3073091507
velocity: -1.84400606155
doppler_bin: 5
bearing: 16.358669281
intensity: 25.1188335419
---
header: 
  seq: 997818
  stamp: 
    secs: 1561865053
    nsecs: 909547526
  frame_id: "ti_mmwave"
point_id: 10
x: 1.216796875
y: 0.357421875
z: -0.025390625
range: 1.35088610649
velocity: -1.84400606155
doppler_bin: 5
bearing: 16.3696231842
intensity: 29.0091304779
---
header: 
  seq: 997819
  stamp: 
    secs: 1561865053
    nsecs: 909561230
  frame_id: "ti_mmwave"
point_id: 11
x: 1.255859375
y: 0.3671875
z: -0.017578125
range: 1.39446306229
velocity: -1.84400606155
doppler_bin: 5
bearing: 16.2978363037
intensity: 29.0579586029
---
header: 
  seq: 997820
  stamp: 
    secs: 1561865053
    nsecs: 909574590
  frame_id: "ti_mmwave"
point_id: 12
x: 1.294921875
y: 0.37890625
z: -0.00390625
range: 1.43804001808
velocity: -1.84400606155
doppler_bin: 5
bearing: 16.3099689484
intensity: 25.550945282
---
header: 
  seq: 997821
  stamp: 
    secs: 1561865053
    nsecs: 909586534
  frame_id: "ti_mmwave"
point_id: 13
x: 1.0546875
y: -0.0
z: 0.140625
range: 1.13300120831
velocity: -0.614668667316
doppler_bin: 7
bearing: -0.0
intensity: 25.8206329346
---
header: 
  seq: 997822
  stamp: 
    secs: 1561865053
    nsecs: 909601876
  frame_id: "ti_mmwave"
point_id: 14
x: 1.078125
y: -0.0
z: 0.2421875
range: 1.1765781641
velocity: -0.614668667316
doppler_bin: 7
bearing: -0.0
intensity: 27.0415058136
---
header: 
  seq: 997823
  stamp: 
    secs: 1561865053
    nsecs: 909615947
  frame_id: "ti_mmwave"
point_id: 15
x: 1.13671875
y: 0.107421875
z: -0.1015625
range: 1.22015523911
velocity: -0.614668667316
doppler_bin: 7
bearing: 5.39851713181
intensity: 26.9460525513
---
header: 
  seq: 997824
  stamp: 
    secs: 1561865053
    nsecs: 909628779
  frame_id: "ti_mmwave"
point_id: 16
x: 1.18359375
y: 0.07421875
z: -0.041015625
range: 1.2637321949
velocity: -0.614668667316
doppler_bin: 7
bearing: 3.58810663223
intensity: 31.634595871
---
header: 
  seq: 997825
  stamp: 
    secs: 1561865053
    nsecs: 909641125
  frame_id: "ti_mmwave"
point_id: 17
x: 1.224609375
y: 0.076171875
z: -0.046875
range: 1.3073091507
velocity: -0.614668667316
doppler_bin: 7
bearing: 3.55926680565
intensity: 30.8564720154
---
header: 
  seq: 997826
  stamp: 
    secs: 1561865053
    nsecs: 909656976
  frame_id: "ti_mmwave"
point_id: 18
x: 0.009765625
y: 0.03125
z: 0.025390625
range: 0.0435769706964
velocity: 0.0
doppler_bin: 8
bearing: 72.6459732056
intensity: 29.3094902039
---
header: 
  seq: 997827
  stamp: 
    secs: 1561865053
    nsecs: 909671405
  frame_id: "ti_mmwave"
point_id: 19
x: 0.041015625
y: -0.033203125
z: 0.0625
range: 0.0871539413929
velocity: 0.0
doppler_bin: 8
bearing: -38.9909973145
intensity: 30.0860023499
---
header: 
  seq: 997828
  stamp: 
    secs: 1561865053
    nsecs: 909685680
  frame_id: "ti_mmwave"
point_id: 20
x: 0.044921875
y: -0.046875
z: 0.103515625
range: 0.130730912089
velocity: 0.0
doppler_bin: 8
bearing: -46.218875885
intensity: 28.9652614594
---
header: 
  seq: 997829
  stamp: 
    secs: 1561865053
    nsecs: 909705388
  frame_id: "ti_mmwave"
point_id: 22
x: 0.79296875
y: -0.396484375
z: 0.90625
range: 1.35088610649
velocity: 0.0
doppler_bin: 8
bearing: -26.5650501251
intensity: 23.7657699585
---
header: 
  seq: 997830
  stamp: 
    secs: 1561865053
    nsecs: 967917515
  frame_id: "ti_mmwave"
point_id: 0
x: 0.01171875
y: -0.0390625
z: -0.0078125
range: 0.0435769706964
velocity: 0.0
doppler_bin: 8
bearing: -73.3007583618
intensity: 30.6520614624
---
header: 
  seq: 997831
  stamp: 
    secs: 1561865053
    nsecs: 968033529
  frame_id: "ti_mmwave"
point_id: 1
x: 0.017578125
y: -0.080078125
z: -0.0078125
range: 0.0871539413929
velocity: 0.0
doppler_bin: 8
bearing: -77.6192398071
intensity: 31.9033164978
---
header: 
  seq: 997832
  stamp: 
    secs: 1561865053
    nsecs: 968047731
  frame_id: "ti_mmwave"
point_id: 2
x: 0.029296875
y: -0.119140625
z: -0.005859375
range: 0.130730912089
velocity: 0.0
doppler_bin: 8
bearing: -76.1849746704
intensity: 30.1494026184
---
header: 
  seq: 997833
  stamp: 
    secs: 1561865053
    nsecs: 968059723
  frame_id: "ti_mmwave"
point_id: 3
x: 0.056640625
y: -0.154296875
z: 0.005859375
range: 0.174307882786
velocity: 0.0
doppler_bin: 8
bearing: -69.8423843384
intensity: 25.4406795502
---
header: 
  seq: 997834
  stamp: 
    secs: 1561865053
    nsecs: 968072984
  frame_id: "ti_mmwave"
point_id: 4
x: 0.923828125
y: 0.05859375
z: -0.16796875
range: 1.00227034092
velocity: 0.0
doppler_bin: 8
bearing: 3.6291205883
intensity: 22.1748390198
---
header: 
  seq: 997835
  stamp: 
    secs: 1561865053
    nsecs: 968081416
  frame_id: "ti_mmwave"
point_id: 5
x: 0.9609375
y: 0.060546875
z: -0.193359375
range: 1.04584729671
velocity: 0.0
doppler_bin: 8
bearing: 3.60533380508
intensity: 22.0682582855
---
header: 
  seq: 997836
  stamp: 
    secs: 1561865053
    nsecs: 968089415
  frame_id: "ti_mmwave"
point_id: 6
x: 1.015625
y: 0.095703125
z: 0.056640625
range: 1.08942425251
velocity: 0.0
doppler_bin: 8
bearing: 5.38313007355
intensity: 21.3987903595
---
header: 
  seq: 997837
  stamp: 
    secs: 1561865053
    nsecs: 968097362
  frame_id: "ti_mmwave"
point_id: 7
x: 1.052734375
y: 0.099609375
z: 0.11328125
range: 1.13300120831
velocity: 0.0
doppler_bin: 8
bearing: 5.40521526337
intensity: 24.9968700409
---
header: 
  seq: 997838
  stamp: 
    secs: 1561865053
    nsecs: 968252543
  frame_id: "ti_mmwave"
point_id: 8
x: 1.1015625
y: 0.068359375
z: 0.029296875
range: 1.1765781641
velocity: 0.0
doppler_bin: 8
bearing: 3.55103540421
intensity: 29.4890174866
---
header: 
  seq: 997839
  stamp: 
    secs: 1561865053
    nsecs: 968273925
  frame_id: "ti_mmwave"
point_id: 9
x: 1.140625
y: 0.107421875
z: -0.037109375
range: 1.22015523911
velocity: 0.0
doppler_bin: 8
bearing: 5.38013744354
intensity: 33.029800415
---
header: 
  seq: 997840
  stamp: 
    secs: 1561865053
    nsecs: 968282511
  frame_id: "ti_mmwave"
point_id: 10
x: 1.1796875
y: 0.111328125
z: -0.04296875
range: 1.2637321949
velocity: 0.0
doppler_bin: 8
bearing: 5.39108562469
intensity: 33.5160293579
---
header: 
  seq: 997841
  stamp: 
    secs: 1561865053
    nsecs: 968290356
  frame_id: "ti_mmwave"
point_id: 11
x: 1.216796875
y: 0.154296875
z: -0.025390625
range: 1.3073091507
velocity: 0.0
doppler_bin: 8
bearing: 7.2268652916
intensity: 30.4060230255
---
header: 
  seq: 997842
  stamp: 
    secs: 1561865053
    nsecs: 968298161
  frame_id: "ti_mmwave"
point_id: 12
x: 2.619140625
y: -0.17578125
z: 1.03515625
range: 3.00681090355
velocity: 0.0
doppler_bin: 8
bearing: -3.83959650993
intensity: 29.2168655396
---
header: 
  seq: 997843
  stamp: 
    secs: 1561865053
    nsecs: 968305881
  frame_id: "ti_mmwave"
point_id: 13
x: 2.693359375
y: -0.08984375
z: 0.966796875
range: 3.05038785934
velocity: 0.0
doppler_bin: 8
bearing: -1.91053581238
intensity: 32.3121452332
---
header: 
  seq: 997844
  stamp: 
    secs: 1561865053
    nsecs: 968313811
  frame_id: "ti_mmwave"
point_id: 14
x: 2.755859375
y: -0.08984375
z: 0.91015625
range: 3.09396481514
velocity: 0.0
doppler_bin: 8
bearing: -1.86723792553
intensity: 31.2123146057
---
header: 
  seq: 997845
  stamp: 
    secs: 1561865053
    nsecs: 968323590
  frame_id: "ti_mmwave"
point_id: 15
x: 4.416015625
y: -0.142578125
z: 1.2109375
range: 4.88062095642
velocity: 0.0
doppler_bin: 8
bearing: -1.84924340248
intensity: 28.2994670868
---
header: 
  seq: 997846
  stamp: 
    secs: 1561865053
    nsecs: 968331590
  frame_id: "ti_mmwave"
point_id: 16
x: 1.1640625
y: 0.3828125
z: -0.05078125
range: 1.3073091507
velocity: -2.45867466927
doppler_bin: 4
bearing: 18.203918457
intensity: 28.7966918945
---
header: 
  seq: 997847
  stamp: 
    secs: 1561865053
    nsecs: 968338886
  frame_id: "ti_mmwave"
point_id: 17
x: 1.203125
y: 0.396484375
z: -0.05859375
range: 1.35088610649
velocity: -2.45867466927
doppler_bin: 4
bearing: 18.239402771
intensity: 26.4640369415
---
header: 
  seq: 997848
  stamp: 
    secs: 1561865053
    nsecs: 968347857
  frame_id: "ti_mmwave"
point_id: 18
x: 1.126953125
y: 0.37109375
z: 0.013671875
range: 1.2637321949
velocity: -1.84400606155
doppler_bin: 5
bearing: 18.2261676788
intensity: 27.9239177704
---
header: 
  seq: 997849
  stamp: 
    secs: 1561865053
    nsecs: 968410768
  frame_id: "ti_mmwave"
point_id: 19
x: 1.27734375
y: 0.287109375
z: 0.01953125
range: 1.39446306229
velocity: -1.22933733463
doppler_bin: 6
bearing: 12.6678743362
intensity: 23.344537735
---
header: 
  seq: 997850
  stamp: 
    secs: 1561865053
    nsecs: 968420533
  frame_id: "ti_mmwave"
point_id: 20
x: 0.009765625
y: 0.03125
z: 0.025390625
range: 0.0435769706964
velocity: 0.0
doppler_bin: 8
bearing: 72.6459732056
intensity: 29.3196620941
---
header: 
  seq: 997851
  stamp: 
    secs: 1561865053
    nsecs: 968429460
  frame_id: "ti_mmwave"
point_id: 21
x: 0.041015625
y: -0.033203125
z: 0.0625
range: 0.0871539413929
velocity: 0.0
doppler_bin: 8
bearing: -38.9909973145
intensity: 30.0902576447
---
header: 
  seq: 997852
  stamp: 
    secs: 1561865053
    nsecs: 968439451
  frame_id: "ti_mmwave"
point_id: 22
x: 0.044921875
y: -0.046875
z: 0.103515625
range: 0.130730912089
velocity: 0.0
doppler_bin: 8
bearing: -46.218875885
intensity: 28.9652614594
---
header: 
  seq: 997853
  stamp: 
    secs: 1561865053
    nsecs: 969456620
  frame_id: "ti_mmwave"
point_id: 0
x: 0.01171875
y: -0.0390625
z: -0.0078125
range: 0.0435769706964
velocity: 0.0
doppler_bin: 8
bearing: -73.3007583618
intensity: 30.6445808411
---
header: 
  seq: 997854
  stamp: 
    secs: 1561865053
    nsecs: 969512365
  frame_id: "ti_mmwave"
point_id: 1
x: 0.017578125
y: -0.080078125
z: -0.0078125
range: 0.0871539413929
velocity: 0.0
doppler_bin: 8
bearing: -77.6192398071
intensity: 31.9005146027
---
header: 
  seq: 997855
  stamp: 
    secs: 1561865053
    nsecs: 969533977
  frame_id: "ti_mmwave"
point_id: 2
x: 0.029296875
y: -0.119140625
z: -0.005859375
range: 0.130730912089
velocity: 0.0
doppler_bin: 8
bearing: -76.1849746704
intensity: 30.1452045441
---
header: 
  seq: 997856
  stamp: 
    secs: 1561865053
    nsecs: 969556139
  frame_id: "ti_mmwave"
point_id: 3
x: 0.056640625
y: -0.154296875
z: 0.005859375
range: 0.174307882786
velocity: 0.0
doppler_bin: 8
bearing: -69.8423843384
intensity: 25.4406795502
---
header: 
  seq: 997857
  stamp: 
    secs: 1561865053
    nsecs: 969629793
  frame_id: "ti_mmwave"
point_id: 4
x: 0.919921875
y: 0.05859375
z: -0.189453125
range: 1.00227034092
velocity: 0.0
doppler_bin: 8
bearing: 3.64448952675
intensity: 20.5307846069
---
header: 
  seq: 997858
  stamp: 
    secs: 1561865053
    nsecs: 969648797
  frame_id: "ti_mmwave"
point_id: 5
x: 0.970703125
y: 0.060546875
z: -0.1328125
range: 1.04584729671
velocity: 0.0
doppler_bin: 8
bearing: 3.56915712357
intensity: 21.5533599854
---
header: 
  seq: 997859
  stamp: 
    secs: 1561865053
    nsecs: 969661210
  frame_id: "ti_mmwave"
point_id: 6
x: 1.017578125
y: 0.095703125
z: 0.02734375
range: 1.08942425251
velocity: 0.0
doppler_bin: 8
bearing: 5.37285757065
intensity: 20.0860023499
---
header: 
  seq: 997860
  stamp: 
    secs: 1561865053
    nsecs: 969676081
  frame_id: "ti_mmwave"
point_id: 7
x: 1.025390625
y: 0.06640625
z: 0.2734375
range: 1.13300120831
velocity: 0.0
doppler_bin: 8
bearing: 3.70540928841
intensity: 25.1982803345
---
header: 
  seq: 997861
  stamp: 
    secs: 1561865053
    nsecs: 969690661
  frame_id: "ti_mmwave"
point_id: 8
x: 1.087890625
y: 0.103515625
z: -0.15625
range: 1.1765781641
velocity: 0.0
doppler_bin: 8
bearing: 5.43547773361
intensity: 30.9166698456
---
header: 
  seq: 997862
  stamp: 
    secs: 1561865053
    nsecs: 969746774
  frame_id: "ti_mmwave"
point_id: 9
x: 1.12890625
y: 0.107421875
z: -0.1640625
range: 1.22015523911
velocity: 0.0
doppler_bin: 8
bearing: 5.43565416336
intensity: 33.543006897
---
header: 
  seq: 997863
  stamp: 
    secs: 1561865053
    nsecs: 969763112
  frame_id: "ti_mmwave"
point_id: 10
x: 1.166015625
y: 0.1484375
z: -0.16015625
range: 1.2637321949
velocity: 0.0
doppler_bin: 8
bearing: 7.25491189957
intensity: 33.0427513123
---
header: 
  seq: 997864
  stamp: 
    secs: 1561865053
    nsecs: 969775278
  frame_id: "ti_mmwave"
point_id: 11
x: 1.205078125
y: 0.154296875
z: -0.177734375
range: 1.3073091507
velocity: 0.0
doppler_bin: 8
bearing: 7.2963886261
intensity: 28.864906311
---
header: 
  seq: 997865
  stamp: 
    secs: 1561865053
    nsecs: 969791727
  frame_id: "ti_mmwave"
point_id: 12
x: 2.61328125
y: -0.17578125
z: 1.05078125
range: 3.00681090355
velocity: 0.0
doppler_bin: 8
bearing: -3.84817934036
intensity: 29.2427921295
---
header: 
  seq: 997866
  stamp: 
    secs: 1561865053
    nsecs: 969805489
  frame_id: "ti_mmwave"
point_id: 13
x: 2.6875
y: -0.08984375
z: 0.982421875
range: 3.05038785934
velocity: 0.0
doppler_bin: 8
bearing: -1.91469812393
intensity: 32.3628540039
---
header: 
  seq: 997867
  stamp: 
    secs: 1561865053
    nsecs: 969817059
  frame_id: "ti_mmwave"
point_id: 14
x: 2.751953125
y: -0.08984375
z: 0.92578125
range: 3.09396481514
velocity: 0.0
doppler_bin: 8
bearing: -1.86988639832
intensity: 31.3001194
---
header: 
  seq: 997868
  stamp: 
    secs: 1561865053
    nsecs: 969844861
  frame_id: "ti_mmwave"
point_id: 15
x: 4.427734375
y: -0.142578125
z: 1.16796875
range: 4.88062095642
velocity: 0.0
doppler_bin: 8
bearing: -1.84435260296
intensity: 29.0633506775
---
header: 
  seq: 997869
  stamp: 
    secs: 1561865053
    nsecs: 969985763
  frame_id: "ti_mmwave"
point_id: 16
x: 0.90625
y: 0.205078125
z: 0.1484375
range: 1.00227034092
velocity: -3.07334327698
doppler_bin: 3
bearing: 12.7508831024
intensity: 21.6435279846
---
header: 
  seq: 997870
  stamp: 
    secs: 1561865053
    nsecs: 970015861
  frame_id: "ti_mmwave"
point_id: 17
x: 0.94921875
y: 0.21484375
z: 0.130859375
range: 1.04584729671
velocity: -3.07334327698
doppler_bin: 3
bearing: 12.7532997131
intensity: 21.205739975
---
header: 
  seq: 997871
  stamp: 
    secs: 1561865053
    nsecs: 970031264
  frame_id: "ti_mmwave"
point_id: 18
x: 1.1875
y: 0.306640625
z: 0.013671875
range: 1.3073091507
velocity: -1.22933733463
doppler_bin: 6
bearing: 14.478843689
intensity: 26.0959434509
---
header: 
  seq: 997872
  stamp: 
    secs: 1561865053
    nsecs: 970045829
  frame_id: "ti_mmwave"
point_id: 19
x: 1.2265625
y: 0.31640625
z: 0.052734375
range: 1.35088610649
velocity: -1.22933733463
doppler_bin: 6
bearing: 14.4647750854
intensity: 22.7875366211
---
header: 
  seq: 997873
  stamp: 
    secs: 1561865053
    nsecs: 970076226
  frame_id: "ti_mmwave"
point_id: 20
x: 0.009765625
y: 0.03125
z: 0.025390625
range: 0.0435769706964
velocity: 0.0
doppler_bin: 8
bearing: 72.6459732056
intensity: 29.3094902039
---
header: 
  seq: 997874
  stamp: 
    secs: 1561865053
    nsecs: 970089922
  frame_id: "ti_mmwave"
point_id: 21
x: 0.041015625
y: -0.033203125
z: 0.0625
range: 0.0871539413929
velocity: 0.0
doppler_bin: 8
bearing: -38.9909973145
intensity: 30.0902576447
---
header: 
  seq: 997875
  stamp: 
    secs: 1561865053
    nsecs: 970113172
  frame_id: "ti_mmwave"
point_id: 22
x: 0.044921875
y: -0.046875
z: 0.103515625
range: 0.130730912089
velocity: 0.0
doppler_bin: 8
bearing: -46.218875885
intensity: 28.9762706757
---
header: 
  seq: 997876
  stamp: 
    secs: 1561865054
    nsecs:  27637811
  frame_id: "ti_mmwave"
point_id: 0
x: 0.01171875
y: -0.0390625
z: -0.0078125
range: 0.0435769706964
velocity: 0.0
doppler_bin: 8
bearing: -73.3007583618
intensity: 30.6557979584
---
header: 
  seq: 997877
  stamp: 
    secs: 1561865054
    nsecs:  27704999
  frame_id: "ti_mmwave"
point_id: 1
x: 0.017578125
y: -0.080078125
z: -0.0078125
range: 0.0871539413929
velocity: 0.0
doppler_bin: 8
bearing: -77.6192398071
intensity: 31.9033164978
---
header: 
  seq: 997878
  stamp: 
    secs: 1561865054
    nsecs:  27718007
  frame_id: "ti_mmwave"
point_id: 2
x: 0.029296875
y: -0.119140625
z: -0.005859375
range: 0.130730912089
velocity: 0.0
doppler_bin: 8
bearing: -76.1849746704
intensity: 30.1494026184
---
header: 
  seq: 997879
  stamp: 
    secs: 1561865054
    nsecs:  27728132
  frame_id: "ti_mmwave"
point_id: 3
x: 0.056640625
y: -0.154296875
z: 0.005859375
range: 0.174307882786
velocity: 0.0
doppler_bin: 8
bearing: -69.8423843384
intensity: 25.4406795502
---
header: 
  seq: 997880
  stamp: 
    secs: 1561865054
    nsecs:  27736504
  frame_id: "ti_mmwave"
point_id: 4
x: 0.974609375
y: 0.091796875
z: -0.072265625
range: 1.04584729671
velocity: 0.0
doppler_bin: 8
bearing: 5.3807220459
intensity: 20.8278541565
---
header: 
  seq: 997881
  stamp: 
    secs: 1561865054
    nsecs:  27744617
  frame_id: "ti_mmwave"
point_id: 5
x: 1.0078125
y: 0.064453125
z: 0.16015625
range: 1.08942425251
velocity: 0.0
doppler_bin: 8
bearing: 3.65928149223
intensity: 25.5388298035
---
header: 
  seq: 997882
  stamp: 
    secs: 1561865054
    nsecs:  27753191
  frame_id: "ti_mmwave"
point_id: 6
x: 1.052734375
y: 0.06640625
z: 0.142578125
range: 1.13300120831
velocity: 0.0
doppler_bin: 8
bearing: 3.6094224453
intensity: 30.0560951233
---
header: 
  seq: 997883
  stamp: 
    secs: 1561865054
    nsecs:  27761341
  frame_id: "ti_mmwave"
point_id: 7
x: 1.099609375
y: 0.103515625
z: 0.013671875
range: 1.1765781641
velocity: 0.0
doppler_bin: 8
bearing: 5.37789201736
intensity: 33.1238899231
---
header: 
  seq: 997884
  stamp: 
    secs: 1561865054
    nsecs:  27772124
  frame_id: "ti_mmwave"
point_id: 8
x: 1.138671875
y: 0.107421875
z: -0.076171875
range: 1.22015523911
velocity: 0.0
doppler_bin: 8
bearing: 5.38931179047
intensity: 34.6819953918
---
header: 
  seq: 997885
  stamp: 
    secs: 1561865054
    nsecs:  27852695
  frame_id: "ti_mmwave"
point_id: 9
x: 1.173828125
y: 0.1484375
z: -0.09765625
range: 1.2637321949
velocity: 0.0
doppler_bin: 8
bearing: 7.2071352005
intensity: 33.8703384399
---
header: 
  seq: 997886
  stamp: 
    secs: 1561865054
    nsecs:  27861774
  frame_id: "ti_mmwave"
point_id: 10
x: 1.208984375
y: 0.19140625
z: -0.09375
range: 1.3073091507
velocity: 0.0
doppler_bin: 8
bearing: 8.99639129639
intensity: 29.8407707214
---
header: 
  seq: 997887
  stamp: 
    secs: 1561865054
    nsecs:  27870488
  frame_id: "ti_mmwave"
point_id: 11
x: 2.61328125
y: -0.17578125
z: 1.0546875
range: 3.00681090355
velocity: 0.0
doppler_bin: 8
bearing: -3.84817934036
intensity: 29.2012329102
---
header: 
  seq: 997888
  stamp: 
    secs: 1561865054
    nsecs:  27878242
  frame_id: "ti_mmwave"
point_id: 12
x: 2.693359375
y: -0.08984375
z: 0.96875
range: 3.05038785934
velocity: 0.0
doppler_bin: 8
bearing: -1.91053581238
intensity: 32.2762947083
---
header: 
  seq: 997889
  stamp: 
    secs: 1561865054
    nsecs:  27904420
  frame_id: "ti_mmwave"
point_id: 13
x: 2.765625
y: -0.08984375
z: 0.880859375
range: 3.09396481514
velocity: 0.0
doppler_bin: 8
bearing: -1.8606492281
intensity: 31.2287101746
---
header: 
  seq: 997890
  stamp: 
    secs: 1561865054
    nsecs:  27912499
  frame_id: "ti_mmwave"
point_id: 14
x: 4.431640625
y: -0.142578125
z: 1.150390625
range: 4.88062095642
velocity: 0.0
doppler_bin: 8
bearing: -1.84272778034
intensity: 30.4060230255
---
header: 
  seq: 997891
  stamp: 
    secs: 1561865054
    nsecs:  27919591
  frame_id: "ti_mmwave"
point_id: 15
x: 4.46875
y: -0.14453125
z: 1.17578125
range: 4.9241976738
velocity: 0.0
doppler_bin: 8
bearing: -1.85245215893
intensity: 29.6801567078
---
header: 
  seq: 997892
  stamp: 
    secs: 1561865054
    nsecs:  27928091
  frame_id: "ti_mmwave"
point_id: 16
x: 4.890625
y: -0.30859375
z: 0.703125
range: 5.27281332016
velocity: 0.0
doppler_bin: 8
bearing: -3.61052203178
intensity: 30.7918128967
---
header: 
  seq: 997893
  stamp: 
    secs: 1561865054
    nsecs:  27935570
  frame_id: "ti_mmwave"
point_id: 17
x: 0.703125
y: 0.16015625
z: 0.150390625
range: 0.784385442734
velocity: -3.07334327698
doppler_bin: 3
bearing: 12.83177948
intensity: 19.1907806396
---
header: 
  seq: 997894
  stamp: 
    secs: 1561865054
    nsecs:  27973049
  frame_id: "ti_mmwave"
point_id: 18
x: 0.748046875
y: 0.169921875
z: 0.12890625
range: 0.827962458134
velocity: -3.07334327698
doppler_bin: 3
bearing: 12.7978000641
intensity: 26.0205993652
---
header: 
  seq: 997895
  stamp: 
    secs: 1561865054
    nsecs:  27991178
  frame_id: "ti_mmwave"
point_id: 19
x: 0.7890625
y: 0.1796875
z: 0.125
range: 0.871539413929
velocity: -3.07334327698
doppler_bin: 3
bearing: 12.8287830353
intensity: 28.3378429413
---
header: 
  seq: 997896
  stamp: 
    secs: 1561865054
    nsecs:  28004228
  frame_id: "ti_mmwave"
point_id: 20
x: 0.828125
y: 0.1875
z: 0.123046875
range: 0.915116369724
velocity: -3.07334327698
doppler_bin: 3
bearing: 12.7575321198
intensity: 27.2345561981
---
header: 
  seq: 997897
  stamp: 
    secs: 1561865054
    nsecs:  28012221
  frame_id: "ti_mmwave"
point_id: 21
x: 0.869140625
y: 0.197265625
z: 0.123046875
range: 0.958693385124
velocity: -3.07334327698
doppler_bin: 3
bearing: 12.7875699997
intensity: 23.031961441
---
header: 
  seq: 997898
  stamp: 
    secs: 1561865054
    nsecs:  28020117
  frame_id: "ti_mmwave"
point_id: 22
x: 0.009765625
y: 0.03125
z: 0.025390625
range: 0.0435769706964
velocity: 0.0
doppler_bin: 8
bearing: 72.6459732056
intensity: 29.31457901
---
header: 
  seq: 997899
  stamp: 
    secs: 1561865054
    nsecs:  28029970
  frame_id: "ti_mmwave"
point_id: 23
x: 0.041015625
y: -0.033203125
z: 0.0625
range: 0.0871539413929
velocity: 0.0
doppler_bin: 8
bearing: -38.9909973145
intensity: 30.0902576447
---
header: 
  seq: 997900
  stamp: 
    secs: 1561865054
    nsecs:  28039075
  frame_id: "ti_mmwave"
point_id: 24
x: 0.044921875
y: -0.046875
z: 0.103515625
range: 0.130730912089
velocity: 0.0
doppler_bin: 8
bearing: -46.218875885
intensity: 28.9707698822
---
header: 
  seq: 997901
  stamp: 
    secs: 1561865054
    nsecs:  87747298
  frame_id: "ti_mmwave"
point_id: 0
x: 0.01171875
y: -0.0390625
z: -0.0078125
range: 0.0435769706964
velocity: 0.0
doppler_bin: 8
bearing: -73.3007583618
intensity: 30.6483230591
---
header: 
  seq: 997902
  stamp: 
    secs: 1561865054
    nsecs:  87832248
  frame_id: "ti_mmwave"
point_id: 1
x: 0.017578125
y: -0.080078125
z: -0.0078125
range: 0.0871539413929
velocity: 0.0
doppler_bin: 8
bearing: -77.6192398071
intensity: 31.9005146027
---
header: 
  seq: 997903
  stamp: 
    secs: 1561865054
    nsecs:  87846904
  frame_id: "ti_mmwave"
point_id: 2
x: 0.029296875
y: -0.119140625
z: -0.005859375
range: 0.130730912089
velocity: 0.0
doppler_bin: 8
bearing: -76.1849746704
intensity: 30.1494026184
---
header: 
  seq: 997904
  stamp: 
    secs: 1561865054
    nsecs:  87856211
  frame_id: "ti_mmwave"
point_id: 3
x: 0.056640625
y: -0.154296875
z: 0.005859375
range: 0.174307882786
velocity: 0.0
doppler_bin: 8
bearing: -69.8423843384
intensity: 25.4406795502
---
header: 
  seq: 997905
  stamp: 
    secs: 1561865054
    nsecs:  87867132
  frame_id: "ti_mmwave"
point_id: 4
x: 1.001953125
y: 0.095703125
z: 0.185546875
range: 1.08942425251
velocity: 0.0
doppler_bin: 8
bearing: 5.45614385605
intensity: 25.7170886993
---
header: 
  seq: 997906
  stamp: 
    secs: 1561865054
    nsecs:  87878425
  frame_id: "ti_mmwave"
point_id: 5
x: 1.037109375
y: 0.06640625
z: 0.228515625
range: 1.13300120831
velocity: 0.0
doppler_bin: 8
bearing: 3.66365504265
intensity: 28.7390155792
---
header: 
  seq: 997907
  stamp: 
    secs: 1561865054
    nsecs:  87978702
  frame_id: "ti_mmwave"
point_id: 6
x: 1.060546875
y: -0.0
z: 0.310546875
range: 1.1765781641
velocity: 0.0
doppler_bin: 8
bearing: -0.0
intensity: 27.2098579407
---
header: 
  seq: 997908
  stamp: 
    secs: 1561865054
    nsecs:  88006628
  frame_id: "ti_mmwave"
point_id: 7
x: 1.11328125
y: 0.1796875
z: -0.197265625
range: 1.22015523911
velocity: 0.0
doppler_bin: 8
bearing: 9.16866779327
intensity: 29.8317508698
---
header: 
  seq: 997909
  stamp: 
    secs: 1561865054
    nsecs:  88015034
  frame_id: "ti_mmwave"
point_id: 8
x: 1.171875
y: 0.1484375
z: -0.1171875
range: 1.2637321949
velocity: 0.0
doppler_bin: 8
bearing: 7.21902084351
intensity: 30.6295776367
---
header: 
  seq: 997910
  stamp: 
    secs: 1561865054
    nsecs:  88023248
  frame_id: "ti_mmwave"
point_id: 9
x: 1.21484375
y: 0.154296875
z: -0.08984375
range: 1.3073091507
velocity: 0.0
doppler_bin: 8
bearing: 7.23836135864
intensity: 28.1888542175
---
header: 
  seq: 997911
  stamp: 
    secs: 1561865054
    nsecs:  88030956
  frame_id: "ti_mmwave"
point_id: 10
x: 2.611328125
y: -0.17578125
z: 1.056640625
range: 3.00681090355
velocity: 0.0
doppler_bin: 8
bearing: -3.85104894638
intensity: 28.9153747559
---
header: 
  seq: 997912
  stamp: 
    secs: 1561865054
    nsecs:  88040935
  frame_id: "ti_mmwave"
point_id: 11
x: 2.69140625
y: -0.08984375
z: 0.974609375
range: 3.05038785934
velocity: 0.0
doppler_bin: 8
bearing: -1.91192126274
intensity: 32.0897865295
---
header: 
  seq: 997913
  stamp: 
    secs: 1561865054
    nsecs:  88048755
  frame_id: "ti_mmwave"
point_id: 12
x: 2.751953125
y: -0.08984375
z: 0.92578125
range: 3.09396481514
velocity: 0.0
doppler_bin: 8
bearing: -1.86988639832
intensity: 31.0037059784
---
header: 
  seq: 997914
  stamp: 
    secs: 1561865054
    nsecs:  88056297
  frame_id: "ti_mmwave"
point_id: 13
x: 4.400390625
y: -0.142578125
z: 1.111328125
range: 4.83704376221
velocity: 0.0
doppler_bin: 8
bearing: -1.85580503941
intensity: 28.5064620972
---
header: 
  seq: 997915
  stamp: 
    secs: 1561865054
    nsecs:  88065114
  frame_id: "ti_mmwave"
point_id: 14
x: 4.419921875
y: -0.142578125
z: 1.1953125
range: 4.88062095642
velocity: 0.0
doppler_bin: 8
bearing: -1.847610116
intensity: 31.8920955658
---
header: 
  seq: 997916
  stamp: 
    secs: 1561865054
    nsecs:  88072763
  frame_id: "ti_mmwave"
point_id: 15
x: 4.46484375
y: -0.14453125
z: 1.1875
range: 4.9241976738
velocity: 0.0
doppler_bin: 8
bearing: -1.85407173634
intensity: 31.2188796997
---
header: 
  seq: 997917
  stamp: 
    secs: 1561865054
    nsecs:  88080634
  frame_id: "ti_mmwave"
point_id: 16
x: 4.80859375
y: -0.154296875
z: 0.978515625
range: 5.22923660278
velocity: 0.0
doppler_bin: 8
bearing: -1.8378610611
intensity: 30.7809410095
---
header: 
  seq: 997918
  stamp: 
    secs: 1561865054
    nsecs:  88088249
  frame_id: "ti_mmwave"
point_id: 17
x: 4.875
y: -0.30859375
z: 0.79296875
range: 5.27281332016
velocity: 0.0
doppler_bin: 8
bearing: -3.62206339836
intensity: 32.1510848999
---
header: 
  seq: 997919
  stamp: 
    secs: 1561865054
    nsecs:  88097721
  frame_id: "ti_mmwave"
point_id: 18
x: 4.96484375
y: -0.46875
z: 0.19921875
range: 5.31639051437
velocity: 0.0
doppler_bin: 8
bearing: -5.39352655411
intensity: 30.4336223602
---
header: 
  seq: 997920
  stamp: 
    secs: 1561865054
    nsecs:  88105340
  frame_id: "ti_mmwave"
point_id: 19
x: 0.6640625
y: 0.173828125
z: 0.10546875
range: 0.740808486938
velocity: -0.614668667316
doppler_bin: 7
bearing: 14.6688833237
intensity: 22.5527248383
---
header: 
  seq: 997921
  stamp: 
    secs: 1561865054
    nsecs:  88112971
  frame_id: "ti_mmwave"
point_id: 20
x: 0.7109375
y: 0.16015625
z: 0.099609375
range: 0.784385442734
velocity: -0.614668667316
doppler_bin: 7
bearing: 12.6953649521
intensity: 27.774269104
---
header: 
  seq: 997922
  stamp: 
    secs: 1561865054
    nsecs:  88120859
  frame_id: "ti_mmwave"
point_id: 21
x: 0.751953125
y: 0.169921875
z: 0.09765625
range: 0.827962458134
velocity: -0.614668667316
doppler_bin: 7
bearing: 12.7334909439
intensity: 28.8138465881
---
header: 
  seq: 997923
  stamp: 
    secs: 1561865054
    nsecs:  88127410
  frame_id: "ti_mmwave"
point_id: 22
x: 0.79296875
y: 0.1796875
z: 0.09765625
range: 0.871539413929
velocity: -0.614668667316
doppler_bin: 7
bearing: 12.767663002
intensity: 26.1384181976
---
header: 
  seq: 997924
  stamp: 
    secs: 1561865054
    nsecs:  88166392
  frame_id: "ti_mmwave"
point_id: 23
x: 0.009765625
y: 0.03125
z: 0.025390625
range: 0.0435769706964
velocity: 0.0
doppler_bin: 8
bearing: 72.6459732056
intensity: 29.31457901
---
header: 
  seq: 997925
  stamp: 
    secs: 1561865054
    nsecs:  88362031
  frame_id: "ti_mmwave"
point_id: 24
x: 0.041015625
y: -0.033203125
z: 0.0625
range: 0.0871539413929
velocity: 0.0
doppler_bin: 8
bearing: -38.9909973145
intensity: 30.0860023499
---
header: 
  seq: 997926
  stamp: 
    secs: 1561865054
    nsecs:  88391412
  frame_id: "ti_mmwave"
point_id: 25
x: 0.044921875
y: -0.046875
z: 0.103515625
range: 0.130730912089
velocity: 0.0
doppler_bin: 8
bearing: -46.218875885
intensity: 28.9652614594
---
header: 
  seq: 997927
  stamp: 
    secs: 1561865054
    nsecs:  89450899
  frame_id: "ti_mmwave"
point_id: 0
x: 0.01171875
y: -0.0390625
z: -0.0078125
range: 0.0435769706964
velocity: 0.0
doppler_bin: 8
bearing: -73.3007583618
intensity: 30.6595306396
---
header: 
  seq: 997928
  stamp: 
    secs: 1561865054
    nsecs:  89495976
  frame_id: "ti_mmwave"
point_id: 1
x: 0.017578125
y: -0.080078125
z: -0.0078125
range: 0.0871539413929
velocity: 0.0
doppler_bin: 8
bearing: -77.6192398071
intensity: 31.9061183929
---
header: 
  seq: 997929
  stamp: 
    secs: 1561865054
    nsecs:  89508024
  frame_id: "ti_mmwave"
point_id: 2
x: 0.029296875
y: -0.119140625
z: -0.005859375
range: 0.130730912089
velocity: 0.0
doppler_bin: 8
bearing: -76.1849746704
intensity: 30.1494026184
---
header: 
  seq: 997930
  stamp: 
    secs: 1561865054
    nsecs:  89517020
  frame_id: "ti_mmwave"
point_id: 3
x: 0.056640625
y: -0.154296875
z: 0.005859375
range: 0.174307882786
velocity: 0.0
doppler_bin: 8
bearing: -69.8423843384
intensity: 25.4406795502
---
header: 
  seq: 997931
  stamp: 
    secs: 1561865054
    nsecs:  89526197
  frame_id: "ti_mmwave"
point_id: 4
x: 0.984375
y: 0.095703125
z: 0.2578125
range: 1.08942425251
velocity: 0.0
doppler_bin: 8
bearing: 5.55297088623
intensity: 26.0205993652
---
header: 
  seq: 997932
  stamp: 
    secs: 1561865054
    nsecs:  89540142
  frame_id: "ti_mmwave"
point_id: 5
x: 1.00390625
y: 0.099609375
z: 0.3359375
range: 1.13300120831
velocity: 0.0
doppler_bin: 8
bearing: 5.66644287109
intensity: 27.9309158325
---
header: 
  seq: 997933
  stamp: 
    secs: 1561865054
    nsecs:  89595579
  frame_id: "ti_mmwave"
point_id: 6
x: 1.068359375
y: 0.20703125
z: -0.18359375
range: 1.1765781641
velocity: 0.0
doppler_bin: 8
bearing: 10.967089653
intensity: 29.1907806396
---
header: 
  seq: 997934
  stamp: 
    secs: 1561865054
    nsecs:  89604851
  frame_id: "ti_mmwave"
point_id: 7
x: 1.1328125
y: 0.142578125
z: -0.08984375
range: 1.22015523911
velocity: 0.0
doppler_bin: 8
bearing: 7.17364358902
intensity: 34.3120269775
---
header: 
  seq: 997935
  stamp: 
    secs: 1561865054
    nsecs:  89612805
  frame_id: "ti_mmwave"
point_id: 8
x: 1.169921875
y: 0.185546875
z: -0.078125
range: 1.2637321949
velocity: 0.0
doppler_bin: 8
bearing: 9.01191711426
intensity: 34.1680679321
---
header: 
  seq: 997936
  stamp: 
    secs: 1561865054
    nsecs:  89620459
  frame_id: "ti_mmwave"
point_id: 9
x: 1.203125
y: 0.23046875
z: -0.0625
range: 1.3073091507
velocity: 0.0
doppler_bin: 8
bearing: 10.8441228867
intensity: 30.2734966278
---
header: 
  seq: 997937
  stamp: 
    secs: 1561865054
    nsecs:  89629249
  frame_id: "ti_mmwave"
point_id: 10
x: 2.611328125
y: -0.17578125
z: 1.056640625
range: 3.00681090355
velocity: 0.0
doppler_bin: 8
bearing: -3.85104894638
intensity: 28.8874092102
---
header: 
  seq: 997938
  stamp: 
    secs: 1561865054
    nsecs:  89636893
  frame_id: "ti_mmwave"
point_id: 11
x: 2.68359375
y: -0.08984375
z: 0.994140625
range: 3.05038785934
velocity: 0.0
doppler_bin: 8
bearing: -1.91748321056
intensity: 32.0601577759
---
header: 
  seq: 997939
  stamp: 
    secs: 1561865054
    nsecs:  89646159
  frame_id: "ti_mmwave"
point_id: 12
x: 2.759765625
y: -0.0
z: 0.904296875
range: 3.09396481514
velocity: 0.0
doppler_bin: 8
bearing: -0.0
intensity: 30.9829750061
---
header: 
  seq: 997940
  stamp: 
    secs: 1561865054
    nsecs:  89653767
  frame_id: "ti_mmwave"
point_id: 13
x: 4.3984375
y: -0.142578125
z: 1.119140625
range: 4.83704376221
velocity: 0.0
doppler_bin: 8
bearing: -1.8566287756
intensity: 29.2531204224
---
header: 
  seq: 997941
  stamp: 
    secs: 1561865054
    nsecs:  89661280
  frame_id: "ti_mmwave"
point_id: 14
x: 4.41796875
y: -0.142578125
z: 1.205078125
range: 4.88062095642
velocity: 0.0
doppler_bin: 8
bearing: -1.84842634201
intensity: 32.494430542
---
header: 
  seq: 997942
  stamp: 
    secs: 1561865054
    nsecs:  89668729
  frame_id: "ti_mmwave"
point_id: 15
x: 4.462890625
y: -0.14453125
z: 1.197265625
range: 4.9241976738
velocity: 0.0
doppler_bin: 8
bearing: -1.85488259792
intensity: 31.9534606934
---
header: 
  seq: 997943
  stamp: 
    secs: 1561865054
    nsecs:  89676339
  frame_id: "ti_mmwave"
point_id: 16
x: 4.806640625
y: -0.154296875
z: 0.984375
range: 5.22923660278
velocity: 0.0
doppler_bin: 8
bearing: -1.83860731125
intensity: 31.4798526764
---
header: 
  seq: 997944
  stamp: 
    secs: 1561865054
    nsecs:  89683676
  frame_id: "ti_mmwave"
point_id: 17
x: 4.87109375
y: -0.154296875
z: 0.865234375
range: 5.27281332016
velocity: 0.0
doppler_bin: 8
bearing: -1.81429588795
intensity: 32.6717185974
---
header: 
  seq: 997945
  stamp: 
    secs: 1561865054
    nsecs:  89692710
  frame_id: "ti_mmwave"
point_id: 18
x: 4.958984375
y: -0.46875
z: 0.302734375
range: 5.31639051437
velocity: 0.0
doppler_bin: 8
bearing: -5.39986228943
intensity: 30.7298469543
---
header: 
  seq: 997946
  stamp: 
    secs: 1561865054
    nsecs:  89701954
  frame_id: "ti_mmwave"
point_id: 19
x: 0.712890625
y: 0.115234375
z: 0.146484375
range: 0.784385442734
velocity: 1.84400606155
doppler_bin: 11
bearing: 9.18208694458
intensity: 25.9217681885
---
header: 
  seq: 997947
  stamp: 
    secs: 1561865054
    nsecs:  89709222
  frame_id: "ti_mmwave"
point_id: 20
x: 0.75390625
y: 0.12109375
z: 0.142578125
range: 0.827962458134
velocity: 1.84400606155
doppler_bin: 11
bearing: 9.12500858307
intensity: 29.8362636566
---
header: 
  seq: 997948
  stamp: 
    secs: 1561865054
    nsecs:  89717172
  frame_id: "ti_mmwave"
point_id: 21
x: 0.794921875
y: 0.126953125
z: 0.14453125
range: 0.871539413929
velocity: 1.84400606155
doppler_bin: 11
bearing: 9.07380485535
intensity: 29.7954845428
---
header: 
  seq: 997949
  stamp: 
    secs: 1561865054
    nsecs:  89734155
  frame_id: "ti_mmwave"
point_id: 22
x: 0.830078125
y: 0.16015625
z: 0.150390625
range: 0.915116369724
velocity: 1.84400606155
doppler_bin: 11
bearing: 10.9205236435
intensity: 26.0638141632
---
header: 
  seq: 997950
  stamp: 
    secs: 1561865054
    nsecs:  89741976
  frame_id: "ti_mmwave"
point_id: 23
x: 0.009765625
y: 0.03125
z: 0.025390625
range: 0.0435769706964
velocity: 0.0
doppler_bin: 8
bearing: 72.6459732056
intensity: 29.3094902039
---
header: 
  seq: 997951
  stamp: 
    secs: 1561865054
    nsecs:  89874196
  frame_id: "ti_mmwave"
point_id: 24
x: 0.041015625
y: -0.033203125
z: 0.0625
range: 0.0871539413929
velocity: 0.0
doppler_bin: 8
bearing: -38.9909973145
intensity: 30.0945091248
---
header: 
  seq: 997952
  stamp: 
    secs: 1561865054
    nsecs:  89894638
  frame_id: "ti_mmwave"
point_id: 25
x: 0.044921875
y: -0.046875
z: 0.103515625
range: 0.130730912089
velocity: 0.0
doppler_bin: 8
bearing: -46.218875885
intensity: 28.9707698822
---
header: 
  seq: 997953
  stamp: 
    secs: 1561865054
    nsecs:  89910865
  frame_id: "ti_mmwave"
point_id: 27
x: 1.078125
y: 0.138671875
z: -0.201171875
range: 1.1765781641
velocity: 0.0
doppler_bin: 8
bearing: 7.32932424545
intensity: 29.1539974213
---
header: 
  seq: 997954
  stamp: 
    secs: 1561865054
    nsecs:  89919412
  frame_id: "ti_mmwave"
point_id: 28
x: 2.712890625
y: -0.181640625
z: 1.021484375
range: 3.09396481514
velocity: 0.0
doppler_bin: 8
bearing: -3.83050107956
intensity: 30.9656238556
---
header: 
  seq: 997955
  stamp: 
    secs: 1561865054
    nsecs: 147729466
  frame_id: "ti_mmwave"
point_id: 0
x: 0.01171875
y: -0.0390625
z: -0.0078125
range: 0.0435769706964
velocity: 0.0
doppler_bin: 8
bearing: -73.3007583618
intensity: 30.6520614624
---
header: 
  seq: 997956
  stamp: 
    secs: 1561865054
    nsecs: 147806166
  frame_id: "ti_mmwave"
point_id: 1
x: 0.017578125
y: -0.080078125
z: -0.0078125
range: 0.0871539413929
velocity: 0.0
doppler_bin: 8
bearing: -77.6192398071
intensity: 31.9033164978
---
header: 
  seq: 997957
  stamp: 
    secs: 1561865054
    nsecs: 147821695
  frame_id: "ti_mmwave"
point_id: 2
x: 0.029296875
y: -0.119140625
z: -0.005859375
range: 0.130730912089
velocity: 0.0
doppler_bin: 8
bearing: -76.1849746704
intensity: 30.1452045441
---
header: 
  seq: 997958
  stamp: 
    secs: 1561865054
    nsecs: 147834583
  frame_id: "ti_mmwave"
point_id: 3
x: 0.056640625
y: -0.154296875
z: 0.005859375
range: 0.174307882786
velocity: 0.0
doppler_bin: 8
bearing: -69.8423843384
intensity: 25.4282550812
---
header: 
  seq: 997959
  stamp: 
    secs: 1561865054
    nsecs: 147847990
  frame_id: "ti_mmwave"
point_id: 4
x: 0.978515625
y: 0.060546875
z: 0.048828125
range: 1.04584729671
velocity: 0.0
doppler_bin: 8
bearing: 3.54073381424
intensity: 20.934217453
---
header: 
  seq: 997960
  stamp: 
    secs: 1561865054
    nsecs: 147856470
  frame_id: "ti_mmwave"
point_id: 5
x: 1.0
y: 0.095703125
z: 0.189453125
range: 1.08942425251
velocity: 0.0
doppler_bin: 8
bearing: 5.46673583984
intensity: 26.6838588715
---
header: 
  seq: 997961
  stamp: 
    secs: 1561865054
    nsecs: 147864857
  frame_id: "ti_mmwave"
point_id: 6
x: 1.041015625
y: 0.099609375
z: 0.197265625
range: 1.13300120831
velocity: 0.0
doppler_bin: 8
bearing: 5.46569538116
intensity: 30.0987567902
---
header: 
  seq: 997962
  stamp: 
