header: 
  seq: 1423549
  stamp: 
    secs: 1561868435
    nsecs: 756135827
  frame_id: "ti_mmwave"
point_id: 0
x: 0.01171875
y: -0.0390625
z: -0.0078125
range: 0.0435769706964
velocity: 0.0
doppler_bin: 8
bearing: -73.3007583618
intensity: 30.6370849609
---
header: 
  seq: 1423550
  stamp: 
    secs: 1561868435
    nsecs: 756212833
  frame_id: "ti_mmwave"
point_id: 1
x: 0.017578125
y: -0.080078125
z: -0.0078125
range: 0.0871539413929
velocity: 0.0
doppler_bin: 8
bearing: -77.6192398071
intensity: 31.9033164978
---
header: 
  seq: 1423551
  stamp: 
    secs: 1561868435
    nsecs: 756228327
  frame_id: "ti_mmwave"
point_id: 2
x: 0.029296875
y: -0.119140625
z: -0.005859375
range: 0.130730912089
velocity: 0.0
doppler_bin: 8
bearing: -76.1849746704
intensity: 30.1241531372
---
header: 
  seq: 1423552
  stamp: 
    secs: 1561868435
    nsecs: 756244201
  frame_id: "ti_mmwave"
point_id: 3
x: 0.056640625
y: -0.154296875
z: 0.0078125
range: 0.174307882786
velocity: 0.0
doppler_bin: 8
bearing: -69.8423843384
intensity: 25.4530715942
---
header: 
  seq: 1423553
  stamp: 
    secs: 1561868435
    nsecs: 756268432
  frame_id: "ti_mmwave"
point_id: 4
x: 0.19921875
y: -0.080078125
z: 1.25
range: 1.35088610649
velocity: 0.0
doppler_bin: 8
bearing: -21.8981933594
intensity: 23.1175384521
---
header: 
  seq: 1423554
  stamp: 
    secs: 1561868435
    nsecs: 756344727
  frame_id: "ti_mmwave"
point_id: 6
x: 0.4296875
y: -0.083984375
z: -1.27734375
range: 1.43804001808
velocity: 0.0
doppler_bin: 8
bearing: -11.0592975616
intensity: 23.0749607086
---
header: 
  seq: 1423555
  stamp: 
    secs: 1561868435
    nsecs: 756359706
  frame_id: "ti_mmwave"
point_id: 7
x: 2.65625
y: -0.1796875
z: 1.0546875
range: 3.05038785934
velocity: 0.0
doppler_bin: 8
bearing: -3.86999511719
intensity: 32.0736503601
---
header: 
  seq: 1423556
  stamp: 
    secs: 1561868435
    nsecs: 756370893
  frame_id: "ti_mmwave"
point_id: 8
x: 2.75390625
y: -0.08984375
z: 0.91796875
range: 3.09396481514
velocity: 0.0
doppler_bin: 8
bearing: -1.86856126785
intensity: 31.0002574921
---
header: 
  seq: 1423557
  stamp: 
    secs: 1561868435
    nsecs: 756381459
  frame_id: "ti_mmwave"
point_id: 9
x: 4.408203125
y: -0.142578125
z: 1.08203125
range: 4.83704376221
velocity: 0.0
doppler_bin: 8
bearing: -1.85251843929
intensity: 28.1491317749
---
header: 
  seq: 1423558
  stamp: 
    secs: 1561868435
    nsecs: 756391978
  frame_id: "ti_mmwave"
point_id: 10
x: 4.41015625
y: -0.287109375
z: 1.2109375
range: 4.88062095642
velocity: 0.0
doppler_bin: 8
bearing: -3.72480559349
intensity: 31.7114124298
---
header: 
  seq: 1423559
  stamp: 
    secs: 1561868435
    nsecs: 756403047
  frame_id: "ti_mmwave"
point_id: 11
x: 4.455078125
y: -0.14453125
z: 1.22265625
range: 4.9241976738
velocity: 0.0
doppler_bin: 8
bearing: -1.85813295841
intensity: 31.4363918304
---
header: 
  seq: 1423560
  stamp: 
    secs: 1561868435
    nsecs: 756414644
  frame_id: "ti_mmwave"
point_id: 12
x: 1.09765625
y: 0.103515625
z: -0.056640625
range: 1.1765781641
velocity: 0.614668667316
doppler_bin: 9
bearing: 5.38740539551
intensity: 23.5218257904
---
header: 
  seq: 1423561
  stamp: 
    secs: 1561868435
    nsecs: 756428640
  frame_id: "ti_mmwave"
point_id: 13
x: 1.134765625
y: 0.142578125
z: -0.0703125
range: 1.22015523911
velocity: 0.614668667316
doppler_bin: 9
bearing: 7.16142559052
intensity: 26.1595001221
---
header: 
  seq: 1423562
  stamp: 
    secs: 1561868435
    nsecs: 756441215
  frame_id: "ti_mmwave"
point_id: 14
x: 1.173828125
y: 0.1484375
z: -0.076171875
range: 1.2637321949
velocity: 0.614668667316
doppler_bin: 9
bearing: 7.2071352005
intensity: 25.3529415131
---
header: 
  seq: 1423563
  stamp: 
    secs: 1561868435
    nsecs: 756453919
  frame_id: "ti_mmwave"
point_id: 15
x: 1.2109375
y: 0.19140625
z: -0.052734375
range: 1.3073091507
velocity: 0.614668667316
doppler_bin: 9
bearing: 8.98211669922
intensity: 20.934217453
---
header: 
  seq: 1423564
  stamp: 
    secs: 1561868435
    nsecs: 756466911
  frame_id: "ti_mmwave"
point_id: 16
x: 1.798828125
y: -0.056640625
z: -0.01953125
range: 1.91738677025
velocity: 0.614668667316
doppler_bin: 9
bearing: -1.8035056591
intensity: 26.6931686401
---
header: 
  seq: 1423565
  stamp: 
    secs: 1561868435
    nsecs: 756480047
  frame_id: "ti_mmwave"
point_id: 17
x: 1.8359375
y: -0.115234375
z: -0.064453125
range: 1.96096372604
velocity: 0.614668667316
doppler_bin: 9
bearing: -3.59151291847
intensity: 26.4147415161
---
header: 
  seq: 1423566
  stamp: 
    secs: 1561868435
    nsecs: 756494322
  frame_id: "ti_mmwave"
point_id: 18
x: 1.85546875
y: -0.234375
z: -0.205078125
range: 2.00454068184
velocity: 0.614668667316
doppler_bin: 9
bearing: -7.19923353195
intensity: 26.1066017151
---
header: 
  seq: 1423567
  stamp: 
    secs: 1561868435
    nsecs: 756516076
  frame_id: "ti_mmwave"
point_id: 22
x: 0.041015625
y: -0.033203125
z: 0.0625
range: 0.0871539413929
velocity: 0.0
doppler_bin: 8
bearing: -38.9909973145
intensity: 30.0945091248
---
header: 
  seq: 1423568
  stamp: 
    secs: 1561868435
    nsecs: 756530357
  frame_id: "ti_mmwave"
point_id: 23
x: 0.046875
y: -0.046875
z: 0.103515625
range: 0.130730912089
velocity: 0.0
doppler_bin: 8
bearing: -45.0
intensity: 29.0091304779
---
header: 
  seq: 1423569
  stamp: 
    secs: 1561868435
    nsecs: 756654604
  frame_id: "ti_mmwave"
point_id: 25
x: 0.291015625
y: -0.267578125
z: 1.162109375
range: 1.3073091507
velocity: 0.614668667316
doppler_bin: 9
bearing: -42.5973892212
intensity: 18.8081359863
---
header: 
  seq: 1423570
  stamp: 
    secs: 1561868435
    nsecs: 756685918
  frame_id: "ti_mmwave"
point_id: 26
x: 0.6171875
y: 2.41796875
z: -0.0390625
range: 2.65819525719
velocity: 0.614668667316
doppler_bin: 9
bearing: 75.6809844971
intensity: 25.1188335419
---
header: 
  seq: 1423571
  stamp: 
    secs: 1561868435
    nsecs: 757627290
  frame_id: "ti_mmwave"
point_id: 0
x: 0.01171875
y: -0.0390625
z: -0.0078125
range: 0.0435769706964
velocity: 0.0
doppler_bin: 8
bearing: -73.3007583618
intensity: 30.6370849609
---
header: 
  seq: 1423572
  stamp: 
    secs: 1561868435
    nsecs: 757680182
  frame_id: "ti_mmwave"
point_id: 1
x: 0.017578125
y: -0.080078125
z: -0.0078125
range: 0.0871539413929
velocity: 0.0
doppler_bin: 8
bearing: -77.6192398071
intensity: 31.9033164978
---
header: 
  seq: 1423573
  stamp: 
    secs: 1561868435
    nsecs: 757696565
  frame_id: "ti_mmwave"
point_id: 2
x: 0.029296875
y: -0.119140625
z: -0.005859375
range: 0.130730912089
velocity: 0.0
doppler_bin: 8
bearing: -76.1849746704
intensity: 30.1241531372
---
header: 
  seq: 1423574
  stamp: 
    secs: 1561868435
    nsecs: 757710266
  frame_id: "ti_mmwave"
point_id: 3
x: 0.056640625
y: -0.154296875
z: 0.005859375
range: 0.174307882786
velocity: 0.0
doppler_bin: 8
bearing: -69.8423843384
intensity: 25.4654273987
---
header: 
  seq: 1423575
  stamp: 
    secs: 1561868435
    nsecs: 757724661
  frame_id: "ti_mmwave"
point_id: 4
x: 0.125
y: -0.080078125
z: 1.259765625
range: 1.35088610649
velocity: 0.0
doppler_bin: 8
bearing: -32.6446380615
intensity: 23.1175384521
---
header: 
  seq: 1423576
  stamp: 
    secs: 1561868435
    nsecs: 757740702
  frame_id: "ti_mmwave"
point_id: 6
x: 0.435546875
y: -0.083984375
z: -1.275390625
range: 1.43804001808
velocity: 0.0
doppler_bin: 8
bearing: -10.9141130447
intensity: 23.1175384521
---
header: 
  seq: 1423577
  stamp: 
    secs: 1561868435
    nsecs: 757754785
  frame_id: "ti_mmwave"
point_id: 7
x: 0.564453125
y: -0.04296875
z: -1.26953125
range: 1.48161697388
velocity: 0.0
doppler_bin: 8
bearing: -4.35321998596
intensity: 21.7318630219
---
header: 
  seq: 1423578
  stamp: 
    secs: 1561868435
    nsecs: 757768136
  frame_id: "ti_mmwave"
point_id: 8
x: 2.6171875
y: -0.17578125
z: 1.041015625
range: 3.00681090355
velocity: 0.0
doppler_bin: 8
bearing: -3.84245300293
intensity: 28.8874092102
---
header: 
  seq: 1423579
  stamp: 
    secs: 1561868435
    nsecs: 757782364
  frame_id: "ti_mmwave"
point_id: 9
x: 2.69140625
y: -0.08984375
z: 0.974609375
range: 3.05038785934
velocity: 0.0
doppler_bin: 8
bearing: -1.91192126274
intensity: 32.1431388855
---
header: 
  seq: 1423580
  stamp: 
    secs: 1561868435
    nsecs: 757796810
  frame_id: "ti_mmwave"
point_id: 10
x: 2.7578125
y: -0.08984375
z: 0.904296875
range: 3.09396481514
velocity: 0.0
doppler_bin: 8
bearing: -1.86591637135
intensity: 31.2287101746
---
header: 
  seq: 1423581
  stamp: 
    secs: 1561868435
    nsecs: 757811435
  frame_id: "ti_mmwave"
point_id: 11
x: 4.41796875
y: -0.142578125
z: 1.20703125
range: 4.88062095642
velocity: 0.0
doppler_bin: 8
bearing: -1.84842634201
intensity: 31.1991539001
---
header: 
  seq: 1423582
  stamp: 
    secs: 1561868435
    nsecs: 757824345
  frame_id: "ti_mmwave"
point_id: 12
x: 4.447265625
y: -0.2890625
z: 1.228515625
range: 4.9241976738
velocity: 0.0
doppler_bin: 8
bearing: -3.71886897087
intensity: 30.9482040405
---
header: 
  seq: 1423583
  stamp: 
    secs: 1561868435
    nsecs: 757837489
  frame_id: "ti_mmwave"
point_id: 13
x: 1.7578125
y: -0.0546875
z: -0.01953125
range: 1.87380969524
velocity: 0.614668667316
doppler_bin: 9
bearing: -1.78196060658
intensity: 27.2672729492
---
header: 
  seq: 1423584
  stamp: 
    secs: 1561868435
    nsecs: 757850344
  frame_id: "ti_mmwave"
point_id: 14
x: 1.798828125
y: -0.0
z: -0.05859375
range: 1.91738677025
velocity: 0.614668667316
doppler_bin: 9
bearing: -0.0
intensity: 28.0888595581
---
header: 
  seq: 1423585
  stamp: 
    secs: 1561868435
    nsecs: 757863677
  frame_id: "ti_mmwave"
point_id: 15
x: 1.8359375
y: -0.0
z: -0.13671875
range: 1.96096372604
velocity: 0.614668667316
doppler_bin: 9
bearing: -0.0
intensity: 27.032913208
---
header: 
  seq: 1423586
  stamp: 
    secs: 1561868435
    nsecs: 757877099
  frame_id: "ti_mmwave"
point_id: 16
x: 1.181640625
y: 0.07421875
z: -0.056640625
range: 1.2637321949
velocity: 1.22933733463
doppler_bin: 10
bearing: 3.59402155876
intensity: 21.3033370972
---
header: 
  seq: 1423587
  stamp: 
    secs: 1561868435
    nsecs: 757892057
  frame_id: "ti_mmwave"
point_id: 17
x: 1.21484375
y: 0.154296875
z: -0.0703125
range: 1.3073091507
velocity: 1.22933733463
doppler_bin: 10
bearing: 7.23836135864
intensity: 21.0720996857
---
header: 
  seq: 1423588
  stamp: 
    secs: 1561868435
    nsecs: 757907024
  frame_id: "ti_mmwave"
point_id: 18
x: 1.87890625
y: 0.05859375
z: -0.064453125
range: 2.00454068184
velocity: 1.22933733463
doppler_bin: 10
bearing: 1.7861918211
intensity: 23.7291202545
---
header: 
  seq: 1423589
  stamp: 
    secs: 1561868435
    nsecs: 757925161
  frame_id: "ti_mmwave"
point_id: 20
x: 0.041015625
y: -0.033203125
z: 0.0625
range: 0.0871539413929
velocity: 0.0
doppler_bin: 8
bearing: -38.9909973145
intensity: 30.0945091248
---
header: 
  seq: 1423590
  stamp: 
    secs: 1561868435
    nsecs: 757938936
  frame_id: "ti_mmwave"
point_id: 21
x: 0.044921875
y: -0.046875
z: 0.103515625
range: 0.130730912089
velocity: 0.0
doppler_bin: 8
bearing: -46.218875885
intensity: 29.0145835876
---
header: 
  seq: 1423591
  stamp: 
    secs: 1561868435
    nsecs: 816160186
  frame_id: "ti_mmwave"
point_id: 0
x: 0.01171875
y: -0.0390625
z: -0.0078125
range: 0.0435769706964
velocity: 0.0
doppler_bin: 8
bearing: -73.3007583618
intensity: 30.6408348083
---
header: 
  seq: 1423592
  stamp: 
    secs: 1561868435
    nsecs: 816244750
  frame_id: "ti_mmwave"
point_id: 1
x: 0.017578125
y: -0.080078125
z: -0.0078125
range: 0.0871539413929
velocity: 0.0
doppler_bin: 8
bearing: -77.6192398071
intensity: 31.9033164978
---
header: 
  seq: 1423593
  stamp: 
    secs: 1561868435
    nsecs: 816260154
  frame_id: "ti_mmwave"
point_id: 2
x: 0.029296875
y: -0.119140625
z: -0.005859375
range: 0.130730912089
velocity: 0.0
doppler_bin: 8
bearing: -76.1849746704
intensity: 30.1199302673
---
header: 
  seq: 1423594
  stamp: 
    secs: 1561868435
    nsecs: 816276780
  frame_id: "ti_mmwave"
point_id: 3
x: 0.056640625
y: -0.154296875
z: 0.005859375
range: 0.174307882786
velocity: 0.0
doppler_bin: 8
bearing: -69.8423843384
intensity: 25.4530715942
---
header: 
  seq: 1423595
  stamp: 
    secs: 1561868435
    nsecs: 816286736
  frame_id: "ti_mmwave"
point_id: 4
x: 0.15234375
y: -0.080078125
z: 1.255859375
range: 1.35088610649
velocity: 0.0
doppler_bin: 8
bearing: -27.7282581329
intensity: 23.1175384521
---
header: 
  seq: 1423596
  stamp: 
    secs: 1561868435
    nsecs: 816297184
  frame_id: "ti_mmwave"
point_id: 6
x: 0.4140625
y: -0.083984375
z: -1.28125
range: 1.43804001808
velocity: 0.0
doppler_bin: 8
bearing: -11.4657688141
intensity: 23.0535144806
---
header: 
  seq: 1423597
  stamp: 
    secs: 1561868435
    nsecs: 816304933
  frame_id: "ti_mmwave"
point_id: 7
x: 0.564453125
y: -0.04296875
z: -1.26953125
range: 1.48161697388
velocity: 0.0
doppler_bin: 8
bearing: -4.35321998596
intensity: 21.6435279846
---
header: 
  seq: 1423598
  stamp: 
    secs: 1561868435
    nsecs: 816313094
  frame_id: "ti_mmwave"
point_id: 8
x: 2.611328125
y: -0.17578125
z: 1.0546875
range: 3.00681090355
velocity: 0.0
doppler_bin: 8
bearing: -3.85104894638
intensity: 28.9153747559
---
header: 
  seq: 1423599
  stamp: 
    secs: 1561868435
    nsecs: 816323817
  frame_id: "ti_mmwave"
point_id: 9
x: 2.658203125
y: -0.1796875
z: 1.05078125
range: 3.05038785934
velocity: 0.0
doppler_bin: 8
bearing: -3.86716008186
intensity: 32.1537322998
---
header: 
  seq: 1423600
  stamp: 
    secs: 1561868435
    nsecs: 816335537
  frame_id: "ti_mmwave"
point_id: 10
x: 2.759765625
y: -0.08984375
z: 0.90234375
range: 3.09396481514
velocity: 0.0
doppler_bin: 8
bearing: -1.86459684372
intensity: 31.1327476501
---
header: 
  seq: 1423601
  stamp: 
    secs: 1561868435
    nsecs: 816343816
  frame_id: "ti_mmwave"
point_id: 11
x: 4.404296875
y: -0.287109375
z: 1.2265625
range: 4.88062095642
velocity: 0.0
doppler_bin: 8
bearing: -3.72974681854
intensity: 30.5956344604
---
header: 
  seq: 1423602
  stamp: 
    secs: 1561868435
    nsecs: 816354558
  frame_id: "ti_mmwave"
point_id: 12
x: 4.44921875
y: -0.14453125
z: 1.24609375
range: 4.9241976738
velocity: 0.0
doppler_bin: 8
bearing: -1.86057829857
intensity: 30.4375514984
---
header: 
  seq: 1423603
  stamp: 
    secs: 1561868435
    nsecs: 816509227
  frame_id: "ti_mmwave"
point_id: 13
x: 1.216796875
y: 0.076171875
z: -0.146484375
range: 1.3073091507
velocity: 1.84400606155
doppler_bin: 11
bearing: 3.58205986023
intensity: 23.344537735
---
header: 
  seq: 1423604
  stamp: 
    secs: 1561868435
    nsecs: 816536703
  frame_id: "ti_mmwave"
point_id: 14
x: 1.2578125
y: 0.080078125
z: -0.14453125
range: 1.35088610649
velocity: 1.84400606155
doppler_bin: 11
bearing: 3.64279603958
intensity: 23.9967365265
---
header: 
  seq: 1423605
  stamp: 
    secs: 1561868435
    nsecs: 816549745
  frame_id: "ti_mmwave"
point_id: 15
x: 1.296875
y: 0.08203125
z: -0.150390625
range: 1.39446306229
velocity: 1.84400606155
doppler_bin: 11
bearing: 3.61930918694
intensity: 21.3987903595
---
header: 
  seq: 1423606
  stamp: 
    secs: 1561868435
    nsecs: 816605862
  frame_id: "ti_mmwave"
point_id: 17
x: 0.041015625
y: -0.033203125
z: 0.0625
range: 0.0871539413929
velocity: 0.0
doppler_bin: 8
bearing: -38.9909973145
intensity: 30.0945091248
---
header: 
  seq: 1423607
  stamp: 
    secs: 1561868435
    nsecs: 816621346
  frame_id: "ti_mmwave"
point_id: 18
x: 0.044921875
y: -0.046875
z: 0.103515625
range: 0.130730912089
velocity: 0.0
doppler_bin: 8
bearing: -46.218875885
intensity: 29.0091304779
---
header: 
  seq: 1423608
  stamp: 
    secs: 1561868435
    nsecs: 817534529
  frame_id: "ti_mmwave"
point_id: 0
x: 0.01171875
y: -0.0390625
z: -0.0078125
range: 0.0435769706964
velocity: 0.0
doppler_bin: 8
bearing: -73.3007583618
intensity: 30.6370849609
---
header: 
  seq: 1423609
  stamp: 
    secs: 1561868435
    nsecs: 817586678
  frame_id: "ti_mmwave"
point_id: 1
x: 0.017578125
y: -0.080078125
z: -0.0078125
range: 0.0871539413929
velocity: 0.0
doppler_bin: 8
bearing: -77.6192398071
intensity: 31.9033164978
---
header: 
  seq: 1423610
  stamp: 
    secs: 1561868435
    nsecs: 817598132
  frame_id: "ti_mmwave"
point_id: 2
x: 0.029296875
y: -0.119140625
z: -0.005859375
range: 0.130730912089
velocity: 0.0
doppler_bin: 8
bearing: -76.1849746704
intensity: 30.1199302673
---
header: 
  seq: 1423611
  stamp: 
    secs: 1561868435
    nsecs: 817607550
  frame_id: "ti_mmwave"
point_id: 3
x: 0.056640625
y: -0.154296875
z: 0.0078125
range: 0.174307882786
velocity: 0.0
doppler_bin: 8
bearing: -69.8423843384
intensity: 25.4530715942
---
header: 
  seq: 1423612
  stamp: 
    secs: 1561868435
    nsecs: 817618184
  frame_id: "ti_mmwave"
point_id: 4
x: 0.197265625
y: -0.080078125
z: 1.25
range: 1.35088610649
velocity: 0.0
doppler_bin: 8
bearing: -22.0942306519
intensity: 23.0963020325
---
header: 
  seq: 1423613
  stamp: 
    secs: 1561868435
    nsecs: 817638137
  frame_id: "ti_mmwave"
point_id: 5
x: 0.125
y: -0.08203125
z: 1.30078125
range: 1.39446306229
velocity: 0.0
doppler_bin: 8
bearing: -33.274887085
intensity: 24.6089782715
---
header: 
  seq: 1423614
  stamp: 
    secs: 1561868435
    nsecs: 817648305
  frame_id: "ti_mmwave"
point_id: 6
x: 0.392578125
y: -0.083984375
z: -1.2890625
range: 1.43804001808
velocity: 0.0
doppler_bin: 8
bearing: -12.0752887726
intensity: 23.0749607086
---
header: 
  seq: 1423615
  stamp: 
    secs: 1561868435
    nsecs: 817721936
  frame_id: "ti_mmwave"
point_id: 7
x: 0.54296875
y: -0.04296875
z: -1.279296875
range: 1.48161697388
velocity: 0.0
doppler_bin: 8
bearing: -4.52476835251
intensity: 21.7026176453
---
header: 
  seq: 1423616
  stamp: 
    secs: 1561868435
    nsecs: 817734870
  frame_id: "ti_mmwave"
point_id: 8
x: 2.619140625
y: -0.17578125
z: 1.0390625
range: 3.00681090355
velocity: 0.0
doppler_bin: 8
bearing: -3.83959650993
intensity: 29.0417442322
---
header: 
  seq: 1423617
  stamp: 
    secs: 1561868435
    nsecs: 817743044
  frame_id: "ti_mmwave"
point_id: 9
x: 2.658203125
y: -0.1796875
z: 1.05078125
range: 3.05038785934
velocity: 0.0
doppler_bin: 8
bearing: -3.86716008186
intensity: 32.1932258606
---
header: 
  seq: 1423618
  stamp: 
    secs: 1561868435
    nsecs: 817750844
  frame_id: "ti_mmwave"
point_id: 10
x: 2.771484375
y: -0.0
z: 0.87109375
range: 3.09396481514
velocity: 0.0
doppler_bin: 8
bearing: -0.0
intensity: 31.1594314575
---
header: 
  seq: 1423619
  stamp: 
    secs: 1561868435
    nsecs: 817760903
  frame_id: "ti_mmwave"
point_id: 11
x: 4.3984375
y: -0.287109375
z: 1.248046875
range: 4.88062095642
velocity: 0.0
doppler_bin: 8
bearing: -3.73470139503
intensity: 30.1367969513
---
header: 
  seq: 1423620
  stamp: 
    secs: 1561868435
    nsecs: 817772082
  frame_id: "ti_mmwave"
point_id: 12
x: 4.4453125
y: -0.14453125
z: 1.26171875
range: 4.9241976738
velocity: 0.0
doppler_bin: 8
bearing: -1.86221218109
intensity: 29.9475688934
---
header: 
  seq: 1423621
  stamp: 
    secs: 1561868435
    nsecs: 817784291
  frame_id: "ti_mmwave"
point_id: 13
x: 1.837890625
y: -0.056640625
z: -0.10546875
range: 1.96096372604
velocity: 0.614668667316
doppler_bin: 9
bearing: -1.76519858837
intensity: 25.6466598511
---
header: 
  seq: 1423622
  stamp: 
    secs: 1561868435
    nsecs: 817795870
  frame_id: "ti_mmwave"
point_id: 14
x: 1.8671875
y: -0.0
z: -0.240234375
range: 2.00454068184
velocity: 0.614668667316
doppler_bin: 9
bearing: -0.0
intensity: 27.2754135132
---
header: 
  seq: 1423623
  stamp: 
    secs: 1561868435
    nsecs: 817807733
  frame_id: "ti_mmwave"
point_id: 15
x: 1.908203125
y: -0.0
z: -0.234375
range: 2.04811763763
velocity: 0.614668667316
doppler_bin: 9
bearing: -0.0
intensity: 26.2531242371
---
header: 
  seq: 1423624
  stamp: 
    secs: 1561868435
    nsecs: 817817849
  frame_id: "ti_mmwave"
point_id: 16
x: 1.30078125
y: -0.0
z: -0.14453125
range: 1.39446306229
velocity: 2.45867466927
doppler_bin: 12
bearing: -0.0
intensity: 23.5218257904
---
header: 
  seq: 1423625
  stamp: 
    secs: 1561868435
    nsecs: 817840610
  frame_id: "ti_mmwave"
point_id: 17
x: 1.341796875
y: -0.0
z: -0.142578125
range: 1.43804001808
velocity: 2.45867466927
doppler_bin: 12
bearing: -0.0
intensity: 24.0654010773
---
header: 
  seq: 1423626
  stamp: 
    secs: 1561868435
    nsecs: 817915750
  frame_id: "ti_mmwave"
point_id: 18
x: 1.380859375
y: -0.0
z: -0.162109375
range: 1.48161697388
velocity: 2.45867466927
doppler_bin: 12
bearing: -0.0
intensity: 20.0432128906
---
header: 
  seq: 1423627
  stamp: 
    secs: 1561868435
    nsecs: 817935854
  frame_id: "ti_mmwave"
point_id: 20
x: 0.041015625
y: -0.033203125
z: 0.0625
range: 0.0871539413929
velocity: 0.0
doppler_bin: 8
bearing: -38.9909973145
intensity: 30.0945091248
---
header: 
  seq: 1423628
  stamp: 
    secs: 1561868435
    nsecs: 817948537
  frame_id: "ti_mmwave"
point_id: 21
x: 0.044921875
y: -0.046875
z: 0.103515625
range: 0.130730912089
velocity: 0.0
doppler_bin: 8
bearing: -46.218875885
intensity: 29.0091304779
---
header: 
  seq: 1423629
  stamp: 
    secs: 1561868435
    nsecs: 817959610
  frame_id: "ti_mmwave"
point_id: 23
x: 2.7265625
y: -0.181640625
z: 0.984375
range: 3.09396481514
velocity: 0.0
doppler_bin: 8
bearing: -3.81135106087
intensity: 31.1461105347
---
header: 
  seq: 1423630
  stamp: 
    secs: 1561868435
    nsecs: 876195970
  frame_id: "ti_mmwave"
point_id: 0
x: 0.01171875
y: -0.0390625
z: -0.0078125
range: 0.0435769706964
velocity: 0.0
doppler_bin: 8
bearing: -73.3007583618
intensity: 30.6333332062
---
header: 
  seq: 1423631
  stamp: 
    secs: 1561868435
    nsecs: 876288464
  frame_id: "ti_mmwave"
point_id: 1
x: 0.017578125
y: -0.080078125
z: -0.0078125
range: 0.0871539413929
velocity: 0.0
doppler_bin: 8
bearing: -77.6192398071
intensity: 31.9005146027
---
header: 
  seq: 1423632
  stamp: 
    secs: 1561868435
    nsecs: 876314101
  frame_id: "ti_mmwave"
point_id: 2
x: 0.029296875
y: -0.119140625
z: -0.005859375
range: 0.130730912089
velocity: 0.0
doppler_bin: 8
bearing: -76.1849746704
intensity: 30.1199302673
---
header: 
  seq: 1423633
  stamp: 
    secs: 1561868435
    nsecs: 876327563
  frame_id: "ti_mmwave"
point_id: 3
x: 0.056640625
y: -0.154296875
z: 0.005859375
range: 0.174307882786
velocity: 0.0
doppler_bin: 8
bearing: -69.8423843384
intensity: 25.4406795502
---
header: 
  seq: 1423634
  stamp: 
    secs: 1561868435
    nsecs: 876340042
  frame_id: "ti_mmwave"
point_id: 4
x: 0.09375
y: -0.080078125
z: 1.26171875
range: 1.35088610649
velocity: 0.0
doppler_bin: 8
bearing: -40.5028457642
intensity: 23.1175384521
---
header: 
  seq: 1423635
  stamp: 
    secs: 1561868435
    nsecs: 876354822
  frame_id: "ti_mmwave"
point_id: 6
x: 0.44140625
y: -0.083984375
z: -1.2734375
range: 1.43804001808
velocity: 0.0
doppler_bin: 8
bearing: -10.7726478577
intensity: 23.0963020325
---
header: 
  seq: 1423636
  stamp: 
    secs: 1561868435
    nsecs: 876366593
  frame_id: "ti_mmwave"
point_id: 7
x: 2.615234375
y: -0.17578125
z: 1.044921875
range: 3.00681090355
velocity: 0.0
doppler_bin: 8
bearing: -3.84531402588
intensity: 28.9431610107
---
header: 
  seq: 1423637
  stamp: 
    secs: 1561868435
    nsecs: 876378296
  frame_id: "ti_mmwave"
point_id: 8
x: 2.6875
y: -0.08984375
z: 0.986328125
range: 3.05038785934
velocity: 0.0
doppler_bin: 8
bearing: -1.91469812393
intensity: 32.1112060547
---
header: 
  seq: 1423638
  stamp: 
    secs: 1561868435
    nsecs: 876390309
  frame_id: "ti_mmwave"
point_id: 9
x: 2.751953125
y: -0.08984375
z: 0.923828125
range: 3.09396481514
velocity: 0.0
doppler_bin: 8
bearing: -1.86988639832
intensity: 31.1360912323
---
header: 
  seq: 1423639
  stamp: 
    secs: 1561868435
    nsecs: 876417105
  frame_id: "ti_mmwave"
point_id: 10
x: 4.41015625
y: -0.142578125
z: 1.236328125
range: 4.88062095642
velocity: 0.0
doppler_bin: 8
bearing: -1.85169863701
intensity: 30.081741333
---
header: 
  seq: 1423640
  stamp: 
    secs: 1561868435
    nsecs: 876439917
  frame_id: "ti_mmwave"
point_id: 11
x: 4.447265625
y: -0.14453125
z: 1.25390625
range: 4.9241976738
velocity: 0.0
doppler_bin: 8
bearing: -1.86139500141
intensity: 29.9299507141
---
header: 
  seq: 1423641
  stamp: 
    secs: 1561868435
    nsecs: 876460523
  frame_id: "ti_mmwave"
point_id: 12
x: 1.8046875
y: -0.056640625
z: -0.357421875
range: 1.96096372604
velocity: 0.614668667316
doppler_bin: 9
bearing: -1.7976539135
intensity: 25.7518787384
---
header: 
  seq: 1423642
  stamp: 
    secs: 1561868435
    nsecs: 876552930
  frame_id: "ti_mmwave"
point_id: 13
x: 1.830078125
y: -0.1171875
z: -0.41796875
range: 2.00454068184
velocity: 0.614668667316
doppler_bin: 9
bearing: -3.6638841629
intensity: 27.6566848755
---
header: 
  seq: 1423643
  stamp: 
    secs: 1561868435
    nsecs: 876570797
  frame_id: "ti_mmwave"
point_id: 14
x: 1.84375
y: -0.12109375
z: -0.533203125
range: 2.04811763763
velocity: 0.614668667316
doppler_bin: 9
bearing: -3.75767350197
intensity: 25.5750713348
---
header: 
  seq: 1423644
  stamp: 
    secs: 1561868435
    nsecs: 876586405
  frame_id: "ti_mmwave"
point_id: 16
x: 1.3828125
y: -0.0
z: -0.142578125
range: 1.48161697388
velocity: 3.07334327698
doppler_bin: 13
bearing: -0.0
intensity: 21.0380363464
---
header: 
  seq: 1423645
  stamp: 
    secs: 1561868435
    nsecs: 876598076
  frame_id: "ti_mmwave"
point_id: 17
x: 1.42578125
y: -0.0
z: -0.126953125
range: 1.52519392967
velocity: 3.07334327698
doppler_bin: 13
bearing: -0.0
intensity: 22.0412006378
---
header: 
  seq: 1423646
  stamp: 
    secs: 1561868435
    nsecs: 876614756
  frame_id: "ti_mmwave"
point_id: 19
x: 0.041015625
y: -0.033203125
z: 0.0625
range: 0.0871539413929
velocity: 0.0
doppler_bin: 8
bearing: -38.9909973145
intensity: 30.0945091248
---
header: 
  seq: 1423647
  stamp: 
    secs: 1561868435
    nsecs: 876626569
  frame_id: "ti_mmwave"
point_id: 20
x: 0.044921875
y: -0.046875
z: 0.103515625
range: 0.130730912089
velocity: 0.0
doppler_bin: 8
bearing: -46.218875885
intensity: 29.0091304779
---
header: 
  seq: 1423648
  stamp: 
    secs: 1561868435
    nsecs: 876643372
  frame_id: "ti_mmwave"
point_id: 22
x: 1.87109375
y: -0.482421875
z: 1.705078125
range: 2.74534916878
velocity: 0.614668667316
doppler_bin: 9
bearing: -14.4576301575
intensity: 23.8560619354
---
header: 
  seq: 1423649
  stamp: 
    secs: 1561868435
    nsecs: 877713506
  frame_id: "ti_mmwave"
point_id: 0
x: 0.01171875
y: -0.0390625
z: -0.0078125
range: 0.0435769706964
velocity: 0.0
doppler_bin: 8
bearing: -73.3007583618
intensity: 30.6408348083
---
header: 
  seq: 1423650
  stamp: 
    secs: 1561868435
    nsecs: 877796565
  frame_id: "ti_mmwave"
point_id: 1
x: 0.017578125
y: -0.080078125
z: -0.0078125
range: 0.0871539413929
velocity: 0.0
doppler_bin: 8
bearing: -77.6192398071
intensity: 31.9033164978
---
header: 
  seq: 1423651
  stamp: 
    secs: 1561868435
    nsecs: 877810923
  frame_id: "ti_mmwave"
point_id: 2
x: 0.029296875
y: -0.119140625
z: -0.005859375
range: 0.130730912089
velocity: 0.0
doppler_bin: 8
bearing: -76.1849746704
intensity: 30.1157035828
---
header: 
  seq: 1423652
  stamp: 
    secs: 1561868435
    nsecs: 877822268
  frame_id: "ti_mmwave"
point_id: 3
x: 0.056640625
y: -0.154296875
z: 0.0078125
range: 0.174307882786
velocity: 0.0
doppler_bin: 8
bearing: -69.8423843384
intensity: 25.4406795502
---
header: 
  seq: 1423653
  stamp: 
    secs: 1561868435
    nsecs: 877831480
  frame_id: "ti_mmwave"
point_id: 4
x: 0.138671875
y: -0.080078125
z: 1.2578125
range: 1.35088610649
velocity: 0.0
doppler_bin: 8
bearing: -30.0049190521
intensity: 23.0963020325
---
header: 
  seq: 1423654
  stamp: 
    secs: 1561868435
    nsecs: 877841709
  frame_id: "ti_mmwave"
point_id: 5
x: 0.076171875
y: -0.08203125
z: 1.3046875
range: 1.39446306229
velocity: 0.0
doppler_bin: 8
bearing: -47.1210975647
intensity: 24.6389293671
---
header: 
  seq: 1423655
  stamp: 
    secs: 1561868435
    nsecs: 877850339
  frame_id: "ti_mmwave"
point_id: 6
x: 0.412109375
y: -0.083984375
z: -1.283203125
range: 1.43804001808
velocity: 0.0
doppler_bin: 8
bearing: -11.518658638
intensity: 23.0749607086
---
header: 
  seq: 1423656
  stamp: 
    secs: 1561868435
    nsecs: 877858376
  frame_id: "ti_mmwave"
point_id: 7
x: 2.6171875
y: -0.17578125
z: 1.041015625
range: 3.00681090355
velocity: 0.0
doppler_bin: 8
bearing: -3.84245300293
intensity: 28.9209461212
---
header: 
  seq: 1423657
  stamp: 
    secs: 1561868435
    nsecs: 877869851
  frame_id: "ti_mmwave"
point_id: 8
x: 2.689453125
y: -0.08984375
z: 0.978515625
range: 3.05038785934
velocity: 0.0
doppler_bin: 8
bearing: -1.91330885887
intensity: 32.1245384216
---
header: 
  seq: 1423658
  stamp: 
    secs: 1561868435
    nsecs: 877957606
  frame_id: "ti_mmwave"
point_id: 9
x: 2.755859375
y: -0.08984375
z: 0.91015625
range: 3.09396481514
velocity: 0.0
doppler_bin: 8
bearing: -1.86723792553
intensity: 31.1427726746
---
header: 
  seq: 1423659
  stamp: 
    secs: 1561868435
    nsecs: 877967559
  frame_id: "ti_mmwave"
point_id: 10
x: 4.404296875
y: -0.142578125
z: 1.2578125
range: 4.88062095642
velocity: 0.0
doppler_bin: 8
bearing: -1.85416030884
intensity: 30.5690479279
---
header: 
  seq: 1423660
  stamp: 
    secs: 1561868435
    nsecs: 877976748
  frame_id: "ti_mmwave"
point_id: 11
x: 4.44140625
y: -0.14453125
z: 1.275390625
range: 4.9241976738
velocity: 0.0
doppler_bin: 8
bearing: -1.86384868622
intensity: 30.4296913147
---
header: 
  seq: 1423661
  stamp: 
    secs: 1561868435
    nsecs: 877987635
  frame_id: "ti_mmwave"
point_id: 12
x: 1.828125
y: -0.171875
z: 0.1171875
range: 1.96096372604
velocity: 0.614668667316
doppler_bin: 9
bearing: -5.37099504471
intensity: 27.0926990509
---
header: 
  seq: 1423662
  stamp: 
    secs: 1561868435
    nsecs: 877999756
  frame_id: "ti_mmwave"
point_id: 13
x: 1.873046875
y: -0.17578125
z: -0.06640625
range: 2.00454068184
velocity: 0.614668667316
doppler_bin: 9
bearing: -5.36137771606
intensity: 26.812412262
---
header: 
  seq: 1423663
  stamp: 
    secs: 1561868435
    nsecs: 878011822
  frame_id: "ti_mmwave"
point_id: 14
x: 1.46484375
y: -0.0
z: -0.158203125
range: 1.56877088547
velocity: 3.07334327698
doppler_bin: 13
bearing: -0.0
intensity: 20.6445808411
---
header: 
  seq: 1423664
  stamp: 
    secs: 1561868435
    nsecs: 878023797
  frame_id: "ti_mmwave"
point_id: 15
x: 1.505859375
y: -0.0
z: -0.154296875
range: 1.61234796047
velocity: 3.07334327698
doppler_bin: 13
bearing: -0.0
intensity: 22.6007137299
---
header: 
  seq: 1423665
  stamp: 
    secs: 1561868435
    nsecs: 878037455
  frame_id: "ti_mmwave"
point_id: 16
x: 1.546875
y: -0.0
z: -0.158203125
range: 1.65592491627
velocity: 3.07334327698
doppler_bin: 13
bearing: -0.0
intensity: 21.1058979034
---
header: 
  seq: 1423666
  stamp: 
    secs: 1561868435
    nsecs: 878052231
  frame_id: "ti_mmwave"
point_id: 18
x: 0.041015625
y: -0.033203125
z: 0.0625
range: 0.0871539413929
velocity: 0.0
doppler_bin: 8
bearing: -38.9909973145
intensity: 30.0987567902
---
header: 
  seq: 1423667
  stamp: 
    secs: 1561868435
    nsecs: 878064574
  frame_id: "ti_mmwave"
point_id: 19
x: 0.044921875
y: -0.046875
z: 0.103515625
range: 0.130730912089
velocity: 0.0
doppler_bin: 8
bearing: -46.218875885
intensity: 29.0091304779
---
header: 
  seq: 1423668
  stamp: 
    secs: 1561868435
    nsecs: 936192885
  frame_id: "ti_mmwave"
point_id: 0
x: 0.01171875
y: -0.0390625
z: -0.0078125
range: 0.0435769706964
velocity: 0.0
doppler_bin: 8
bearing: -73.3007583618
intensity: 30.6370849609
---
header: 
  seq: 1423669
  stamp: 
    secs: 1561868435
    nsecs: 936301029
  frame_id: "ti_mmwave"
point_id: 1
x: 0.017578125
y: -0.080078125
z: -0.0078125
range: 0.0871539413929
velocity: 0.0
doppler_bin: 8
bearing: -77.6192398071
intensity: 31.9005146027
---
header: 
  seq: 1423670
  stamp: 
    secs: 1561868435
    nsecs: 936319327
  frame_id: "ti_mmwave"
point_id: 2
x: 0.029296875
y: -0.119140625
z: -0.005859375
range: 0.130730912089
velocity: 0.0
doppler_bin: 8
bearing: -76.1849746704
intensity: 30.1157035828
---
header: 
  seq: 1423671
  stamp: 
    secs: 1561868435
    nsecs: 936334506
  frame_id: "ti_mmwave"
point_id: 3
x: 0.056640625
y: -0.154296875
z: 0.005859375
range: 0.174307882786
velocity: 0.0
doppler_bin: 8
bearing: -69.8423843384
intensity: 25.4406795502
---
header: 
  seq: 1423672
  stamp: 
    secs: 1561868435
    nsecs: 936434969
  frame_id: "ti_mmwave"
point_id: 4
x: 0.154296875
y: -0.080078125
z: 1.255859375
range: 1.35088610649
velocity: 0.0
doppler_bin: 8
bearing: -27.4287414551
intensity: 23.1175384521
---
header: 
  seq: 1423673
  stamp: 
    secs: 1561868435
    nsecs: 936455220
  frame_id: "ti_mmwave"
point_id: 6
x: 0.4375
y: -0.083984375
z: -1.2734375
range: 1.43804001808
velocity: 0.0
doppler_bin: 8
bearing: -10.8665513992
intensity: 23.0749607086
---
header: 
  seq: 1423674
  stamp: 
    secs: 1561868435
    nsecs: 936467215
  frame_id: "ti_mmwave"
point_id: 7
x: 0.59375
y: -0.04296875
z: -1.2578125
range: 1.48161697388
velocity: 0.0
doppler_bin: 8
bearing: -4.13918924332
intensity: 21.6731739044
---
header: 
  seq: 1423675
  stamp: 
    secs: 1561868435
    nsecs: 936478403
  frame_id: "ti_mmwave"
point_id: 8
x: 2.62109375
y: -0.17578125
z: 1.03125
range: 3.00681090355
velocity: 0.0
doppler_bin: 8
bearing: -3.83674383163
intensity: 28.9982051849
---
header: 
  seq: 1423676
  stamp: 
    secs: 1561868435
    nsecs: 936491987
  frame_id: "ti_mmwave"
point_id: 9
x: 2.658203125
y: -0.1796875
z: 1.046875
range: 3.05038785934
velocity: 0.0
doppler_bin: 8
bearing: -3.86716008186
intensity: 32.1695709229
---
header: 
  seq: 1423677
  stamp: 
    secs: 1561868435
    nsecs: 936505445
  frame_id: "ti_mmwave"
point_id: 10
x: 2.771484375
y: -0.0
z: 0.87109375
range: 3.09396481514
velocity: 0.0
doppler_bin: 8
bearing: -0.0
intensity: 31.119342804
---
header: 
  seq: 1423678
  stamp: 
    secs: 1561868435
    nsecs: 936577866
  frame_id: "ti_mmwave"
point_id: 11
x: 4.41015625
y: -0.142578125
z: 1.232421875
range: 4.88062095642
velocity: 0.0
doppler_bin: 8
bearing: -1.85169863701
intensity: 31.1360912323
---
header: 
  seq: 1423679
  stamp: 
    secs: 1561868435
    nsecs: 936593706
  frame_id: "ti_mmwave"
point_id: 12
x: 4.44921875
y: -0.14453125
z: 1.24609375
range: 4.9241976738
velocity: 0.0
doppler_bin: 8
bearing: -1.86057829857
intensity: 30.934217453
---
header: 
  seq: 1423680
  stamp: 
    secs: 1561868435
    nsecs: 936606256
  frame_id: "ti_mmwave"
point_id: 13
x: 1.931640625
y: -0.123046875
z: -0.326171875
range: 2.09169459343
velocity: 0.614668667316
doppler_bin: 9
bearing: -3.64485692978
intensity: 29.8181858063
---
header: 
  seq: 1423681
  stamp: 
    secs: 1561868435
    nsecs: 936646491
  frame_id: "ti_mmwave"
point_id: 14
x: 1.974609375
y: -0.1875
z: -0.283203125
range: 2.13527154922
velocity: 0.614668667316
doppler_bin: 9
bearing: -5.424284935
intensity: 29.6567192078
---
header: 
  seq: 1423682
  stamp: 
    secs: 1561868435
    nsecs: 936708548
  frame_id: "ti_mmwave"
point_id: 15
x: 2.025390625
y: -0.126953125
z: -0.25390625
range: 2.17884850502
velocity: 0.614668667316
doppler_bin: 9
bearing: -3.58665347099
intensity: 26.2428207397
---
header: 
  seq: 1423683
  stamp: 
    secs: 1561868435
    nsecs: 936721465
  frame_id: "ti_mmwave"
point_id: 16
x: 1.904296875
y: 0.1796875
z: -0.19921875
range: 2.04811763763
velocity: 1.22933733463
doppler_bin: 10
bearing: 5.39041042328
intensity: 26.5224628448
---
header: 
  seq: 1423684
  stamp: 
    secs: 1561868435
    nsecs: 936733195
  frame_id: "ti_mmwave"
point_id: 17
x: 1.578125
y: -0.0
z: -0.228515625
range: 1.69950187206
velocity: 2.45867466927
doppler_bin: 12
bearing: -0.0
intensity: 21.0037059784
---
header: 
  seq: 1423685
  stamp: 
    secs: 1561868435
    nsecs: 936747020
  frame_id: "ti_mmwave"
point_id: 18
x: 1.626953125
y: -0.0
z: -0.181640625
range: 1.74307882786
velocity: 2.45867466927
doppler_bin: 12
bearing: -0.0
intensity: 21.7897701263
---
header: 
  seq: 1423686
  stamp: 
    secs: 1561868435
    nsecs: 936763590
  frame_id: "ti_mmwave"
point_id: 20
x: 0.041015625
y: -0.033203125
z: 0.0625
range: 0.0871539413929
velocity: 0.0
doppler_bin: 8
bearing: -38.9909973145
intensity: 30.0902576447
---
header: 
  seq: 1423687
  stamp: 
    secs: 1561868435
    nsecs: 936914619
  frame_id: "ti_mmwave"
point_id: 21
x: 0.046875
y: -0.046875
z: 0.103515625
range: 0.130730912089
velocity: 0.0
doppler_bin: 8
bearing: -45.0
intensity: 29.0036716461
---
header: 
  seq: 1423688
  stamp: 
    secs: 1561868435
    nsecs: 937177370
  frame_id: "ti_mmwave"
point_id: 23
x: 2.728515625
y: -0.181640625
z: 0.98046875
range: 3.09396481514
velocity: 0.0
doppler_bin: 8
bearing: -3.80863046646
intensity: 31.1126251221
---
header: 
  seq: 1423689
  stamp: 
    secs: 1561868435
    nsecs: 937623457
  frame_id: "ti_mmwave"
point_id: 0
x: 0.01171875
y: -0.0390625
z: -0.0078125
range: 0.0435769706964
velocity: 0.0
doppler_bin: 8
bearing: -73.3007583618
intensity: 30.6408348083
---
header: 
  seq: 1423690
  stamp: 
    secs: 1561868435
    nsecs: 937665579
  frame_id: "ti_mmwave"
point_id: 1
x: 0.017578125
y: -0.080078125
z: -0.0078125
range: 0.0871539413929
velocity: 0.0
doppler_bin: 8
bearing: -77.6192398071
intensity: 31.9005146027
---
header: 
  seq: 1423691
  stamp: 
    secs: 1561868435
    nsecs: 937682665
  frame_id: "ti_mmwave"
point_id: 2
x: 0.029296875
y: -0.119140625
z: -0.005859375
range: 0.130730912089
velocity: 0.0
doppler_bin: 8
bearing: -76.1849746704
intensity: 30.1157035828
---
header: 
  seq: 1423692
  stamp: 
    secs: 1561868435
    nsecs: 937698340
  frame_id: "ti_mmwave"
point_id: 3
x: 0.056640625
y: -0.154296875
z: 0.0078125
range: 0.174307882786
velocity: 0.0
doppler_bin: 8
bearing: -69.8423843384
intensity: 25.4530715942
---
header: 
  seq: 1423693
  stamp: 
    secs: 1561868435
    nsecs: 937715324
  frame_id: "ti_mmwave"
point_id: 4
x: 0.154296875
y: -0.080078125
z: 1.255859375
range: 1.35088610649
velocity: 0.0
doppler_bin: 8
bearing: -27.4287414551
intensity: 23.0963020325
---
header: 
  seq: 1423694
  stamp: 
    secs: 1561868435
    nsecs: 937783654
  frame_id: "ti_mmwave"
point_id: 5
x: 0.0546875
y: -0.08203125
z: 1.3046875
range: 1.39446306229
velocity: 0.0
doppler_bin: 8
bearing: -56.3099327087
intensity: 24.6538276672
---
header: 
  seq: 1423695
  stamp: 
    secs: 1561868435
    nsecs: 937793869
  frame_id: "ti_mmwave"
point_id: 6
x: 0.40234375
y: -0.083984375
z: -1.28515625
range: 1.43804001808
velocity: 0.0
doppler_bin: 8
bearing: -11.7905015945
intensity: 23.0963020325
---
header: 
  seq: 1423696
  stamp: 
    secs: 1561868435
    nsecs: 937802048
  frame_id: "ti_mmwave"
point_id: 7
x: 0.552734375
y: -0.04296875
z: -1.275390625
range: 1.48161697388
velocity: 0.0
doppler_bin: 8
bearing: -4.44514894485
intensity: 21.6731739044
---
header: 
  seq: 1423697
  stamp: 
    secs: 1561868435
    nsecs: 937810052
  frame_id: "ti_mmwave"
point_id: 8
x: 2.6171875
y: -0.17578125
z: 1.041015625
range: 3.00681090355
velocity: 0.0
doppler_bin: 8
bearing: -3.84245300293
intensity: 29.0687351227
---
header: 
  seq: 1423698
  stamp: 
    secs: 1561868435
    nsecs: 937819082
  frame_id: "ti_mmwave"
point_id: 9
x: 2.662109375
y: -0.1796875
z: 1.0390625
range: 3.05038785934
velocity: 0.0
doppler_bin: 8
bearing: -3.86150240898
intensity: 32.2375526428
---
header: 
  seq: 1423699
  stamp: 
    secs: 1561868435
    nsecs: 937826482
  frame_id: "ti_mmwave"
point_id: 10
x: 2.755859375
y: -0.08984375
z: 0.91015625
range: 3.09396481514
velocity: 0.0
doppler_bin: 8
bearing: -1.86723792553
intensity: 31.1925582886
---
header: 
  seq: 1423700
  stamp: 
    secs: 1561868435
    nsecs: 937835286
  frame_id: "ti_mmwave"
point_id: 11
x: 4.40625
y: -0.142578125
z: 1.24609375
range: 4.88062095642
velocity: 0.0
doppler_bin: 8
bearing: -1.85333895683
intensity: 31.3033370972
---
header: 
  seq: 1423701
  stamp: 
    secs: 1561868435
    nsecs: 937843048
  frame_id: "ti_mmwave"
point_id: 12
x: 4.447265625
y: -0.14453125
z: 1.251953125
range: 4.9241976738
velocity: 0.0
doppler_bin: 8
bearing: -1.86139500141
intensity: 31.1025295258
---
header: 
  seq: 1423702
  stamp: 
    secs: 1561868435
    nsecs: 937850574
  frame_id: "ti_mmwave"
point_id: 13
x: 1.892578125
y: -0.060546875
z: -0.333984375
range: 2.04811763763
velocity: 0.614668667316
doppler_bin: 9
bearing: -1.83236682415
intensity: 25.3781909943
---
header: 
  seq: 1423703
  stamp: 
    secs: 1561868435
    nsecs: 937858408
  frame_id: "ti_mmwave"
point_id: 14
x: 1.9453125
y: -0.123046875
z: -0.240234375
range: 2.09169459343
velocity: 0.614668667316
doppler_bin: 9
bearing: -3.61930918694
intensity: 30.6929798126
---
header: 
  seq: 1423704
  stamp: 
    secs: 1561868435
    nsecs: 937865965
  frame_id: "ti_mmwave"
point_id: 15
x: 1.9921875
y: -0.125
z: -0.1875
range: 2.13527154922
velocity: 0.614668667316
doppler_bin: 9
bearing: -3.59032273293
intensity: 30.6483230591
---
header: 
  seq: 1423705
  stamp: 
    secs: 1561868435
    nsecs: 937872746
  frame_id: "ti_mmwave"
point_id: 16
x: 1.625
y: -0.0
z: -0.18359375
range: 1.74307882786
velocity: 1.84400606155
doppler_bin: 11
bearing: -0.0
intensity: 21.8469142914
---
header: 
  seq: 1423706
  stamp: 
    secs: 1561868435
    nsecs: 937883798
  frame_id: "ti_mmwave"
point_id: 17
x: 1.66796875
y: -0.0
z: -0.171875
range: 1.78665578365
velocity: 1.84400606155
doppler_bin: 11
bearing: -0.0
intensity: 23.5024795532
---
header: 
  seq: 1423707
  stamp: 
    secs: 1561868435
    nsecs: 937934762
  frame_id: "ti_mmwave"
point_id: 18
x: 1.70703125
y: 0.052734375
z: -0.177734375
range: 1.83023273945
velocity: 1.84400606155
doppler_bin: 11
bearing: 1.76944422722
intensity: 21.205739975
---
header: 
  seq: 1423708
  stamp: 
    secs: 1561868435
    nsecs: 937947048
  frame_id: "ti_mmwave"
point_id: 20
x: 0.041015625
y: -0.033203125
z: 0.0625
range: 0.0871539413929
velocity: 0.0
doppler_bin: 8
bearing: -38.9909973145
intensity: 30.0945091248
---
header: 
  seq: 1423709
  stamp: 
    secs: 1561868435
    nsecs: 937955215
  frame_id: "ti_mmwave"
point_id: 21
x: 0.046875
y: -0.046875
z: 0.103515625
range: 0.130730912089
velocity: 0.0
doppler_bin: 8
bearing: -45.0
intensity: 29.0091304779
---
header: 
  seq: 1423710
  stamp: 
    secs: 1561868435
    nsecs: 996188039
  frame_id: "ti_mmwave"
point_id: 0
x: 0.01171875
y: -0.0390625
z: -0.0078125
range: 0.0435769706964
velocity: 0.0
doppler_bin: 8
bearing: -73.3007583618
intensity: 30.6333332062
---
header: 
  seq: 1423711
  stamp: 
    secs: 1561868435
    nsecs: 996265091
  frame_id: "ti_mmwave"
point_id: 1
x: 0.017578125
y: -0.080078125
z: -0.0078125
range: 0.0871539413929
velocity: 0.0
doppler_bin: 8
bearing: -77.6192398071
intensity: 31.9005146027
---
header: 
  seq: 1423712
  stamp: 
    secs: 1561868435
    nsecs: 996276114
  frame_id: "ti_mmwave"
point_id: 2
x: 0.029296875
y: -0.119140625
z: -0.005859375
range: 0.130730912089
velocity: 0.0
doppler_bin: 8
bearing: -76.1849746704
intensity: 30.1157035828
---
header: 
  seq: 1423713
  stamp: 
    secs: 1561868435
    nsecs: 996284721
  frame_id: "ti_mmwave"
point_id: 3
x: 0.056640625
y: -0.154296875
z: 0.0078125
range: 0.174307882786
velocity: 0.0
doppler_bin: 8
bearing: -69.8423843384
intensity: 25.4406795502
---
header: 
  seq: 1423714
  stamp: 
    secs: 1561868435
    nsecs: 996295381
  frame_id: "ti_mmwave"
point_id: 4
x: 0.1328125
y: -0.080078125
z: 1.2578125
range: 1.35088610649
velocity: 0.0
doppler_bin: 8
bearing: -31.0875034332
intensity: 23.0963020325
---
header: 
  seq: 1423715
  stamp: 
    secs: 1561868435
    nsecs: 996303596
  frame_id: "ti_mmwave"
point_id: 5
x: 0.0390625
y: -0.08203125
z: 1.306640625
range: 1.39446306229
velocity: 0.0
doppler_bin: 8
bearing: -64.5366516113
intensity: 24.6089782715
---
header: 
  seq: 1423716
  stamp: 
    secs: 1561868435
    nsecs: 996311433
  frame_id: "ti_mmwave"
point_id: 6
x: 0.40234375
y: -0.083984375
z: -1.28515625
range: 1.43804001808
velocity: 0.0
doppler_bin: 8
bearing: -11.7905015945
intensity: 23.0749607086
---
header: 
  seq: 1423717
  stamp: 
    secs: 1561868435
    nsecs: 996319436
  frame_id: "ti_mmwave"
point_id: 7
x: 0.556640625
y: -0.04296875
z: -1.2734375
range: 1.48161697388
velocity: 0.0
doppler_bin: 8
bearing: -4.41407871246
intensity: 21.6731739044
---
header: 
  seq: 1423718
  stamp: 
    secs: 1561868435
    nsecs: 996329012
  frame_id: "ti_mmwave"
point_id: 8
x: 2.6171875
y: -0.17578125
z: 1.04296875
range: 3.00681090355
velocity: 0.0
doppler_bin: 8
bearing: -3.84245300293
intensity: 28.9209461212
---
header: 
  seq: 1423719
  stamp: 
    secs: 1561868435
    nsecs: 996336625
  frame_id: "ti_mmwave"
point_id: 9
x: 2.689453125
y: -0.08984375
z: 0.9765625
range: 3.05038785934
velocity: 0.0
doppler_bin: 8
bearing: -1.91330885887
intensity: 32.1378326416
---
header: 
  seq: 1423720
  stamp: 
    secs: 1561868435
    nsecs: 996348331
  frame_id: "ti_mmwave"
point_id: 10
x: 2.75
y: -0.08984375
z: 0.931640625
range: 3.09396481514
velocity: 0.0
doppler_bin: 8
bearing: -1.87121355534
intensity: 31.1226978302
---
header: 
  seq: 1423721
  stamp: 
    secs: 1561868435
    nsecs: 996356799
  frame_id: "ti_mmwave"
point_id: 11
x: 4.390625
y: -0.287109375
z: 1.275390625
range: 4.88062095642
velocity: 0.0
doppler_bin: 8
bearing: -3.74132800102
intensity: 31.2742881775
---
header: 
  seq: 1423722
  stamp: 
    secs: 1561868435
    nsecs: 996366982
  frame_id: "ti_mmwave"
point_id: 12
x: 4.4375
y: -0.14453125
z: 1.28515625
range: 4.9241976738
velocity: 0.0
doppler_bin: 8
bearing: -1.86548817158
intensity: 31.020904541
---
header: 
  seq: 1423723
  stamp: 
    secs: 1561868435
    nsecs: 996375039
  frame_id: "ti_mmwave"
point_id: 13
x: 1.919921875
y: -0.060546875
z: 0.083984375
range: 2.04811763763
velocity: 0.614668667316
doppler_bin: 9
bearing: -1.80628752708
intensity: 26.532125473
---
header: 
  seq: 1423724
  stamp: 
    secs: 1561868435
    nsecs: 996384196
  frame_id: "ti_mmwave"
point_id: 14
x: 1.9609375
y: -0.060546875
z: -0.083984375
range: 2.09169459343
velocity: 0.614668667316
doppler_bin: 9
bearing: -1.76853096485
intensity: 29.7081165314
---
header: 
  seq: 1423725
  stamp: 
    secs: 1561868435
    nsecs: 996393804
  frame_id: "ti_mmwave"
point_id: 15
x: 2.0
y: -0.0625
z: -0.1171875
range: 2.13527154922
velocity: 0.614668667316
doppler_bin: 9
bearing: -1.7899106741
intensity: 30.8206691742
---
header: 
  seq: 1423726
  stamp: 
    secs: 1561868435
    nsecs: 996404766
  frame_id: "ti_mmwave"
point_id: 16
x: 2.03515625
y: -0.126953125
z: -0.16015625
range: 2.17884850502
velocity: 0.614668667316
doppler_bin: 9
bearing: -3.56948781013
intensity: 28.182258606
---
header: 
  seq: 1423727
  stamp: 
    secs: 1561868435
    nsecs: 996564541
  frame_id: "ti_mmwave"
point_id: 17
x: 1.705078125
y: 0.052734375
z: -0.205078125
range: 1.83023273945
velocity: 1.22933733463
doppler_bin: 10
bearing: 1.77146971226
intensity: 23.9967365265
---
header: 
  seq: 1423728
  stamp: 
    secs: 1561868435
    nsecs: 996583795
  frame_id: "ti_mmwave"
point_id: 18
x: 1.748046875
y: 0.0546875
z: -0.19140625
range: 1.87380969524
velocity: 1.22933733463
doppler_bin: 10
bearing: 1.79190933704
intensity: 23.9269695282
---
header: 
  seq: 1423729
  stamp: 
    secs: 1561868435
    nsecs: 996594293
  frame_id: "ti_mmwave"
point_id: 20
x: 0.041015625
y: -0.033203125
z: 0.0625
range: 0.0871539413929
velocity: 0.0
doppler_bin: 8
bearing: -38.9909973145
intensity: 30.0945091248
---
header: 
  seq: 1423730
  stamp: 
    secs: 1561868435
    nsecs: 996606076
  frame_id: "ti_mmwave"
point_id: 21
x: 0.046875
y: -0.046875
z: 0.103515625
range: 0.130730912089
velocity: 0.0
doppler_bin: 8
bearing: -45.0
intensity: 29.0091304779
---
header: 
  seq: 1423731
  stamp: 
    secs: 1561868436
    nsecs:  56201669
  frame_id: "ti_mmwave"
point_id: 0
x: 0.01171875
y: -0.0390625
z: -0.0078125
range: 0.0435769706964
velocity: 0.0
doppler_bin: 8
bearing: -73.3007583618
intensity: 30.6370849609
---
header: 
  seq: 1423732
  stamp: 
    secs: 1561868436
    nsecs:  56300290
  frame_id: "ti_mmwave"
point_id: 1
x: 0.017578125
y: -0.080078125
z: -0.0078125
range: 0.0871539413929
velocity: 0.0
doppler_bin: 8
bearing: -77.6192398071
intensity: 31.9005146027
---
header: 
  seq: 1423733
  stamp: 
    secs: 1561868436
    nsecs:  56313989
  frame_id: "ti_mmwave"
point_id: 2
x: 0.029296875
y: -0.119140625
z: -0.005859375
range: 0.130730912089
velocity: 0.0
doppler_bin: 8
bearing: -76.1849746704
intensity: 30.1157035828
---
header: 
  seq: 1423734
  stamp: 
    secs: 1561868436
    nsecs:  56323064
  frame_id: "ti_mmwave"
point_id: 3
x: 0.056640625
y: -0.154296875
z: 0.005859375
range: 0.174307882786
velocity: 0.0
doppler_bin: 8
bearing: -69.8423843384
intensity: 25.4406795502
---
header: 
  seq: 1423735
  stamp: 
    secs: 1561868436
    nsecs:  56332189
  frame_id: "ti_mmwave"
point_id: 4
x: 0.11328125
y: -0.080078125
z: 1.259765625
range: 1.35088610649
velocity: 0.0
doppler_bin: 8
bearing: -35.2563591003
intensity: 23.0535144806
---
header: 
  seq: 1423736
  stamp: 
    secs: 1561868436
    nsecs:  56342493
  frame_id: "ti_mmwave"
point_id: 6
x: 0.419921875
y: -0.083984375
z: -1.279296875
range: 1.43804001808
velocity: 0.0
doppler_bin: 8
bearing: -11.3099327087
intensity: 23.0535144806
---
header: 
  seq: 1423737
  stamp: 
    secs: 1561868436
    nsecs:  56365743
  frame_id: "ti_mmwave"
point_id: 7
x: 0.556640625
y: -0.04296875
z: -1.2734375
range: 1.48161697388
velocity: 0.0
doppler_bin: 8
bearing: -4.41407871246
intensity: 21.6435279846
---
header: 
  seq: 1423738
  stamp: 
    secs: 1561868436
    nsecs:  56541393
  frame_id: "ti_mmwave"
point_id: 8
x: 2.609375
y: -0.17578125
z: 1.0625
range: 3.00681090355
velocity: 0.0
doppler_bin: 8
bearing: -3.85392260551
intensity: 28.8986167908
---
header: 
  seq: 1423739
  stamp: 
    secs: 1561868436
    nsecs:  56562040
  frame_id: "ti_mmwave"
point_id: 9
x: 2.654296875
y: -0.1796875
z: 1.060546875
range: 3.05038785934
velocity: 0.0
doppler_bin: 8
bearing: -3.87283420563
intensity: 32.0439147949
---
header: 
  seq: 1423740
  stamp: 
    secs: 1561868436
    nsecs:  56570516
  frame_id: "ti_mmwave"
point_id: 10
x: 2.748046875
y: -0.08984375
z: 0.935546875
range: 3.09396481514
velocity: 0.0
doppler_bin: 8
bearing: -1.8725425005
intensity: 31.05169487
---
header: 
  seq: 1423741
  stamp: 
    secs: 1561868436
    nsecs:  56579377
  frame_id: "ti_mmwave"
point_id: 11
x: 4.400390625
y: -0.142578125
z: 1.26953125
range: 4.88062095642
velocity: 0.0
doppler_bin: 8
bearing: -1.85580503941
intensity: 31.3001194
---
header: 
  seq: 1423742
  stamp: 
    secs: 1561868436
    nsecs:  56587242
  frame_id: "ti_mmwave"
point_id: 12
x: 4.431640625
y: -0.14453125
z: 1.3046875
range: 4.9241976738
velocity: 0.0
doppler_bin: 8
bearing: -1.86795306206
intensity: 31.0243377686
---
header: 
  seq: 1423743
  stamp: 
    secs: 1561868436
    nsecs:  56595940
  frame_id: "ti_mmwave"
point_id: 13
x: 1.916015625
y: -0.18359375
z: -0.390625
range: 2.09169459343
velocity: 0.614668667316
doppler_bin: 9
bearing: -5.47340488434
intensity: 27.7597427368
---
header: 
  seq: 1423744
  stamp: 
    secs: 1561868436
    nsecs:  56605976
  frame_id: "ti_mmwave"
point_id: 14
x: 1.984375
y: -0.125
z: -0.25390625
range: 2.13527154922
velocity: 0.614668667316
doppler_bin: 9
bearing: -3.60442066193
intensity: 29.6520175934
---
header: 
  seq: 1423745
  stamp: 
    secs: 1561868436
    nsecs:  56613711
  frame_id: "ti_mmwave"
point_id: 15
x: 2.029296875
y: -0.126953125
z: -0.2265625
range: 2.17884850502
velocity: 0.614668667316
doppler_bin: 9
bearing: -3.57976770401
intensity: 27.2345561981
---
header: 
  seq: 1423746
  stamp: 
    secs: 1561868436
    nsecs:  56649810
  frame_id: "ti_mmwave"
point_id: 16
x: 2.076171875
y: 0.1953125
z: -0.072265625
range: 2.22242546082
velocity: 1.22933733463
doppler_bin: 10
bearing: 5.37419128418
intensity: 24.4560413361
---
header: 
  seq: 1423747
  stamp: 
    secs: 1561868436
    nsecs:  56661154
  frame_id: "ti_mmwave"
point_id: 18
x: 0.041015625
y: -0.033203125
z: 0.0625
range: 0.0871539413929
velocity: 0.0
doppler_bin: 8
bearing: -38.9909973145
intensity: 30.0945091248
---
header: 
  seq: 1423748
  stamp: 
    secs: 1561868436
    nsecs:  56829231
  frame_id: "ti_mmwave"
point_id: 19
x: 0.044921875
y: -0.046875
z: 0.103515625
range: 0.130730912089
velocity: 0.0
doppler_bin: 8
bearing: -46.218875885
intensity: 29.0091304779
---
header: 
  seq: 1423749
  stamp: 
    secs: 1561868436
    nsecs:  57614027
  frame_id: "ti_mmwave"
point_id: 0
x: 0.01171875
y: -0.0390625
z: -0.0078125
range: 0.0435769706964
velocity: 0.0
doppler_bin: 8
bearing: -73.3007583618
intensity: 30.6445808411
---
header: 
  seq: 1423750
  stamp: 
    secs: 1561868436
    nsecs:  57665113
  frame_id: "ti_mmwave"
point_id: 1
x: 0.017578125
y: -0.080078125
z: -0.0078125
range: 0.0871539413929
velocity: 0.0
doppler_bin: 8
bearing: -77.6192398071
intensity: 31.9061183929
---
header: 
  seq: 1423751
  stamp: 
    secs: 1561868436
    nsecs:  57677631
  frame_id: "ti_mmwave"
point_id: 2
x: 0.029296875
y: -0.119140625
z: -0.005859375
range: 0.130730912089
velocity: 0.0
doppler_bin: 8
bearing: -76.1849746704
intensity: 30.1199302673
---
header: 
  seq: 1423752
  stamp: 
    secs: 1561868436
    nsecs:  57686489
  frame_id: "ti_mmwave"
point_id: 3
x: 0.056640625
y: -0.154296875
z: 0.005859375
range: 0.174307882786
velocity: 0.0
doppler_bin: 8
bearing: -69.8423843384
intensity: 25.4406795502
---
header: 
  seq: 1423753
  stamp: 
    secs: 1561868436
    nsecs:  57695470
  frame_id: "ti_mmwave"
point_id: 4
x: 0.146484375
y: -0.080078125
z: 1.2578125
range: 1.35088610649
velocity: 0.0
doppler_bin: 8
bearing: -28.6639575958
intensity: 23.0963020325
---
header: 
  seq: 1423754
  stamp: 
    secs: 1561868436
    nsecs:  57706637
  frame_id: "ti_mmwave"
point_id: 6
x: 0.4296875
y: -0.083984375
z: -1.27734375
range: 1.43804001808
velocity: 0.0
doppler_bin: 8
bearing: -11.0592975616
intensity: 23.0535144806
---
header: 
  seq: 1423755
  stamp: 
    secs: 1561868436
    nsecs:  57770734
  frame_id: "ti_mmwave"
point_id: 7
x: 2.6171875
y: -0.17578125
z: 1.044921875
range: 3.00681090355
velocity: 0.0
doppler_bin: 8
bearing: -3.84245300293
intensity: 29.0254669189
---
header: 
  seq: 1423756
  stamp: 
    secs: 1561868436
    nsecs:  57780504
  frame_id: "ti_mmwave"
point_id: 8
x: 2.69140625
y: -0.08984375
z: 0.974609375
range: 3.05038785934
velocity: 0.0
doppler_bin: 8
bearing: -1.91192126274
intensity: 32.166934967
---
header: 
  seq: 1423757
  stamp: 
    secs: 1561868436
    nsecs:  57788515
  frame_id: "ti_mmwave"
point_id: 9
x: 2.775390625
y: -0.0
z: 0.853515625
range: 3.09396481514
velocity: 0.0
doppler_bin: 8
bearing: -0.0
intensity: 31.0890312195
---
header: 
  seq: 1423758
  stamp: 
    secs: 1561868436
    nsecs:  57797678
  frame_id: "ti_mmwave"
point_id: 10
x: 4.40234375
y: -0.142578125
z: 1.263671875
range: 4.88062095642
velocity: 0.0
doppler_bin: 8
bearing: -1.85498249531
intensity: 31.222158432
---
header: 
  seq: 1423759
  stamp: 
    secs: 1561868436
    nsecs:  57805810
  frame_id: "ti_mmwave"
point_id: 11
x: 4.439453125
y: -0.14453125
z: 1.28125
range: 4.9241976738
velocity: 0.0
doppler_bin: 8
bearing: -1.86466813087
intensity: 31.0619087219
---
header: 
  seq: 1423760
  stamp: 
    secs: 1561868436
    nsecs:  57835106
  frame_id: "ti_mmwave"
point_id: 12
x: 1.98046875
y: -0.125
z: -0.28125
range: 2.13527154922
velocity: 0.614668667316
doppler_bin: 9
bearing: -3.61151123047
intensity: 29.8677177429
---
header: 
  seq: 1423761
  stamp: 
    secs: 1561868436
    nsecs:  57846754
  frame_id: "ti_mmwave"
point_id: 13
x: 2.025390625
y: -0.064453125
z: -0.275390625
range: 2.17884850502
velocity: 0.614668667316
doppler_bin: 9
bearing: -1.82268357277
intensity: 30.2448558807
---
header: 
  seq: 1423762
  stamp: 
    secs: 1561868436
    nsecs:  57859722
  frame_id: "ti_mmwave"
point_id: 14
x: 2.064453125
y: -0.0
z: -0.306640625
range: 2.22242546082
velocity: 0.614668667316
doppler_bin: 9
bearing: -0.0
intensity: 27.6492290497
---
header: 
  seq: 1423763
  stamp: 
    secs: 1561868436
    nsecs:  57874420
  frame_id: "ti_mmwave"
point_id: 16
x: 0.041015625
y: -0.033203125
z: 0.0625
range: 0.0871539413929
velocity: 0.0
doppler_bin: 8
bearing: -38.9909973145
intensity: 30.0945091248
---
header: 
  seq: 1423764
  stamp: 
    secs: 1561868436
    nsecs:  57926565
  frame_id: "ti_mmwave"
point_id: 17
x: 0.044921875
y: -0.046875
z: 0.103515625
range: 0.130730912089
velocity: 0.0
doppler_bin: 8
bearing: -46.218875885
intensity: 29.0091304779
---
header: 
  seq: 1423765
  stamp: 
    secs: 1561868436
    nsecs:  57946863
  frame_id: "ti_mmwave"
point_id: 19
x: 2.734375
y: -0.181640625
z: 0.9609375
range: 3.09396481514
velocity: 0.0
doppler_bin: 8
bearing: -3.80049324036
intensity: 31.0720996857
---
header: 
  seq: 1423766
  stamp: 
    secs: 1561868436
    nsecs: 116162832
  frame_id: "ti_mmwave"
point_id: 0
x: 0.01171875
y: -0.0390625
z: -0.0078125
range: 0.0435769706964
velocity: 0.0
doppler_bin: 8
bearing: -73.3007583618
intensity: 30.6370849609
---
header: 
  seq: 1423767
  stamp: 
    secs: 1561868436
    nsecs: 116234050
  frame_id: "ti_mmwave"
point_id: 1
x: 0.017578125
y: -0.080078125
z: -0.0078125
range: 0.0871539413929
velocity: 0.0
doppler_bin: 8
bearing: -77.6192398071
intensity: 31.9005146027
---
header: 
  seq: 1423768
  stamp: 
    secs: 1561868436
    nsecs: 116244940
  frame_id: "ti_mmwave"
point_id: 2
x: 0.029296875
y: -0.119140625
z: -0.005859375
range: 0.130730912089
velocity: 0.0
doppler_bin: 8
bearing: -76.1849746704
intensity: 30.1199302673
---
header: 
  seq: 1423769
  stamp: 
    secs: 1561868436
    nsecs: 116254093
  frame_id: "ti_mmwave"
point_id: 3
x: 0.056640625
y: -0.154296875
z: 0.0078125
range: 0.174307882786
velocity: 0.0
doppler_bin: 8
bearing: -69.8423843384
intensity: 25.4530715942
---
header: 
  seq: 1423770
  stamp: 
    secs: 1561868436
    nsecs: 116264779
  frame_id: "ti_mmwave"
point_id: 4
x: 0.130859375
y: -0.080078125
z: 1.259765625
range: 1.35088610649
velocity: 0.0
doppler_bin: 8
bearing: -31.4641437531
intensity: 23.1175384521
---
header: 
  seq: 1423771
  stamp: 
    secs: 1561868436
    nsecs: 116275408
  frame_id: "ti_mmwave"
point_id: 5
x: 0.017578125
y: -0.08203125
z: 1.306640625
range: 1.39446306229
velocity: 0.0
doppler_bin: 8
bearing: -77.9052429199
intensity: 24.6239795685
---
header: 
  seq: 1423772
  stamp: 
    secs: 1561868436
    nsecs: 116283945
  frame_id: "ti_mmwave"
point_id: 6
x: 0.390625
y: -0.083984375
z: -1.2890625
range: 1.43804001808
velocity: 0.0
doppler_bin: 8
bearing: -12.1338806152
intensity: 23.0535144806
---
header: 
  seq: 1423773
  stamp: 
    secs: 1561868436
    nsecs: 116292517
  frame_id: "ti_mmwave"
point_id: 7
x: 0.541015625
y: -0.04296875
z: -1.28125
range: 1.48161697388
velocity: 0.0
doppler_bin: 8
bearing: -4.54103565216
intensity: 21.7026176453
---
header: 
  seq: 1423774
  stamp: 
    secs: 1561868436
    nsecs: 116301631
  frame_id: "ti_mmwave"
point_id: 8
x: 2.61328125
y: -0.17578125
z: 1.05078125
range: 3.00681090355
velocity: 0.0
doppler_bin: 8
bearing: -3.84817934036
intensity: 29.020029068
---
header: 
  seq: 1423775
  stamp: 
    secs: 1561868436
    nsecs: 116310178
  frame_id: "ti_mmwave"
point_id: 9
x: 2.662109375
y: -0.1796875
z: 1.0390625
range: 3.05038785934
velocity: 0.0
doppler_bin: 8
bearing: -3.86150240898
intensity: 32.1085319519
---
header: 
  seq: 1423776
  stamp: 
    secs: 1561868436
    nsecs: 116318403
  frame_id: "ti_mmwave"
point_id: 10
x: 2.755859375
y: -0.08984375
z: 0.9140625
range: 3.09396481514
velocity: 0.0
doppler_bin: 8
bearing: -1.86723792553
intensity: 31.1126251221
---
header: 
  seq: 1423777
  stamp: 
    secs: 1561868436
    nsecs: 116326463
  frame_id: "ti_mmwave"
point_id: 11
x: 4.39453125
y: -0.142578125
z: 1.287109375
range: 4.88062095642
velocity: 0.0
doppler_bin: 8
bearing: -1.8582777977
intensity: 31.235250473
---
header: 
  seq: 1423778
  stamp: 
    secs: 1561868436
    nsecs: 116487649
  frame_id: "ti_mmwave"
point_id: 12
x: 4.427734375
y: -0.14453125
z: 1.31640625
range: 4.9241976738
velocity: 0.0
doppler_bin: 8
bearing: -1.86959993839
intensity: 31.0105934143
---
header: 
  seq: 1423779
  stamp: 
    secs: 1561868436
    nsecs: 116506718
  frame_id: "ti_mmwave"
point_id: 13
