header: 
  seq: 1364754
  stamp: 
    secs: 1561868340
    nsecs: 966075152
  frame_id: "ti_mmwave"
point_id: 0
x: 0.01171875
y: -0.0390625
z: -0.0078125
range: 0.0435769706964
velocity: 0.0
doppler_bin: 8
bearing: -73.3007583618
intensity: 30.6370849609
---
header: 
  seq: 1364755
  stamp: 
    secs: 1561868340
    nsecs: 966126611
  frame_id: "ti_mmwave"
point_id: 1
x: 0.017578125
y: -0.080078125
z: -0.0078125
range: 0.0871539413929
velocity: 0.0
doppler_bin: 8
bearing: -77.6192398071
intensity: 31.9033164978
---
header: 
  seq: 1364756
  stamp: 
    secs: 1561868340
    nsecs: 966133866
  frame_id: "ti_mmwave"
point_id: 2
x: 0.029296875
y: -0.119140625
z: -0.005859375
range: 0.130730912089
velocity: 0.0
doppler_bin: 8
bearing: -76.1849746704
intensity: 30.1199302673
---
header: 
  seq: 1364757
  stamp: 
    secs: 1561868340
    nsecs: 966140474
  frame_id: "ti_mmwave"
point_id: 3
x: 0.056640625
y: -0.154296875
z: 0.005859375
range: 0.174307882786
velocity: 0.0
doppler_bin: 8
bearing: -69.8423843384
intensity: 25.4530715942
---
header: 
  seq: 1364758
  stamp: 
    secs: 1561868340
    nsecs: 966146553
  frame_id: "ti_mmwave"
point_id: 4
x: 0.15625
y: -0.080078125
z: 1.255859375
range: 1.35088610649
velocity: 0.0
doppler_bin: 8
bearing: -27.1351394653
intensity: 23.0749607086
---
header: 
  seq: 1364759
  stamp: 
    secs: 1561868340
    nsecs: 966153419
  frame_id: "ti_mmwave"
point_id: 6
x: 0.4140625
y: -0.083984375
z: -1.28125
range: 1.43804001808
velocity: 0.0
doppler_bin: 8
bearing: -11.4657688141
intensity: 23.0535144806
---
header: 
  seq: 1364760
  stamp: 
    secs: 1561868340
    nsecs: 966159519
  frame_id: "ti_mmwave"
point_id: 7
x: 0.560546875
y: -0.04296875
z: -1.271484375
range: 1.48161697388
velocity: 0.0
doppler_bin: 8
bearing: -4.38343858719
intensity: 21.6435279846
---
header: 
  seq: 1364761
  stamp: 
    secs: 1561868340
    nsecs: 966165397
  frame_id: "ti_mmwave"
point_id: 8
x: 1.703125
y: 0.16015625
z: 0.162109375
range: 1.83023273945
velocity: 0.0
doppler_bin: 8
bearing: 5.37210798264
intensity: 28.70403862
---
header: 
  seq: 1364762
  stamp: 
    secs: 1561868340
    nsecs: 966285392
  frame_id: "ti_mmwave"
point_id: 9
x: 1.755859375
y: 0.0546875
z: 0.07421875
range: 1.87380969524
velocity: 0.0
doppler_bin: 8
bearing: 1.78394150734
intensity: 31.8098564148
---
header: 
  seq: 1364763
  stamp: 
    secs: 1561868340
    nsecs: 966297876
  frame_id: "ti_mmwave"
point_id: 10
x: 1.798828125
y: 0.056640625
z: 0.025390625
range: 1.91738677025
velocity: 0.0
doppler_bin: 8
bearing: 1.8035056591
intensity: 31.058506012
---
header: 
  seq: 1364764
  stamp: 
    secs: 1561868340
    nsecs: 966304412
  frame_id: "ti_mmwave"
point_id: 11
x: 1.8671875
y: 0.17578125
z: 0.158203125
range: 2.00454068184
velocity: 0.0
doppler_bin: 8
bearing: 5.37810325623
intensity: 26.7669353485
---
header: 
  seq: 1364765
  stamp: 
    secs: 1561868340
    nsecs: 966310004
  frame_id: "ti_mmwave"
point_id: 12
x: 2.619140625
y: -0.17578125
z: 1.037109375
range: 3.00681090355
velocity: 0.0
doppler_bin: 8
bearing: -3.83959650993
intensity: 28.8479537964
---
header: 
  seq: 1364766
  stamp: 
    secs: 1561868340
    nsecs: 966315884
  frame_id: "ti_mmwave"
point_id: 13
x: 2.6953125
y: -0.08984375
z: 0.962890625
range: 3.05038785934
velocity: 0.0
doppler_bin: 8
bearing: -1.90915250778
intensity: 32.1005096436
---
header: 
  seq: 1364767
  stamp: 
    secs: 1561868340
    nsecs: 966321762
  frame_id: "ti_mmwave"
point_id: 14
x: 2.755859375
y: -0.08984375
z: 0.9140625
range: 3.09396481514
velocity: 0.0
doppler_bin: 8
bearing: -1.86723792553
intensity: 31.1793384552
---
header: 
  seq: 1364768
  stamp: 
    secs: 1561868340
    nsecs: 966327163
  frame_id: "ti_mmwave"
point_id: 15
x: 4.40625
y: -0.142578125
z: 1.087890625
range: 4.83704376221
velocity: 0.0
doppler_bin: 8
bearing: -1.85333895683
intensity: 28.4571800232
---
header: 
  seq: 1364769
  stamp: 
    secs: 1561868340
    nsecs: 966332569
  frame_id: "ti_mmwave"
point_id: 16
x: 4.40625
y: -0.142578125
z: 1.244140625
range: 4.88062095642
velocity: 0.0
doppler_bin: 8
bearing: -1.85333895683
intensity: 31.8098564148
---
header: 
  seq: 1364770
  stamp: 
    secs: 1561868340
    nsecs: 966338465
  frame_id: "ti_mmwave"
point_id: 17
x: 4.427734375
y: -0.14453125
z: 1.3203125
range: 4.9241976738
velocity: 0.0
doppler_bin: 8
bearing: -1.86959993839
intensity: 31.3481445312
---
header: 
  seq: 1364771
  stamp: 
    secs: 1561868340
    nsecs: 966344085
  frame_id: "ti_mmwave"
point_id: 18
x: 4.888671875
y: -0.30859375
z: 0.705078125
range: 5.27281332016
velocity: 0.0
doppler_bin: 8
bearing: -3.61196112633
intensity: 31.2742881775
---
header: 
  seq: 1364772
  stamp: 
    secs: 1561868340
    nsecs: 966349834
  frame_id: "ti_mmwave"
point_id: 19
x: 4.96875
y: -0.46875
z: 0.013671875
range: 5.31639051437
velocity: 0.0
doppler_bin: 8
bearing: -5.38931179047
intensity: 29.6988162994
---
header: 
  seq: 1364773
  stamp: 
    secs: 1561868340
    nsecs: 966355403
  frame_id: "ti_mmwave"
point_id: 20
x: 1.552734375
y: -0.0
z: 0.068359375
range: 1.65592491627
velocity: -0.614668667316
doppler_bin: 7
bearing: -0.0
intensity: 25.2633934021
---
header: 
  seq: 1364774
  stamp: 
    secs: 1561868340
    nsecs: 966360766
  frame_id: "ti_mmwave"
point_id: 21
x: 1.59375
y: -0.0
z: 0.06640625
range: 1.69950187206
velocity: -0.614668667316
doppler_bin: 7
bearing: -0.0
intensity: 28.4509811401
---
header: 
  seq: 1364775
  stamp: 
    secs: 1561868340
    nsecs: 966366413
  frame_id: "ti_mmwave"
point_id: 22
x: 1.63671875
y: -0.0
z: 0.00390625
range: 1.74307882786
velocity: -0.614668667316
doppler_bin: 7
bearing: -0.0
intensity: 27.9934062958
---
header: 
  seq: 1364776
  stamp: 
    secs: 1561868340
    nsecs: 966371709
  frame_id: "ti_mmwave"
point_id: 23
x: 1.634765625
y: 0.26171875
z: 0.263671875
range: 1.78665578365
velocity: -0.614668667316
doppler_bin: 7
bearing: 9.09561634064
intensity: 27.0500793457
---
header: 
  seq: 1364777
  stamp: 
    secs: 1561868340
    nsecs: 966378944
  frame_id: "ti_mmwave"
point_id: 25
x: 0.041015625
y: -0.033203125
z: 0.0625
range: 0.0871539413929
velocity: 0.0
doppler_bin: 8
bearing: -38.9909973145
intensity: 30.0987567902
---
header: 
  seq: 1364778
  stamp: 
    secs: 1561868340
    nsecs: 966428832
  frame_id: "ti_mmwave"
point_id: 26
x: 0.046875
y: -0.046875
z: 0.103515625
range: 0.130730912089
velocity: 0.0
doppler_bin: 8
bearing: -45.0
intensity: 29.0145835876
---
header: 
  seq: 1364779
  stamp: 
    secs: 1561868340
    nsecs: 967119861
  frame_id: "ti_mmwave"
point_id: 0
x: 0.01171875
y: -0.0390625
z: -0.0078125
range: 0.0435769706964
velocity: 0.0
doppler_bin: 8
bearing: -73.3007583618
intensity: 30.6370849609
---
header: 
  seq: 1364780
  stamp: 
    secs: 1561868340
    nsecs: 967162582
  frame_id: "ti_mmwave"
point_id: 1
x: 0.017578125
y: -0.080078125
z: -0.0078125
range: 0.0871539413929
velocity: 0.0
doppler_bin: 8
bearing: -77.6192398071
intensity: 31.9061183929
---
header: 
  seq: 1364781
  stamp: 
    secs: 1561868340
    nsecs: 967172980
  frame_id: "ti_mmwave"
point_id: 2
x: 0.029296875
y: -0.119140625
z: -0.005859375
range: 0.130730912089
velocity: 0.0
doppler_bin: 8
bearing: -76.1849746704
intensity: 30.1241531372
---
header: 
  seq: 1364782
  stamp: 
    secs: 1561868340
    nsecs: 967180491
  frame_id: "ti_mmwave"
point_id: 3
x: 0.056640625
y: -0.154296875
z: 0.005859375
range: 0.174307882786
velocity: 0.0
doppler_bin: 8
bearing: -69.8423843384
intensity: 25.4530715942
---
header: 
  seq: 1364783
  stamp: 
    secs: 1561868340
    nsecs: 967188392
  frame_id: "ti_mmwave"
point_id: 4
x: 0.14453125
y: -0.080078125
z: 1.2578125
range: 1.35088610649
velocity: 0.0
doppler_bin: 8
bearing: -28.9888248444
intensity: 23.138671875
---
header: 
  seq: 1364784
  stamp: 
    secs: 1561868340
    nsecs: 967196894
  frame_id: "ti_mmwave"
point_id: 6
x: 0.419921875
y: -0.083984375
z: -1.279296875
range: 1.43804001808
velocity: 0.0
doppler_bin: 8
bearing: -11.3099327087
intensity: 23.0535144806
---
header: 
  seq: 1364785
  stamp: 
    secs: 1561868340
    nsecs: 967204002
  frame_id: "ti_mmwave"
point_id: 7
x: 0.568359375
y: -0.04296875
z: -1.267578125
range: 1.48161697388
velocity: 0.0
doppler_bin: 8
bearing: -4.32341527939
intensity: 21.6435279846
---
header: 
  seq: 1364786
  stamp: 
    secs: 1561868340
    nsecs: 967211379
  frame_id: "ti_mmwave"
point_id: 8
x: 1.7421875
y: 0.0546875
z: 0.23046875
range: 1.87380969524
velocity: 0.0
doppler_bin: 8
bearing: 1.79793179035
intensity: 28.7215633392
---
header: 
  seq: 1364787
  stamp: 
    secs: 1561868340
    nsecs: 967219814
  frame_id: "ti_mmwave"
point_id: 9
x: 1.771484375
y: 0.16796875
z: 0.2734375
range: 1.91738677025
velocity: 0.0
doppler_bin: 8
bearing: 5.41648197174
intensity: 29.0794849396
---
header: 
  seq: 1364788
  stamp: 
    secs: 1561868340
    nsecs: 967228205
  frame_id: "ti_mmwave"
point_id: 10
x: 1.83203125
y: 0.171875
z: 0.015625
range: 1.96096372604
velocity: 0.0
doppler_bin: 8
bearing: 5.35960912704
intensity: 29.4939002991
---
header: 
  seq: 1364789
  stamp: 
    secs: 1561868340
    nsecs: 967235871
  frame_id: "ti_mmwave"
point_id: 11
x: 1.8671875
y: 0.234375
z: -0.041015625
range: 2.00454068184
velocity: 0.0
doppler_bin: 8
bearing: 7.15452003479
intensity: 27.4896278381
---
header: 
  seq: 1364790
  stamp: 
    secs: 1561868340
    nsecs: 967243197
  frame_id: "ti_mmwave"
point_id: 12
x: 2.625
y: -0.17578125
z: 1.021484375
range: 3.00681090355
velocity: 0.0
doppler_bin: 8
bearing: -3.83105134964
intensity: 29.0091304779
---
header: 
  seq: 1364791
  stamp: 
    secs: 1561868340
    nsecs: 967250535
  frame_id: "ti_mmwave"
point_id: 13
x: 2.6640625
y: -0.1796875
z: 1.03515625
range: 3.05038785934
velocity: 0.0
doppler_bin: 8
bearing: -3.85868024826
intensity: 32.2010803223
---
header: 
  seq: 1364792
  stamp: 
    secs: 1561868340
    nsecs: 967258122
  frame_id: "ti_mmwave"
point_id: 14
x: 2.75390625
y: -0.08984375
z: 0.916015625
range: 3.09396481514
velocity: 0.0
doppler_bin: 8
bearing: -1.86856126785
intensity: 31.1594314575
---
header: 
  seq: 1364793
  stamp: 
    secs: 1561868340
    nsecs: 967266746
  frame_id: "ti_mmwave"
point_id: 15
x: 4.3984375
y: -0.142578125
z: 1.275390625
range: 4.88062095642
velocity: 0.0
doppler_bin: 8
bearing: -1.8566287756
intensity: 30.788192749
---
header: 
  seq: 1364794
  stamp: 
    secs: 1561868340
    nsecs: 967275501
  frame_id: "ti_mmwave"
point_id: 16
x: 4.3828125
y: -0.14453125
z: 1.458984375
range: 4.9241976738
velocity: 0.0
doppler_bin: 8
bearing: -1.88874852657
intensity: 30.064661026
---
header: 
  seq: 1364795
  stamp: 
    secs: 1561868340
    nsecs: 967283969
  frame_id: "ti_mmwave"
point_id: 17
x: 4.90234375
y: -0.30859375
z: 0.615234375
range: 5.27281332016
velocity: 0.0
doppler_bin: 8
bearing: -3.60191392899
intensity: 30.7408466339
---
header: 
  seq: 1364796
  stamp: 
    secs: 1561868340
    nsecs: 967292421
  frame_id: "ti_mmwave"
point_id: 18
x: 1.654296875
y: 0.26171875
z: 0.091796875
range: 1.78665578365
velocity: -0.614668667316
doppler_bin: 7
bearing: 8.98999404907
intensity: 26.3042793274
---
header: 
  seq: 1364797
  stamp: 
    secs: 1561868340
    nsecs: 967301632
  frame_id: "ti_mmwave"
point_id: 20
x: 0.041015625
y: -0.033203125
z: 0.0625
range: 0.0871539413929
velocity: 0.0
doppler_bin: 8
bearing: -38.9909973145
intensity: 30.0987567902
---
header: 
  seq: 1364798
  stamp: 
    secs: 1561868340
    nsecs: 967311256
  frame_id: "ti_mmwave"
point_id: 21
x: 0.044921875
y: -0.046875
z: 0.103515625
range: 0.130730912089
velocity: 0.0
doppler_bin: 8
bearing: -46.218875885
intensity: 29.0091304779
---
header: 
  seq: 1364799
  stamp: 
    secs: 1561868341
    nsecs:  27641516
  frame_id: "ti_mmwave"
point_id: 0
x: 0.01171875
y: -0.0390625
z: -0.0078125
range: 0.0435769706964
velocity: 0.0
doppler_bin: 8
bearing: -73.3007583618
intensity: 30.6333332062
---
header: 
  seq: 1364800
  stamp: 
    secs: 1561868341
    nsecs:  27722705
  frame_id: "ti_mmwave"
point_id: 1
x: 0.017578125
y: -0.080078125
z: -0.0078125
range: 0.0871539413929
velocity: 0.0
doppler_bin: 8
bearing: -77.6192398071
intensity: 31.9005146027
---
header: 
  seq: 1364801
  stamp: 
    secs: 1561868341
    nsecs:  27734128
  frame_id: "ti_mmwave"
point_id: 2
x: 0.029296875
y: -0.119140625
z: -0.005859375
range: 0.130730912089
velocity: 0.0
doppler_bin: 8
bearing: -76.1849746704
intensity: 30.1241531372
---
header: 
  seq: 1364802
  stamp: 
    secs: 1561868341
    nsecs:  27743281
  frame_id: "ti_mmwave"
point_id: 3
x: 0.056640625
y: -0.154296875
z: 0.0078125
range: 0.174307882786
velocity: 0.0
doppler_bin: 8
bearing: -69.8423843384
intensity: 25.4530715942
---
header: 
  seq: 1364803
  stamp: 
    secs: 1561868341
    nsecs:  27752548
  frame_id: "ti_mmwave"
point_id: 4
x: 0.1953125
y: -0.080078125
z: 1.25
range: 1.35088610649
velocity: 0.0
doppler_bin: 8
bearing: -22.2936286926
intensity: 23.0535144806
---
header: 
  seq: 1364804
  stamp: 
    secs: 1561868341
    nsecs:  27760906
  frame_id: "ti_mmwave"
point_id: 5
x: 0.11328125
y: -0.08203125
z: 1.30078125
range: 1.39446306229
velocity: 0.0
doppler_bin: 8
bearing: -35.9097213745
intensity: 24.5939254761
---
header: 
  seq: 1364805
  stamp: 
    secs: 1561868341
    nsecs:  27769434
  frame_id: "ti_mmwave"
point_id: 6
x: 0.40625
y: -0.083984375
z: -1.28515625
range: 1.43804001808
velocity: 0.0
doppler_bin: 8
bearing: -11.6802606583
intensity: 23.0535144806
---
header: 
  seq: 1364806
  stamp: 
    secs: 1561868341
    nsecs:  27777610
  frame_id: "ti_mmwave"
point_id: 7
x: 0.556640625
y: -0.04296875
z: -1.2734375
range: 1.48161697388
velocity: 0.0
doppler_bin: 8
bearing: -4.41407871246
intensity: 21.6136798859
---
header: 
  seq: 1364807
  stamp: 
    secs: 1561868341
    nsecs:  27787553
  frame_id: "ti_mmwave"
point_id: 8
x: 1.71484375
y: 0.052734375
z: 0.0703125
range: 1.83023273945
velocity: 0.0
doppler_bin: 8
bearing: 1.76138806343
intensity: 30.934217453
---
header: 
  seq: 1364808
  stamp: 
    secs: 1561868341
    nsecs:  27797257
  frame_id: "ti_mmwave"
point_id: 9
x: 1.755859375
y: 0.109375
z: 0.015625
range: 1.87380969524
velocity: 0.0
doppler_bin: 8
bearing: 3.56443095207
intensity: 34.0568771362
---
header: 
  seq: 1364809
  stamp: 
    secs: 1561868341
    nsecs:  27806251
  frame_id: "ti_mmwave"
point_id: 10
x: 1.798828125
y: 0.056640625
z: -0.00390625
range: 1.91738677025
velocity: 0.0
doppler_bin: 8
bearing: 1.8035056591
intensity: 33.7456512451
---
header: 
  seq: 1364810
  stamp: 
    secs: 1561868341
    nsecs:  27814779
  frame_id: "ti_mmwave"
point_id: 11
x: 1.8359375
y: 0.115234375
z: -0.048828125
range: 1.96096372604
velocity: 0.0
doppler_bin: 8
bearing: 3.59151291847
intensity: 29.7818050385
---
header: 
  seq: 1364811
  stamp: 
    secs: 1561868341
    nsecs:  27823514
  frame_id: "ti_mmwave"
point_id: 12
x: 2.60546875
y: -0.17578125
z: 1.0703125
range: 3.00681090355
velocity: 0.0
doppler_bin: 8
bearing: -3.85968351364
intensity: 28.9376182556
---
header: 
  seq: 1364812
  stamp: 
    secs: 1561868341
    nsecs:  27832178
  frame_id: "ti_mmwave"
point_id: 13
x: 2.65625
y: -0.1796875
z: 1.0546875
range: 3.05038785934
velocity: 0.0
doppler_bin: 8
bearing: -3.86999511719
intensity: 32.1537322998
---
header: 
  seq: 1364813
  stamp: 
    secs: 1561868341
    nsecs:  27841054
  frame_id: "ti_mmwave"
point_id: 14
x: 2.751953125
y: -0.08984375
z: 0.923828125
range: 3.09396481514
velocity: 0.0
doppler_bin: 8
bearing: -1.86988639832
intensity: 31.1561050415
---
header: 
  seq: 1364814
  stamp: 
    secs: 1561868341
    nsecs:  27851224
  frame_id: "ti_mmwave"
point_id: 15
x: 4.37890625
y: -0.287109375
z: 1.318359375
range: 4.88062095642
velocity: 0.0
doppler_bin: 8
bearing: -3.75131201744
intensity: 30.3342380524
---
header: 
  seq: 1364815
  stamp: 
    secs: 1561868341
    nsecs:  27862538
  frame_id: "ti_mmwave"
point_id: 16
x: 4.388671875
y: -0.14453125
z: 1.4453125
range: 4.9241976738
velocity: 0.0
doppler_bin: 8
bearing: -1.88622868061
intensity: 29.5760726929
---
header: 
  seq: 1364816
  stamp: 
    secs: 1561868341
    nsecs:  27933820
  frame_id: "ti_mmwave"
point_id: 17
x: 4.712890625
y: -0.296875
z: -0.474609375
range: 5.0549287796
velocity: 0.0
doppler_bin: 8
bearing: -3.60442066193
intensity: 29.2941894531
---
header: 
  seq: 1364817
  stamp: 
    secs: 1561868341
    nsecs:  27987071
  frame_id: "ti_mmwave"
point_id: 18
x: 4.751953125
y: -0.298828125
z: -0.48828125
range: 5.09850549698
velocity: 0.0
doppler_bin: 8
bearing: -3.59832549095
intensity: 33.9058189392
---
header: 
  seq: 1364818
  stamp: 
    secs: 1561868341
    nsecs:  28003597
  frame_id: "ti_mmwave"
point_id: 19
x: 4.79296875
y: -0.30078125
z: -0.49609375
range: 5.14208269119
velocity: 0.0
doppler_bin: 8
bearing: -3.59086942673
intensity: 34.3472862244
---
header: 
  seq: 1364819
  stamp: 
    secs: 1561868341
    nsecs:  28016632
  frame_id: "ti_mmwave"
point_id: 20
x: 4.80078125
y: -0.15234375
z: -0.7890625
range: 5.18565940857
velocity: 0.0
doppler_bin: 8
bearing: -1.81756365299
intensity: 30.7224998474
---
header: 
  seq: 1364820
  stamp: 
    secs: 1561868341
    nsecs:  28027290
  frame_id: "ti_mmwave"
point_id: 21
x: 4.888671875
y: -0.30859375
z: 0.71484375
range: 5.27281332016
velocity: 0.0
doppler_bin: 8
bearing: -3.61196112633
intensity: 30.9691009521
---
header: 
  seq: 1364821
  stamp: 
    secs: 1561868341
    nsecs:  28036792
  frame_id: "ti_mmwave"
point_id: 22
x: 4.951171875
y: -0.623046875
z: -0.01953125
range: 5.31639051437
velocity: 0.0
doppler_bin: 8
bearing: -7.17230129242
intensity: 29.6331558228
---
header: 
  seq: 1364822
  stamp: 
    secs: 1561868341
    nsecs:  28046178
  frame_id: "ti_mmwave"
point_id: 23
x: 1.466796875
y: -0.0
z: 0.134765625
range: 1.56877088547
velocity: -1.22933733463
doppler_bin: 6
bearing: -0.0
intensity: 22.2530937195
---
header: 
  seq: 1364823
  stamp: 
    secs: 1561868341
    nsecs:  28055512
  frame_id: "ti_mmwave"
point_id: 24
x: 1.509765625
y: -0.046875
z: 0.109375
range: 1.61234796047
velocity: -1.22933733463
doppler_bin: 6
bearing: -1.77834033966
intensity: 26.6558094025
---
header: 
  seq: 1364824
  stamp: 
    secs: 1561868341
    nsecs:  28064686
  frame_id: "ti_mmwave"
point_id: 25
x: 1.55078125
y: -0.0
z: 0.111328125
range: 1.65592491627
velocity: -1.22933733463
doppler_bin: 6
bearing: -0.0
intensity: 27.6937732697
---
header: 
  seq: 1364825
  stamp: 
    secs: 1561868341
    nsecs:  28073148
  frame_id: "ti_mmwave"
point_id: 26
x: 1.578125
y: 0.099609375
z: 0.216796875
range: 1.69950187206
velocity: -0.614668667316
doppler_bin: 7
bearing: 3.61165046692
intensity: 26.6651802063
---
header: 
  seq: 1364826
  stamp: 
    secs: 1561868341
    nsecs:  28084448
  frame_id: "ti_mmwave"
point_id: 28
x: 0.041015625
y: -0.033203125
z: 0.0625
range: 0.0871539413929
velocity: 0.0
doppler_bin: 8
bearing: -38.9909973145
intensity: 30.0902576447
---
header: 
  seq: 1364827
  stamp: 
    secs: 1561868341
    nsecs:  28092744
  frame_id: "ti_mmwave"
point_id: 29
x: 0.044921875
y: -0.046875
z: 0.103515625
range: 0.130730912089
velocity: 0.0
doppler_bin: 8
bearing: -46.218875885
intensity: 29.0091304779
---
header: 
  seq: 1364828
  stamp: 
    secs: 1561868341
    nsecs:  86263999
  frame_id: "ti_mmwave"
point_id: 0
x: 0.01171875
y: -0.0390625
z: -0.0078125
range: 0.0435769706964
velocity: 0.0
doppler_bin: 8
bearing: -73.3007583618
intensity: 30.6333332062
---
header: 
  seq: 1364829
  stamp: 
    secs: 1561868341
    nsecs:  86342847
  frame_id: "ti_mmwave"
point_id: 1
x: 0.017578125
y: -0.080078125
z: -0.0078125
range: 0.0871539413929
velocity: 0.0
doppler_bin: 8
bearing: -77.6192398071
intensity: 31.9005146027
---
header: 
  seq: 1364830
  stamp: 
    secs: 1561868341
    nsecs:  86354006
  frame_id: "ti_mmwave"
point_id: 2
x: 0.029296875
y: -0.119140625
z: -0.005859375
range: 0.130730912089
velocity: 0.0
doppler_bin: 8
bearing: -76.1849746704
intensity: 30.1199302673
---
header: 
  seq: 1364831
  stamp: 
    secs: 1561868341
    nsecs:  86364610
  frame_id: "ti_mmwave"
point_id: 3
x: 0.056640625
y: -0.154296875
z: 0.005859375
range: 0.174307882786
velocity: 0.0
doppler_bin: 8
bearing: -69.8423843384
intensity: 25.4530715942
---
header: 
  seq: 1364832
  stamp: 
    secs: 1561868341
    nsecs:  86375438
  frame_id: "ti_mmwave"
point_id: 4
x: 0.162109375
y: -0.080078125
z: 1.255859375
range: 1.35088610649
velocity: 0.0
doppler_bin: 8
bearing: -26.2882633209
intensity: 23.1175384521
---
header: 
  seq: 1364833
  stamp: 
    secs: 1561868341
    nsecs:  86384064
  frame_id: "ti_mmwave"
point_id: 5
x: 0.125
y: -0.08203125
z: 1.30078125
range: 1.39446306229
velocity: 0.0
doppler_bin: 8
bearing: -33.274887085
intensity: 24.6538276672
---
header: 
  seq: 1364834
  stamp: 
    secs: 1561868341
    nsecs:  86393048
  frame_id: "ti_mmwave"
point_id: 6
x: 0.392578125
y: -0.083984375
z: -1.2890625
range: 1.43804001808
velocity: 0.0
doppler_bin: 8
bearing: -12.0752887726
intensity: 23.138671875
---
header: 
  seq: 1364835
  stamp: 
    secs: 1561868341
    nsecs:  86402061
  frame_id: "ti_mmwave"
point_id: 7
x: 0.568359375
y: -0.04296875
z: -1.26953125
range: 1.48161697388
velocity: 0.0
doppler_bin: 8
bearing: -4.32341527939
intensity: 21.6136798859
---
header: 
  seq: 1364836
  stamp: 
    secs: 1561868341
    nsecs:  86410381
  frame_id: "ti_mmwave"
point_id: 8
x: 1.79296875
y: -0.0
z: -0.146484375
range: 1.91738677025
velocity: 0.0
doppler_bin: 8
bearing: -0.0
intensity: 29.1434307098
---
header: 
  seq: 1364837
  stamp: 
    secs: 1561868341
    nsecs:  86420030
  frame_id: "ti_mmwave"
point_id: 9
x: 2.611328125
y: -0.17578125
z: 1.0546875
range: 3.00681090355
velocity: 0.0
doppler_bin: 8
bearing: -3.85104894638
intensity: 28.9762706757
---
header: 
  seq: 1364838
  stamp: 
    secs: 1561868341
    nsecs:  86588292
  frame_id: "ti_mmwave"
point_id: 10
x: 2.69140625
y: -0.08984375
z: 0.974609375
range: 3.05038785934
velocity: 0.0
doppler_bin: 8
bearing: -1.91192126274
intensity: 32.1695709229
---
header: 
  seq: 1364839
  stamp: 
    secs: 1561868341
    nsecs:  86608109
  frame_id: "ti_mmwave"
point_id: 11
x: 2.75390625
y: -0.08984375
z: 0.91796875
range: 3.09396481514
velocity: 0.0
doppler_bin: 8
bearing: -1.86856126785
intensity: 31.1693973541
---
header: 
  seq: 1364840
  stamp: 
    secs: 1561868341
    nsecs:  86616262
  frame_id: "ti_mmwave"
point_id: 12
x: 4.396484375
y: -0.142578125
z: 1.12890625
range: 4.83704376221
velocity: 0.0
doppler_bin: 8
bearing: -1.85745286942
intensity: 29.020029068
---
header: 
  seq: 1364841
  stamp: 
    secs: 1561868341
    nsecs:  86624294
  frame_id: "ti_mmwave"
point_id: 13
x: 4.408203125
y: -0.142578125
z: 1.240234375
range: 4.88062095642
velocity: 0.0
doppler_bin: 8
bearing: -1.85251843929
intensity: 32.1748390198
---
header: 
  seq: 1364842
  stamp: 
    secs: 1561868341
    nsecs:  86632226
  frame_id: "ti_mmwave"
point_id: 14
x: 4.435546875
y: -0.14453125
z: 1.291015625
range: 4.9241976738
velocity: 0.0
doppler_bin: 8
bearing: -1.86630904675
intensity: 31.6046848297
---
header: 
  seq: 1364843
  stamp: 
    secs: 1561868341
    nsecs:  86640530
  frame_id: "ti_mmwave"
point_id: 15
x: 4.744140625
y: -0.298828125
z: -0.55078125
range: 5.09850549698
velocity: 0.0
doppler_bin: 8
bearing: -3.60423564911
intensity: 32.753112793
---
header: 
  seq: 1364844
  stamp: 
    secs: 1561868341
    nsecs:  86648329
  frame_id: "ti_mmwave"
point_id: 16
x: 4.787109375
y: -0.30078125
z: -0.546875
range: 5.14208269119
velocity: 0.0
doppler_bin: 8
bearing: -3.59525370598
intensity: 33.4713478088
---
header: 
  seq: 1364845
  stamp: 
    secs: 1561868341
    nsecs:  86659767
  frame_id: "ti_mmwave"
point_id: 17
x: 4.814453125
y: -0.3046875
z: -0.646484375
range: 5.18565940857
velocity: 0.0
doppler_bin: 8
bearing: -3.62119174004
intensity: 30.2284069061
---
header: 
  seq: 1364846
  stamp: 
    secs: 1561868341
    nsecs:  86667563
  frame_id: "ti_mmwave"
point_id: 18
x: 4.8828125
y: -0.30859375
z: 0.75
range: 5.27281332016
velocity: 0.0
doppler_bin: 8
bearing: -3.61628341675
intensity: 31.4921913147
---
header: 
  seq: 1364847
  stamp: 
    secs: 1561868341
    nsecs:  86675447
  frame_id: "ti_mmwave"
point_id: 19
x: 4.96484375
y: -0.46875
z: 0.169921875
range: 5.31639051437
velocity: 0.0
doppler_bin: 8
bearing: -5.39352655411
intensity: 30.013010025
---
header: 
  seq: 1364848
  stamp: 
    secs: 1561868341
    nsecs:  86683605
  frame_id: "ti_mmwave"
point_id: 20
x: 1.46484375
y: -0.091796875
z: 0.123046875
range: 1.56877088547
velocity: -0.614668667316
doppler_bin: 7
bearing: -3.58584666252
intensity: 26.4542236328
---
header: 
  seq: 1364849
  stamp: 
    secs: 1561868341
    nsecs:  86712750
  frame_id: "ti_mmwave"
point_id: 21
x: 1.505859375
y: -0.046875
z: 0.14453125
range: 1.61234796047
velocity: -0.614668667316
doppler_bin: 7
bearing: -1.78295040131
intensity: 28.6864452362
---
header: 
  seq: 1364850
  stamp: 
    secs: 1561868341
    nsecs:  86731142
  frame_id: "ti_mmwave"
point_id: 22
x: 1.55078125
y: -0.048828125
z: 0.09375
range: 1.65592491627
velocity: -0.614668667316
doppler_bin: 7
bearing: -1.80342757702
intensity: 27.3957233429
---
header: 
  seq: 1364851
  stamp: 
    secs: 1561868341
    nsecs:  86741143
  frame_id: "ti_mmwave"
point_id: 23
x: 1.716796875
y: -0.0
z: 0.0703125
range: 1.83023273945
velocity: -0.614668667316
doppler_bin: 7
bearing: -0.0
intensity: 30.4532299042
---
header: 
  seq: 1364852
  stamp: 
    secs: 1561868341
    nsecs:  86867656
  frame_id: "ti_mmwave"
point_id: 24
x: 1.759765625
y: -0.0
z: 0.015625
range: 1.87380969524
velocity: -0.614668667316
doppler_bin: 7
bearing: -0.0
intensity: 31.6996822357
---
header: 
  seq: 1364853
  stamp: 
    secs: 1561868341
    nsecs:  86903749
  frame_id: "ti_mmwave"
point_id: 26
x: 0.041015625
y: -0.033203125
z: 0.0625
range: 0.0871539413929
velocity: 0.0
doppler_bin: 8
bearing: -38.9909973145
intensity: 30.0902576447
---
header: 
  seq: 1364854
  stamp: 
    secs: 1561868341
    nsecs:  86918924
  frame_id: "ti_mmwave"
point_id: 27
x: 0.044921875
y: -0.046875
z: 0.103515625
range: 0.130730912089
velocity: 0.0
doppler_bin: 8
bearing: -46.218875885
intensity: 29.0091304779
---
header: 
  seq: 1364855
  stamp: 
    secs: 1561868341
    nsecs:  87575863
  frame_id: "ti_mmwave"
point_id: 0
x: 0.01171875
y: -0.0390625
z: -0.0078125
range: 0.0435769706964
velocity: 0.0
doppler_bin: 8
bearing: -73.3007583618
intensity: 30.6408348083
---
header: 
  seq: 1364856
  stamp: 
    secs: 1561868341
    nsecs:  87629722
  frame_id: "ti_mmwave"
point_id: 1
x: 0.017578125
y: -0.080078125
z: -0.0078125
range: 0.0871539413929
velocity: 0.0
doppler_bin: 8
bearing: -77.6192398071
intensity: 31.9033164978
---
header: 
  seq: 1364857
  stamp: 
    secs: 1561868341
    nsecs:  87650092
  frame_id: "ti_mmwave"
point_id: 2
x: 0.029296875
y: -0.119140625
z: -0.005859375
range: 0.130730912089
velocity: 0.0
doppler_bin: 8
bearing: -76.1849746704
intensity: 30.1199302673
---
header: 
  seq: 1364858
  stamp: 
    secs: 1561868341
    nsecs:  87663268
  frame_id: "ti_mmwave"
point_id: 3
x: 0.056640625
y: -0.154296875
z: 0.0078125
range: 0.174307882786
velocity: 0.0
doppler_bin: 8
bearing: -69.8423843384
intensity: 25.4406795502
---
header: 
  seq: 1364859
  stamp: 
    secs: 1561868341
    nsecs:  87676417
  frame_id: "ti_mmwave"
point_id: 4
x: 0.16015625
y: -0.080078125
z: 1.255859375
range: 1.35088610649
velocity: 0.0
doppler_bin: 8
bearing: -26.5650501251
intensity: 23.138671875
---
header: 
  seq: 1364860
  stamp: 
    secs: 1561868341
    nsecs:  87691395
  frame_id: "ti_mmwave"
point_id: 5
x: 0.056640625
y: -0.08203125
z: 1.3046875
range: 1.39446306229
velocity: 0.0
doppler_bin: 8
bearing: -55.3758430481
intensity: 24.6389293671
---
header: 
  seq: 1364861
  stamp: 
    secs: 1561868341
    nsecs:  87705579
  frame_id: "ti_mmwave"
point_id: 6
x: 0.412109375
y: -0.083984375
z: -1.283203125
range: 1.43804001808
velocity: 0.0
doppler_bin: 8
bearing: -11.518658638
intensity: 23.0749607086
---
header: 
  seq: 1364862
  stamp: 
    secs: 1561868341
    nsecs:  87718226
  frame_id: "ti_mmwave"
point_id: 7
x: 2.625
y: -0.17578125
z: 1.021484375
range: 3.00681090355
velocity: 0.0
doppler_bin: 8
bearing: -3.83105134964
intensity: 29.0417442322
---
header: 
  seq: 1364863
  stamp: 
    secs: 1561868341
    nsecs:  87730862
  frame_id: "ti_mmwave"
point_id: 8
x: 2.6640625
y: -0.1796875
z: 1.03515625
range: 3.05038785934
velocity: 0.0
doppler_bin: 8
bearing: -3.85868024826
intensity: 32.166934967
---
header: 
  seq: 1364864
  stamp: 
    secs: 1561868341
    nsecs:  87746429
  frame_id: "ti_mmwave"
point_id: 9
x: 2.759765625
y: -0.08984375
z: 0.900390625
range: 3.09396481514
velocity: 0.0
doppler_bin: 8
bearing: -1.86459684372
intensity: 31.205739975
---
header: 
  seq: 1364865
  stamp: 
    secs: 1561868341
    nsecs:  87758412
  frame_id: "ti_mmwave"
point_id: 10
x: 4.404296875
y: -0.142578125
z: 1.09765625
range: 4.83704376221
velocity: 0.0
doppler_bin: 8
bearing: -1.85416030884
intensity: 29.2376194
---
header: 
  seq: 1364866
  stamp: 
    secs: 1561868341
    nsecs:  87768142
  frame_id: "ti_mmwave"
point_id: 11
x: 4.419921875
y: -0.142578125
z: 1.197265625
range: 4.88062095642
velocity: 0.0
doppler_bin: 8
bearing: -1.847610116
intensity: 32.6339950562
---
header: 
  seq: 1364867
  stamp: 
    secs: 1561868341
    nsecs:  87780329
  frame_id: "ti_mmwave"
point_id: 12
x: 4.45703125
y: -0.14453125
z: 1.212890625
range: 4.9241976738
velocity: 0.0
doppler_bin: 8
bearing: -1.8573192358
intensity: 32.2685775757
---
header: 
  seq: 1364868
  stamp: 
    secs: 1561868341
    nsecs:  87794876
  frame_id: "ti_mmwave"
point_id: 13
x: 1.751953125
y: -0.0546875
z: -0.138671875
range: 1.87380969524
velocity: -0.614668667316
doppler_bin: 7
bearing: -1.78791642189
intensity: 28.1090431213
---
header: 
  seq: 1364869
  stamp: 
    secs: 1561868341
    nsecs:  87906751
  frame_id: "ti_mmwave"
point_id: 14
x: 1.798828125
y: -0.0
z: 0.025390625
range: 1.91738677025
velocity: -0.614668667316
doppler_bin: 7
bearing: -0.0
intensity: 26.7851829529
---
header: 
  seq: 1364870
  stamp: 
    secs: 1561868341
    nsecs:  87936781
  frame_id: "ti_mmwave"
point_id: 16
x: 0.041015625
y: -0.033203125
z: 0.0625
range: 0.0871539413929
velocity: 0.0
doppler_bin: 8
bearing: -38.9909973145
intensity: 30.0945091248
---
header: 
  seq: 1364871
  stamp: 
    secs: 1561868341
    nsecs:  87989029
  frame_id: "ti_mmwave"
point_id: 17
x: 0.046875
y: -0.046875
z: 0.103515625
range: 0.130730912089
velocity: 0.0
doppler_bin: 8
bearing: -45.0
intensity: 29.0145835876
---
header: 
  seq: 1364872
  stamp: 
    secs: 1561868341
    nsecs: 146140650
  frame_id: "ti_mmwave"
point_id: 0
x: 0.01171875
y: -0.0390625
z: -0.0078125
range: 0.0435769706964
velocity: 0.0
doppler_bin: 8
bearing: -73.3007583618
intensity: 30.6370849609
---
header: 
  seq: 1364873
  stamp: 
    secs: 1561868341
    nsecs: 146271611
  frame_id: "ti_mmwave"
point_id: 1
x: 0.017578125
y: -0.080078125
z: -0.0078125
range: 0.0871539413929
velocity: 0.0
doppler_bin: 8
bearing: -77.6192398071
intensity: 31.9033164978
---
header: 
  seq: 1364874
  stamp: 
    secs: 1561868341
    nsecs: 146283758
  frame_id: "ti_mmwave"
point_id: 2
x: 0.029296875
y: -0.119140625
z: -0.005859375
range: 0.130730912089
velocity: 0.0
doppler_bin: 8
bearing: -76.1849746704
intensity: 30.1241531372
---
header: 
  seq: 1364875
  stamp: 
    secs: 1561868341
    nsecs: 146292749
  frame_id: "ti_mmwave"
point_id: 3
x: 0.056640625
y: -0.154296875
z: 0.005859375
range: 0.174307882786
velocity: 0.0
doppler_bin: 8
bearing: -69.8423843384
intensity: 25.4530715942
---
header: 
  seq: 1364876
  stamp: 
    secs: 1561868341
    nsecs: 146303388
  frame_id: "ti_mmwave"
point_id: 4
x: 0.08984375
y: -0.080078125
z: 1.26171875
range: 1.35088610649
velocity: 0.0
doppler_bin: 8
bearing: -41.7107582092
intensity: 23.0963020325
---
header: 
  seq: 1364877
  stamp: 
    secs: 1561868341
    nsecs: 146312548
  frame_id: "ti_mmwave"
point_id: 5
x: 0.013671875
y: -0.08203125
z: -1.306640625
range: 1.39446306229
velocity: 0.0
doppler_bin: 8
bearing: -80.5376739502
intensity: 24.6089782715
---
header: 
  seq: 1364878
  stamp: 
    secs: 1561868341
    nsecs: 146321089
  frame_id: "ti_mmwave"
point_id: 6
x: 0.40625
y: -0.083984375
z: -1.28515625
range: 1.43804001808
velocity: 0.0
doppler_bin: 8
bearing: -11.6802606583
intensity: 23.0535144806
---
header: 
  seq: 1364879
  stamp: 
    secs: 1561868341
    nsecs: 146328976
  frame_id: "ti_mmwave"
point_id: 7
x: 2.615234375
y: -0.17578125
z: 1.046875
range: 3.00681090355
velocity: 0.0
doppler_bin: 8
bearing: -3.84531402588
intensity: 28.9376182556
---
header: 
  seq: 1364880
  stamp: 
    secs: 1561868341
    nsecs: 146337615
  frame_id: "ti_mmwave"
point_id: 8
x: 2.65625
y: -0.1796875
z: 1.056640625
range: 3.05038785934
velocity: 0.0
doppler_bin: 8
bearing: -3.86999511719
intensity: 32.1800994873
---
header: 
  seq: 1364881
  stamp: 
    secs: 1561868341
    nsecs: 146347429
  frame_id: "ti_mmwave"
point_id: 9
x: 2.748046875
y: -0.08984375
z: 0.935546875
range: 3.09396481514
velocity: 0.0
doppler_bin: 8
bearing: -1.8725425005
intensity: 31.1058979034
---
header: 
  seq: 1364882
  stamp: 
    secs: 1561868341
    nsecs: 146356031
  frame_id: "ti_mmwave"
point_id: 10
x: 4.41796875
y: -0.142578125
z: 1.203125
range: 4.88062095642
velocity: 0.0
doppler_bin: 8
bearing: -1.84842634201
intensity: 30.5576038361
---
header: 
  seq: 1364883
  stamp: 
    secs: 1561868341
    nsecs: 146366006
  frame_id: "ti_mmwave"
point_id: 11
x: 4.44921875
y: -0.14453125
z: 1.2421875
range: 4.9241976738
velocity: 0.0
doppler_bin: 8
bearing: -1.86057829857
intensity: 30.1619739532
---
header: 
  seq: 1364884
  stamp: 
    secs: 1561868341
    nsecs: 146374736
  frame_id: "ti_mmwave"
point_id: 12
x: 1.4921875
y: 0.09375
z: 0.228515625
range: 1.61234796047
velocity: -0.614668667316
doppler_bin: 7
bearing: 3.59500956535
intensity: 26.8841991425
---
header: 
  seq: 1364885
  stamp: 
    secs: 1561868341
    nsecs: 146386181
  frame_id: "ti_mmwave"
point_id: 13
x: 1.53125
y: 0.09765625
z: 0.25390625
range: 1.65592491627
velocity: -0.614668667316
doppler_bin: 7
bearing: 3.64912557602
intensity: 26.7942790985
---
header: 
  seq: 1364886
  stamp: 
    secs: 1561868341
    nsecs: 146547464
  frame_id: "ti_mmwave"
point_id: 14
x: 1.67578125
y: -0.052734375
z: 0.029296875
range: 1.78665578365
velocity: -0.614668667316
doppler_bin: 7
bearing: -1.80241930485
intensity: 28.9982051849
---
header: 
  seq: 1364887
  stamp: 
    secs: 1561868341
    nsecs: 146567482
  frame_id: "ti_mmwave"
point_id: 15
x: 1.71875
y: -0.0
z: -0.01171875
range: 1.83023273945
velocity: -0.614668667316
doppler_bin: 7
bearing: -0.0
intensity: 32.5382232666
---
header: 
  seq: 1364888
  stamp: 
    secs: 1561868341
    nsecs: 146575922
  frame_id: "ti_mmwave"
point_id: 16
x: 1.759765625
y: -0.0
z: 0.0
range: 1.87380969524
velocity: -0.614668667316
doppler_bin: 7
bearing: -0.0
intensity: 33.0276374817
---
header: 
  seq: 1364889
  stamp: 
    secs: 1561868341
    nsecs: 146586847
  frame_id: "ti_mmwave"
point_id: 17
x: 1.798828125
y: -0.0
z: 0.037109375
range: 1.91738677025
velocity: -0.614668667316
doppler_bin: 7
bearing: -0.0
intensity: 31.0720996857
---
header: 
  seq: 1364890
  stamp: 
    secs: 1561868341
    nsecs: 146594814
  frame_id: "ti_mmwave"
point_id: 18
x: 1.837890625
y: 0.115234375
z: -0.01953125
range: 1.96096372604
velocity: -0.614668667316
doppler_bin: 7
bearing: 3.58770632744
intensity: 27.7670116425
---
header: 
  seq: 1364891
  stamp: 
    secs: 1561868341
    nsecs: 146621210
  frame_id: "ti_mmwave"
point_id: 20
x: 0.041015625
y: -0.033203125
z: 0.0625
range: 0.0871539413929
velocity: 0.0
doppler_bin: 8
bearing: -38.9909973145
intensity: 30.0945091248
---
header: 
  seq: 1364892
  stamp: 
    secs: 1561868341
    nsecs: 146636476
  frame_id: "ti_mmwave"
point_id: 21
x: 0.044921875
y: -0.046875
z: 0.103515625
range: 0.130730912089
velocity: 0.0
doppler_bin: 8
bearing: -46.218875885
intensity: 29.0091304779
---
header: 
  seq: 1364893
  stamp: 
    secs: 1561868341
    nsecs: 147548585
  frame_id: "ti_mmwave"
point_id: 0
x: 0.01171875
y: -0.0390625
z: -0.0078125
range: 0.0435769706964
velocity: 0.0
doppler_bin: 8
bearing: -73.3007583618
intensity: 30.6295776367
---
header: 
  seq: 1364894
  stamp: 
    secs: 1561868341
    nsecs: 147614596
  frame_id: "ti_mmwave"
point_id: 1
x: 0.017578125
y: -0.080078125
z: -0.0078125
range: 0.0871539413929
velocity: 0.0
doppler_bin: 8
bearing: -77.6192398071
intensity: 31.9005146027
---
header: 
  seq: 1364895
  stamp: 
    secs: 1561868341
    nsecs: 147633960
  frame_id: "ti_mmwave"
point_id: 2
x: 0.029296875
y: -0.119140625
z: -0.005859375
range: 0.130730912089
velocity: 0.0
doppler_bin: 8
bearing: -76.1849746704
intensity: 30.1157035828
---
header: 
  seq: 1364896
  stamp: 
    secs: 1561868341
    nsecs: 147650403
  frame_id: "ti_mmwave"
point_id: 3
x: 0.056640625
y: -0.154296875
z: 0.005859375
range: 0.174307882786
velocity: 0.0
doppler_bin: 8
bearing: -69.8423843384
intensity: 25.4406795502
---
header: 
  seq: 1364897
  stamp: 
    secs: 1561868341
    nsecs: 147719236
  frame_id: "ti_mmwave"
point_id: 4
x: 0.146484375
y: -0.080078125
z: 1.2578125
range: 1.35088610649
velocity: 0.0
doppler_bin: 8
bearing: -28.6639575958
intensity: 23.138671875
---
header: 
  seq: 1364898
  stamp: 
    secs: 1561868341
    nsecs: 147742017
  frame_id: "ti_mmwave"
point_id: 6
x: 0.412109375
y: -0.083984375
z: -1.283203125
range: 1.43804001808
velocity: 0.0
doppler_bin: 8
bearing: -11.518658638
intensity: 23.0535144806
---
header: 
  seq: 1364899
  stamp: 
    secs: 1561868341
    nsecs: 147755361
  frame_id: "ti_mmwave"
point_id: 7
x: 0.5
y: -0.04296875
z: -1.296875
range: 1.48161697388
velocity: 0.0
doppler_bin: 8
bearing: -4.91178798676
intensity: 21.5533599854
---
header: 
  seq: 1364900
  stamp: 
    secs: 1561868341
    nsecs: 147764327
  frame_id: "ti_mmwave"
point_id: 8
x: 2.625
y: -0.17578125
z: 1.0234375
range: 3.00681090355
velocity: 0.0
doppler_bin: 8
bearing: -3.83105134964
intensity: 29.0687351227
---
header: 
  seq: 1364901
  stamp: 
    secs: 1561868341
    nsecs: 147790054
  frame_id: "ti_mmwave"
point_id: 9
x: 2.69140625
y: -0.08984375
z: 0.97265625
range: 3.05038785934
velocity: 0.0
doppler_bin: 8
bearing: -1.91192126274
intensity: 32.1537322998
---
header: 
  seq: 1364902
  stamp: 
    secs: 1561868341
    nsecs: 147811835
  frame_id: "ti_mmwave"
point_id: 10
x: 2.75390625
y: -0.08984375
z: 0.919921875
range: 3.09396481514
velocity: 0.0
doppler_bin: 8
bearing: -1.86856126785
intensity: 31.1991539001
---
header: 
  seq: 1364903
  stamp: 
    secs: 1561868341
    nsecs: 147876232
  frame_id: "ti_mmwave"
point_id: 11
x: 1.44921875
y: -0.138671875
z: 0.22265625
range: 1.56877088547
velocity: 0.614668667316
doppler_bin: 9
bearing: -5.46583890915
intensity: 24.0483379364
---
header: 
  seq: 1364904
  stamp: 
    secs: 1561868341
    nsecs: 147892624
  frame_id: "ti_mmwave"
point_id: 12
x: 1.498046875
y: -0.142578125
z: 0.15625
range: 1.61234796047
velocity: 0.614668667316
doppler_bin: 9
bearing: -5.43680667877
intensity: 25.3781909943
---
header: 
  seq: 1364905
  stamp: 
    secs: 1561868341
    nsecs: 147911755
  frame_id: "ti_mmwave"
point_id: 13
x: 1.671875
y: -0.0
z: -0.134765625
range: 1.78665578365
velocity: -0.614668667316
doppler_bin: 7
bearing: -0.0
intensity: 26.9460525513
---
header: 
  seq: 1364906
  stamp: 
    secs: 1561868341
    nsecs: 147920864
  frame_id: "ti_mmwave"
point_id: 14
x: 1.69921875
y: -0.0
z: -0.255859375
range: 1.83023273945
velocity: -0.614668667316
doppler_bin: 7
bearing: -0.0
intensity: 29.1697998047
---
header: 
  seq: 1364907
  stamp: 
    secs: 1561868341
    nsecs: 147998659
  frame_id: "ti_mmwave"
point_id: 15
x: 1.7421875
y: -0.0
z: -0.24609375
range: 1.87380969524
velocity: -0.614668667316
doppler_bin: 7
bearing: -0.0
intensity: 29.1907806396
---
header: 
  seq: 1364908
  stamp: 
    secs: 1561868341
    nsecs: 148015705
  frame_id: "ti_mmwave"
point_id: 16
x: 1.783203125
y: -0.0
z: -0.23828125
range: 1.91738677025
velocity: -0.614668667316
doppler_bin: 7
bearing: -0.0
intensity: 27.1011734009
---
header: 
  seq: 1364909
  stamp: 
    secs: 1561868341
    nsecs: 148032142
  frame_id: "ti_mmwave"
point_id: 18
x: 0.041015625
y: -0.033203125
z: 0.0625
range: 0.0871539413929
velocity: 0.0
doppler_bin: 8
bearing: -38.9909973145
intensity: 30.0987567902
---
header: 
  seq: 1364910
  stamp: 
    secs: 1561868341
    nsecs: 148061893
  frame_id: "ti_mmwave"
point_id: 19
x: 0.044921875
y: -0.046875
z: 0.103515625
range: 0.130730912089
velocity: 0.0
doppler_bin: 8
bearing: -46.218875885
intensity: 29.0145835876
---
header: 
  seq: 1364911
  stamp: 
    secs: 1561868341
    nsecs: 206121799
  frame_id: "ti_mmwave"
point_id: 0
x: 0.01171875
y: -0.0390625
z: -0.0078125
range: 0.0435769706964
velocity: 0.0
doppler_bin: 8
bearing: -73.3007583618
intensity: 30.6370849609
---
header: 
  seq: 1364912
  stamp: 
    secs: 1561868341
    nsecs: 206170304
  frame_id: "ti_mmwave"
point_id: 1
x: 0.017578125
y: -0.080078125
z: -0.0078125
range: 0.0871539413929
velocity: 0.0
doppler_bin: 8
bearing: -77.6192398071
intensity: 31.9033164978
---
header: 
  seq: 1364913
  stamp: 
    secs: 1561868341
    nsecs: 206178407
  frame_id: "ti_mmwave"
point_id: 2
x: 0.029296875
y: -0.119140625
z: -0.005859375
range: 0.130730912089
velocity: 0.0
doppler_bin: 8
bearing: -76.1849746704
intensity: 30.1241531372
---
header: 
  seq: 1364914
  stamp: 
    secs: 1561868341
    nsecs: 206184019
  frame_id: "ti_mmwave"
point_id: 3
x: 0.056640625
y: -0.154296875
z: 0.0078125
range: 0.174307882786
velocity: 0.0
doppler_bin: 8
bearing: -69.8423843384
intensity: 25.4530715942
---
header: 
  seq: 1364915
  stamp: 
    secs: 1561868341
    nsecs: 206190000
  frame_id: "ti_mmwave"
point_id: 4
x: 0.162109375
y: -0.080078125
z: 1.255859375
range: 1.35088610649
velocity: 0.0
doppler_bin: 8
bearing: -26.2882633209
intensity: 23.0963020325
---
header: 
  seq: 1364916
  stamp: 
    secs: 1561868341
    nsecs: 206197747
  frame_id: "ti_mmwave"
point_id: 6
x: 0.4140625
y: -0.083984375
z: -1.28125
range: 1.43804001808
velocity: 0.0
doppler_bin: 8
bearing: -11.4657688141
intensity: 23.0535144806
---
header: 
  seq: 1364917
  stamp: 
    secs: 1561868341
    nsecs: 206203349
  frame_id: "ti_mmwave"
point_id: 7
x: 0.583984375
y: -0.04296875
z: -1.26171875
range: 1.48161697388
velocity: 0.0
doppler_bin: 8
bearing: -4.20815992355
intensity: 21.5836257935
---
header: 
  seq: 1364918
  stamp: 
    secs: 1561868341
    nsecs: 206208446
  frame_id: "ti_mmwave"
point_id: 8
x: 2.6328125
y: -0.17578125
z: 1.00390625
range: 3.00681090355
velocity: 0.0
doppler_bin: 8
bearing: -3.81971669197
intensity: 29.0579586029
---
header: 
  seq: 1364919
  stamp: 
    secs: 1561868341
    nsecs: 206213745
  frame_id: "ti_mmwave"
point_id: 9
x: 2.693359375
y: -0.08984375
z: 0.970703125
range: 3.05038785934
velocity: 0.0
doppler_bin: 8
bearing: -1.91053581238
intensity: 32.2323608398
---
header: 
  seq: 1364920
  stamp: 
    secs: 1561868341
    nsecs: 206219637
  frame_id: "ti_mmwave"
point_id: 10
x: 2.75
y: -0.08984375
z: 0.927734375
range: 3.09396481514
velocity: 0.0
doppler_bin: 8
bearing: -1.87121355534
intensity: 31.2483005524
---
header: 
  seq: 1364921
  stamp: 
    secs: 1561868341
    nsecs: 206226294
  frame_id: "ti_mmwave"
point_id: 11
x: 1.48828125
y: -0.189453125
z: 0.205078125
range: 1.61234796047
velocity: 0.614668667316
doppler_bin: 9
bearing: -7.25453948975
intensity: 25.7749176025
---
header: 
  seq: 1364922
  stamp: 
    secs: 1561868341
    nsecs: 206232097
  frame_id: "ti_mmwave"
point_id: 12
x: 1.525390625
y: -0.146484375
z: 0.255859375
range: 1.65592491627
velocity: 0.614668667316
doppler_bin: 9
bearing: -5.4853348732
intensity: 25.2374649048
---
header: 
  seq: 1364923
  stamp: 
    secs: 1561868341
    nsecs: 206238498
  frame_id: "ti_mmwave"
point_id: 13
x: 1.6640625
y: 0.052734375
z: -0.19921875
range: 1.78665578365
velocity: -0.614668667316
doppler_bin: 7
bearing: 1.8151037693
intensity: 29.2168655396
---
header: 
  seq: 1364924
  stamp: 
    secs: 1561868341
    nsecs: 206245687
  frame_id: "ti_mmwave"
point_id: 14
x: 1.708984375
y: -0.0
z: -0.16796875
range: 1.83023273945
velocity: -0.614668667316
doppler_bin: 7
bearing: -0.0
intensity: 32.4254150391
---
header: 
  seq: 1364925
  stamp: 
    secs: 1561868341
    nsecs: 206344409
  frame_id: "ti_mmwave"
point_id: 15
x: 1.748046875
y: 0.0546875
z: -0.185546875
range: 1.87380969524
velocity: -0.614668667316
doppler_bin: 7
bearing: 1.79190933704
intensity: 31.670217514
---
header: 
  seq: 1364926
  stamp: 
    secs: 1561868341
    nsecs: 206356706
  frame_id: "ti_mmwave"
point_id: 16
x: 1.78125
y: -0.0
z: -0.263671875
range: 1.91738677025
velocity: -0.614668667316
doppler_bin: 7
bearing: -0.0
intensity: 27.5434837341
---
header: 
  seq: 1364927
  stamp: 
    secs: 1561868341
    nsecs: 206363816
  frame_id: "ti_mmwave"
point_id: 18
x: 0.041015625
y: -0.033203125
z: 0.0625
range: 0.0871539413929
velocity: 0.0
doppler_bin: 8
bearing: -38.9909973145
intensity: 30.0945091248
---
header: 
  seq: 1364928
  stamp: 
    secs: 1561868341
    nsecs: 206369386
  frame_id: "ti_mmwave"
point_id: 19
x: 0.044921875
y: -0.046875
z: 0.103515625
range: 0.130730912089
velocity: 0.0
doppler_bin: 8
bearing: -46.218875885
intensity: 29.0145835876
---
header: 
  seq: 1364929
  stamp: 
    secs: 1561868341
    nsecs: 206932737
  frame_id: "ti_mmwave"
point_id: 0
x: 0.01171875
y: -0.0390625
z: -0.0078125
range: 0.0435769706964
velocity: 0.0
doppler_bin: 8
bearing: -73.3007583618
intensity: 30.6445808411
---
header: 
  seq: 1364930
  stamp: 
    secs: 1561868341
    nsecs: 206966889
  frame_id: "ti_mmwave"
point_id: 1
x: 0.017578125
y: -0.080078125
z: -0.0078125
range: 0.0871539413929
velocity: 0.0
doppler_bin: 8
bearing: -77.6192398071
intensity: 31.9033164978
---
header: 
  seq: 1364931
  stamp: 
    secs: 1561868341
    nsecs: 206974540
  frame_id: "ti_mmwave"
point_id: 2
x: 0.029296875
y: -0.119140625
z: -0.005859375
range: 0.130730912089
velocity: 0.0
doppler_bin: 8
bearing: -76.1849746704
intensity: 30.1157035828
---
header: 
  seq: 1364932
  stamp: 
    secs: 1561868341
    nsecs: 206980497
  frame_id: "ti_mmwave"
point_id: 3
x: 0.056640625
y: -0.154296875
z: 0.005859375
range: 0.174307882786
velocity: 0.0
doppler_bin: 8
bearing: -69.8423843384
intensity: 25.4530715942
---
header: 
  seq: 1364933
  stamp: 
    secs: 1561868341
    nsecs: 206986692
  frame_id: "ti_mmwave"
point_id: 4
x: 0.181640625
y: -0.080078125
z: 1.251953125
range: 1.35088610649
velocity: 0.0
doppler_bin: 8
bearing: -23.7907733917
intensity: 23.138671875
---
header: 
  seq: 1364934
  stamp: 
    secs: 1561868341
    nsecs: 206993441
  frame_id: "ti_mmwave"
point_id: 6
x: 0.412109375
y: -0.083984375
z: -1.283203125
range: 1.43804001808
velocity: 0.0
doppler_bin: 8
bearing: -11.518658638
intensity: 23.0749607086
---
header: 
  seq: 1364935
  stamp: 
    secs: 1561868341
    nsecs: 207003652
  frame_id: "ti_mmwave"
point_id: 7
x: 2.615234375
y: -0.17578125
z: 1.048828125
range: 3.00681090355
velocity: 0.0
doppler_bin: 8
bearing: -3.84531402588
intensity: 29.0091304779
---
header: 
  seq: 1364936
  stamp: 
    secs: 1561868341
    nsecs: 207014863
  frame_id: "ti_mmwave"
point_id: 8
x: 2.658203125
y: -0.1796875
z: 1.048828125
range: 3.05038785934
velocity: 0.0
doppler_bin: 8
bearing: -3.86716008186
intensity: 32.1351776123
---
header: 
  seq: 1364937
  stamp: 
    secs: 1561868341
    nsecs: 207024789
  frame_id: "ti_mmwave"
point_id: 9
x: 2.751953125
y: -0.08984375
z: 0.921875
range: 3.09396481514
velocity: 0.0
doppler_bin: 8
bearing: -1.86988639832
intensity: 31.05169487
---
header: 
  seq: 1364938
  stamp: 
    secs: 1561868341
    nsecs: 207034289
  frame_id: "ti_mmwave"
point_id: 10
x: 4.875
y: -1.1015625
z: -0.587890625
range: 5.35996723175
velocity: 0.0
doppler_bin: 8
bearing: -12.7328100204
intensity: 28.9153747559
---
header: 
  seq: 1364939
  stamp: 
    secs: 1561868341
    nsecs: 207044719
  frame_id: "ti_mmwave"
point_id: 11
x: 1.673828125
y: 0.052734375
z: -0.0859375
range: 1.78665578365
velocity: -0.614668667316
doppler_bin: 7
bearing: 1.80452108383
intensity: 29.6614170074
---
header: 
  seq: 1364940
  stamp: 
    secs: 1561868341
    nsecs: 207054686
  frame_id: "ti_mmwave"
point_id: 12
x: 1.71484375
y: 0.052734375
z: -0.1015625
range: 1.83023273945
velocity: -0.614668667316
doppler_bin: 7
bearing: 1.76138806343
intensity: 31.4891090393
---
header: 
  seq: 1364941
  stamp: 
    secs: 1561868341
    nsecs: 207064094
  frame_id: "ti_mmwave"
point_id: 13
x: 1.751953125
y: 0.109375
z: -0.1171875
range: 1.87380969524
velocity: -0.614668667316
doppler_bin: 7
bearing: 3.57235765457
intensity: 30.7773113251
---
header: 
  seq: 1364942
  stamp: 
    secs: 1561868341
    nsecs: 207074290
  frame_id: "ti_mmwave"
point_id: 14
x: 1.787109375
y: 0.16796875
z: -0.134765625
range: 1.91738677025
velocity: -0.614668667316
doppler_bin: 7
bearing: 5.36940336227
intensity: 28.2865982056
---
header: 
  seq: 1364943
  stamp: 
    secs: 1561868341
    nsecs: 207085237
  frame_id: "ti_mmwave"
point_id: 16
x: 0.041015625
y: -0.033203125
z: 0.0625
range: 0.0871539413929
velocity: 0.0
doppler_bin: 8
bearing: -38.9909973145
intensity: 30.0945091248
---
header: 
  seq: 1364944
  stamp: 
    secs: 1561868341
    nsecs: 207093738
  frame_id: "ti_mmwave"
point_id: 17
x: 0.044921875
y: -0.046875
z: 0.103515625
range: 0.130730912089
velocity: 0.0
doppler_bin: 8
bearing: -46.218875885
intensity: 29.0091304779
---
header: 
  seq: 1364945
  stamp: 
    secs: 1561868341
    nsecs: 266170747
  frame_id: "ti_mmwave"
point_id: 0
x: 0.01171875
y: -0.0390625
z: -0.0078125
range: 0.0435769706964
velocity: 0.0
doppler_bin: 8
bearing: -73.3007583618
intensity: 30.6408348083
---
header: 
  seq: 1364946
  stamp: 
    secs: 1561868341
    nsecs: 266252461
  frame_id: "ti_mmwave"
point_id: 1
x: 0.017578125
y: -0.080078125
z: -0.0078125
range: 0.0871539413929
velocity: 0.0
doppler_bin: 8
bearing: -77.6192398071
intensity: 31.9005146027
---
header: 
  seq: 1364947
  stamp: 
    secs: 1561868341
    nsecs: 266266285
  frame_id: "ti_mmwave"
point_id: 2
x: 0.029296875
y: -0.119140625
z: -0.005859375
range: 0.130730912089
velocity: 0.0
doppler_bin: 8
bearing: -76.1849746704
intensity: 30.1157035828
---
header: 
  seq: 1364948
  stamp: 
    secs: 1561868341
    nsecs: 266275946
  frame_id: "ti_mmwave"
point_id: 3
x: 0.056640625
y: -0.154296875
z: 0.005859375
range: 0.174307882786
velocity: 0.0
doppler_bin: 8
bearing: -69.8423843384
intensity: 25.4530715942
---
header: 
  seq: 1364949
  stamp: 
    secs: 1561868341
    nsecs: 266286815
  frame_id: "ti_mmwave"
point_id: 4
x: 0.146484375
y: -0.080078125
z: 1.2578125
range: 1.35088610649
velocity: 0.0
doppler_bin: 8
bearing: -28.6639575958
intensity: 23.0963020325
---
header: 
  seq: 1364950
  stamp: 
    secs: 1561868341
    nsecs: 266297797
  frame_id: "ti_mmwave"
point_id: 5
x: 0.0234375
y: -0.08203125
z: 1.306640625
range: 1.39446306229
velocity: 0.0
doppler_bin: 8
bearing: -74.0546035767
intensity: 24.6239795685
---
header: 
  seq: 1364951
  stamp: 
    secs: 1561868341
    nsecs: 266306309
  frame_id: "ti_mmwave"
point_id: 6
x: 0.408203125
y: -0.083984375
z: -1.283203125
range: 1.43804001808
velocity: 0.0
doppler_bin: 8
bearing: -11.6258993149
intensity: 23.0535144806
---
header: 
  seq: 1364952
  stamp: 
    secs: 1561868341
    nsecs: 266314380
  frame_id: "ti_mmwave"
point_id: 7
x: 2.6171875
y: -0.17578125
z: 1.041015625
range: 3.00681090355
velocity: 0.0
doppler_bin: 8
bearing: -3.84245300293
intensity: 29.0525608063
---
header: 
  seq: 1364953
  stamp: 
    secs: 1561868341
    nsecs: 266322346
  frame_id: "ti_mmwave"
point_id: 8
x: 2.6640625
y: -0.1796875
z: 1.03515625
range: 3.05038785934
velocity: 0.0
doppler_bin: 8
bearing: -3.85868024826
intensity: 32.2788658142
---
header: 
  seq: 1364954
  stamp: 
    secs: 1561868341
    nsecs: 266338892
  frame_id: "ti_mmwave"
point_id: 9
x: 2.751953125
y: -0.08984375
z: 0.92578125
range: 3.09396481514
velocity: 0.0
doppler_bin: 8
bearing: -1.86988639832
intensity: 31.3481445312
---
header: 
  seq: 1364955
  stamp: 
    secs: 1561868341
    nsecs: 266356043
  frame_id: "ti_mmwave"
point_id: 10
x: 1.57421875
y: -0.05078125
z: 0.251953125
range: 1.69950187206
velocity: -0.614668667316
doppler_bin: 7
bearing: -1.847610116
intensity: 27.2916469574
---
header: 
  seq: 1364956
  stamp: 
    secs: 1561868341
    nsecs: 266374179
  frame_id: "ti_mmwave"
point_id: 11
x: 1.623046875
y: -0.0
z: 0.201171875
range: 1.74307882786
velocity: -0.614668667316
doppler_bin: 7
bearing: -0.0
intensity: 31.0720996857
---
header: 
  seq: 1364957
  stamp: 
    secs: 1561868341
    nsecs: 266391965
  frame_id: "ti_mmwave"
point_id: 12
x: 1.66796875
y: 0.052734375
z: 0.173828125
range: 1.78665578365
velocity: -0.614668667316
doppler_bin: 7
bearing: 1.81085586548
intensity: 32.4004974365
---
header: 
  seq: 1364958
  stamp: 
    secs: 1561868341
    nsecs: 266407808
  frame_id: "ti_mmwave"
point_id: 13
x: 1.70703125
y: 0.107421875
z: 0.166015625
range: 1.83023273945
velocity: -0.614668667316
doppler_bin: 7
bearing: 3.60082149506
intensity: 30.9447116852
---
header: 
  seq: 1364959
  stamp: 
    secs: 1561868341
    nsecs: 266423489
  frame_id: "ti_mmwave"
point_id: 14
x: 1.75
y: 0.109375
z: 0.138671875
range: 1.87380969524
velocity: -0.614668667316
doppler_bin: 7
bearing: 3.57633447647
intensity: 26.1595001221
---
header: 
  seq: 1364960
  stamp: 
    secs: 1561868341
    nsecs: 266435469
  frame_id: "ti_mmwave"
point_id: 16
x: 0.041015625
y: -0.033203125
z: 0.0625
range: 0.0871539413929
velocity: 0.0
doppler_bin: 8
bearing: -38.9909973145
intensity: 30.0945091248
---
header: 
  seq: 1364961
  stamp: 
    secs: 1561868341
    nsecs: 266604668
  frame_id: "ti_mmwave"
point_id: 17
x: 0.046875
y: -0.046875
z: 0.103515625
range: 0.130730912089
velocity: 0.0
doppler_bin: 8
bearing: -45.0
intensity: 29.0145835876
---
header: 
  seq: 1364962
  stamp: 
    secs: 1561868341
    nsecs: 267501092
  frame_id: "ti_mmwave"
point_id: 0
x: 0.01171875
y: -0.0390625
z: -0.0078125
range: 0.0435769706964
velocity: 0.0
doppler_bin: 8
bearing: -73.3007583618
intensity: 30.6408348083
---
header: 
  seq: 1364963
  stamp: 
    secs: 1561868341
    nsecs: 267566162
  frame_id: "ti_mmwave"
point_id: 1
x: 0.017578125
y: -0.080078125
z: -0.0078125
range: 0.0871539413929
velocity: 0.0
doppler_bin: 8
bearing: -77.6192398071
intensity: 31.9033164978
---
header: 
  seq: 1364964
  stamp: 
    secs: 1561868341
    nsecs: 267587957
  frame_id: "ti_mmwave"
point_id: 2
x: 0.029296875
y: -0.119140625
z: -0.005859375
range: 0.130730912089
velocity: 0.0
doppler_bin: 8
bearing: -76.1849746704
intensity: 30.1199302673
---
header: 
  seq: 1364965
  stamp: 
    secs: 1561868341
    nsecs: 267618060
  frame_id: "ti_mmwave"
point_id: 3
x: 0.056640625
y: -0.154296875
z: 0.005859375
range: 0.174307882786
velocity: 0.0
doppler_bin: 8
bearing: -69.8423843384
intensity: 25.4530715942
---
header: 
  seq: 1364966
  stamp: 
    secs: 1561868341
    nsecs: 267776400
  frame_id: "ti_mmwave"
point_id: 5
x: 0.03125
y: -0.08203125
z: -1.306640625
range: 1.39446306229
velocity: 0.0
doppler_bin: 8
bearing: -69.1455459595
intensity: 24.6089782715
---
header: 
  seq: 1364967
  stamp: 
    secs: 1561868341
    nsecs: 267804164
  frame_id: "ti_mmwave"
point_id: 6
x: 0.41796875
y: -0.083984375
z: -1.28125
range: 1.43804001808
velocity: 0.0
doppler_bin: 8
bearing: -11.3614110947
intensity: 23.0535144806
---
header: 
  seq: 1364968
  stamp: 
    secs: 1561868341
    nsecs: 267817675
  frame_id: "ti_mmwave"
point_id: 7
x: 2.62890625
y: -0.17578125
z: 1.009765625
range: 3.00681090355
velocity: 0.0
doppler_bin: 8
bearing: -3.82537555695
intensity: 29.1009063721
---
header: 
  seq: 1364969
  stamp: 
    secs: 1561868341
    nsecs: 267826368
  frame_id: "ti_mmwave"
point_id: 8
x: 2.697265625
y: -0.08984375
z: 0.958984375
range: 3.05038785934
velocity: 0.0
doppler_bin: 8
bearing: -1.90777087212
intensity: 32.2762947083
---
header: 
  seq: 1364970
  stamp: 
    secs: 1561868341
    nsecs: 267875482
  frame_id: "ti_mmwave"
point_id: 9
x: 2.763671875
y: -0.08984375
z: 0.890625
range: 3.09396481514
velocity: 0.0
doppler_bin: 8
bearing: -1.8619633913
intensity: 31.4113616943
---
header: 
  seq: 1364971
  stamp: 
    secs: 1561868341
    nsecs: 267892251
  frame_id: "ti_mmwave"
point_id: 10
x: 4.849609375
y: -1.091796875
z: -0.44921875
range: 5.31639051437
velocity: 0.0
doppler_bin: 8
bearing: -12.6875209808
intensity: 28.8024177551
---
header: 
  seq: 1364972
  stamp: 
    secs: 1561868341
    nsecs: 267907180
  frame_id: "ti_mmwave"
point_id: 11
x: 1.623046875
y: 0.05078125
z: -0.197265625
range: 1.74307882786
velocity: -0.614668667316
doppler_bin: 7
bearing: 1.79206323624
intensity: 26.8663635254
---
header: 
  seq: 1364973
  stamp: 
    secs: 1561868341
    nsecs: 267919713
  frame_id: "ti_mmwave"
point_id: 12
x: 1.673828125
y: -0.0
z: -0.11328125
range: 1.78665578365
velocity: -0.614668667316
doppler_bin: 7
bearing: -0.0
intensity: 30.4178733826
---
header: 
  seq: 1364974
  stamp: 
    secs: 1561868341
    nsecs: 267929339
  frame_id: "ti_mmwave"
point_id: 13
x: 1.7109375
y: -0.052734375
z: -0.154296875
range: 1.83023273945
velocity: -0.614668667316
doppler_bin: 7
bearing: -1.765406847
intensity: 29.122220993
---
header: 
  seq: 1364975
  stamp: 
    secs: 1561868341
    nsecs: 268074530
  frame_id: "ti_mmwave"
point_id: 15
x: 0.041015625
y: -0.033203125
z: 0.0625
range: 0.0871539413929
velocity: 0.0
doppler_bin: 8
bearing: -38.9909973145
intensity: 30.0902576447
---
header: 
  seq: 1364976
  stamp: 
    secs: 1561868341
    nsecs: 268095617
  frame_id: "ti_mmwave"
point_id: 16
x: 0.046875
y: -0.046875
z: 0.103515625
range: 0.130730912089
velocity: 0.0
doppler_bin: 8
bearing: -45.0
intensity: 29.0036716461
---
header: 
  seq: 1364977
  stamp: 
    secs: 1561868341
    nsecs: 326836170
  frame_id: "ti_mmwave"
point_id: 0
x: 0.01171875
y: -0.0390625
z: -0.0078125
range: 0.0435769706964
velocity: 0.0
doppler_bin: 8
bearing: -73.3007583618
intensity: 30.6370849609
---
header: 
  seq: 1364978
  stamp: 
    secs: 1561868341
    nsecs: 326909984
  frame_id: "ti_mmwave"
point_id: 1
x: 0.017578125
y: -0.080078125
z: -0.0078125
range: 0.0871539413929
velocity: 0.0
doppler_bin: 8
bearing: -77.6192398071
intensity: 31.9005146027
---
header: 
  seq: 1364979
  stamp: 
    secs: 1561868341
    nsecs: 326923214
  frame_id: "ti_mmwave"
point_id: 2
x: 0.029296875
y: -0.119140625
z: -0.005859375
range: 0.130730912089
velocity: 0.0
doppler_bin: 8
bearing: -76.1849746704
intensity: 30.1157035828
---
header: 
  seq: 1364980
  stamp: 
    secs: 1561868341
    nsecs: 326931890
  frame_id: "ti_mmwave"
point_id: 3
x: 0.056640625
y: -0.154296875
z: 0.005859375
range: 0.174307882786
velocity: 0.0
doppler_bin: 8
bearing: -69.8423843384
intensity: 25.4530715942
---
header: 
  seq: 1364981
  stamp: 
    secs: 1561868341
    nsecs: 326941202
  frame_id: "ti_mmwave"
point_id: 4
x: 0.12890625
y: -0.080078125
z: 1.259765625
range: 1.35088610649
velocity: 0.0
doppler_bin: 8
bearing: -31.8490524292
intensity: 23.1175384521
---
header: 
  seq: 1364982
  stamp: 
    secs: 1561868341
    nsecs: 326951883
  frame_id: "ti_mmwave"
point_id: 6
x: 0.4375
y: -0.083984375
z: -1.2734375
range: 1.43804001808
velocity: 0.0
doppler_bin: 8
bearing: -10.8665513992
intensity: 23.0535144806
---
header: 
  seq: 1364983
  stamp: 
    secs: 1561868341
    nsecs: 326960920
  frame_id: "ti_mmwave"
point_id: 7
x: 0.5703125
y: -0.04296875
z: -1.267578125
range: 1.48161697388
velocity: 0.0
doppler_bin: 8
bearing: -4.30866527557
intensity: 21.5533599854
---
header: 
  seq: 1364984
  stamp: 
    secs: 1561868341
    nsecs: 326968935
  frame_id: "ti_mmwave"
point_id: 8
x: 1.5703125
y: -0.150390625
z: 0.240234375
range: 1.69950187206
velocity: 0.0
doppler_bin: 8
bearing: -5.47059726715
intensity: 29.127532959
---
header: 
