header: 
  seq: 1438045
  stamp: 
    secs: 1561868459
    nsecs:  96079502
  frame_id: "ti_mmwave"
point_id: 0
x: 0.01171875
y: -0.0390625
z: -0.0078125
range: 0.0435769706964
velocity: 0.0
doppler_bin: 8
bearing: -73.3007583618
intensity: 30.6520614624
---
header: 
  seq: 1438046
  stamp: 
    secs: 1561868459
    nsecs:  96154310
  frame_id: "ti_mmwave"
point_id: 1
x: 0.017578125
y: -0.080078125
z: -0.0078125
range: 0.0871539413929
velocity: 0.0
doppler_bin: 8
bearing: -77.6192398071
intensity: 31.9005146027
---
header: 
  seq: 1438047
  stamp: 
    secs: 1561868459
    nsecs:  96167792
  frame_id: "ti_mmwave"
point_id: 2
x: 0.029296875
y: -0.119140625
z: -0.005859375
range: 0.130730912089
velocity: 0.0
doppler_bin: 8
bearing: -76.1849746704
intensity: 30.1157035828
---
header: 
  seq: 1438048
  stamp: 
    secs: 1561868459
    nsecs:  96175910
  frame_id: "ti_mmwave"
point_id: 3
x: 0.056640625
y: -0.154296875
z: 0.0078125
range: 0.174307882786
velocity: 0.0
doppler_bin: 8
bearing: -69.8423843384
intensity: 25.4530715942
---
header: 
  seq: 1438049
  stamp: 
    secs: 1561868459
    nsecs:  96183585
  frame_id: "ti_mmwave"
point_id: 4
x: 0.470703125
y: -0.080078125
z: -1.17578125
range: 1.35088610649
velocity: 0.0
doppler_bin: 8
bearing: -9.65497684479
intensity: 23.0963020325
---
header: 
  seq: 1438050
  stamp: 
    secs: 1561868459
    nsecs:  96192216
  frame_id: "ti_mmwave"
point_id: 5
x: 0.15234375
y: -0.08203125
z: -1.296875
range: 1.39446306229
velocity: 0.0
doppler_bin: 8
bearing: -28.3007564545
intensity: 24.5484485626
---
header: 
  seq: 1438051
  stamp: 
    secs: 1561868459
    nsecs:  96200397
  frame_id: "ti_mmwave"
point_id: 6
x: 2.6171875
y: -0.17578125
z: 1.041015625
range: 3.00681090355
velocity: 0.0
doppler_bin: 8
bearing: -3.84245300293
intensity: 28.9817657471
---
header: 
  seq: 1438052
  stamp: 
    secs: 1561868459
    nsecs:  96207882
  frame_id: "ti_mmwave"
point_id: 7
x: 2.6953125
y: -0.08984375
z: 0.962890625
range: 3.05038785934
velocity: 0.0
doppler_bin: 8
bearing: -1.90915250778
intensity: 32.1404876709
---
header: 
  seq: 1438053
  stamp: 
    secs: 1561868459
    nsecs:  96215786
  frame_id: "ti_mmwave"
point_id: 8
x: 2.763671875
y: -0.08984375
z: 0.890625
range: 3.09396481514
velocity: 0.0
doppler_bin: 8
bearing: -1.8619633913
intensity: 31.2155990601
---
header: 
  seq: 1438054
  stamp: 
    secs: 1561868459
    nsecs:  96225756
  frame_id: "ti_mmwave"
point_id: 9
x: 4.38671875
y: -0.283203125
z: 1.13671875
range: 4.83704376221
velocity: 0.0
doppler_bin: 8
bearing: -3.69384431839
intensity: 28.2412586212
---
header: 
  seq: 1438055
  stamp: 
    secs: 1561868459
    nsecs:  96234578
  frame_id: "ti_mmwave"
point_id: 10
x: 4.40625
y: -0.142578125
z: 1.244140625
range: 4.88062095642
velocity: 0.0
doppler_bin: 8
bearing: -1.85333895683
intensity: 31.601682663
---
header: 
  seq: 1438056
  stamp: 
    secs: 1561868459
    nsecs:  96243977
  frame_id: "ti_mmwave"
point_id: 11
x: 4.439453125
y: -0.14453125
z: 1.283203125
range: 4.9241976738
velocity: 0.0
doppler_bin: 8
bearing: -1.86466813087
intensity: 31.1294002533
---
header: 
  seq: 1438057
  stamp: 
    secs: 1561868459
    nsecs:  96252246
  frame_id: "ti_mmwave"
point_id: 12
x: 4.892578125
y: -0.154296875
z: 0.73828125
range: 5.27281332016
velocity: 0.0
doppler_bin: 8
bearing: -1.80633401871
intensity: 30.2612457275
---
header: 
  seq: 1438058
  stamp: 
    secs: 1561868459
    nsecs:  96271336
  frame_id: "ti_mmwave"
point_id: 13
x: 1.0390625
y: -0.1328125
z: -0.18359375
range: 1.13300120831
velocity: 0.614668667316
doppler_bin: 9
bearing: -7.28402376175
intensity: 23.0102996826
---
header: 
  seq: 1438059
  stamp: 
    secs: 1561868459
    nsecs:  96284669
  frame_id: "ti_mmwave"
point_id: 14
x: 1.087890625
y: -0.103515625
z: -0.154296875
range: 1.1765781641
velocity: 0.614668667316
doppler_bin: 9
bearing: -5.43547773361
intensity: 26.7760696411
---
header: 
  seq: 1438060
  stamp: 
    secs: 1561868459
    nsecs:  96297573
  frame_id: "ti_mmwave"
point_id: 15
x: 1.1328125
y: -0.107421875
z: -0.134765625
range: 1.22015523911
velocity: 0.614668667316
doppler_bin: 9
bearing: -5.41702222824
intensity: 26.8484535217
---
header: 
  seq: 1438061
  stamp: 
    secs: 1561868459
    nsecs:  96305019
  frame_id: "ti_mmwave"
point_id: 16
x: 1.173828125
y: -0.111328125
z: -0.123046875
range: 1.2637321949
velocity: 0.614668667316
doppler_bin: 9
bearing: -5.41783666611
intensity: 24.1497325897
---
header: 
  seq: 1438062
  stamp: 
    secs: 1561868459
    nsecs:  96476375
  frame_id: "ti_mmwave"
point_id: 18
x: 0.041015625
y: -0.033203125
z: 0.0625
range: 0.0871539413929
velocity: 0.0
doppler_bin: 8
bearing: -38.9909973145
intensity: 30.0902576447
---
header: 
  seq: 1438063
  stamp: 
    secs: 1561868459
    nsecs:  96496507
  frame_id: "ti_mmwave"
point_id: 19
x: 0.044921875
y: -0.046875
z: 0.103515625
range: 0.130730912089
velocity: 0.0
doppler_bin: 8
bearing: -46.218875885
intensity: 29.0036716461
---
header: 
  seq: 1438064
  stamp: 
    secs: 1561868459
    nsecs: 156083701
  frame_id: "ti_mmwave"
point_id: 0
x: 0.01171875
y: -0.0390625
z: -0.0078125
range: 0.0435769706964
velocity: 0.0
doppler_bin: 8
bearing: -73.3007583618
intensity: 30.6520614624
---
header: 
  seq: 1438065
  stamp: 
    secs: 1561868459
    nsecs: 156156689
  frame_id: "ti_mmwave"
point_id: 1
x: 0.017578125
y: -0.080078125
z: -0.0078125
range: 0.0871539413929
velocity: 0.0
doppler_bin: 8
bearing: -77.6192398071
intensity: 31.9033164978
---
header: 
  seq: 1438066
  stamp: 
    secs: 1561868459
    nsecs: 156170583
  frame_id: "ti_mmwave"
point_id: 2
x: 0.029296875
y: -0.119140625
z: -0.00390625
range: 0.130730912089
velocity: 0.0
doppler_bin: 8
bearing: -76.1849746704
intensity: 30.1157035828
---
header: 
  seq: 1438067
  stamp: 
    secs: 1561868459
    nsecs: 156181076
  frame_id: "ti_mmwave"
point_id: 3
x: 0.056640625
y: -0.154296875
z: 0.0078125
range: 0.174307882786
velocity: 0.0
doppler_bin: 8
bearing: -69.8423843384
intensity: 25.4406795502
---
header: 
  seq: 1438068
  stamp: 
    secs: 1561868459
    nsecs: 156190307
  frame_id: "ti_mmwave"
point_id: 4
x: 0.14453125
y: -0.080078125
z: 1.2578125
range: 1.35088610649
velocity: 0.0
doppler_bin: 8
bearing: -28.9888248444
intensity: 23.1175384521
---
header: 
  seq: 1438069
  stamp: 
    secs: 1561868459
    nsecs: 156199048
  frame_id: "ti_mmwave"
point_id: 5
x: 0.119140625
y: -0.08203125
z: 1.30078125
range: 1.39446306229
velocity: 0.0
doppler_bin: 8
bearing: -34.5483665466
intensity: 24.6389293671
---
header: 
  seq: 1438070
  stamp: 
    secs: 1561868459
    nsecs: 156207187
  frame_id: "ti_mmwave"
point_id: 6
x: 0.3984375
y: -0.083984375
z: -1.287109375
range: 1.43804001808
velocity: 0.0
doppler_bin: 8
bearing: -11.9028120041
intensity: 23.0749607086
---
header: 
  seq: 1438071
  stamp: 
    secs: 1561868459
    nsecs: 156218789
  frame_id: "ti_mmwave"
point_id: 7
x: 1.666015625
y: -0.158203125
z: 0.109375
range: 1.78665578365
velocity: 0.0
doppler_bin: 8
bearing: -5.42448234558
intensity: 27.8887519836
---
header: 
  seq: 1438072
  stamp: 
    secs: 1561868459
    nsecs: 156291144
  frame_id: "ti_mmwave"
point_id: 8
x: 1.71484375
y: -0.107421875
z: -0.001953125
range: 1.83023273945
velocity: 0.0
doppler_bin: 8
bearing: -3.58445930481
intensity: 30.4099769592
---
header: 
  seq: 1438073
  stamp: 
    secs: 1561868459
    nsecs: 156303167
  frame_id: "ti_mmwave"
point_id: 9
x: 2.60546875
y: -0.17578125
z: 1.0703125
range: 3.00681090355
velocity: 0.0
doppler_bin: 8
bearing: -3.85968351364
intensity: 28.8874092102
---
header: 
  seq: 1438074
  stamp: 
    secs: 1561868459
    nsecs: 156311098
  frame_id: "ti_mmwave"
point_id: 10
x: 2.689453125
y: -0.08984375
z: 0.98046875
range: 3.05038785934
velocity: 0.0
doppler_bin: 8
bearing: -1.91330885887
intensity: 32.1827278137
---
header: 
  seq: 1438075
  stamp: 
    secs: 1561868459
    nsecs: 156320062
  frame_id: "ti_mmwave"
point_id: 11
x: 2.775390625
y: -0.0
z: 0.85546875
range: 3.09396481514
velocity: 0.0
doppler_bin: 8
bearing: -0.0
intensity: 31.1494445801
---
header: 
  seq: 1438076
  stamp: 
    secs: 1561868459
    nsecs: 156327718
  frame_id: "ti_mmwave"
point_id: 12
x: 4.400390625
y: -0.142578125
z: 1.26953125
range: 4.88062095642
velocity: 0.0
doppler_bin: 8
bearing: -1.85580503941
intensity: 30.9516925812
---
header: 
  seq: 1438077
  stamp: 
    secs: 1561868459
    nsecs: 156335318
  frame_id: "ti_mmwave"
point_id: 13
x: 4.4296875
y: -0.14453125
z: 1.310546875
range: 4.9241976738
velocity: 0.0
doppler_bin: 8
bearing: -1.86877608299
intensity: 30.5842609406
---
header: 
  seq: 1438078
  stamp: 
    secs: 1561868459
    nsecs: 156342695
  frame_id: "ti_mmwave"
point_id: 14
x: 4.810546875
y: -0.154296875
z: 0.962890625
range: 5.22923660278
velocity: 0.0
doppler_bin: 8
bearing: -1.83711528778
intensity: 30.1241531372
---
header: 
  seq: 1438079
  stamp: 
    secs: 1561868459
    nsecs: 156351176
  frame_id: "ti_mmwave"
point_id: 15
x: 4.876953125
y: -0.154296875
z: 0.830078125
range: 5.27281332016
velocity: 0.0
doppler_bin: 8
bearing: -1.81211745739
intensity: 31.25806427
---
header: 
  seq: 1438080
  stamp: 
    secs: 1561868459
    nsecs: 156360259
  frame_id: "ti_mmwave"
point_id: 16
x: 4.966796875
y: -0.46875
z: 0.14453125
range: 5.31639051437
velocity: 0.0
doppler_bin: 8
bearing: -5.39141845703
intensity: 29.5230808258
---
header: 
  seq: 1438081
  stamp: 
    secs: 1561868459
    nsecs: 156368451
  frame_id: "ti_mmwave"
point_id: 17
x: 1.755859375
y: -0.109375
z: 0.01171875
range: 1.87380969524
velocity: 0.614668667316
doppler_bin: 9
bearing: -3.56443095207
intensity: 30.1619739532
---
header: 
  seq: 1438082
  stamp: 
    secs: 1561868459
    nsecs: 156378618
  frame_id: "ti_mmwave"
point_id: 18
x: 1.791015625
y: -0.16796875
z: 0.037109375
range: 1.91738677025
velocity: 0.614668667316
doppler_bin: 9
bearing: -5.35776042938
intensity: 26.4640369415
---
header: 
  seq: 1438083
  stamp: 
    secs: 1561868459
    nsecs: 156386647
  frame_id: "ti_mmwave"
point_id: 19
x: 1.083984375
y: -0.138671875
z: -0.158203125
range: 1.1765781641
velocity: 1.84400606155
doppler_bin: 11
bearing: -7.29013347626
intensity: 19.8677177429
---
header: 
  seq: 1438084
  stamp: 
    secs: 1561868459
    nsecs: 156393247
  frame_id: "ti_mmwave"
point_id: 20
x: 1.125
y: -0.142578125
z: -0.1640625
range: 1.22015523911
velocity: 1.84400606155
doppler_bin: 11
bearing: -7.22293615341
intensity: 22.8780174255
---
header: 
  seq: 1438085
  stamp: 
    secs: 1561868459
    nsecs: 156418517
  frame_id: "ti_mmwave"
point_id: 21
x: 1.166015625
y: -0.111328125
z: -0.185546875
range: 1.2637321949
velocity: 1.84400606155
doppler_bin: 11
bearing: -5.45391893387
intensity: 21.7318630219
---
header: 
  seq: 1438086
  stamp: 
    secs: 1561868459
    nsecs: 156446864
  frame_id: "ti_mmwave"
point_id: 23
x: 0.041015625
y: -0.033203125
z: 0.0625
range: 0.0871539413929
velocity: 0.0
doppler_bin: 8
bearing: -38.9909973145
intensity: 30.0902576447
---
header: 
  seq: 1438087
  stamp: 
    secs: 1561868459
    nsecs: 156462061
  frame_id: "ti_mmwave"
point_id: 24
x: 0.044921875
y: -0.046875
z: 0.103515625
range: 0.130730912089
velocity: 0.0
doppler_bin: 8
bearing: -46.218875885
intensity: 29.0036716461
---
header: 
  seq: 1438088
  stamp: 
    secs: 1561868459
    nsecs: 156478539
  frame_id: "ti_mmwave"
point_id: 26
x: 2.734375
y: -0.181640625
z: 0.9609375
range: 3.09396481514
velocity: 0.0
doppler_bin: 8
bearing: -3.80049324036
intensity: 31.1394329071
---
header: 
  seq: 1438089
  stamp: 
    secs: 1561868459
    nsecs: 157606039
  frame_id: "ti_mmwave"
point_id: 0
x: 0.01171875
y: -0.0390625
z: -0.0078125
range: 0.0435769706964
velocity: 0.0
doppler_bin: 8
bearing: -73.3007583618
intensity: 30.6483230591
---
header: 
  seq: 1438090
  stamp: 
    secs: 1561868459
    nsecs: 157670122
  frame_id: "ti_mmwave"
point_id: 1
x: 0.017578125
y: -0.080078125
z: -0.0078125
range: 0.0871539413929
velocity: 0.0
doppler_bin: 8
bearing: -77.6192398071
intensity: 31.8977088928
---
header: 
  seq: 1438091
  stamp: 
    secs: 1561868459
    nsecs: 157688039
  frame_id: "ti_mmwave"
point_id: 2
x: 0.029296875
y: -0.119140625
z: -0.00390625
range: 0.130730912089
velocity: 0.0
doppler_bin: 8
bearing: -76.1849746704
intensity: 30.1114730835
---
header: 
  seq: 1438092
  stamp: 
    secs: 1561868459
    nsecs: 157703099
  frame_id: "ti_mmwave"
point_id: 3
x: 0.056640625
y: -0.154296875
z: 0.0078125
range: 0.174307882786
velocity: 0.0
doppler_bin: 8
bearing: -69.8423843384
intensity: 25.4406795502
---
header: 
  seq: 1438093
  stamp: 
    secs: 1561868459
    nsecs: 157772759
  frame_id: "ti_mmwave"
point_id: 4
x: 0.19140625
y: -0.080078125
z: 1.251953125
range: 1.35088610649
velocity: 0.0
doppler_bin: 8
bearing: -22.7028427124
intensity: 23.0535144806
---
header: 
  seq: 1438094
  stamp: 
    secs: 1561868459
    nsecs: 157788497
  frame_id: "ti_mmwave"
point_id: 5
x: 0.103515625
y: -0.08203125
z: 1.302734375
range: 1.39446306229
velocity: 0.0
doppler_bin: 8
bearing: -38.3951644897
intensity: 24.5939254761
---
header: 
  seq: 1438095
  stamp: 
    secs: 1561868459
    nsecs: 157799884
  frame_id: "ti_mmwave"
point_id: 6
x: 0.376953125
y: -0.083984375
z: -1.29296875
range: 1.43804001808
velocity: 0.0
doppler_bin: 8
bearing: -12.5602369308
intensity: 23.0535144806
---
header: 
  seq: 1438096
  stamp: 
    secs: 1561868459
    nsecs: 157811824
  frame_id: "ti_mmwave"
point_id: 7
x: 0.525390625
y: -0.04296875
z: -1.287109375
range: 1.48161697388
velocity: 0.0
doppler_bin: 8
bearing: -4.67549467087
intensity: 21.6731739044
---
header: 
  seq: 1438097
  stamp: 
    secs: 1561868459
    nsecs: 157826118
  frame_id: "ti_mmwave"
point_id: 8
x: 1.708984375
y: -0.16015625
z: 0.068359375
range: 1.83023273945
velocity: 0.0
doppler_bin: 8
bearing: -5.35379695892
intensity: 27.4350967407
---
header: 
  seq: 1438098
  stamp: 
    secs: 1561868459
    nsecs: 157838990
  frame_id: "ti_mmwave"
point_id: 9
x: 1.751953125
y: -0.1640625
z: -0.0234375
range: 1.87380969524
velocity: 0.0
doppler_bin: 8
bearing: -5.34988880157
intensity: 27.7451705933
---
header: 
  seq: 1438099
  stamp: 
    secs: 1561868459
    nsecs: 157922338
  frame_id: "ti_mmwave"
point_id: 10
x: 2.623046875
y: -0.17578125
z: 1.02734375
range: 3.00681090355
velocity: 0.0
doppler_bin: 8
bearing: -3.83389568329
intensity: 28.9707698822
---
header: 
  seq: 1438100
  stamp: 
    secs: 1561868459
    nsecs: 157958072
  frame_id: "ti_mmwave"
point_id: 11
x: 2.662109375
y: -0.1796875
z: 1.041015625
range: 3.05038785934
velocity: 0.0
doppler_bin: 8
bearing: -3.86150240898
intensity: 32.166934967
---
header: 
  seq: 1438101
  stamp: 
    secs: 1561868459
    nsecs: 157974723
  frame_id: "ti_mmwave"
point_id: 12
x: 2.75390625
y: -0.08984375
z: 0.91796875
range: 3.09396481514
velocity: 0.0
doppler_bin: 8
bearing: -1.86856126785
intensity: 31.1859531403
---
header: 
  seq: 1438102
  stamp: 
    secs: 1561868459
    nsecs: 157990289
  frame_id: "ti_mmwave"
point_id: 13
x: 4.396484375
y: -0.142578125
z: 1.126953125
range: 4.83704376221
velocity: 0.0
doppler_bin: 8
bearing: -1.85745286942
intensity: 28.5913829803
---
header: 
  seq: 1438103
  stamp: 
    secs: 1561868459
    nsecs: 158011748
  frame_id: "ti_mmwave"
point_id: 14
x: 4.396484375
y: -0.287109375
z: 1.255859375
range: 4.88062095642
velocity: 0.0
doppler_bin: 8
bearing: -3.73635601997
intensity: 31.7840137482
---
header: 
  seq: 1438104
  stamp: 
    secs: 1561868459
    nsecs: 158060702
  frame_id: "ti_mmwave"
point_id: 15
x: 4.443359375
y: -0.14453125
z: 1.26171875
range: 4.9241976738
velocity: 0.0
doppler_bin: 8
bearing: -1.86303019524
intensity: 31.383026123
---
header: 
  seq: 1438105
  stamp: 
    secs: 1561868459
    nsecs: 158072611
  frame_id: "ti_mmwave"
point_id: 16
x: 4.90234375
y: -0.30859375
z: 0.615234375
range: 5.27281332016
velocity: 0.0
doppler_bin: 8
bearing: -3.60191392899
intensity: 30.9025802612
---
header: 
  seq: 1438106
  stamp: 
    secs: 1561868459
    nsecs: 158083229
  frame_id: "ti_mmwave"
point_id: 17
x: 4.951171875
y: -0.623046875
z: -0.0625
range: 5.31639051437
velocity: 0.0
doppler_bin: 8
bearing: -7.17230129242
intensity: 29.7312793732
---
header: 
  seq: 1438107
  stamp: 
    secs: 1561868459
    nsecs: 158096520
  frame_id: "ti_mmwave"
point_id: 18
x: 1.751953125
y: -0.1640625
z: 0.017578125
range: 1.87380969524
velocity: 0.614668667316
doppler_bin: 9
bearing: -5.34988880157
intensity: 27.5434837341
---
header: 
  seq: 1438108
  stamp: 
    secs: 1561868459
    nsecs: 158112432
  frame_id: "ti_mmwave"
point_id: 19
x: 1.798828125
y: -0.056640625
z: -0.04296875
range: 1.91738677025
velocity: 0.614668667316
doppler_bin: 9
bearing: -1.8035056591
intensity: 25.9549617767
---
header: 
  seq: 1438109
  stamp: 
    secs: 1561868459
    nsecs: 158152848
  frame_id: "ti_mmwave"
point_id: 20
x: 1.173828125
y: -0.111328125
z: -0.134765625
range: 1.2637321949
velocity: 2.45867466927
doppler_bin: 12
bearing: -5.41783666611
intensity: 21.172712326
---
header: 
  seq: 1438110
  stamp: 
    secs: 1561868459
    nsecs: 158161584
  frame_id: "ti_mmwave"
point_id: 21
x: 1.212890625
y: -0.115234375
z: -0.142578125
range: 1.3073091507
velocity: 2.45867466927
doppler_bin: 12
bearing: -5.42726945877
intensity: 23.6361198425
---
header: 
  seq: 1438111
  stamp: 
    secs: 1561868459
    nsecs: 158174077
  frame_id: "ti_mmwave"
point_id: 22
x: 1.25390625
y: -0.119140625
z: -0.15234375
range: 1.35088610649
velocity: 2.45867466927
doppler_bin: 12
bearing: -5.42769670486
intensity: 22.4303798676
---
header: 
  seq: 1438112
  stamp: 
    secs: 1561868459
    nsecs: 158190177
  frame_id: "ti_mmwave"
point_id: 24
x: 0.041015625
y: -0.033203125
z: 0.0625
range: 0.0871539413929
velocity: 0.0
doppler_bin: 8
bearing: -38.9909973145
intensity: 30.0902576447
---
header: 
  seq: 1438113
  stamp: 
    secs: 1561868459
    nsecs: 158202057
  frame_id: "ti_mmwave"
point_id: 25
x: 0.046875
y: -0.046875
z: 0.103515625
range: 0.130730912089
velocity: 0.0
doppler_bin: 8
bearing: -45.0
intensity: 29.0036716461
---
header: 
  seq: 1438114
  stamp: 
    secs: 1561868459
    nsecs: 216090572
  frame_id: "ti_mmwave"
point_id: 0
x: 0.01171875
y: -0.0390625
z: -0.0078125
range: 0.0435769706964
velocity: 0.0
doppler_bin: 8
bearing: -73.3007583618
intensity: 30.6483230591
---
header: 
  seq: 1438115
  stamp: 
    secs: 1561868459
    nsecs: 216194530
  frame_id: "ti_mmwave"
point_id: 1
x: 0.017578125
y: -0.080078125
z: -0.0078125
range: 0.0871539413929
velocity: 0.0
doppler_bin: 8
bearing: -77.6192398071
intensity: 31.9005146027
---
header: 
  seq: 1438116
  stamp: 
    secs: 1561868459
    nsecs: 216213565
  frame_id: "ti_mmwave"
point_id: 2
x: 0.029296875
y: -0.119140625
z: -0.005859375
range: 0.130730912089
velocity: 0.0
doppler_bin: 8
bearing: -76.1849746704
intensity: 30.1157035828
---
header: 
  seq: 1438117
  stamp: 
    secs: 1561868459
    nsecs: 216231650
  frame_id: "ti_mmwave"
point_id: 3
x: 0.056640625
y: -0.154296875
z: 0.005859375
range: 0.174307882786
velocity: 0.0
doppler_bin: 8
bearing: -69.8423843384
intensity: 25.4530715942
---
header: 
  seq: 1438118
  stamp: 
    secs: 1561868459
    nsecs: 216246165
  frame_id: "ti_mmwave"
point_id: 4
x: 0.154296875
y: -0.080078125
z: 1.255859375
range: 1.35088610649
velocity: 0.0
doppler_bin: 8
bearing: -27.4287414551
intensity: 23.138671875
---
header: 
  seq: 1438119
  stamp: 
    secs: 1561868459
    nsecs: 216261856
  frame_id: "ti_mmwave"
point_id: 5
x: 0.044921875
y: -0.08203125
z: 1.3046875
range: 1.39446306229
velocity: 0.0
doppler_bin: 8
bearing: -61.2940483093
intensity: 24.6389293671
---
header: 
  seq: 1438120
  stamp: 
    secs: 1561868459
    nsecs: 216275628
  frame_id: "ti_mmwave"
point_id: 6
x: 0.412109375
y: -0.083984375
z: -1.283203125
range: 1.43804001808
velocity: 0.0
doppler_bin: 8
bearing: -11.518658638
intensity: 23.0963020325
---
header: 
  seq: 1438121
  stamp: 
    secs: 1561868459
    nsecs: 216289818
  frame_id: "ti_mmwave"
point_id: 7
x: 0.56640625
y: -0.04296875
z: -1.26953125
range: 1.48161697388
velocity: 0.0
doppler_bin: 8
bearing: -4.33826684952
intensity: 21.6731739044
---
header: 
  seq: 1438122
  stamp: 
    secs: 1561868459
    nsecs: 216317658
  frame_id: "ti_mmwave"
point_id: 8
x: 2.61328125
y: -0.17578125
z: 1.052734375
range: 3.00681090355
velocity: 0.0
doppler_bin: 8
bearing: -3.84817934036
intensity: 29.0741138458
---
header: 
  seq: 1438123
  stamp: 
    secs: 1561868459
    nsecs: 216340256
  frame_id: "ti_mmwave"
point_id: 9
x: 2.6875
y: -0.08984375
z: 0.984375
range: 3.05038785934
velocity: 0.0
doppler_bin: 8
bearing: -1.91469812393
intensity: 32.2245635986
---
header: 
  seq: 1438124
  stamp: 
    secs: 1561868459
    nsecs: 216364254
  frame_id: "ti_mmwave"
point_id: 10
x: 2.751953125
y: -0.08984375
z: 0.923828125
range: 3.09396481514
velocity: 0.0
doppler_bin: 8
bearing: -1.86988639832
intensity: 31.205739975
---
header: 
  seq: 1438125
  stamp: 
    secs: 1561868459
    nsecs: 216386040
  frame_id: "ti_mmwave"
point_id: 11
x: 4.419921875
y: -0.142578125
z: 1.197265625
range: 4.88062095642
velocity: 0.0
doppler_bin: 8
bearing: -1.847610116
intensity: 31.6967449188
---
header: 
  seq: 1438126
  stamp: 
    secs: 1561868459
    nsecs: 216406619
  frame_id: "ti_mmwave"
point_id: 12
x: 4.451171875
y: -0.2890625
z: 1.2109375
range: 4.9241976738
velocity: 0.0
doppler_bin: 8
bearing: -3.71561431885
intensity: 31.3161869049
---
header: 
  seq: 1438127
  stamp: 
    secs: 1561868459
    nsecs: 216427950
  frame_id: "ti_mmwave"
point_id: 13
x: 1.798828125
y: -0.056640625
z: 0.048828125
range: 1.91738677025
velocity: 0.614668667316
doppler_bin: 9
bearing: -1.8035056591
intensity: 25.9549617767
---
header: 
  seq: 1438128
  stamp: 
    secs: 1561868459
    nsecs: 216449385
  frame_id: "ti_mmwave"
point_id: 14
x: 1.24609375
y: -0.119140625
z: -0.201171875
range: 1.35088610649
velocity: 2.45867466927
doppler_bin: 12
bearing: -5.46152114868
intensity: 20.6818580627
---
header: 
  seq: 1438129
  stamp: 
    secs: 1561868459
    nsecs: 216470615
  frame_id: "ti_mmwave"
point_id: 15
x: 1.2890625
y: -0.08203125
z: -0.2109375
range: 1.39446306229
velocity: 2.45867466927
doppler_bin: 12
bearing: -3.64118528366
intensity: 22.7875366211
---
header: 
  seq: 1438130
  stamp: 
    secs: 1561868459
    nsecs: 216493234
  frame_id: "ti_mmwave"
point_id: 16
x: 1.3203125
y: -0.126953125
z: -0.251953125
range: 1.43804001808
velocity: 2.45867466927
doppler_bin: 12
bearing: -5.49232435226
intensity: 21.3672065735
---
header: 
  seq: 1438131
  stamp: 
    secs: 1561868459
    nsecs: 216595697
  frame_id: "ti_mmwave"
point_id: 18
x: 0.041015625
y: -0.033203125
z: 0.0625
range: 0.0871539413929
velocity: 0.0
doppler_bin: 8
bearing: -38.9909973145
intensity: 30.0902576447
---
header: 
  seq: 1438132
  stamp: 
    secs: 1561868459
    nsecs: 216611166
  frame_id: "ti_mmwave"
point_id: 19
x: 0.044921875
y: -0.046875
z: 0.103515625
range: 0.130730912089
velocity: 0.0
doppler_bin: 8
bearing: -46.218875885
intensity: 29.0091304779
---
header: 
  seq: 1438133
  stamp: 
    secs: 1561868459
    nsecs: 217689756
  frame_id: "ti_mmwave"
point_id: 0
x: 0.01171875
y: -0.0390625
z: -0.0078125
range: 0.0435769706964
velocity: 0.0
doppler_bin: 8
bearing: -73.3007583618
intensity: 30.6483230591
---
header: 
  seq: 1438134
  stamp: 
    secs: 1561868459
    nsecs: 217728611
  frame_id: "ti_mmwave"
point_id: 1
x: 0.017578125
y: -0.080078125
z: -0.0078125
range: 0.0871539413929
velocity: 0.0
doppler_bin: 8
bearing: -77.6192398071
intensity: 31.9005146027
---
header: 
  seq: 1438135
  stamp: 
    secs: 1561868459
    nsecs: 217739298
  frame_id: "ti_mmwave"
point_id: 2
x: 0.029296875
y: -0.119140625
z: -0.005859375
range: 0.130730912089
velocity: 0.0
doppler_bin: 8
bearing: -76.1849746704
intensity: 30.1157035828
---
header: 
  seq: 1438136
  stamp: 
    secs: 1561868459
    nsecs: 217748398
  frame_id: "ti_mmwave"
point_id: 3
x: 0.056640625
y: -0.154296875
z: 0.005859375
range: 0.174307882786
velocity: 0.0
doppler_bin: 8
bearing: -69.8423843384
intensity: 25.4406795502
---
header: 
  seq: 1438137
  stamp: 
    secs: 1561868459
    nsecs: 217757494
  frame_id: "ti_mmwave"
point_id: 4
x: 0.162109375
y: -0.080078125
z: 1.255859375
range: 1.35088610649
velocity: 0.0
doppler_bin: 8
bearing: -26.2882633209
intensity: 23.0963020325
---
header: 
  seq: 1438138
  stamp: 
    secs: 1561868459
    nsecs: 217768628
  frame_id: "ti_mmwave"
point_id: 6
x: 0.4375
y: -0.083984375
z: -1.2734375
range: 1.43804001808
velocity: 0.0
doppler_bin: 8
bearing: -10.8665513992
intensity: 23.0749607086
---
header: 
  seq: 1438139
  stamp: 
    secs: 1561868459
    nsecs: 217777298
  frame_id: "ti_mmwave"
point_id: 7
x: 0.599609375
y: -0.04296875
z: -1.25390625
range: 1.48161697388
velocity: 0.0
doppler_bin: 8
bearing: -4.09887981415
intensity: 21.6731739044
---
header: 
  seq: 1438140
  stamp: 
    secs: 1561868459
    nsecs: 217845350
  frame_id: "ti_mmwave"
point_id: 8
x: 2.66015625
y: -0.1796875
z: 1.044921875
range: 3.05038785934
velocity: 0.0
doppler_bin: 8
bearing: -3.86432933807
intensity: 32.1165428162
---
header: 
  seq: 1438141
  stamp: 
    secs: 1561868459
    nsecs: 217856336
  frame_id: "ti_mmwave"
point_id: 9
x: 2.755859375
y: -0.08984375
z: 0.9140625
range: 3.09396481514
velocity: 0.0
doppler_bin: 8
bearing: -1.86723792553
intensity: 31.1260509491
---
header: 
  seq: 1438142
  stamp: 
    secs: 1561868459
    nsecs: 217865807
  frame_id: "ti_mmwave"
point_id: 10
x: 4.416015625
y: -0.142578125
z: 1.212890625
range: 4.88062095642
velocity: 0.0
doppler_bin: 8
bearing: -1.84924340248
intensity: 28.9927310944
---
header: 
  seq: 1438143
  stamp: 
    secs: 1561868459
    nsecs: 217873395
  frame_id: "ti_mmwave"
point_id: 11
x: 4.451171875
y: -0.14453125
z: 1.240234375
range: 4.9241976738
velocity: 0.0
doppler_bin: 8
bearing: -1.8597625494
intensity: 28.7390155792
---
header: 
  seq: 1438144
  stamp: 
    secs: 1561868459
    nsecs: 217880927
  frame_id: "ti_mmwave"
point_id: 12
x: 1.716796875
y: -0.052734375
z: -0.02734375
range: 1.83023273945
velocity: 0.614668667316
doppler_bin: 9
bearing: -1.75938534737
intensity: 28.1624126434
---
header: 
  seq: 1438145
  stamp: 
    secs: 1561868459
    nsecs: 217888697
  frame_id: "ti_mmwave"
point_id: 13
x: 1.755859375
y: -0.0546875
z: -0.072265625
range: 1.87380969524
velocity: 0.614668667316
doppler_bin: 9
bearing: -1.78394150734
intensity: 29.4890174866
---
header: 
  seq: 1438146
  stamp: 
    secs: 1561868459
    nsecs: 217895954
  frame_id: "ti_mmwave"
point_id: 14
x: 1.79296875
y: -0.0
z: -0.154296875
range: 1.91738677025
velocity: 0.614668667316
doppler_bin: 9
bearing: -0.0
intensity: 28.3058872223
---
header: 
  seq: 1438147
  stamp: 
    secs: 1561868459
    nsecs: 217903651
  frame_id: "ti_mmwave"
point_id: 15
x: 0.603515625
y: -2.41796875
z: -0.140625
range: 2.65819525719
velocity: 0.614668667316
doppler_bin: 9
bearing: -75.9855422974
intensity: 25.1188335419
---
header: 
  seq: 1438148
  stamp: 
    secs: 1561868459
    nsecs: 217912849
  frame_id: "ti_mmwave"
point_id: 16
x: 0.6015625
y: -2.45703125
z: -0.181640625
range: 2.70177221298
velocity: 0.614668667316
doppler_bin: 9
bearing: -76.2427215576
intensity: 25.9988307953
---
header: 
  seq: 1438149
  stamp: 
    secs: 1561868459
    nsecs: 217922099
  frame_id: "ti_mmwave"
point_id: 18
x: 1.3671875
y: -0.087890625
z: -0.236328125
range: 1.48161697388
velocity: 2.45867466927
doppler_bin: 12
bearing: -3.67823863029
intensity: 20.6445808411
---
header: 
  seq: 1438150
  stamp: 
    secs: 1561868459
    nsecs: 217933135
  frame_id: "ti_mmwave"
point_id: 20
x: 0.041015625
y: -0.033203125
z: 0.0625
range: 0.0871539413929
velocity: 0.0
doppler_bin: 8
bearing: -38.9909973145
intensity: 30.0860023499
---
header: 
  seq: 1438151
  stamp: 
    secs: 1561868459
    nsecs: 217940904
  frame_id: "ti_mmwave"
point_id: 21
x: 0.044921875
y: -0.046875
z: 0.103515625
range: 0.130730912089
velocity: 0.0
doppler_bin: 8
bearing: -46.218875885
intensity: 29.0036716461
---
header: 
  seq: 1438152
  stamp: 
    secs: 1561868459
    nsecs: 217952575
  frame_id: "ti_mmwave"
point_id: 24
x: 2.521484375
y: 0.23828125
z: 0.134765625
range: 2.70177221298
velocity: 0.614668667316
doppler_bin: 9
bearing: 5.3984413147
intensity: 24.5024909973
---
header: 
  seq: 1438153
  stamp: 
    secs: 1561868459
    nsecs: 218012796
  frame_id: "ti_mmwave"
point_id: 25
x: 2.54296875
y: 0.40234375
z: 0.09765625
range: 2.74534916878
velocity: 0.614668667316
doppler_bin: 9
bearing: 8.99070453644
intensity: 22.9225616455
---
header: 
  seq: 1438154
  stamp: 
    secs: 1561868459
    nsecs: 276177976
  frame_id: "ti_mmwave"
point_id: 0
x: 0.01171875
y: -0.0390625
z: -0.0078125
range: 0.0435769706964
velocity: 0.0
doppler_bin: 8
bearing: -73.3007583618
intensity: 30.6445808411
---
header: 
  seq: 1438155
  stamp: 
    secs: 1561868459
    nsecs: 276252996
  frame_id: "ti_mmwave"
point_id: 1
x: 0.017578125
y: -0.080078125
z: -0.0078125
range: 0.0871539413929
velocity: 0.0
doppler_bin: 8
bearing: -77.6192398071
intensity: 31.8977088928
---
header: 
  seq: 1438156
  stamp: 
    secs: 1561868459
    nsecs: 276265438
  frame_id: "ti_mmwave"
point_id: 2
x: 0.029296875
y: -0.119140625
z: -0.005859375
range: 0.130730912089
velocity: 0.0
doppler_bin: 8
bearing: -76.1849746704
intensity: 30.1114730835
---
header: 
  seq: 1438157
  stamp: 
    secs: 1561868459
    nsecs: 276274121
  frame_id: "ti_mmwave"
point_id: 3
x: 0.056640625
y: -0.154296875
z: 0.0078125
range: 0.174307882786
velocity: 0.0
doppler_bin: 8
bearing: -69.8423843384
intensity: 25.4406795502
---
header: 
  seq: 1438158
  stamp: 
    secs: 1561868459
    nsecs: 276282688
  frame_id: "ti_mmwave"
point_id: 4
x: 0.123046875
y: -0.080078125
z: 1.259765625
range: 1.35088610649
velocity: 0.0
doppler_bin: 8
bearing: -33.0558242798
intensity: 23.0963020325
---
header: 
  seq: 1438159
  stamp: 
    secs: 1561868459
    nsecs: 276294563
  frame_id: "ti_mmwave"
point_id: 6
x: 0.408203125
y: -0.083984375
z: -1.283203125
range: 1.43804001808
velocity: 0.0
doppler_bin: 8
bearing: -11.6258993149
intensity: 23.0749607086
---
header: 
  seq: 1438160
  stamp: 
    secs: 1561868459
    nsecs: 276306406
  frame_id: "ti_mmwave"
point_id: 7
x: 0.541015625
y: -0.04296875
z: -1.28125
range: 1.48161697388
velocity: 0.0
doppler_bin: 8
bearing: -4.54103565216
intensity: 21.7026176453
---
header: 
  seq: 1438161
  stamp: 
    secs: 1561868459
    nsecs: 276318646
  frame_id: "ti_mmwave"
point_id: 8
x: 2.611328125
y: -0.17578125
z: 1.05859375
range: 3.00681090355
velocity: 0.0
doppler_bin: 8
bearing: -3.85104894638
intensity: 28.9817657471
---
header: 
  seq: 1438162
  stamp: 
    secs: 1561868459
    nsecs: 276331217
  frame_id: "ti_mmwave"
point_id: 9
x: 2.6875
y: -0.08984375
z: 0.982421875
range: 3.05038785934
velocity: 0.0
doppler_bin: 8
bearing: -1.91469812393
intensity: 32.2036972046
---
header: 
  seq: 1438163
  stamp: 
    secs: 1561868459
    nsecs: 276339838
  frame_id: "ti_mmwave"
point_id: 10
x: 2.76953125
y: -0.0
z: 0.873046875
range: 3.09396481514
velocity: 0.0
doppler_bin: 8
bearing: -0.0
intensity: 31.2188796997
---
header: 
  seq: 1438164
  stamp: 
    secs: 1561868459
    nsecs: 276349817
  frame_id: "ti_mmwave"
point_id: 11
x: 1.712890625
y: -0.052734375
z: 0.119140625
range: 1.83023273945
velocity: 0.614668667316
doppler_bin: 9
bearing: -1.76339519024
intensity: 29.7127590179
---
header: 
  seq: 1438165
  stamp: 
    secs: 1561868459
    nsecs: 276358134
  frame_id: "ti_mmwave"
point_id: 12
x: 1.7578125
y: -0.0
z: 0.072265625
range: 1.87380969524
velocity: 0.614668667316
doppler_bin: 9
bearing: -0.0
intensity: 31.6908626556
---
header: 
  seq: 1438166
  stamp: 
    secs: 1561868459
    nsecs: 276368614
  frame_id: "ti_mmwave"
point_id: 13
x: 1.80078125
y: -0.0
z: 0.00390625
range: 1.91738677025
velocity: 0.614668667316
doppler_bin: 9
bearing: -0.0
intensity: 29.9738636017
---
header: 
  seq: 1438167
  stamp: 
    secs: 1561868459
    nsecs: 276376722
  frame_id: "ti_mmwave"
point_id: 14
x: 0.62890625
y: -2.45703125
z: -0.001953125
range: 2.70177221298
velocity: 0.614668667316
doppler_bin: 9
bearing: -75.6427230835
intensity: 24.8144264221
---
header: 
  seq: 1438168
  stamp: 
    secs: 1561868459
    nsecs: 276388762
  frame_id: "ti_mmwave"
point_id: 16
x: 0.041015625
y: -0.033203125
z: 0.0625
range: 0.0871539413929
velocity: 0.0
doppler_bin: 8
bearing: -38.9909973145
intensity: 30.0902576447
---
header: 
  seq: 1438169
  stamp: 
    secs: 1561868459
    nsecs: 276400984
  frame_id: "ti_mmwave"
point_id: 17
x: 0.044921875
y: -0.046875
z: 0.103515625
range: 0.130730912089
velocity: 0.0
doppler_bin: 8
bearing: -46.218875885
intensity: 29.0091304779
---
header: 
  seq: 1438170
  stamp: 
    secs: 1561868459
    nsecs: 276415725
  frame_id: "ti_mmwave"
point_id: 19
x: 2.728515625
y: -0.181640625
z: 0.978515625
range: 3.09396481514
velocity: 0.0
doppler_bin: 8
bearing: -3.80863046646
intensity: 31.2155990601
---
header: 
  seq: 1438171
  stamp: 
    secs: 1561868459
    nsecs: 277473683
  frame_id: "ti_mmwave"
point_id: 0
x: 0.01171875
y: -0.0390625
z: -0.0078125
range: 0.0435769706964
velocity: 0.0
doppler_bin: 8
bearing: -73.3007583618
intensity: 30.6445808411
---
header: 
  seq: 1438172
  stamp: 
    secs: 1561868459
    nsecs: 277541646
  frame_id: "ti_mmwave"
point_id: 1
x: 0.017578125
y: -0.080078125
z: -0.0078125
range: 0.0871539413929
velocity: 0.0
doppler_bin: 8
bearing: -77.6192398071
intensity: 31.9005146027
---
header: 
  seq: 1438173
  stamp: 
    secs: 1561868459
    nsecs: 277560122
  frame_id: "ti_mmwave"
point_id: 2
x: 0.029296875
y: -0.119140625
z: -0.005859375
range: 0.130730912089
velocity: 0.0
doppler_bin: 8
bearing: -76.1849746704
intensity: 30.1199302673
---
header: 
  seq: 1438174
  stamp: 
    secs: 1561868459
    nsecs: 277572443
  frame_id: "ti_mmwave"
point_id: 3
x: 0.056640625
y: -0.154296875
z: 0.0078125
range: 0.174307882786
velocity: 0.0
doppler_bin: 8
bearing: -69.8423843384
intensity: 25.4530715942
---
header: 
  seq: 1438175
  stamp: 
    secs: 1561868459
    nsecs: 277650963
  frame_id: "ti_mmwave"
point_id: 4
x: 0.162109375
y: -0.080078125
z: 1.255859375
range: 1.35088610649
velocity: 0.0
doppler_bin: 8
bearing: -26.2882633209
intensity: 23.1175384521
---
header: 
  seq: 1438176
  stamp: 
    secs: 1561868459
    nsecs: 277668365
  frame_id: "ti_mmwave"
point_id: 5
x: 0.07421875
y: -0.08203125
z: 1.3046875
range: 1.39446306229
velocity: 0.0
doppler_bin: 8
bearing: -47.8624038696
intensity: 24.6239795685
---
header: 
  seq: 1438177
  stamp: 
    secs: 1561868459
    nsecs: 277680331
  frame_id: "ti_mmwave"
point_id: 6
x: 0.392578125
y: -0.083984375
z: -1.2890625
range: 1.43804001808
velocity: 0.0
doppler_bin: 8
bearing: -12.0752887726
intensity: 23.0535144806
---
header: 
  seq: 1438178
  stamp: 
    secs: 1561868459
    nsecs: 277692081
  frame_id: "ti_mmwave"
point_id: 7
x: 0.546875
y: -0.04296875
z: -1.27734375
range: 1.48161697388
velocity: 0.0
doppler_bin: 8
bearing: -4.49258184433
intensity: 21.6731739044
---
header: 
  seq: 1438179
  stamp: 
    secs: 1561868459
    nsecs: 277706717
  frame_id: "ti_mmwave"
point_id: 8
x: 2.611328125
y: -0.17578125
z: 1.05859375
range: 3.00681090355
velocity: 0.0
doppler_bin: 8
bearing: -3.85104894638
intensity: 29.0741138458
---
header: 
  seq: 1438180
  stamp: 
    secs: 1561868459
    nsecs: 277730512
  frame_id: "ti_mmwave"
point_id: 9
x: 2.685546875
y: -0.08984375
z: 0.990234375
range: 3.05038785934
velocity: 0.0
doppler_bin: 8
bearing: -1.91608965397
intensity: 32.156375885
---
header: 
  seq: 1438181
  stamp: 
    secs: 1561868459
    nsecs: 277749546
  frame_id: "ti_mmwave"
point_id: 10
x: 2.7421875
y: -0.08984375
z: 0.953125
range: 3.09396481514
velocity: 0.0
doppler_bin: 8
bearing: -1.87654089928
intensity: 31.1693973541
---
header: 
  seq: 1438182
  stamp: 
    secs: 1561868459
    nsecs: 277767729
  frame_id: "ti_mmwave"
point_id: 11
x: 1.712890625
y: 0.107421875
z: 0.0546875
range: 1.83023273945
velocity: 1.22933733463
doppler_bin: 10
bearing: 3.58853602409
intensity: 24.6538276672
---
header: 
  seq: 1438183
  stamp: 
    secs: 1561868459
    nsecs: 277785996
  frame_id: "ti_mmwave"
point_id: 12
x: 1.75
y: 0.1640625
z: 0.078125
range: 1.87380969524
velocity: 1.22933733463
doppler_bin: 10
bearing: 5.35582494736
intensity: 27.5815467834
---
header: 
  seq: 1438184
  stamp: 
    secs: 1561868459
    nsecs: 277804005
  frame_id: "ti_mmwave"
point_id: 13
x: 1.79296875
y: 0.11328125
z: 0.107421875
range: 1.91738677025
velocity: 1.22933733463
doppler_bin: 10
bearing: 3.61518931389
intensity: 26.9196510315
---
header: 
  seq: 1438185
  stamp: 
    secs: 1561868459
    nsecs: 277823260
  frame_id: "ti_mmwave"
point_id: 14
x: 1.8359375
y: 0.115234375
z: 0.083984375
range: 1.96096372604
velocity: 1.22933733463
doppler_bin: 10
bearing: 3.59151291847
intensity: 23.7291202545
---
header: 
  seq: 1438186
  stamp: 
    secs: 1561868459
    nsecs: 277907294
  frame_id: "ti_mmwave"
point_id: 16
x: 0.041015625
y: -0.033203125
z: 0.0625
range: 0.0871539413929
velocity: 0.0
doppler_bin: 8
bearing: -38.9909973145
intensity: 30.081741333
---
header: 
  seq: 1438187
  stamp: 
    secs: 1561868459
    nsecs: 277925276
  frame_id: "ti_mmwave"
point_id: 17
x: 0.044921875
y: -0.046875
z: 0.103515625
range: 0.130730912089
velocity: 0.0
doppler_bin: 8
bearing: -46.218875885
intensity: 29.0036716461
---
header: 
  seq: 1438188
  stamp: 
    secs: 1561868459
    nsecs: 336240764
  frame_id: "ti_mmwave"
point_id: 0
x: 0.01171875
y: -0.0390625
z: -0.0078125
range: 0.0435769706964
velocity: 0.0
doppler_bin: 8
bearing: -73.3007583618
intensity: 30.6483230591
---
header: 
  seq: 1438189
  stamp: 
    secs: 1561868459
    nsecs: 336329381
  frame_id: "ti_mmwave"
point_id: 1
x: 0.017578125
y: -0.080078125
z: -0.0078125
range: 0.0871539413929
velocity: 0.0
doppler_bin: 8
bearing: -77.6192398071
intensity: 31.9033164978
---
header: 
  seq: 1438190
  stamp: 
    secs: 1561868459
    nsecs: 336351711
  frame_id: "ti_mmwave"
point_id: 2
x: 0.029296875
y: -0.119140625
z: -0.005859375
range: 0.130730912089
velocity: 0.0
doppler_bin: 8
bearing: -76.1849746704
intensity: 30.1157035828
---
header: 
  seq: 1438191
  stamp: 
    secs: 1561868459
    nsecs: 336365344
  frame_id: "ti_mmwave"
point_id: 3
x: 0.056640625
y: -0.154296875
z: 0.0078125
range: 0.174307882786
velocity: 0.0
doppler_bin: 8
bearing: -69.8423843384
intensity: 25.4530715942
---
header: 
  seq: 1438192
  stamp: 
    secs: 1561868459
    nsecs: 336465370
  frame_id: "ti_mmwave"
point_id: 4
x: 0.134765625
y: -0.080078125
z: 1.2578125
range: 1.35088610649
velocity: 0.0
doppler_bin: 8
bearing: -30.7189025879
intensity: 23.0963020325
---
header: 
  seq: 1438193
  stamp: 
    secs: 1561868459
    nsecs: 336485996
  frame_id: "ti_mmwave"
point_id: 6
x: 0.4375
y: -0.083984375
z: -1.2734375
range: 1.43804001808
velocity: 0.0
doppler_bin: 8
bearing: -10.8665513992
intensity: 23.0535144806
---
header: 
  seq: 1438194
  stamp: 
    secs: 1561868459
    nsecs: 336500802
  frame_id: "ti_mmwave"
point_id: 7
x: 0.58203125
y: -0.04296875
z: -1.263671875
range: 1.48161697388
velocity: 0.0
doppler_bin: 8
bearing: -4.22222995758
intensity: 21.6435279846
---
header: 
  seq: 1438195
  stamp: 
    secs: 1561868459
    nsecs: 336513219
  frame_id: "ti_mmwave"
point_id: 8
x: 1.78515625
y: -0.056640625
z: -0.21484375
range: 1.91738677025
velocity: 0.0
doppler_bin: 8
bearing: -1.81730902195
intensity: 27.9379043579
---
header: 
  seq: 1438196
  stamp: 
    secs: 1561868459
    nsecs: 336524657
  frame_id: "ti_mmwave"
point_id: 9
x: 2.619140625
y: -0.17578125
z: 1.03515625
range: 3.00681090355
velocity: 0.0
doppler_bin: 8
bearing: -3.83959650993
intensity: 28.9431610107
---
header: 
  seq: 1438197
  stamp: 
    secs: 1561868459
    nsecs: 336536128
  frame_id: "ti_mmwave"
point_id: 10
x: 2.689453125
y: -0.08984375
z: 0.98046875
range: 3.05038785934
velocity: 0.0
doppler_bin: 8
bearing: -1.91330885887
intensity: 32.1722068787
---
header: 
  seq: 1438198
  stamp: 
    secs: 1561868459
    nsecs: 336548105
  frame_id: "ti_mmwave"
point_id: 11
x: 2.751953125
y: -0.08984375
z: 0.923828125
range: 3.09396481514
velocity: 0.0
doppler_bin: 8
bearing: -1.86988639832
intensity: 31.1991539001
---
header: 
  seq: 1438199
  stamp: 
    secs: 1561868459
    nsecs: 336562273
  frame_id: "ti_mmwave"
point_id: 12
x: 1.837890625
y: -0.0
z: -0.119140625
range: 1.96096372604
velocity: 0.614668667316
doppler_bin: 9
bearing: -0.0
intensity: 28.9153747559
---
header: 
  seq: 1438200
  stamp: 
    secs: 1561868459
    nsecs: 336579307
  frame_id: "ti_mmwave"
point_id: 13
x: 1.880859375
y: -0.0
z: -0.0546875
range: 2.00454068184
velocity: 0.614668667316
doppler_bin: 9
bearing: -0.0
intensity: 27.4741172791
---
header: 
  seq: 1438201
  stamp: 
    secs: 1561868459
    nsecs: 336649235
  frame_id: "ti_mmwave"
point_id: 14
x: 1.755859375
y: 0.109375
z: 0.001953125
range: 1.87380969524
velocity: 1.22933733463
doppler_bin: 10
bearing: 3.56443095207
intensity: 25.6584777832
---
header: 
  seq: 1438202
  stamp: 
    secs: 1561868459
    nsecs: 336670115
  frame_id: "ti_mmwave"
point_id: 15
x: 1.794921875
y: 0.11328125
z: -0.09375
range: 1.91738677025
velocity: 1.22933733463
doppler_bin: 10
bearing: 3.61126613617
intensity: 28.3314704895
---
header: 
  seq: 1438203
  stamp: 
    secs: 1561868459
    nsecs: 336683313
  frame_id: "ti_mmwave"
point_id: 16
x: 1.83203125
y: 0.171875
z: -0.005859375
range: 1.96096372604
velocity: 1.84400606155
doppler_bin: 11
bearing: 5.35960912704
intensity: 27.3719272614
---
header: 
  seq: 1438204
  stamp: 
    secs: 1561868459
    nsecs: 336695135
  frame_id: "ti_mmwave"
point_id: 17
x: 1.873046875
y: 0.17578125
z: -0.017578125
range: 2.00454068184
velocity: 1.84400606155
doppler_bin: 11
bearing: 5.36137771606
intensity: 24.0823993683
---
header: 
  seq: 1438205
  stamp: 
    secs: 1561868459
    nsecs: 336709769
  frame_id: "ti_mmwave"
point_id: 19
x: 0.041015625
y: -0.033203125
z: 0.0625
range: 0.0871539413929
velocity: 0.0
doppler_bin: 8
bearing: -38.9909973145
intensity: 30.0860023499
---
header: 
  seq: 1438206
  stamp: 
    secs: 1561868459
    nsecs: 336721745
  frame_id: "ti_mmwave"
point_id: 20
x: 0.044921875
y: -0.046875
z: 0.103515625
range: 0.130730912089
velocity: 0.0
doppler_bin: 8
bearing: -46.218875885
intensity: 29.0036716461
---
header: 
  seq: 1438207
  stamp: 
    secs: 1561868459
    nsecs: 337509723
  frame_id: "ti_mmwave"
point_id: 0
x: 0.01171875
y: -0.0390625
z: -0.0078125
range: 0.0435769706964
velocity: 0.0
doppler_bin: 8
bearing: -73.3007583618
intensity: 30.6483230591
---
header: 
  seq: 1438208
  stamp: 
    secs: 1561868459
    nsecs: 337557688
  frame_id: "ti_mmwave"
point_id: 1
x: 0.017578125
y: -0.080078125
z: -0.0078125
range: 0.0871539413929
velocity: 0.0
doppler_bin: 8
bearing: -77.6192398071
intensity: 31.9005146027
---
header: 
  seq: 1438209
  stamp: 
    secs: 1561868459
    nsecs: 337574831
  frame_id: "ti_mmwave"
point_id: 2
x: 0.029296875
y: -0.119140625
z: -0.005859375
range: 0.130730912089
velocity: 0.0
doppler_bin: 8
bearing: -76.1849746704
intensity: 30.1199302673
---
header: 
  seq: 1438210
  stamp: 
    secs: 1561868459
    nsecs: 337594969
  frame_id: "ti_mmwave"
point_id: 3
x: 0.056640625
y: -0.154296875
z: 0.0078125
range: 0.174307882786
velocity: 0.0
doppler_bin: 8
bearing: -69.8423843384
intensity: 25.4530715942
---
header: 
  seq: 1438211
  stamp: 
    secs: 1561868459
    nsecs: 337688826
  frame_id: "ti_mmwave"
point_id: 4
x: 0.15625
y: -0.080078125
z: 1.255859375
range: 1.35088610649
velocity: 0.0
doppler_bin: 8
bearing: -27.1351394653
intensity: 23.1175384521
---
header: 
  seq: 1438212
  stamp: 
    secs: 1561868459
    nsecs: 337720585
  frame_id: "ti_mmwave"
point_id: 6
x: 0.41796875
y: -0.083984375
z: -1.28125
range: 1.43804001808
velocity: 0.0
doppler_bin: 8
bearing: -11.3614110947
intensity: 23.0749607086
---
header: 
  seq: 1438213
  stamp: 
    secs: 1561868459
    nsecs: 337789499
  frame_id: "ti_mmwave"
point_id: 7
x: 0.55078125
y: -0.04296875
z: -1.275390625
range: 1.48161697388
velocity: 0.0
doppler_bin: 8
bearing: -4.46084880829
intensity: 21.6731739044
---
header: 
  seq: 1438214
  stamp: 
    secs: 1561868459
    nsecs: 337815745
  frame_id: "ti_mmwave"
point_id: 8
x: 2.615234375
y: -0.17578125
z: 1.046875
range: 3.00681090355
velocity: 0.0
doppler_bin: 8
bearing: -3.84531402588
intensity: 28.9982051849
---
header: 
  seq: 1438215
  stamp: 
    secs: 1561868459
    nsecs: 337828761
  frame_id: "ti_mmwave"
point_id: 9
x: 2.662109375
y: -0.1796875
z: 1.0390625
range: 3.05038785934
velocity: 0.0
doppler_bin: 8
bearing: -3.86150240898
intensity: 32.2115325928
---
header: 
  seq: 1438216
  stamp: 
    secs: 1561868459
    nsecs: 337837556
  frame_id: "ti_mmwave"
point_id: 10
x: 2.759765625
y: -0.08984375
z: 0.90234375
range: 3.09396481514
velocity: 0.0
doppler_bin: 8
bearing: -1.86459684372
intensity: 31.1991539001
---
header: 
  seq: 1438217
  stamp: 
    secs: 1561868459
    nsecs: 337889201
  frame_id: "ti_mmwave"
point_id: 11
x: 1.78515625
y: 0.056640625
z: -0.228515625
range: 1.91738677025
velocity: 0.614668667316
doppler_bin: 9
bearing: 1.81730902195
intensity: 29.8136558533
---
header: 
  seq: 1438218
  stamp: 
    secs: 1561868459
    nsecs: 337901061
  frame_id: "ti_mmwave"
point_id: 12
x: 1.822265625
y: 0.056640625
z: -0.259765625
range: 1.96096372604
velocity: 0.614668667316
doppler_bin: 9
bearing: 1.78032457829
intensity: 32.3678894043
---
header: 
  seq: 1438219
  stamp: 
    secs: 1561868459
    nsecs: 337941912
  frame_id: "ti_mmwave"
point_id: 13
x: 1.857421875
y: 0.05859375
z: -0.298828125
range: 2.00454068184
velocity: 0.614668667316
doppler_bin: 9
bearing: 1.80683863163
intensity: 31.3861846924
---
header: 
  seq: 1438220
  stamp: 
    secs: 1561868459
    nsecs: 337954682
  frame_id: "ti_mmwave"
point_id: 14
x: 1.875
y: 0.060546875
z: -0.423828125
range: 2.04811763763
velocity: 0.614668667316
doppler_bin: 9
bearing: 1.84953343868
intensity: 26.6931686401
---
header: 
  seq: 1438221
  stamp: 
    secs: 1561868459
    nsecs: 337964949
  frame_id: "ti_mmwave"
point_id: 16
x: 0.041015625
y: -0.033203125
z: 0.0625
range: 0.0871539413929
velocity: 0.0
doppler_bin: 8
bearing: -38.9909973145
intensity: 30.0902576447
---
header: 
  seq: 1438222
  stamp: 
    secs: 1561868459
    nsecs: 337973160
  frame_id: "ti_mmwave"
point_id: 17
x: 0.044921875
y: -0.046875
z: 0.103515625
range: 0.130730912089
velocity: 0.0
doppler_bin: 8
bearing: -46.218875885
intensity: 29.0036716461
---
header: 
  seq: 1438223
  stamp: 
    secs: 1561868459
    nsecs: 396130325
  frame_id: "ti_mmwave"
point_id: 0
x: 0.01171875
y: -0.0390625
z: -0.0078125
range: 0.0435769706964
velocity: 0.0
doppler_bin: 8
bearing: -73.3007583618
intensity: 30.6557979584
---
header: 
  seq: 1438224
  stamp: 
    secs: 1561868459
    nsecs: 396214424
  frame_id: "ti_mmwave"
point_id: 1
x: 0.017578125
y: -0.080078125
z: -0.0078125
range: 0.0871539413929
velocity: 0.0
doppler_bin: 8
bearing: -77.6192398071
intensity: 31.9033164978
---
header: 
  seq: 1438225
  stamp: 
    secs: 1561868459
    nsecs: 396227236
  frame_id: "ti_mmwave"
point_id: 2
x: 0.029296875
y: -0.119140625
z: -0.005859375
range: 0.130730912089
velocity: 0.0
doppler_bin: 8
bearing: -76.1849746704
intensity: 30.1157035828
---
header: 
  seq: 1438226
  stamp: 
    secs: 1561868459
    nsecs: 396237462
  frame_id: "ti_mmwave"
point_id: 3
x: 0.056640625
y: -0.154296875
z: 0.0078125
range: 0.174307882786
velocity: 0.0
doppler_bin: 8
bearing: -69.8423843384
intensity: 25.4530715942
---
header: 
  seq: 1438227
  stamp: 
    secs: 1561868459
    nsecs: 396246243
  frame_id: "ti_mmwave"
point_id: 4
x: 0.11328125
y: -0.080078125
z: 1.259765625
range: 1.35088610649
velocity: 0.0
doppler_bin: 8
bearing: -35.2563591003
intensity: 23.1175384521
---
header: 
  seq: 1438228
  stamp: 
    secs: 1561868459
    nsecs: 396256303
  frame_id: "ti_mmwave"
point_id: 6
x: 0.4140625
y: -0.083984375
z: -1.28125
range: 1.43804001808
velocity: 0.0
doppler_bin: 8
bearing: -11.4657688141
intensity: 23.0749607086
---
header: 
  seq: 1438229
  stamp: 
    secs: 1561868459
    nsecs: 396264308
  frame_id: "ti_mmwave"
point_id: 7
x: 0.552734375
y: -0.04296875
z: -1.275390625
range: 1.48161697388
velocity: 0.0
doppler_bin: 8
bearing: -4.44514894485
intensity: 21.7026176453
---
header: 
  seq: 1438230
  stamp: 
    secs: 1561868459
    nsecs: 396271871
  frame_id: "ti_mmwave"
point_id: 8
x: 2.611328125
y: -0.17578125
z: 1.0546875
range: 3.00681090355
velocity: 0.0
doppler_bin: 8
bearing: -3.85104894638
intensity: 28.9597473145
---
header: 
  seq: 1438231
  stamp: 
    secs: 1561868459
    nsecs: 396279957
  frame_id: "ti_mmwave"
point_id: 9
x: 2.654296875
y: -0.1796875
z: 1.060546875
range: 3.05038785934
velocity: 0.0
doppler_bin: 8
bearing: -3.87283420563
intensity: 32.1351776123
---
header: 
  seq: 1438232
  stamp: 
    secs: 1561868459
    nsecs: 396290734
  frame_id: "ti_mmwave"
point_id: 10
x: 2.75
y: -0.08984375
z: 0.9296875
range: 3.09396481514
velocity: 0.0
doppler_bin: 8
bearing: -1.87121355534
intensity: 31.1327476501
---
header: 
  seq: 1438233
  stamp: 
    secs: 1561868459
    nsecs: 396298603
  frame_id: "ti_mmwave"
point_id: 11
x: 4.3984375
y: -0.287109375
z: 1.25
range: 4.88062095642
velocity: 0.0
doppler_bin: 8
bearing: -3.73470139503
intensity: 30.5690479279
---
header: 
  seq: 1438234
  stamp: 
    secs: 1561868459
    nsecs: 396308141
  frame_id: "ti_mmwave"
point_id: 12
x: 4.4453125
y: -0.14453125
z: 1.255859375
range: 4.9241976738
velocity: 0.0
doppler_bin: 8
bearing: -1.86221218109
intensity: 30.3342380524
---
header: 
  seq: 1438235
  stamp: 
    secs: 1561868459
    nsecs: 396316645
  frame_id: "ti_mmwave"
point_id: 13
x: 1.798828125
y: -0.0
z: -0.083984375
range: 1.91738677025
velocity: 0.614668667316
doppler_bin: 9
bearing: -0.0
intensity: 29.8272342682
---
header: 
  seq: 1438236
  stamp: 
    secs: 1561868459
    nsecs: 396325424
  frame_id: "ti_mmwave"
point_id: 14
x: 1.83203125
y: -0.056640625
z: -0.16015625
range: 1.96096372604
velocity: 0.614668667316
doppler_bin: 9
bearing: -1.77084064484
intensity: 32.6599655151
---
header: 
  seq: 1438237
  stamp: 
    secs: 1561868459
    nsecs: 396333728
  frame_id: "ti_mmwave"
point_id: 15
x: 1.876953125
y: -0.0
z: -0.14453125
range: 2.00454068184
velocity: 0.614668667316
doppler_bin: 9
bearing: -0.0
intensity: 33.0599594116
---
header: 
  seq: 1438238
  stamp: 
    secs: 1561868459
    nsecs: 396341595
  frame_id: "ti_mmwave"
point_id: 16
x: 1.919921875
y: -0.0
z: -0.111328125
range: 2.04811763763
velocity: 0.614668667316
doppler_bin: 9
bearing: -0.0
intensity: 30.7408466339
---
header: 
  seq: 1438239
  stamp: 
    secs: 1561868459
    nsecs: 396350580
  frame_id: "ti_mmwave"
point_id: 17
x: 1.94921875
y: 0.123046875
z: -0.193359375
range: 2.09169459343
velocity: 0.614668667316
doppler_bin: 9
bearing: 3.61207509041
intensity: 25.9106464386
---
header: 
  seq: 1438240
  stamp: 
    secs: 1561868459
    nsecs: 396361058
  frame_id: "ti_mmwave"
point_id: 19
x: 1.98046875
y: 0.1875
z: -0.248046875
range: 2.13527154922
velocity: 1.22933733463
doppler_bin: 10
bearing: 5.40833187103
intensity: 23.2837963104
---
header: 
  seq: 1438241
  stamp: 
    secs: 1561868459
    nsecs: 396494137
  frame_id: "ti_mmwave"
point_id: 21
x: 0.041015625
y: -0.033203125
z: 0.0625
range: 0.0871539413929
velocity: 0.0
doppler_bin: 8
bearing: -38.9909973145
intensity: 30.0945091248
---
header: 
  seq: 1438242
  stamp: 
    secs: 1561868459
    nsecs: 396505071
  frame_id: "ti_mmwave"
point_id: 22
x: 0.044921875
y: -0.046875
z: 0.103515625
range: 0.130730912089
velocity: 0.0
doppler_bin: 8
bearing: -46.218875885
intensity: 29.0036716461
---
header: 
  seq: 1438243
  stamp: 
    secs: 1561868459
    nsecs: 456180294
  frame_id: "ti_mmwave"
point_id: 0
x: 0.01171875
y: -0.0390625
z: -0.0078125
range: 0.0435769706964
velocity: 0.0
doppler_bin: 8
bearing: -73.3007583618
intensity: 30.6483230591
---
header: 
  seq: 1438244
  stamp: 
    secs: 1561868459
    nsecs: 456262174
  frame_id: "ti_mmwave"
point_id: 1
x: 0.017578125
y: -0.080078125
z: -0.0078125
range: 0.0871539413929
velocity: 0.0
doppler_bin: 8
bearing: -77.6192398071
intensity: 31.9005146027
---
header: 
  seq: 1438245
  stamp: 
    secs: 1561868459
    nsecs: 456273298
  frame_id: "ti_mmwave"
point_id: 2
x: 0.029296875
y: -0.119140625
z: -0.005859375
range: 0.130730912089
velocity: 0.0
doppler_bin: 8
bearing: -76.1849746704
intensity: 30.1157035828
---
header: 
  seq: 1438246
  stamp: 
    secs: 1561868459
    nsecs: 456282116
  frame_id: "ti_mmwave"
point_id: 3
x: 0.056640625
y: -0.154296875
z: 0.0078125
range: 0.174307882786
velocity: 0.0
doppler_bin: 8
bearing: -69.8423843384
intensity: 25.4530715942
---
header: 
  seq: 1438247
  stamp: 
    secs: 1561868459
    nsecs: 456291097
  frame_id: "ti_mmwave"
point_id: 4
x: 0.162109375
y: -0.080078125
z: 1.255859375
range: 1.35088610649
velocity: 0.0
doppler_bin: 8
bearing: -26.2882633209
intensity: 23.1175384521
---
header: 
  seq: 1438248
  stamp: 
    secs: 1561868459
    nsecs: 456299910
  frame_id: "ti_mmwave"
point_id: 5
x: 0.08203125
y: -0.08203125
z: 1.3046875
range: 1.39446306229
velocity: 0.0
doppler_bin: 8
bearing: -45.0
intensity: 24.6538276672
---
header: 
  seq: 1438249
  stamp: 
    secs: 1561868459
    nsecs: 456308701
  frame_id: "ti_mmwave"
point_id: 6
x: 0.42578125
y: -0.083984375
z: -1.27734375
range: 1.43804001808
velocity: 0.0
doppler_bin: 8
bearing: -11.1582231522
intensity: 23.0963020325
---
header: 
  seq: 1438250
  stamp: 
    secs: 1561868459
    nsecs: 456317485
  frame_id: "ti_mmwave"
point_id: 7
x: 0.58203125
y: -0.04296875
z: -1.263671875
range: 1.48161697388
velocity: 0.0
doppler_bin: 8
bearing: -4.22222995758
intensity: 21.7026176453
---
header: 
  seq: 1438251
  stamp: 
    secs: 1561868459
    nsecs: 456338978
  frame_id: "ti_mmwave"
point_id: 8
x: 2.615234375
y: -0.17578125
z: 1.044921875
range: 3.00681090355
velocity: 0.0
doppler_bin: 8
bearing: -3.84531402588
intensity: 28.7852172852
---
header: 
  seq: 1438252
  stamp: 
    secs: 1561868459
    nsecs: 456354200
  frame_id: "ti_mmwave"
point_id: 9
x: 2.69140625
y: -0.08984375
z: 0.97265625
range: 3.05038785934
velocity: 0.0
doppler_bin: 8
bearing: -1.91192126274
intensity: 32.0736503601
---
header: 
  seq: 1438253
  stamp: 
    secs: 1561868459
    nsecs: 456362564
  frame_id: "ti_mmwave"
point_id: 10
x: 2.755859375
y: -0.08984375
z: 0.91015625
range: 3.09396481514
velocity: 0.0
doppler_bin: 8
bearing: -1.86723792553
intensity: 31.0890312195
---
header: 
  seq: 1438254
  stamp: 
    secs: 1561868459
    nsecs: 456513283
  frame_id: "ti_mmwave"
point_id: 11
x: 4.40234375
y: -0.142578125
z: 1.1015625
range: 4.83704376221
velocity: 0.0
doppler_bin: 8
bearing: -1.85498249531
intensity: 28.7563991547
---
header: 
  seq: 1438255
  stamp: 
    secs: 1561868459
    nsecs: 456532439
  frame_id: "ti_mmwave"
point_id: 12
x: 4.400390625
y: -0.287109375
z: 1.2421875
range: 4.88062095642
velocity: 0.0
doppler_bin: 8
bearing: -3.73304843903
intensity: 32.1272010803
---
header: 
  seq: 1438256
  stamp: 
    secs: 1561868459
    nsecs: 456540485
  frame_id: "ti_mmwave"
point_id: 13
x: 4.447265625
y: -0.14453125
z: 1.25390625
range: 4.9241976738
velocity: 0.0
doppler_bin: 8
bearing: -1.86139500141
intensity: 31.8184356689
---
header: 
  seq: 1438257
  stamp: 
    secs: 1561868459
    nsecs: 456549335
  frame_id: "ti_mmwave"
point_id: 14
x: 1.830078125
y: 0.056640625
z: -0.1875
range: 1.96096372604
velocity: 0.614668667316
doppler_bin: 9
bearing: 1.77272939682
intensity: 26.6651802063
---
header: 
  seq: 1438258
  stamp: 
    secs: 1561868459
    nsecs: 456573439
  frame_id: "ti_mmwave"
point_id: 15
x: 1.8671875
y: 0.05859375
z: -0.224609375
range: 2.00454068184
velocity: 0.614668667316
doppler_bin: 9
bearing: 1.79739499092
intensity: 27.5966777802
---
header: 
  seq: 1438259
  stamp: 
    secs: 1561868459
    nsecs: 456581852
  frame_id: "ti_mmwave"
point_id: 16
x: 1.904296875
y: 0.12109375
z: -0.23046875
range: 2.04811763763
velocity: 1.22933733463
doppler_bin: 10
bearing: 3.63852500916
intensity: 26.2531242371
---
header: 
  seq: 1438260
  stamp: 
    secs: 1561868459
    nsecs: 456653980
  frame_id: "ti_mmwave"
point_id: 17
x: 1.939453125
y: 0.18359375
z: -0.240234375
range: 2.09169459343
velocity: 1.22933733463
doppler_bin: 10
bearing: 5.40765523911
intensity: 21.6731739044
---
header: 
  seq: 1438261
  stamp: 
    secs: 1561868459
    nsecs: 456666193
  frame_id: "ti_mmwave"
point_id: 19
x: 0.041015625
y: -0.033203125
z: 0.0625
range: 0.0871539413929
velocity: 0.0
doppler_bin: 8
bearing: -38.9909973145
intensity: 30.0902576447
---
header: 
  seq: 1438262
  stamp: 
    secs: 1561868459
    nsecs: 456674080
  frame_id: "ti_mmwave"
point_id: 20
x: 0.044921875
y: -0.046875
z: 0.103515625
range: 0.130730912089
velocity: 0.0
doppler_bin: 8
bearing: -46.218875885
intensity: 29.0091304779
---
header: 
  seq: 1438263
  stamp: 
    secs: 1561868459
    nsecs: 457585353
  frame_id: "ti_mmwave"
point_id: 0
x: 0.01171875
y: -0.0390625
z: -0.0078125
range: 0.0435769706964
velocity: 0.0
doppler_bin: 8
bearing: -73.3007583618
intensity: 30.6445808411
---
header: 
  seq: 1438264
  stamp: 
    secs: 1561868459
    nsecs: 457640603
  frame_id: "ti_mmwave"
point_id: 1
x: 0.017578125
y: -0.080078125
z: -0.0078125
range: 0.0871539413929
velocity: 0.0
doppler_bin: 8
bearing: -77.6192398071
intensity: 31.8977088928
---
header: 
  seq: 1438265
  stamp: 
    secs: 1561868459
    nsecs: 457658473
  frame_id: "ti_mmwave"
point_id: 2
x: 0.029296875
y: -0.119140625
z: -0.005859375
range: 0.130730912089
velocity: 0.0
doppler_bin: 8
bearing: -76.1849746704
intensity: 30.1114730835
---
header: 
  seq: 1438266
  stamp: 
    secs: 1561868459
    nsecs: 457671468
  frame_id: "ti_mmwave"
point_id: 3
x: 0.056640625
y: -0.154296875
z: 0.0078125
range: 0.174307882786
velocity: 0.0
doppler_bin: 8
bearing: -69.8423843384
intensity: 25.4406795502
---
header: 
  seq: 1438267
  stamp: 
    secs: 1561868459
    nsecs: 457687314
  frame_id: "ti_mmwave"
point_id: 4
x: 0.103515625
y: -0.080078125
z: 1.26171875
range: 1.35088610649
velocity: 0.0
doppler_bin: 8
bearing: -37.7249946594
intensity: 23.0963020325
---
header: 
  seq: 1438268
  stamp: 
    secs: 1561868459
    nsecs: 457705571
  frame_id: "ti_mmwave"
point_id: 6
x: 0.41796875
y: -0.083984375
z: -1.28125
range: 1.43804001808
velocity: 0.0
doppler_bin: 8
bearing: -11.3614110947
intensity: 23.0749607086
---
header: 
  seq: 1438269
  stamp: 
    secs: 1561868459
    nsecs: 457718366
  frame_id: "ti_mmwave"
point_id: 7
x: 0.5625
y: -0.04296875
z: -1.271484375
range: 1.48161697388
velocity: 0.0
doppler_bin: 8
bearing: -4.36827754974
intensity: 21.6435279846
---
header: 
  seq: 1438270
  stamp: 
    secs: 1561868459
    nsecs: 457733014
  frame_id: "ti_mmwave"
point_id: 8
x: 2.615234375
y: -0.17578125
z: 1.048828125
range: 3.00681090355
velocity: 0.0
doppler_bin: 8
bearing: -3.84531402588
intensity: 28.9597473145
---
header: 
  seq: 1438271
  stamp: 
    secs: 1561868459
    nsecs: 457750283
  frame_id: "ti_mmwave"
point_id: 9
x: 2.658203125
y: -0.1796875
z: 1.048828125
range: 3.05038785934
velocity: 0.0
doppler_bin: 8
bearing: -3.86716008186
intensity: 32.1058616638
---
header: 
  seq: 1438272
  stamp: 
    secs: 1561868459
    nsecs: 457763211
  frame_id: "ti_mmwave"
point_id: 10
x: 2.75390625
y: -0.08984375
z: 0.919921875
range: 3.09396481514
velocity: 0.0
doppler_bin: 8
bearing: -1.86856126785
intensity: 31.1327476501
---
header: 
  seq: 1438273
  stamp: 
    secs: 1561868459
    nsecs: 457775950
  frame_id: "ti_mmwave"
point_id: 11
x: 4.3984375
y: -0.142578125
z: 1.1171875
range: 4.83704376221
velocity: 0.0
doppler_bin: 8
bearing: -1.8566287756
intensity: 28.1624126434
---
header: 
  seq: 1438274
  stamp: 
    secs: 1561868459
    nsecs: 457791908
  frame_id: "ti_mmwave"
point_id: 12
x: 4.400390625
y: -0.142578125
z: 1.265625
range: 4.88062095642
