header: 
  seq: 930434
  stamp: 
    secs: 1561864962
    nsecs: 467779496
  frame_id: "ti_mmwave"
point_id: 0
x: 0.01171875
y: -0.0390625
z: -0.0078125
range: 0.0435769706964
velocity: 0.0
doppler_bin: 8
bearing: -73.3007583618
intensity: 30.6520614624
---
header: 
  seq: 930435
  stamp: 
    secs: 1561864962
    nsecs: 467851217
  frame_id: "ti_mmwave"
point_id: 1
x: 0.017578125
y: -0.080078125
z: -0.0078125
range: 0.0871539413929
velocity: 0.0
doppler_bin: 8
bearing: -77.6192398071
intensity: 31.9005146027
---
header: 
  seq: 930436
  stamp: 
    secs: 1561864962
    nsecs: 467864105
  frame_id: "ti_mmwave"
point_id: 2
x: 0.029296875
y: -0.119140625
z: -0.005859375
range: 0.130730912089
velocity: 0.0
doppler_bin: 8
bearing: -76.1849746704
intensity: 30.1494026184
---
header: 
  seq: 930437
  stamp: 
    secs: 1561864962
    nsecs: 467872734
  frame_id: "ti_mmwave"
point_id: 3
x: 0.056640625
y: -0.154296875
z: 0.005859375
range: 0.174307882786
velocity: 0.0
doppler_bin: 8
bearing: -69.8423843384
intensity: 25.4406795502
---
header: 
  seq: 930438
  stamp: 
    secs: 1561864962
    nsecs: 467881085
  frame_id: "ti_mmwave"
point_id: 4
x: 1.20703125
y: -0.357421875
z: 0.16015625
range: 1.35088610649
velocity: 0.0
doppler_bin: 8
bearing: -16.4948921204
intensity: 23.4635295868
---
header: 
  seq: 930439
  stamp: 
    secs: 1561864962
    nsecs: 467889102
  frame_id: "ti_mmwave"
point_id: 5
x: 1.236328125
y: -0.328125
z: 0.27734375
range: 1.39446306229
velocity: 0.0
doppler_bin: 8
bearing: -14.8637924194
intensity: 25.3529415131
---
header: 
  seq: 930440
  stamp: 
    secs: 1561864962
    nsecs: 467897309
  frame_id: "ti_mmwave"
point_id: 6
x: 1.1875
y: -0.25390625
z: 0.587890625
range: 1.43804001808
velocity: 0.0
doppler_bin: 8
bearing: -12.0690126419
intensity: 23.7291202545
---
header: 
  seq: 930441
  stamp: 
    secs: 1561864962
    nsecs: 467905313
  frame_id: "ti_mmwave"
point_id: 7
x: 2.609375
y: -0.17578125
z: 1.0625
range: 3.00681090355
velocity: 0.0
doppler_bin: 8
bearing: -3.85392260551
intensity: 29.0471553802
---
header: 
  seq: 930442
  stamp: 
    secs: 1561864962
    nsecs: 467914355
  frame_id: "ti_mmwave"
point_id: 8
x: 2.689453125
y: -0.08984375
z: 0.98046875
range: 3.05038785934
velocity: 0.0
doppler_bin: 8
bearing: -1.91330885887
intensity: 32.1853561401
---
header: 
  seq: 930443
  stamp: 
    secs: 1561864962
    nsecs: 467923195
  frame_id: "ti_mmwave"
point_id: 9
x: 2.751953125
y: -0.08984375
z: 0.923828125
range: 3.09396481514
velocity: 0.0
doppler_bin: 8
bearing: -1.86988639832
intensity: 31.1294002533
---
header: 
  seq: 930444
  stamp: 
    secs: 1561864962
    nsecs: 467932379
  frame_id: "ti_mmwave"
point_id: 10
x: 4.44921875
y: -0.142578125
z: 1.08203125
range: 4.88062095642
velocity: 0.0
doppler_bin: 8
bearing: -1.83545267582
intensity: 31.3735408783
---
header: 
  seq: 930445
  stamp: 
    secs: 1561864962
    nsecs: 467941204
  frame_id: "ti_mmwave"
point_id: 11
x: 4.482421875
y: -0.14453125
z: 1.12109375
range: 4.9241976738
velocity: 0.0
doppler_bin: 8
bearing: -1.84680569172
intensity: 31.1958580017
---
header: 
  seq: 930446
  stamp: 
    secs: 1561864962
    nsecs: 467991589
  frame_id: "ti_mmwave"
point_id: 12
x: 4.73828125
y: -0.298828125
z: -0.607421875
range: 5.09850549698
velocity: 0.0
doppler_bin: 8
bearing: -3.60868048668
intensity: 33.3203430176
---
header: 
  seq: 930447
  stamp: 
    secs: 1561864962
    nsecs: 468024289
  frame_id: "ti_mmwave"
point_id: 13
x: 4.775390625
y: -0.30078125
z: -0.640625
range: 5.14208269119
velocity: 0.0
doppler_bin: 8
bearing: -3.60405302048
intensity: 33.8881149292
---
header: 
  seq: 930448
  stamp: 
    secs: 1561864962
    nsecs: 468040324
  frame_id: "ti_mmwave"
point_id: 14
x: 4.8046875
y: -0.15234375
z: -0.765625
range: 5.18565940857
velocity: 0.0
doppler_bin: 8
bearing: -1.81608688831
intensity: 30.3981056213
---
header: 
  seq: 930449
  stamp: 
    secs: 1561864962
    nsecs: 468051654
  frame_id: "ti_mmwave"
point_id: 15
x: 4.833984375
y: -0.154296875
z: 1.048828125
range: 5.27281332016
velocity: 0.0
doppler_bin: 8
bearing: -1.82821428776
intensity: 30.8170719147
---
header: 
  seq: 930450
  stamp: 
    secs: 1561864962
    nsecs: 468225343
  frame_id: "ti_mmwave"
point_id: 16
x: 1.302734375
y: -0.337890625
z: 0.115234375
range: 1.43804001808
velocity: -0.614668667316
doppler_bin: 7
bearing: -14.5404176712
intensity: 23.0749607086
---
header: 
  seq: 930451
  stamp: 
    secs: 1561864962
    nsecs: 468245976
  frame_id: "ti_mmwave"
point_id: 17
x: 1.427734375
y: -0.58203125
z: 0.197265625
range: 1.65592491627
velocity: -0.614668667316
doppler_bin: 7
bearing: -22.1787929535
intensity: 25.9549617767
---
header: 
  seq: 930452
  stamp: 
    secs: 1561864962
    nsecs: 468255377
  frame_id: "ti_mmwave"
point_id: 18
x: 1.46875
y: -0.59765625
z: 0.17578125
range: 1.69950187206
velocity: -0.614668667316
doppler_bin: 7
bearing: -22.1421394348
intensity: 29.1381378174
---
header: 
  seq: 930453
  stamp: 
    secs: 1561864962
    nsecs: 468266222
  frame_id: "ti_mmwave"
point_id: 19
x: 1.525390625
y: -0.5625
z: 0.189453125
range: 1.74307882786
velocity: -0.614668667316
doppler_bin: 7
bearing: -20.2418556213
intensity: 28.5853729248
---
header: 
  seq: 930454
  stamp: 
    secs: 1561864962
    nsecs: 468279652
  frame_id: "ti_mmwave"
point_id: 20
x: 0.009765625
y: 0.03125
z: 0.025390625
range: 0.0435769706964
velocity: 0.0
doppler_bin: 8
bearing: 72.6459732056
intensity: 29.31457901
---
header: 
  seq: 930455
  stamp: 
    secs: 1561864962
    nsecs: 468291914
  frame_id: "ti_mmwave"
point_id: 21
x: 0.041015625
y: -0.033203125
z: 0.0625
range: 0.0871539413929
velocity: 0.0
doppler_bin: 8
bearing: -38.9909973145
intensity: 30.081741333
---
header: 
  seq: 930456
  stamp: 
    secs: 1561864962
    nsecs: 468300563
  frame_id: "ti_mmwave"
point_id: 22
x: 0.044921875
y: -0.046875
z: 0.103515625
range: 0.130730912089
velocity: 0.0
doppler_bin: 8
bearing: -46.218875885
intensity: 28.9597473145
---
header: 
  seq: 930457
  stamp: 
    secs: 1561864962
    nsecs: 468310839
  frame_id: "ti_mmwave"
point_id: 24
x: 0.5703125
y: -0.0
z: 1.1328125
range: 1.35088610649
velocity: 0.0
doppler_bin: 8
bearing: -0.0
intensity: 22.4303798676
---
header: 
  seq: 930458
  stamp: 
    secs: 1561864962
    nsecs: 468320574
  frame_id: "ti_mmwave"
point_id: 25
x: 0.81640625
y: -0.041015625
z: 1.0234375
range: 1.39446306229
velocity: 0.0
doppler_bin: 8
bearing: -2.87607812881
intensity: 24.2160396576
---
header: 
  seq: 930459
  stamp: 
    secs: 1561864962
    nsecs: 469272632
  frame_id: "ti_mmwave"
point_id: 0
x: 0.01171875
y: -0.0390625
z: -0.0078125
range: 0.0435769706964
velocity: 0.0
doppler_bin: 8
bearing: -73.3007583618
intensity: 30.6483230591
---
header: 
  seq: 930460
  stamp: 
    secs: 1561864962
    nsecs: 469342038
  frame_id: "ti_mmwave"
point_id: 1
x: 0.017578125
y: -0.080078125
z: -0.0078125
range: 0.0871539413929
velocity: 0.0
doppler_bin: 8
bearing: -77.6192398071
intensity: 31.9005146027
---
header: 
  seq: 930461
  stamp: 
    secs: 1561864962
    nsecs: 469364009
  frame_id: "ti_mmwave"
point_id: 2
x: 0.029296875
y: -0.119140625
z: -0.005859375
range: 0.130730912089
velocity: 0.0
doppler_bin: 8
bearing: -76.1849746704
intensity: 30.1535968781
---
header: 
  seq: 930462
  stamp: 
    secs: 1561864962
    nsecs: 469378840
  frame_id: "ti_mmwave"
point_id: 3
x: 0.056640625
y: -0.154296875
z: 0.005859375
range: 0.174307882786
velocity: 0.0
doppler_bin: 8
bearing: -69.8423843384
intensity: 25.4406795502
---
header: 
  seq: 930463
  stamp: 
    secs: 1561864962
    nsecs: 469391313
  frame_id: "ti_mmwave"
point_id: 4
x: 0.787109375
y: -0.23046875
z: -0.9140625
range: 1.3073091507
velocity: 0.0
doppler_bin: 8
bearing: -16.3202400208
intensity: 21.2385158539
---
header: 
  seq: 930464
  stamp: 
    secs: 1561864962
    nsecs: 469402866
  frame_id: "ti_mmwave"
point_id: 5
x: 0.896484375
y: -0.158203125
z: -0.8828125
range: 1.35088610649
velocity: 0.0
doppler_bin: 8
bearing: -10.0079803467
intensity: 24.3296928406
---
header: 
  seq: 930465
  stamp: 
    secs: 1561864962
    nsecs: 469414460
  frame_id: "ti_mmwave"
point_id: 6
x: 0.873046875
y: -0.123046875
z: -0.966796875
range: 1.39446306229
velocity: 0.0
doppler_bin: 8
bearing: -8.02240371704
intensity: 25.0650501251
---
header: 
  seq: 930466
  stamp: 
    secs: 1561864962
    nsecs: 469428029
  frame_id: "ti_mmwave"
point_id: 7
x: 0.84375
y: -0.083984375
z: -1.05078125
range: 1.43804001808
velocity: 0.0
doppler_bin: 8
bearing: -5.6843290329
intensity: 22.9666519165
---
header: 
  seq: 930467
  stamp: 
    secs: 1561864962
    nsecs: 469444572
  frame_id: "ti_mmwave"
point_id: 8
x: 0.62890625
y: -0.04296875
z: -1.240234375
range: 1.48161697388
velocity: 0.0
doppler_bin: 8
bearing: -3.90854406357
intensity: 21.3987903595
---
header: 
  seq: 930468
  stamp: 
    secs: 1561864962
    nsecs: 469457348
  frame_id: "ti_mmwave"
point_id: 9
x: 2.609375
y: -0.17578125
z: 1.060546875
range: 3.00681090355
velocity: 0.0
doppler_bin: 8
bearing: -3.85392260551
intensity: 29.0579586029
---
header: 
  seq: 930469
  stamp: 
    secs: 1561864962
    nsecs: 469469277
  frame_id: "ti_mmwave"
point_id: 10
x: 2.689453125
y: -0.08984375
z: 0.98046875
range: 3.05038785934
velocity: 0.0
doppler_bin: 8
bearing: -1.91330885887
intensity: 32.1984634399
---
header: 
  seq: 930470
  stamp: 
    secs: 1561864962
    nsecs: 469480579
  frame_id: "ti_mmwave"
point_id: 11
x: 2.755859375
y: -0.08984375
z: 0.912109375
range: 3.09396481514
velocity: 0.0
doppler_bin: 8
bearing: -1.86723792553
intensity: 31.1394329071
---
header: 
  seq: 930471
  stamp: 
    secs: 1561864962
    nsecs: 469490789
  frame_id: "ti_mmwave"
point_id: 12
x: 4.4453125
y: -0.142578125
z: 1.09765625
range: 4.88062095642
velocity: 0.0
doppler_bin: 8
bearing: -1.83706438541
intensity: 31.3735408783
---
header: 
  seq: 930472
  stamp: 
    secs: 1561864962
    nsecs: 469504355
  frame_id: "ti_mmwave"
point_id: 13
x: 4.478515625
y: -0.14453125
z: 1.134765625
range: 4.9241976738
velocity: 0.0
doppler_bin: 8
bearing: -1.84841549397
intensity: 31.172712326
---
header: 
  seq: 930473
  stamp: 
    secs: 1561864962
    nsecs: 469517651
  frame_id: "ti_mmwave"
point_id: 14
x: 4.640625
y: -0.0
z: 0.45703125
range: 4.96777486801
velocity: 0.0
doppler_bin: 8
bearing: -0.0
intensity: 29.4398880005
---
header: 
  seq: 930474
  stamp: 
    secs: 1561864962
    nsecs: 469530438
  frame_id: "ti_mmwave"
point_id: 15
x: 4.744140625
y: -0.298828125
z: -0.5625
range: 5.09850549698
velocity: 0.0
doppler_bin: 8
bearing: -3.60423564911
intensity: 33.3142738342
---
header: 
  seq: 930475
  stamp: 
    secs: 1561864962
    nsecs: 469545575
  frame_id: "ti_mmwave"
point_id: 16
x: 4.779296875
y: -0.30078125
z: -0.6015625
range: 5.14208269119
velocity: 0.0
doppler_bin: 8
bearing: -3.60111522675
intensity: 33.9375076294
---
header: 
  seq: 930476
  stamp: 
    secs: 1561864962
    nsecs: 469560872
  frame_id: "ti_mmwave"
point_id: 17
x: 4.806640625
y: -0.15234375
z: -0.748046875
range: 5.18565940857
velocity: 0.0
doppler_bin: 8
bearing: -1.81534969807
intensity: 30.6295776367
---
header: 
  seq: 930477
  stamp: 
    secs: 1561864962
    nsecs: 469574616
  frame_id: "ti_mmwave"
point_id: 18
x: 4.845703125
y: -0.154296875
z: 1.001953125
range: 5.27281332016
velocity: 0.0
doppler_bin: 8
bearing: -1.82379603386
intensity: 30.8421859741
---
header: 
  seq: 930478
  stamp: 
    secs: 1561864962
    nsecs: 469588746
  frame_id: "ti_mmwave"
point_id: 19
x: 0.009765625
y: 0.03125
z: 0.025390625
range: 0.0435769706964
velocity: 0.0
doppler_bin: 8
bearing: 72.6459732056
intensity: 29.3094902039
---
header: 
  seq: 930479
  stamp: 
    secs: 1561864962
    nsecs: 469603697
  frame_id: "ti_mmwave"
point_id: 20
x: 0.041015625
y: -0.033203125
z: 0.0625
range: 0.0871539413929
velocity: 0.0
doppler_bin: 8
bearing: -38.9909973145
intensity: 30.0860023499
---
header: 
  seq: 930480
  stamp: 
    secs: 1561864962
    nsecs: 469617389
  frame_id: "ti_mmwave"
point_id: 21
x: 0.044921875
y: -0.046875
z: 0.103515625
range: 0.130730912089
velocity: 0.0
doppler_bin: 8
bearing: -46.218875885
intensity: 28.9652614594
---
header: 
  seq: 930481
  stamp: 
    secs: 1561864962
    nsecs: 527726061
  frame_id: "ti_mmwave"
point_id: 0
x: 0.01171875
y: -0.0390625
z: -0.0078125
range: 0.0435769706964
velocity: 0.0
doppler_bin: 8
bearing: -73.3007583618
intensity: 30.6632595062
---
header: 
  seq: 930482
  stamp: 
    secs: 1561864962
    nsecs: 527811532
  frame_id: "ti_mmwave"
point_id: 1
x: 0.017578125
y: -0.080078125
z: -0.0078125
range: 0.0871539413929
velocity: 0.0
doppler_bin: 8
bearing: -77.6192398071
intensity: 31.9033164978
---
header: 
  seq: 930483
  stamp: 
    secs: 1561864962
    nsecs: 527827205
  frame_id: "ti_mmwave"
point_id: 2
x: 0.029296875
y: -0.119140625
z: -0.005859375
range: 0.130730912089
velocity: 0.0
doppler_bin: 8
bearing: -76.1849746704
intensity: 30.1494026184
---
header: 
  seq: 930484
  stamp: 
    secs: 1561864962
    nsecs: 527839429
  frame_id: "ti_mmwave"
point_id: 3
x: 0.056640625
y: -0.154296875
z: 0.005859375
range: 0.174307882786
velocity: 0.0
doppler_bin: 8
bearing: -69.8423843384
intensity: 25.4406795502
---
header: 
  seq: 930485
  stamp: 
    secs: 1561864962
    nsecs: 527851852
  frame_id: "ti_mmwave"
point_id: 4
x: 0.80078125
y: -0.08203125
z: -1.03125
range: 1.39446306229
velocity: 0.0
doppler_bin: 8
bearing: -5.84892129898
intensity: 24.6686763763
---
header: 
  seq: 930486
  stamp: 
    secs: 1561864962
    nsecs: 527862747
  frame_id: "ti_mmwave"
point_id: 5
x: 0.755859375
y: -0.04296875
z: -1.1171875
range: 1.43804001808
velocity: 0.0
doppler_bin: 8
bearing: -3.25362277031
intensity: 22.810333252
---
header: 
  seq: 930487
  stamp: 
    secs: 1561864962
    nsecs: 527873515
  frame_id: "ti_mmwave"
point_id: 6
x: 0.6328125
y: -0.04296875
z: -1.23828125
range: 1.48161697388
velocity: 0.0
doppler_bin: 8
bearing: -3.88449120522
intensity: 21.5228843689
---
header: 
  seq: 930488
  stamp: 
    secs: 1561864962
    nsecs: 527883965
  frame_id: "ti_mmwave"
point_id: 7
x: 2.6171875
y: -0.17578125
z: 1.041015625
range: 3.00681090355
velocity: 0.0
doppler_bin: 8
bearing: -3.84245300293
intensity: 29.0254669189
---
header: 
  seq: 930489
  stamp: 
    secs: 1561864962
    nsecs: 527896970
  frame_id: "ti_mmwave"
point_id: 8
x: 2.693359375
y: -0.08984375
z: 0.970703125
range: 3.05038785934
velocity: 0.0
doppler_bin: 8
bearing: -1.91053581238
intensity: 32.1827278137
---
header: 
  seq: 930490
  stamp: 
    secs: 1561864962
    nsecs: 527910312
  frame_id: "ti_mmwave"
point_id: 9
x: 2.7578125
y: -0.08984375
z: 0.904296875
range: 3.09396481514
velocity: 0.0
doppler_bin: 8
bearing: -1.86591637135
intensity: 31.1260509491
---
header: 
  seq: 930491
  stamp: 
    secs: 1561864962
    nsecs: 527928616
  frame_id: "ti_mmwave"
point_id: 10
x: 4.443359375
y: -0.142578125
z: 1.107421875
range: 4.88062095642
velocity: 0.0
doppler_bin: 8
bearing: -1.8378713131
intensity: 31.3767051697
---
header: 
  seq: 930492
  stamp: 
    secs: 1561864962
    nsecs: 528052461
  frame_id: "ti_mmwave"
point_id: 11
x: 4.484375
y: -0.14453125
z: 1.109375
range: 4.9241976738
velocity: 0.0
doppler_bin: 8
bearing: -1.84600186348
intensity: 31.1461105347
---
header: 
  seq: 930493
  stamp: 
    secs: 1561864962
    nsecs: 528067861
  frame_id: "ti_mmwave"
point_id: 12
x: 4.70703125
y: -0.296875
z: -0.525390625
range: 5.0549287796
velocity: 0.0
doppler_bin: 8
bearing: -3.60889554024
intensity: 29.0091304779
---
header: 
  seq: 930494
  stamp: 
    secs: 1561864962
    nsecs: 528076194
  frame_id: "ti_mmwave"
point_id: 13
x: 4.736328125
y: -0.298828125
z: -0.619140625
range: 5.09850549698
velocity: 0.0
doppler_bin: 8
bearing: -3.61016488075
intensity: 33.422252655
---
header: 
  seq: 930495
  stamp: 
    secs: 1561864962
    nsecs: 528084013
  frame_id: "ti_mmwave"
point_id: 14
x: 4.7734375
y: -0.30078125
z: -0.6484375
range: 5.14208269119
velocity: 0.0
doppler_bin: 8
bearing: -3.60552406311
intensity: 34.0432052612
---
header: 
  seq: 930496
  stamp: 
    secs: 1561864962
    nsecs: 528093686
  frame_id: "ti_mmwave"
point_id: 15
x: 4.806640625
y: -0.15234375
z: -0.755859375
range: 5.18565940857
velocity: 0.0
doppler_bin: 8
bearing: -1.81534969807
intensity: 30.6707077026
---
header: 
  seq: 930497
  stamp: 
    secs: 1561864962
    nsecs: 528101549
  frame_id: "ti_mmwave"
point_id: 16
x: 4.83984375
y: -0.154296875
z: 1.02734375
range: 5.27281332016
velocity: 0.0
doppler_bin: 8
bearing: -1.82600235939
intensity: 30.934217453
---
header: 
  seq: 930498
  stamp: 
    secs: 1561864962
    nsecs: 528110977
  frame_id: "ti_mmwave"
point_id: 17
x: 1.12890625
y: -0.267578125
z: -0.3984375
range: 1.3073091507
velocity: -0.614668667316
doppler_bin: 7
bearing: -13.3344106674
intensity: 22.5285301208
---
header: 
  seq: 930499
  stamp: 
    secs: 1561864962
    nsecs: 528118909
  frame_id: "ti_mmwave"
point_id: 18
x: 1.15234375
y: -0.27734375
z: -0.44921875
range: 1.35088610649
velocity: -0.614668667316
doppler_bin: 7
bearing: -13.532456398
intensity: 24.5484485626
---
header: 
  seq: 930500
  stamp: 
    secs: 1561864962
    nsecs: 528126757
  frame_id: "ti_mmwave"
point_id: 19
x: 1.49609375
y: -0.548828125
z: -0.060546875
range: 1.69950187206
velocity: -0.614668667316
doppler_bin: 7
bearing: -20.1450939178
intensity: 26.8484535217
---
header: 
  seq: 930501
  stamp: 
    secs: 1561864962
    nsecs: 528135069
  frame_id: "ti_mmwave"
point_id: 20
x: 0.009765625
y: 0.03125
z: 0.025390625
range: 0.0435769706964
velocity: 0.0
doppler_bin: 8
bearing: 72.6459732056
intensity: 29.31457901
---
header: 
  seq: 930502
  stamp: 
    secs: 1561864962
    nsecs: 528143323
  frame_id: "ti_mmwave"
point_id: 21
x: 0.041015625
y: -0.033203125
z: 0.0625
range: 0.0871539413929
velocity: 0.0
doppler_bin: 8
bearing: -38.9909973145
intensity: 30.081741333
---
header: 
  seq: 930503
  stamp: 
    secs: 1561864962
    nsecs: 528156324
  frame_id: "ti_mmwave"
point_id: 22
x: 0.044921875
y: -0.046875
z: 0.103515625
range: 0.130730912089
velocity: 0.0
doppler_bin: 8
bearing: -46.218875885
intensity: 28.9652614594
---
header: 
  seq: 930504
  stamp: 
    secs: 1561864962
    nsecs: 587691675
  frame_id: "ti_mmwave"
point_id: 0
x: 0.01171875
y: -0.0390625
z: -0.0078125
range: 0.0435769706964
velocity: 0.0
doppler_bin: 8
bearing: -73.3007583618
intensity: 30.6557979584
---
header: 
  seq: 930505
  stamp: 
    secs: 1561864962
    nsecs: 587759211
  frame_id: "ti_mmwave"
point_id: 1
x: 0.017578125
y: -0.080078125
z: -0.0078125
range: 0.0871539413929
velocity: 0.0
doppler_bin: 8
bearing: -77.6192398071
intensity: 31.9005146027
---
header: 
  seq: 930506
  stamp: 
    secs: 1561864962
    nsecs: 587771597
  frame_id: "ti_mmwave"
point_id: 2
x: 0.029296875
y: -0.119140625
z: -0.005859375
range: 0.130730912089
velocity: 0.0
doppler_bin: 8
bearing: -76.1849746704
intensity: 30.1494026184
---
header: 
  seq: 930507
  stamp: 
    secs: 1561864962
    nsecs: 587780262
  frame_id: "ti_mmwave"
point_id: 3
x: 0.056640625
y: -0.154296875
z: 0.005859375
range: 0.174307882786
velocity: 0.0
doppler_bin: 8
bearing: -69.8423843384
intensity: 25.4406795502
---
header: 
  seq: 930508
  stamp: 
    secs: 1561864962
    nsecs: 587788795
  frame_id: "ti_mmwave"
point_id: 4
x: 0.076171875
y: -0.080078125
z: -1.263671875
range: 1.35088610649
velocity: 0.0
doppler_bin: 8
bearing: -46.4320983887
intensity: 23.2221927643
---
header: 
  seq: 930509
  stamp: 
    secs: 1561864962
    nsecs: 587799075
  frame_id: "ti_mmwave"
point_id: 5
x: 0.150390625
y: -0.08203125
z: -1.296875
range: 1.39446306229
velocity: 0.0
doppler_bin: 8
bearing: -28.6104602814
intensity: 24.6538276672
---
header: 
  seq: 930510
  stamp: 
    secs: 1561864962
    nsecs: 587807170
  frame_id: "ti_mmwave"
point_id: 6
x: 0.451171875
y: -0.083984375
z: -1.26953125
range: 1.43804001808
velocity: 0.0
doppler_bin: 8
bearing: -10.5447587967
intensity: 23.0102996826
---
header: 
  seq: 930511
  stamp: 
    secs: 1561864962
    nsecs: 587815158
  frame_id: "ti_mmwave"
point_id: 7
x: 0.533203125
y: -0.04296875
z: -1.283203125
range: 1.48161697388
velocity: 0.0
doppler_bin: 8
bearing: -4.60728597641
intensity: 21.5533599854
---
header: 
  seq: 930512
  stamp: 
    secs: 1561864962
    nsecs: 587823393
  frame_id: "ti_mmwave"
point_id: 8
x: 2.6171875
y: -0.17578125
z: 1.041015625
range: 3.00681090355
velocity: 0.0
doppler_bin: 8
bearing: -3.84245300293
intensity: 29.0525608063
---
header: 
  seq: 930513
  stamp: 
    secs: 1561864962
    nsecs: 587830860
  frame_id: "ti_mmwave"
point_id: 9
x: 2.69140625
y: -0.08984375
z: 0.974609375
range: 3.05038785934
velocity: 0.0
doppler_bin: 8
bearing: -1.91192126274
intensity: 32.1932258606
---
header: 
  seq: 930514
  stamp: 
    secs: 1561864962
    nsecs: 587840919
  frame_id: "ti_mmwave"
point_id: 10
x: 2.755859375
y: -0.08984375
z: 0.91015625
range: 3.09396481514
velocity: 0.0
doppler_bin: 8
bearing: -1.86723792553
intensity: 31.1226978302
---
header: 
  seq: 930515
  stamp: 
    secs: 1561864962
    nsecs: 587849248
  frame_id: "ti_mmwave"
point_id: 11
x: 4.375
y: -0.142578125
z: 1.208984375
range: 4.83704376221
velocity: 0.0
doppler_bin: 8
bearing: -1.86656796932
intensity: 27.678976059
---
header: 
  seq: 930516
  stamp: 
    secs: 1561864962
    nsecs: 587858634
  frame_id: "ti_mmwave"
point_id: 12
x: 4.4375
y: -0.142578125
z: 1.12890625
range: 4.88062095642
velocity: 0.0
doppler_bin: 8
bearing: -1.84029650688
intensity: 31.383026123
---
header: 
  seq: 930517
  stamp: 
    secs: 1561864962
    nsecs: 587866950
  frame_id: "ti_mmwave"
point_id: 13
x: 4.482421875
y: -0.14453125
z: 1.119140625
range: 4.9241976738
velocity: 0.0
doppler_bin: 8
bearing: -1.84680569172
intensity: 31.1360912323
---
header: 
  seq: 930518
  stamp: 
    secs: 1561864962
    nsecs: 587875101
  frame_id: "ti_mmwave"
point_id: 14
x: 4.6484375
y: -0.0
z: 0.361328125
range: 4.96777486801
velocity: 0.0
doppler_bin: 8
bearing: -0.0
intensity: 29.31457901
---
header: 
  seq: 930519
  stamp: 
    secs: 1561864962
    nsecs: 587883349
  frame_id: "ti_mmwave"
point_id: 15
x: 4.740234375
y: -0.298828125
z: -0.591796875
range: 5.09850549698
velocity: 0.0
doppler_bin: 8
bearing: -3.60719799995
intensity: 33.2654075623
---
header: 
  seq: 930520
  stamp: 
    secs: 1561864962
    nsecs: 587893809
  frame_id: "ti_mmwave"
point_id: 16
x: 4.779296875
y: -0.30078125
z: -0.607421875
range: 5.14208269119
velocity: 0.0
doppler_bin: 8
bearing: -3.60111522675
intensity: 33.884563446
---
header: 
  seq: 930521
  stamp: 
    secs: 1561864962
    nsecs: 588051989
  frame_id: "ti_mmwave"
point_id: 17
x: 4.8125
y: -0.15234375
z: -0.712890625
range: 5.18565940857
velocity: 0.0
doppler_bin: 8
bearing: -1.81314074993
intensity: 30.5192394257
---
header: 
  seq: 930522
  stamp: 
    secs: 1561864962
    nsecs: 588063989
  frame_id: "ti_mmwave"
point_id: 18
x: 4.82421875
y: -0.154296875
z: 1.099609375
range: 5.27281332016
velocity: 0.0
doppler_bin: 8
bearing: -1.83191239834
intensity: 30.9516925812
---
header: 
  seq: 930523
  stamp: 
    secs: 1561864962
    nsecs: 588072807
  frame_id: "ti_mmwave"
point_id: 19
x: 1.134765625
y: -0.4609375
z: 0.06640625
range: 1.3073091507
velocity: -3.07334327698
doppler_bin: 3
bearing: -22.1068019867
intensity: 22.810333252
---
header: 
  seq: 930524
  stamp: 
    secs: 1561864962
    nsecs: 588080650
  frame_id: "ti_mmwave"
point_id: 20
x: 1.173828125
y: -0.474609375
z: 0.07421875
range: 1.35088610649
velocity: -3.07334327698
doppler_bin: 3
bearing: -22.0147686005
intensity: 24.5939254761
---
header: 
  seq: 930525
  stamp: 
    secs: 1561864962
    nsecs: 588088263
  frame_id: "ti_mmwave"
point_id: 21
x: 1.2109375
y: -0.490234375
z: 0.0703125
range: 1.39446306229
velocity: -3.07334327698
doppler_bin: 3
bearing: -22.0400085449
intensity: 22.6245117188
---
header: 
  seq: 930526
  stamp: 
    secs: 1561864962
    nsecs: 588095866
  frame_id: "ti_mmwave"
point_id: 22
x: 1.126953125
y: -0.37109375
z: 0.001953125
range: 1.2637321949
velocity: -1.22933733463
doppler_bin: 6
bearing: -18.2261676788
intensity: 22.5767860413
---
header: 
  seq: 930527
  stamp: 
    secs: 1561864962
    nsecs: 588105294
  frame_id: "ti_mmwave"
point_id: 23
x: 1.166015625
y: -0.3828125
z: -0.021484375
range: 1.3073091507
velocity: -1.22933733463
doppler_bin: 6
bearing: -18.1754322052
intensity: 26.170003891
---
header: 
  seq: 930528
  stamp: 
    secs: 1561864962
    nsecs: 588116560
  frame_id: "ti_mmwave"
point_id: 24
x: 1.216796875
y: -0.357421875
z: -0.0390625
range: 1.35088610649
velocity: -1.22933733463
doppler_bin: 6
bearing: -16.3696231842
intensity: 25.965970993
---
header: 
  seq: 930529
  stamp: 
    secs: 1561864962
    nsecs: 588129007
  frame_id: "ti_mmwave"
point_id: 25
x: 1.25390625
y: -0.3671875
z: -0.05859375
range: 1.39446306229
velocity: -1.22933733463
doppler_bin: 6
bearing: -16.3218708038
intensity: 22.2010803223
---
header: 
  seq: 930530
  stamp: 
    secs: 1561864962
    nsecs: 588140189
  frame_id: "ti_mmwave"
point_id: 26
x: 1.388671875
y: -0.568359375
z: 0.19921875
range: 1.61234796047
velocity: -0.614668667316
doppler_bin: 7
bearing: -22.2584381104
intensity: 27.2754135132
---
header: 
  seq: 930531
  stamp: 
    secs: 1561864962
    nsecs: 588154129
  frame_id: "ti_mmwave"
point_id: 27
x: 1.453125
y: -0.53515625
z: 0.12890625
range: 1.65592491627
velocity: -0.614668667316
doppler_bin: 7
bearing: -20.2177219391
intensity: 29.5999488831
---
header: 
  seq: 930532
  stamp: 
    secs: 1561864962
    nsecs: 588164864
  frame_id: "ti_mmwave"
point_id: 28
x: 1.49609375
y: -0.548828125
z: 0.064453125
range: 1.69950187206
velocity: -0.614668667316
doppler_bin: 7
bearing: -20.1450939178
intensity: 28.6272754669
---
header: 
  seq: 930533
  stamp: 
    secs: 1561864962
    nsecs: 588179121
  frame_id: "ti_mmwave"
point_id: 29
x: 0.01171875
y: 0.03125
z: 0.025390625
range: 0.0435769706964
velocity: 0.0
doppler_bin: 8
bearing: 69.4439544678
intensity: 29.31457901
---
header: 
  seq: 930534
  stamp: 
    secs: 1561864962
    nsecs: 588193780
  frame_id: "ti_mmwave"
point_id: 30
x: 0.041015625
y: -0.033203125
z: 0.0625
range: 0.0871539413929
velocity: 0.0
doppler_bin: 8
bearing: -38.9909973145
intensity: 30.0860023499
---
header: 
  seq: 930535
  stamp: 
    secs: 1561864962
    nsecs: 588202445
  frame_id: "ti_mmwave"
point_id: 31
x: 0.044921875
y: -0.046875
z: 0.103515625
range: 0.130730912089
velocity: 0.0
doppler_bin: 8
bearing: -46.218875885
intensity: 28.9597473145
---
header: 
  seq: 930536
  stamp: 
    secs: 1561864962
    nsecs: 589299216
  frame_id: "ti_mmwave"
point_id: 0
x: 0.01171875
y: -0.0390625
z: -0.0078125
range: 0.0435769706964
velocity: 0.0
doppler_bin: 8
bearing: -73.3007583618
intensity: 30.6595306396
---
header: 
  seq: 930537
  stamp: 
    secs: 1561864962
    nsecs: 589372424
  frame_id: "ti_mmwave"
point_id: 1
x: 0.017578125
y: -0.080078125
z: -0.0078125
range: 0.0871539413929
velocity: 0.0
doppler_bin: 8
bearing: -77.6192398071
intensity: 31.9033164978
---
header: 
  seq: 930538
  stamp: 
    secs: 1561864962
    nsecs: 589392925
  frame_id: "ti_mmwave"
point_id: 2
x: 0.029296875
y: -0.119140625
z: -0.005859375
range: 0.130730912089
velocity: 0.0
doppler_bin: 8
bearing: -76.1849746704
intensity: 30.1535968781
---
header: 
  seq: 930539
  stamp: 
    secs: 1561864962
    nsecs: 589408246
  frame_id: "ti_mmwave"
point_id: 3
x: 0.056640625
y: -0.154296875
z: 0.005859375
range: 0.174307882786
velocity: 0.0
doppler_bin: 8
bearing: -69.8423843384
intensity: 25.4530715942
---
header: 
  seq: 930540
  stamp: 
    secs: 1561864962
    nsecs: 589502939
  frame_id: "ti_mmwave"
point_id: 5
x: 0.15234375
y: -0.08203125
z: -1.296875
range: 1.39446306229
velocity: 0.0
doppler_bin: 8
bearing: -28.3007564545
intensity: 24.6686763763
---
header: 
  seq: 930541
  stamp: 
    secs: 1561864962
    nsecs: 589517962
  frame_id: "ti_mmwave"
point_id: 6
x: 0.494140625
y: -0.083984375
z: -1.25390625
range: 1.43804001808
velocity: 0.0
doppler_bin: 8
bearing: -9.64584445953
intensity: 23.1175384521
---
header: 
  seq: 930542
  stamp: 
    secs: 1561864962
    nsecs: 589528200
  frame_id: "ti_mmwave"
point_id: 7
x: 0.548828125
y: -0.04296875
z: -1.27734375
range: 1.48161697388
velocity: 0.0
doppler_bin: 8
bearing: -4.47665882111
intensity: 21.7318630219
---
header: 
  seq: 930543
  stamp: 
    secs: 1561864962
    nsecs: 589537117
  frame_id: "ti_mmwave"
point_id: 8
x: 2.609375
y: -0.17578125
z: 1.060546875
range: 3.00681090355
velocity: 0.0
doppler_bin: 8
bearing: -3.85392260551
intensity: 29.0525608063
---
header: 
  seq: 930544
  stamp: 
    secs: 1561864962
    nsecs: 589575514
  frame_id: "ti_mmwave"
point_id: 9
x: 2.689453125
y: -0.08984375
z: 0.98046875
range: 3.05038785934
velocity: 0.0
doppler_bin: 8
bearing: -1.91330885887
intensity: 32.1932258606
---
header: 
  seq: 930545
  stamp: 
    secs: 1561864962
    nsecs: 589587021
  frame_id: "ti_mmwave"
point_id: 10
x: 2.75
y: -0.08984375
z: 0.927734375
range: 3.09396481514
velocity: 0.0
doppler_bin: 8
bearing: -1.87121355534
intensity: 31.1360912323
---
header: 
  seq: 930546
  stamp: 
    secs: 1561864962
    nsecs: 589595175
  frame_id: "ti_mmwave"
point_id: 11
x: 4.4375
y: -0.142578125
z: 1.1328125
range: 4.88062095642
velocity: 0.0
doppler_bin: 8
bearing: -1.84029650688
intensity: 31.4238948822
---
header: 
  seq: 930547
  stamp: 
    secs: 1561864962
    nsecs: 589602795
  frame_id: "ti_mmwave"
point_id: 12
x: 4.478515625
y: -0.14453125
z: 1.1328125
range: 4.9241976738
velocity: 0.0
doppler_bin: 8
bearing: -1.84841549397
intensity: 31.176027298
---
header: 
  seq: 930548
  stamp: 
    secs: 1561864962
    nsecs: 589608555
  frame_id: "ti_mmwave"
point_id: 13
x: 4.73828125
y: -0.298828125
z: -0.59765625
range: 5.09850549698
velocity: 0.0
doppler_bin: 8
bearing: -3.60868048668
intensity: 33.3666000366
---
header: 
  seq: 930549
  stamp: 
    secs: 1561864962
    nsecs: 589643044
  frame_id: "ti_mmwave"
point_id: 14
x: 4.77734375
y: -0.30078125
z: -0.615234375
range: 5.14208269119
velocity: 0.0
doppler_bin: 8
bearing: -3.60258316994
intensity: 33.9846076965
---
header: 
  seq: 930550
  stamp: 
    secs: 1561864962
    nsecs: 589653175
  frame_id: "ti_mmwave"
point_id: 15
x: 4.810546875
y: -0.15234375
z: -0.7265625
range: 5.18565940857
velocity: 0.0
doppler_bin: 8
bearing: -1.81387650967
intensity: 30.5230903625
---
header: 
  seq: 930551
  stamp: 
    secs: 1561864962
    nsecs: 589660792
  frame_id: "ti_mmwave"
point_id: 16
x: 4.833984375
y: -0.154296875
z: 1.0546875
range: 5.27281332016
velocity: 0.0
doppler_bin: 8
bearing: -1.82821428776
intensity: 30.8849048615
---
header: 
  seq: 930552
  stamp: 
    secs: 1561864962
    nsecs: 589671597
  frame_id: "ti_mmwave"
point_id: 17
x: 1.060546875
y: -0.4296875
z: 0.05859375
range: 1.22015523911
velocity: -1.84400606155
doppler_bin: 5
bearing: -22.0556507111
intensity: 23.9269695282
---
header: 
  seq: 930553
  stamp: 
    secs: 1561864962
    nsecs: 589676955
  frame_id: "ti_mmwave"
point_id: 18
x: 1.09765625
y: -0.4453125
z: 0.052734375
range: 1.2637321949
velocity: -1.84400606155
doppler_bin: 5
bearing: -22.0820980072
intensity: 25.490032196
---
header: 
  seq: 930554
  stamp: 
    secs: 1561864962
    nsecs: 589705091
  frame_id: "ti_mmwave"
point_id: 19
x: 1.150390625
y: -0.421875
z: 0.05859375
range: 1.3073091507
velocity: -1.84400606155
doppler_bin: 5
bearing: -20.1391620636
intensity: 23.4635295868
---
header: 
  seq: 930555
  stamp: 
    secs: 1561864962
    nsecs: 589714614
  frame_id: "ti_mmwave"
point_id: 20
x: 0.009765625
y: 0.03125
z: 0.025390625
range: 0.0435769706964
velocity: 0.0
doppler_bin: 8
bearing: 72.6459732056
intensity: 29.31457901
---
header: 
  seq: 930556
  stamp: 
    secs: 1561864962
    nsecs: 589725246
  frame_id: "ti_mmwave"
point_id: 21
x: 0.041015625
y: -0.033203125
z: 0.0625
range: 0.0871539413929
velocity: 0.0
doppler_bin: 8
bearing: -38.9909973145
intensity: 30.081741333
---
header: 
  seq: 930557
  stamp: 
    secs: 1561864962
    nsecs: 589779555
  frame_id: "ti_mmwave"
point_id: 22
x: 0.044921875
y: -0.046875
z: 0.103515625
range: 0.130730912089
velocity: 0.0
doppler_bin: 8
bearing: -46.218875885
intensity: 28.9652614594
---
header: 
  seq: 930558
  stamp: 
    secs: 1561864962
    nsecs: 647748377
  frame_id: "ti_mmwave"
point_id: 0
x: 0.01171875
y: -0.0390625
z: -0.0078125
range: 0.0435769706964
velocity: 0.0
doppler_bin: 8
bearing: -73.3007583618
intensity: 30.6632595062
---
header: 
  seq: 930559
  stamp: 
    secs: 1561864962
    nsecs: 647824497
  frame_id: "ti_mmwave"
point_id: 1
x: 0.017578125
y: -0.080078125
z: -0.0078125
range: 0.0871539413929
velocity: 0.0
doppler_bin: 8
bearing: -77.6192398071
intensity: 31.9033164978
---
header: 
  seq: 930560
  stamp: 
    secs: 1561864962
    nsecs: 647835947
  frame_id: "ti_mmwave"
point_id: 2
x: 0.029296875
y: -0.119140625
z: -0.005859375
range: 0.130730912089
velocity: 0.0
doppler_bin: 8
bearing: -76.1849746704
intensity: 30.1452045441
---
header: 
  seq: 930561
  stamp: 
    secs: 1561864962
    nsecs: 647845090
  frame_id: "ti_mmwave"
point_id: 3
x: 0.056640625
y: -0.154296875
z: 0.005859375
range: 0.174307882786
velocity: 0.0
doppler_bin: 8
bearing: -69.8423843384
intensity: 25.4282550812
---
header: 
  seq: 930562
  stamp: 
    secs: 1561864962
    nsecs: 647854640
  frame_id: "ti_mmwave"
point_id: 4
x: 1.005859375
y: -0.44921875
z: 0.080078125
range: 1.1765781641
velocity: 0.0
doppler_bin: 8
bearing: -24.0656299591
intensity: 25.5630245209
---
header: 
  seq: 930563
  stamp: 
    secs: 1561864962
    nsecs: 647866355
  frame_id: "ti_mmwave"
point_id: 5
x: 1.04296875
y: -0.46484375
z: 0.0859375
range: 1.22015523911
velocity: 0.0
doppler_bin: 8
bearing: -24.0221939087
intensity: 27.8887519836
---
header: 
  seq: 930564
  stamp: 
    secs: 1561864962
    nsecs: 647881649
  frame_id: "ti_mmwave"
point_id: 6
x: 1.078125
y: -0.482421875
z: 0.107421875
range: 1.2637321949
velocity: 0.0
doppler_bin: 8
bearing: -24.1067867279
intensity: 26.6745300293
---
header: 
  seq: 930565
  stamp: 
    secs: 1561864962
    nsecs: 647898030
  frame_id: "ti_mmwave"
point_id: 7
x: 1.078125
y: -0.421875
z: 0.41015625
range: 1.3073091507
velocity: 0.0
doppler_bin: 8
bearing: -21.3706226349
intensity: 21.7897701263
---
header: 
  seq: 930566
  stamp: 
    secs: 1561864962
    nsecs: 648052372
  frame_id: "ti_mmwave"
point_id: 8
x: 0.173828125
y: -0.080078125
z: -1.25390625
range: 1.35088610649
velocity: 0.0
doppler_bin: 8
bearing: -24.7343044281
intensity: 22.9225616455
---
header: 
  seq: 930567
  stamp: 
    secs: 1561864962
    nsecs: 648070527
  frame_id: "ti_mmwave"
point_id: 9
x: 0.171875
y: -0.08203125
z: -1.294921875
range: 1.39446306229
velocity: 0.0
doppler_bin: 8
bearing: -25.5138702393
intensity: 24.5331840515
---
header: 
  seq: 930568
  stamp: 
    secs: 1561864962
    nsecs: 648079116
  frame_id: "ti_mmwave"
point_id: 10
x: 2.6171875
y: -0.17578125
z: 1.041015625
range: 3.00681090355
velocity: 0.0
doppler_bin: 8
bearing: -3.84245300293
intensity: 29.020029068
---
header: 
  seq: 930569
  stamp: 
    secs: 1561864962
    nsecs: 648087186
  frame_id: "ti_mmwave"
point_id: 11
x: 2.693359375
y: -0.08984375
z: 0.970703125
range: 3.05038785934
velocity: 0.0
doppler_bin: 8
bearing: -1.91053581238
intensity: 32.1853561401
---
header: 
  seq: 930570
  stamp: 
    secs: 1561864962
    nsecs: 648095615
  frame_id: "ti_mmwave"
point_id: 12
x: 2.755859375
y: -0.08984375
z: 0.91015625
range: 3.09396481514
velocity: 0.0
doppler_bin: 8
bearing: -1.86723792553
intensity: 31.1226978302
---
header: 
  seq: 930571
  stamp: 
    secs: 1561864962
    nsecs: 648103894
  frame_id: "ti_mmwave"
point_id: 13
x: 4.373046875
y: -0.142578125
z: 1.216796875
range: 4.83704376221
velocity: 0.0
doppler_bin: 8
bearing: -1.86740100384
intensity: 27.7597427368
---
header: 
  seq: 930572
  stamp: 
    secs: 1561864962
    nsecs: 648114273
  frame_id: "ti_mmwave"
point_id: 14
x: 4.44140625
y: -0.142578125
z: 1.11328125
range: 4.88062095642
velocity: 0.0
doppler_bin: 8
bearing: -1.83867907524
intensity: 31.427022934
---
header: 
  seq: 930573
  stamp: 
    secs: 1561864962
    nsecs: 648124259
  frame_id: "ti_mmwave"
point_id: 15
x: 4.490234375
y: -0.14453125
z: 1.083984375
range: 4.9241976738
velocity: 0.0
doppler_bin: 8
bearing: -1.84359478951
intensity: 31.209028244
---
header: 
  seq: 930574
  stamp: 
    secs: 1561864962
    nsecs: 648134695
  frame_id: "ti_mmwave"
point_id: 16
x: 4.658203125
y: -0.0
z: 0.212890625
range: 4.96777486801
velocity: 0.0
doppler_bin: 8
bearing: -0.0
intensity: 29.350030899
---
header: 
  seq: 930575
  stamp: 
    secs: 1561864962
    nsecs: 648143126
  frame_id: "ti_mmwave"
point_id: 17
x: 4.73828125
y: -0.298828125
z: -0.607421875
range: 5.09850549698
velocity: 0.0
doppler_bin: 8
bearing: -3.60868048668
intensity: 33.350566864
---
header: 
  seq: 930576
  stamp: 
    secs: 1561864962
    nsecs: 648150773
  frame_id: "ti_mmwave"
point_id: 18
x: 4.775390625
y: -0.30078125
z: -0.634765625
range: 5.14208269119
velocity: 0.0
doppler_bin: 8
bearing: -3.60405302048
intensity: 33.9585037231
---
header: 
  seq: 930577
  stamp: 
    secs: 1561864962
    nsecs: 648160550
  frame_id: "ti_mmwave"
point_id: 19
x: 4.806640625
y: -0.15234375
z: -0.7578125
range: 5.18565940857
velocity: 0.0
doppler_bin: 8
bearing: -1.81534969807
intensity: 30.5269393921
---
header: 
  seq: 930578
  stamp: 
    secs: 1561864962
    nsecs: 648165690
  frame_id: "ti_mmwave"
point_id: 20
x: 4.830078125
y: -0.154296875
z: 1.06640625
range: 5.27281332016
velocity: 0.0
doppler_bin: 8
bearing: -1.82969176769
intensity: 30.9061069489
---
header: 
  seq: 930579
  stamp: 
    secs: 1561864962
    nsecs: 648178588
  frame_id: "ti_mmwave"
point_id: 21
x: 1.380859375
y: -0.505859375
z: 0.056640625
range: 1.56877088547
velocity: -0.614668667316
doppler_bin: 7
bearing: -20.1196327209
intensity: 25.5630245209
---
header: 
  seq: 930580
  stamp: 
    secs: 1561864962
    nsecs: 648339652
  frame_id: "ti_mmwave"
point_id: 22
x: 1.435546875
y: -0.47265625
z: -0.0859375
range: 1.61234796047
velocity: -0.614668667316
doppler_bin: 7
bearing: -18.2242183685
intensity: 28.2865982056
---
header: 
  seq: 930581
  stamp: 
    secs: 1561864962
    nsecs: 648367680
  frame_id: "ti_mmwave"
point_id: 23
x: 1.451171875
y: -0.486328125
z: -0.26953125
range: 1.65592491627
velocity: -0.614668667316
doppler_bin: 7
bearing: -18.5274353027
intensity: 29.0036716461
---
header: 
  seq: 930582
  stamp: 
    secs: 1561864962
    nsecs: 648385213
  frame_id: "ti_mmwave"
point_id: 24
x: 1.484375
y: -0.44921875
z: -0.376953125
range: 1.69950187206
velocity: -0.614668667316
doppler_bin: 7
bearing: -16.8374729156
intensity: 27.5127906799
---
header: 
  seq: 930583
  stamp: 
    secs: 1561864962
    nsecs: 648394546
  frame_id: "ti_mmwave"
point_id: 25
x: 0.009765625
y: 0.03125
z: 0.025390625
range: 0.0435769706964
velocity: 0.0
doppler_bin: 8
bearing: 72.6459732056
intensity: 29.3094902039
---
header: 
  seq: 930584
  stamp: 
    secs: 1561864962
    nsecs: 648544610
  frame_id: "ti_mmwave"
point_id: 26
x: 0.041015625
y: -0.033203125
z: 0.0625
range: 0.0871539413929
velocity: 0.0
doppler_bin: 8
bearing: -38.9909973145
intensity: 30.0860023499
---
header: 
  seq: 930585
  stamp: 
    secs: 1561864962
    nsecs: 648563864
  frame_id: "ti_mmwave"
point_id: 27
x: 0.044921875
y: -0.046875
z: 0.103515625
range: 0.130730912089
velocity: 0.0
doppler_bin: 8
bearing: -46.218875885
intensity: 28.9707698822
---
header: 
  seq: 930586
  stamp: 
    secs: 1561864962
    nsecs: 649415619
  frame_id: "ti_mmwave"
point_id: 0
x: 0.01171875
y: -0.0390625
z: -0.0078125
range: 0.0435769706964
velocity: 0.0
doppler_bin: 8
bearing: -73.3007583618
intensity: 30.6595306396
---
header: 
  seq: 930587
  stamp: 
    secs: 1561864962
    nsecs: 649472870
  frame_id: "ti_mmwave"
point_id: 1
x: 0.017578125
y: -0.080078125
z: -0.0078125
range: 0.0871539413929
velocity: 0.0
doppler_bin: 8
bearing: -77.6192398071
intensity: 31.9005146027
---
header: 
  seq: 930588
  stamp: 
    secs: 1561864962
    nsecs: 649489611
  frame_id: "ti_mmwave"
point_id: 2
x: 0.029296875
y: -0.119140625
z: -0.005859375
range: 0.130730912089
velocity: 0.0
doppler_bin: 8
bearing: -76.1849746704
intensity: 30.1452045441
---
header: 
  seq: 930589
  stamp: 
    secs: 1561864962
    nsecs: 649499737
  frame_id: "ti_mmwave"
point_id: 3
x: 0.056640625
y: -0.154296875
z: 0.005859375
range: 0.174307882786
velocity: 0.0
doppler_bin: 8
bearing: -69.8423843384
intensity: 25.4282550812
---
header: 
  seq: 930590
  stamp: 
    secs: 1561864962
    nsecs: 649509510
  frame_id: "ti_mmwave"
point_id: 4
x: 0.126953125
y: -0.080078125
z: -1.259765625
range: 1.35088610649
velocity: 0.0
doppler_bin: 8
bearing: -32.2424697876
intensity: 23.138671875
---
header: 
  seq: 930591
  stamp: 
    secs: 1561864962
    nsecs: 649568035
  frame_id: "ti_mmwave"
point_id: 6
x: 0.505859375
y: -0.083984375
z: -1.248046875
range: 1.43804001808
velocity: 0.0
doppler_bin: 8
bearing: -9.42644500732
intensity: 22.9666519165
---
header: 
  seq: 930592
  stamp: 
    secs: 1561864962
    nsecs: 649577281
  frame_id: "ti_mmwave"
point_id: 7
x: 2.61328125
y: -0.17578125
z: 1.048828125
range: 3.00681090355
velocity: 0.0
doppler_bin: 8
bearing: -3.84817934036
intensity: 29.0254669189
---
header: 
  seq: 930593
  stamp: 
    secs: 1561864962
    nsecs: 649585655
  frame_id: "ti_mmwave"
point_id: 8
x: 2.69140625
y: -0.08984375
z: 0.97265625
range: 3.05038785934
velocity: 0.0
doppler_bin: 8
bearing: -1.91192126274
intensity: 32.1879806519
---
header: 
  seq: 930594
  stamp: 
    secs: 1561864962
    nsecs: 649595463
  frame_id: "ti_mmwave"
point_id: 9
x: 2.75390625
y: -0.08984375
z: 0.916015625
range: 3.09396481514
velocity: 0.0
doppler_bin: 8
bearing: -1.86856126785
intensity: 31.1394329071
---
header: 
  seq: 930595
  stamp: 
    secs: 1561864962
    nsecs: 649603724
  frame_id: "ti_mmwave"
point_id: 10
x: 4.36328125
y: -0.142578125
z: 1.25
range: 4.83704376221
velocity: 0.0
doppler_bin: 8
bearing: -1.8715775013
intensity: 27.678976059
---
header: 
  seq: 930596
  stamp: 
    secs: 1561864962
    nsecs: 649613419
  frame_id: "ti_mmwave"
point_id: 11
x: 4.435546875
y: -0.142578125
z: 1.138671875
range: 4.88062095642
velocity: 0.0
doppler_bin: 8
bearing: -1.84110629559
intensity: 31.3987903595
---
header: 
  seq: 930597
  stamp: 
    secs: 1561864962
    nsecs: 649624733
  frame_id: "ti_mmwave"
point_id: 12
x: 4.482421875
y: -0.14453125
z: 1.119140625
range: 4.9241976738
velocity: 0.0
doppler_bin: 8
bearing: -1.84680569172
intensity: 31.176027298
---
header: 
  seq: 930598
  stamp: 
    secs: 1561864962
    nsecs: 649638134
  frame_id: "ti_mmwave"
point_id: 13
x: 4.73828125
y: -0.298828125
z: -0.603515625
range: 5.09850549698
velocity: 0.0
doppler_bin: 8
bearing: -3.60868048668
intensity: 33.3525733948
---
header: 
  seq: 930599
  stamp: 
    secs: 1561864962
    nsecs: 649650180
  frame_id: "ti_mmwave"
point_id: 14
x: 4.77734375
y: -0.30078125
z: -0.6171875
range: 5.14208269119
velocity: 0.0
doppler_bin: 8
bearing: -3.60258316994
intensity: 33.9984664917
---
header: 
  seq: 930600
  stamp: 
    secs: 1561864962
    nsecs: 649679263
  frame_id: "ti_mmwave"
point_id: 15
x: 4.810546875
y: -0.15234375
z: -0.73046875
range: 5.18565940857
velocity: 0.0
doppler_bin: 8
bearing: -1.81387650967
intensity: 30.6182937622
---
header: 
  seq: 930601
  stamp: 
    secs: 1561864962
    nsecs: 649749228
  frame_id: "ti_mmwave"
point_id: 16
x: 4.84765625
y: -0.154296875
z: 0.990234375
range: 5.27281332016
velocity: 0.0
doppler_bin: 8
bearing: -1.82306158543
intensity: 30.9377174377
---
header: 
  seq: 930602
  stamp: 
    secs: 1561864962
    nsecs: 649766877
  frame_id: "ti_mmwave"
point_id: 17
x: 1.037109375
y: -0.37890625
z: 0.04296875
range: 1.1765781641
velocity: 0.614668667316
doppler_bin: 9
bearing: -20.069694519
intensity: 20.3742656708
---
header: 
  seq: 930603
  stamp: 
    secs: 1561864962
    nsecs: 649782198
  frame_id: "ti_mmwave"
point_id: 18
x: 1.060546875
y: -0.4296875
z: 0.04296875
range: 1.22015523911
velocity: 0.614668667316
doppler_bin: 9
bearing: -22.0556507111
intensity: 23.5024795532
---
header: 
  seq: 930604
  stamp: 
    secs: 1561864962
    nsecs: 649795483
  frame_id: "ti_mmwave"
point_id: 19
x: 1.125
y: -0.37109375
z: 0.0703125
range: 1.2637321949
velocity: 0.614668667316
doppler_bin: 9
bearing: -18.2557125092
intensity: 23.2221927643
---
header: 
  seq: 930605
  stamp: 
    secs: 1561864962
    nsecs: 649807735
  frame_id: "ti_mmwave"
point_id: 20
x: 1.392578125
y: -0.4609375
z: 0.12890625
range: 1.56877088547
velocity: -0.614668667316
doppler_bin: 7
bearing: -18.3143253326
intensity: 26.1384181976
---
header: 
  seq: 930606
  stamp: 
    secs: 1561864962
    nsecs: 649818426
  frame_id: "ti_mmwave"
point_id: 21
x: 1.451171875
y: -0.42578125
z: 0.060546875
range: 1.61234796047
velocity: -0.614668667316
doppler_bin: 7
bearing: -16.3519573212
intensity: 28.4385547638
---
header: 
  seq: 930607
  stamp: 
    secs: 1561864962
    nsecs: 649831831
  frame_id: "ti_mmwave"
point_id: 22
x: 1.490234375
y: -0.4375
z: -0.0625
range: 1.65592491627
velocity: -0.614668667316
doppler_bin: 7
bearing: -16.361076355
intensity: 28.4571800232
---
header: 
  seq: 930608
  stamp: 
    secs: 1561864962
    nsecs: 649844701
  frame_id: "ti_mmwave"
point_id: 23
x: 1.544921875
y: -0.349609375
z: -0.193359375
range: 1.69950187206
velocity: -0.614668667316
doppler_bin: 7
bearing: -12.7510318756
intensity: 25.8771095276
---
header: 
  seq: 930609
  stamp: 
    secs: 1561864962
    nsecs: 649858627
  frame_id: "ti_mmwave"
point_id: 24
x: 0.009765625
y: 0.03125
z: 0.025390625
range: 0.0435769706964
velocity: 0.0
doppler_bin: 8
bearing: 72.6459732056
intensity: 29.3043956757
---
header: 
  seq: 930610
  stamp: 
    secs: 1561864962
    nsecs: 649871793
  frame_id: "ti_mmwave"
point_id: 25
x: 0.041015625
y: -0.033203125
z: 0.0625
range: 0.0871539413929
velocity: 0.0
doppler_bin: 8
bearing: -38.9909973145
intensity: 30.0860023499
---
header: 
  seq: 930611
  stamp: 
    secs: 1561864962
    nsecs: 649884550
  frame_id: "ti_mmwave"
point_id: 26
x: 0.044921875
y: -0.046875
z: 0.103515625
range: 0.130730912089
velocity: 0.0
doppler_bin: 8
bearing: -46.218875885
intensity: 28.9652614594
---
header: 
  seq: 930612
  stamp: 
    secs: 1561864962
    nsecs: 707793567
  frame_id: "ti_mmwave"
point_id: 0
x: 0.01171875
y: -0.0390625
z: -0.0078125
range: 0.0435769706964
velocity: 0.0
doppler_bin: 8
bearing: -73.3007583618
intensity: 30.6632595062
---
header: 
  seq: 930613
  stamp: 
    secs: 1561864962
    nsecs: 707873661
  frame_id: "ti_mmwave"
point_id: 1
x: 0.017578125
y: -0.080078125
z: -0.0078125
range: 0.0871539413929
velocity: 0.0
doppler_bin: 8
bearing: -77.6192398071
intensity: 31.9005146027
---
header: 
  seq: 930614
  stamp: 
    secs: 1561864962
    nsecs: 707885015
  frame_id: "ti_mmwave"
point_id: 2
x: 0.029296875
y: -0.119140625
z: -0.005859375
range: 0.130730912089
velocity: 0.0
doppler_bin: 8
bearing: -76.1849746704
intensity: 30.1494026184
---
header: 
  seq: 930615
  stamp: 
    secs: 1561864962
    nsecs: 707893800
  frame_id: "ti_mmwave"
point_id: 3
x: 0.056640625
y: -0.154296875
z: 0.005859375
range: 0.174307882786
velocity: 0.0
doppler_bin: 8
bearing: -69.8423843384
intensity: 25.4530715942
---
header: 
  seq: 930616
  stamp: 
    secs: 1561864962
    nsecs: 707902029
  frame_id: "ti_mmwave"
point_id: 4
x: 0.375
y: -0.080078125
z: -1.208984375
range: 1.35088610649
velocity: 0.0
doppler_bin: 8
bearing: -12.0539922714
intensity: 23.1175384521
---
header: 
  seq: 930617
  stamp: 
    secs: 1561864962
    nsecs: 707909836
  frame_id: "ti_mmwave"
point_id: 5
x: 0.189453125
y: -0.08203125
z: -1.29296875
range: 1.39446306229
velocity: 0.0
doppler_bin: 8
bearing: -23.412115097
intensity: 24.5331840515
---
header: 
  seq: 930618
  stamp: 
    secs: 1561864962
    nsecs: 707917662
  frame_id: "ti_mmwave"
point_id: 6
x: 0.287109375
y: -0.04296875
z: -1.318359375
range: 1.43804001808
velocity: 0.0
doppler_bin: 8
bearing: -8.51170444489
intensity: 22.718416214
---
header: 
  seq: 930619
  stamp: 
    secs: 1561864962
    nsecs: 707925242
  frame_id: "ti_mmwave"
point_id: 7
x: 2.609375
y: -0.17578125
z: 1.0625
range: 3.00681090355
velocity: 0.0
doppler_bin: 8
bearing: -3.85392260551
intensity: 29.0091304779
---
header: 
  seq: 930620
  stamp: 
    secs: 1561864962
    nsecs: 707934786
  frame_id: "ti_mmwave"
point_id: 8
x: 2.6875
y: -0.08984375
z: 0.984375
range: 3.05038785934
velocity: 0.0
doppler_bin: 8
bearing: -1.91469812393
intensity: 32.1906051636
---
header: 
  seq: 930621
  stamp: 
    secs: 1561864962
    nsecs: 707976567
  frame_id: "ti_mmwave"
point_id: 9
x: 2.751953125
y: -0.08984375
z: 0.92578125
range: 3.09396481514
velocity: 0.0
doppler_bin: 8
bearing: -1.86988639832
intensity: 31.119342804
---
header: 
  seq: 930622
  stamp: 
    secs: 1561864962
    nsecs: 707987029
  frame_id: "ti_mmwave"
point_id: 10
x: 4.431640625
y: -0.142578125
z: 1.15234375
range: 4.88062095642
velocity: 0.0
doppler_bin: 8
bearing: -1.84272778034
intensity: 31.3640346527
---
header: 
  seq: 930623
  stamp: 
    secs: 1561864962
    nsecs: 707998792
  frame_id: "ti_mmwave"
point_id: 11
x: 4.48046875
y: -0.14453125
z: 1.12890625
range: 4.9241976738
velocity: 0.0
doppler_bin: 8
bearing: -1.847610116
intensity: 31.1294002533
---
header: 
  seq: 930624
  stamp: 
    secs: 1561864962
    nsecs: 708006946
  frame_id: "ti_mmwave"
point_id: 12
x: 4.7421875
y: -0.298828125
z: -0.580078125
range: 5.09850549698
velocity: 0.0
doppler_bin: 8
bearing: -3.60571622849
intensity: 33.300075531
---
header: 
  seq: 930625
  stamp: 
    secs: 1561864962
    nsecs: 708015727
  frame_id: "ti_mmwave"
point_id: 13
x: 4.779296875
y: -0.30078125
z: -0.611328125
range: 5.14208269119
velocity: 0.0
doppler_bin: 8
bearing: -3.60111522675
intensity: 33.8898887634
---
header: 
  seq: 930626
  stamp: 
    secs: 1561864962
    nsecs: 708023753
  frame_id: "ti_mmwave"
point_id: 14
x: 4.80859375
y: -0.15234375
z: -0.744140625
range: 5.18565940857
velocity: 0.0
doppler_bin: 8
bearing: -1.81461262703
intensity: 30.4766426086
---
header: 
  seq: 930627
  stamp: 
    secs: 1561864962
    nsecs: 708032847
  frame_id: "ti_mmwave"
point_id: 15
x: 4.849609375
y: -0.154296875
z: 0.98046875
range: 5.27281332016
velocity: 0.0
doppler_bin: 8
bearing: -1.82232797146
intensity: 30.962146759
---
header: 
  seq: 930628
  stamp: 
    secs: 1561864962
    nsecs: 708041177
  frame_id: "ti_mmwave"
point_id: 16
x: 1.037109375
y: -0.37890625
z: -0.013671875
range: 1.1765781641
velocity: 0.614668667316
doppler_bin: 9
bearing: -20.069694519
intensity: 20.4532299042
---
header: 
  seq: 930629
  stamp: 
    secs: 1561864962
    nsecs: 708049670
  frame_id: "ti_mmwave"
point_id: 17
x: 1.087890625
y: -0.357421875
z: -0.03125
range: 1.22015523911
velocity: 0.614668667316
doppler_bin: 9
bearing: -18.1877193451
intensity: 25.0785579681
---
header: 
  seq: 930630
  stamp: 
    secs: 1561864962
    nsecs: 708076496
  frame_id: "ti_mmwave"
point_id: 18
x: 1.111328125
y: -0.408203125
z: -0.072265625
range: 1.2637321949
velocity: 0.614668667316
doppler_bin: 9
bearing: -20.1688423157
intensity: 25.8994960785
---
header: 
  seq: 930631
  stamp: 
    secs: 1561864962
    nsecs: 708085223
  frame_id: "ti_mmwave"
point_id: 19
x: 1.158203125
y: -0.345703125
z: -0.212890625
range: 1.3073091507
velocity: 0.614668667316
doppler_bin: 9
bearing: -16.6194324493
intensity: 23.3041381836
---
header: 
  seq: 930632
  stamp: 
    secs: 1561864962
    nsecs: 708100347
  frame_id: "ti_mmwave"
point_id: 20
x: 1.455078125
y: -0.6484375
z: -0.091796875
range: 1.69950187206
velocity: -1.22933733463
doppler_bin: 6
bearing: -24.0195484161
intensity: 23.7291202545
---
header: 
  seq: 930633
  stamp: 
    secs: 1561864962
    nsecs: 708113865
  frame_id: "ti_mmwave"
point_id: 21
x: 1.484375
y: -0.6640625
z: -0.17578125
range: 1.74307882786
velocity: -1.22933733463
doppler_bin: 6
bearing: -24.1022357941
intensity: 23.3243846893
---
header: 
  seq: 930634
  stamp: 
    secs: 1561864962
    nsecs: 708127862
  frame_id: "ti_mmwave"
point_id: 22
x: 1.326171875
y: -0.4921875
z: 0.224609375
range: 1.52519392967
velocity: -0.614668667316
doppler_bin: 7
bearing: -20.3616027832
intensity: 26.0422611237
---
header: 
  seq: 930635
  stamp: 
    secs: 1561864962
    nsecs: 708141027
  frame_id: "ti_mmwave"
point_id: 23
x: 1.36328125
y: -0.505859375
z: 0.23046875
range: 1.56877088547
velocity: -0.614668667316
doppler_bin: 7
bearing: -20.3578834534
intensity: 28.3378429413
---
header: 
  seq: 930636
  stamp: 
    secs: 1561864962
    nsecs: 708154707
  frame_id: "ti_mmwave"
point_id: 24
x: 1.400390625
y: -0.51953125
z: 0.240234375
range: 1.61234796047
velocity: -0.614668667316
doppler_bin: 7
bearing: -20.3543624878
intensity: 27.3878059387
---
header: 
  seq: 930637
  stamp: 
    secs: 1561864962
    nsecs: 708168941
  frame_id: "ti_mmwave"
point_id: 25
x: 0.009765625
y: 0.03125
z: 0.025390625
range: 0.0435769706964
velocity: 0.0
doppler_bin: 8
bearing: 72.6459732056
intensity: 29.3094902039
---
header: 
  seq: 930638
  stamp: 
    secs: 1561864962
    nsecs: 708182399
  frame_id: "ti_mmwave"
point_id: 26
x: 0.041015625
y: -0.033203125
z: 0.0625
range: 0.0871539413929
velocity: 0.0
doppler_bin: 8
bearing: -38.9909973145
intensity: 30.081741333
---
header: 
  seq: 930639
  stamp: 
    secs: 1561864962
    nsecs: 708197139
  frame_id: "ti_mmwave"
point_id: 27
x: 0.044921875
y: -0.046875
z: 0.103515625
range: 0.130730912089
velocity: 0.0
doppler_bin: 8
bearing: -46.218875885
intensity: 28.9707698822
---
header: 
  seq: 930640
  stamp: 
    secs: 1561864962
    nsecs: 708207140
  frame_id: "ti_mmwave"
point_id: 29
x: 1.150390625
y: -0.37890625
z: 0.59765625
range: 1.43804001808
velocity: 0.0
doppler_bin: 8
bearing: -18.230424881
intensity: 19.9122600555
---
header: 
  seq: 930641
  stamp: 
    secs: 1561864962
    nsecs: 709404640
  frame_id: "ti_mmwave"
point_id: 0
x: 0.01171875
y: -0.0390625
z: -0.0078125
range: 0.0435769706964
velocity: 0.0
doppler_bin: 8
bearing: -73.3007583618
intensity: 30.6483230591
---
header: 
  seq: 930642
  stamp: 
    secs: 1561864962
    nsecs: 709478266
  frame_id: "ti_mmwave"
point_id: 1
x: 0.017578125
y: -0.080078125
z: -0.0078125
range: 0.0871539413929
velocity: 0.0
doppler_bin: 8
bearing: -77.6192398071
intensity: 31.8977088928
---
header: 
  seq: 930643
  stamp: 
    secs: 1561864962
    nsecs: 709497545
  frame_id: "ti_mmwave"
point_id: 2
x: 0.029296875
y: -0.119140625
z: -0.005859375
range: 0.130730912089
velocity: 0.0
doppler_bin: 8
bearing: -76.1849746704
intensity: 30.1452045441
---
header: 
  seq: 930644
  stamp: 
    secs: 1561864962
    nsecs: 709509586
  frame_id: "ti_mmwave"
point_id: 3
x: 0.056640625
y: -0.154296875
z: 0.005859375
range: 0.174307882786
velocity: 0.0
doppler_bin: 8
bearing: -69.8423843384
intensity: 25.4406795502
---
header: 
  seq: 930645
  stamp: 
    secs: 1561864962
    nsecs: 709522056
  frame_id: "ti_mmwave"
point_id: 4
x: 0.4453125
y: -0.080078125
z: 1.185546875
range: 1.35088610649
velocity: 0.0
doppler_bin: 8
bearing: -10.1942367554
intensity: 23.1806335449
---
header: 
  seq: 930646
  stamp: 
    secs: 1561864962
    nsecs: 709533889
  frame_id: "ti_mmwave"
point_id: 5
x: 0.265625
y: -0.08203125
z: 1.279296875
range: 1.39446306229
velocity: 0.0
doppler_bin: 8
bearing: -17.1619186401
intensity: 24.5331840515
---
header: 
  seq: 930647
  stamp: 
    secs: 1561864962
    nsecs: 709546132
  frame_id: "ti_mmwave"
point_id: 6
x: 0.12109375
y: -0.04296875
z: 1.34375
range: 1.43804001808
velocity: 0.0
doppler_bin: 8
bearing: -19.536655426
intensity: 22.6481781006
---
header: 
  seq: 930648
  stamp: 
    secs: 1561864962
    nsecs: 709559262
  frame_id: "ti_mmwave"
point_id: 7
x: 1.435546875
y: -0.388671875
z: -0.451171875
range: 1.65592491627
velocity: 0.0
doppler_bin: 8
bearing: -15.1495285034
intensity: 27.1683769226
---
header: 
  seq: 930649
  stamp: 
    secs: 1561864962
    nsecs: 709573405
  frame_id: "ti_mmwave"
point_id: 8
x: 2.61328125
y: -0.17578125
z: 1.05078125
range: 3.00681090355
velocity: 0.0
doppler_bin: 8
bearing: -3.84817934036
intensity: 29.0308990479
---
header: 
  seq: 930650
  stamp: 
    secs: 1561864962
    nsecs: 709588321
  frame_id: "ti_mmwave"
point_id: 9
x: 2.689453125
y: -0.08984375
z: 0.9765625
range: 3.05038785934
velocity: 0.0
doppler_bin: 8
bearing: -1.91330885887
intensity: 32.1827278137
---
header: 
  seq: 930651
  stamp: 
    secs: 1561864962
    nsecs: 709600659
  frame_id: "ti_mmwave"
point_id: 10
x: 2.755859375
y: -0.08984375
z: 0.912109375
range: 3.09396481514
velocity: 0.0
doppler_bin: 8
bearing: -1.86723792553
intensity: 31.1092624664
---
header: 
  seq: 930652
  stamp: 
    secs: 1561864962
    nsecs: 709613270
  frame_id: "ti_mmwave"
point_id: 11
x: 4.435546875
y: -0.142578125
z: 1.140625
range: 4.88062095642
velocity: 0.0
doppler_bin: 8
bearing: -1.84110629559
intensity: 31.3956432343
---
header: 
  seq: 930653
  stamp: 
    secs: 1561864962
    nsecs: 709626624
  frame_id: "ti_mmwave"
point_id: 12
x: 4.482421875
y: -0.14453125
z: 1.12109375
range: 4.9241976738
velocity: 0.0
doppler_bin: 8
bearing: -1.84680569172
intensity: 31.205739975
---
header: 
  seq: 930654
  stamp: 
    secs: 1561864962
    nsecs: 709640576
  frame_id: "ti_mmwave"
point_id: 13
x: 4.740234375
y: -0.298828125
z: -0.587890625
range: 5.09850549698
velocity: 0.0
doppler_bin: 8
bearing: -3.60719799995
intensity: 33.31224823
---
header: 
  seq: 930655
  stamp: 
    secs: 1561864962
    nsecs: 709652343
  frame_id: "ti_mmwave"
point_id: 14
x: 4.77734375
y: -0.30078125
z: -0.6171875
range: 5.14208269119
velocity: 0.0
doppler_bin: 8
bearing: -3.60258316994
intensity: 33.9445152283
---
header: 
  seq: 930656
  stamp: 
    secs: 1561864962
    nsecs: 709665885
  frame_id: "ti_mmwave"
point_id: 15
x: 4.80859375
y: -0.15234375
z: -0.748046875
range: 5.18565940857
velocity: 0.0
doppler_bin: 8
bearing: -1.81461262703
intensity: 30.6069774628
---
header: 
  seq: 930657
  stamp: 
    secs: 1561864962
    nsecs: 709677552
  frame_id: "ti_mmwave"
point_id: 16
x: 4.8359375
y: -0.154296875
z: 1.041015625
range: 5.27281332016
velocity: 0.0
doppler_bin: 8
bearing: -1.82747626305
intensity: 31.0002574921
---
header: 
  seq: 930658
  stamp: 
    secs: 1561864962
    nsecs: 709691167
  frame_id: "ti_mmwave"
point_id: 17
x: 1.083984375
y: -0.357421875
z: -0.09375
range: 1.22015523911
velocity: 0.614668667316
doppler_bin: 9
bearing: -18.2489242554
intensity: 23.4242267609
---
header: 
  seq: 930659
  stamp: 
    secs: 1561864962
    nsecs: 709704611
  frame_id: "ti_mmwave"
point_id: 18
x: 1.123046875
y: -0.37109375
z: -0.095703125
range: 1.2637321949
velocity: 0.614668667316
doppler_bin: 9
bearing: -18.2853507996
intensity: 25.7634143829
---
header: 
  seq: 930660
  stamp: 
    secs: 1561864962
    nsecs: 709717324
  frame_id: "ti_mmwave"
point_id: 19
x: 1.1640625
y: -0.3828125
z: -0.060546875
range: 1.3073091507
velocity: 0.614668667316
doppler_bin: 9
bearing: -18.203918457
intensity: 24.4715805054
---
header: 
  seq: 930661
  stamp: 
    secs: 1561864962
    nsecs: 709730899
  frame_id: "ti_mmwave"
point_id: 20
x: 1.296875
y: -0.478515625
z: 0.158203125
range: 1.48161697388
velocity: -0.614668667316
doppler_bin: 7
bearing: -20.2528457642
intensity: 23.7839794159
---
header: 
  seq: 930662
  stamp: 
    secs: 1561864962
    nsecs: 709742758
  frame_id: "ti_mmwave"
point_id: 21
x: 1.3359375
y: -0.4921875
z: 0.158203125
range: 1.52519392967
velocity: -0.614668667316
doppler_bin: 7
bearing: -20.2248592377
intensity: 28.5973854065
---
header: 
  seq: 930663
  stamp: 
    secs: 1561864962
    nsecs: 709757675
  frame_id: "ti_mmwave"
point_id: 22
x: 1.388671875
y: -0.4609375
z: 0.162109375
range: 1.56877088547
velocity: -0.614668667316
doppler_bin: 7
bearing: -18.3623924255
intensity: 29.9607372284
---
header: 
  seq: 930664
  stamp: 
    secs: 1561864962
    nsecs: 709770995
  frame_id: "ti_mmwave"
point_id: 23
x: 1.4375
