header: 
  seq: 1030739
  stamp: 
    secs: 1561865097
    nsecs: 627811103
  frame_id: "ti_mmwave"
point_id: 0
x: 0.01171875
y: -0.0390625
z: -0.0078125
range: 0.0435769706964
velocity: 0.0
doppler_bin: 8
bearing: -73.3007583618
intensity: 30.6445808411
---
header: 
  seq: 1030740
  stamp: 
    secs: 1561865097
    nsecs: 627920163
  frame_id: "ti_mmwave"
point_id: 1
x: 0.017578125
y: -0.080078125
z: -0.0078125
range: 0.0871539413929
velocity: 0.0
doppler_bin: 8
bearing: -77.6192398071
intensity: 31.9033164978
---
header: 
  seq: 1030741
  stamp: 
    secs: 1561865097
    nsecs: 627941478
  frame_id: "ti_mmwave"
point_id: 2
x: 0.029296875
y: -0.119140625
z: -0.005859375
range: 0.130730912089
velocity: 0.0
doppler_bin: 8
bearing: -76.1849746704
intensity: 30.1535968781
---
header: 
  seq: 1030742
  stamp: 
    secs: 1561865097
    nsecs: 628003220
  frame_id: "ti_mmwave"
point_id: 3
x: 0.056640625
y: -0.154296875
z: 0.005859375
range: 0.174307882786
velocity: 0.0
doppler_bin: 8
bearing: -69.8423843384
intensity: 25.4777469635
---
header: 
  seq: 1030743
  stamp: 
    secs: 1561865097
    nsecs: 628019011
  frame_id: "ti_mmwave"
point_id: 4
x: 1.294921875
y: -0.37890625
z: 0.052734375
range: 1.43804001808
velocity: 0.0
doppler_bin: 8
bearing: -16.3099689484
intensity: 24.5178642273
---
header: 
  seq: 1030744
  stamp: 
    secs: 1561865097
    nsecs: 628101283
  frame_id: "ti_mmwave"
point_id: 5
x: 1.34375
y: -0.3046875
z: -0.189453125
range: 1.48161697388
velocity: 0.0
doppler_bin: 8
bearing: -12.7754678726
intensity: 26.3245735168
---
header: 
  seq: 1030745
  stamp: 
    secs: 1561865097
    nsecs: 628117441
  frame_id: "ti_mmwave"
point_id: 6
x: 2.615234375
y: -0.17578125
z: 1.044921875
range: 3.00681090355
velocity: 0.0
doppler_bin: 8
bearing: -3.84531402588
intensity: 29.020029068
---
header: 
  seq: 1030746
  stamp: 
    secs: 1561865097
    nsecs: 628132676
  frame_id: "ti_mmwave"
point_id: 7
x: 2.689453125
y: -0.08984375
z: 0.978515625
range: 3.05038785934
velocity: 0.0
doppler_bin: 8
bearing: -1.91330885887
intensity: 32.1906051636
---
header: 
  seq: 1030747
  stamp: 
    secs: 1561865097
    nsecs: 628146431
  frame_id: "ti_mmwave"
point_id: 8
x: 2.751953125
y: -0.08984375
z: 0.92578125
range: 3.09396481514
velocity: 0.0
doppler_bin: 8
bearing: -1.86988639832
intensity: 31.1561050415
---
header: 
  seq: 1030748
  stamp: 
    secs: 1561865097
    nsecs: 628198503
  frame_id: "ti_mmwave"
point_id: 9
x: 4.4140625
y: -0.142578125
z: 1.216796875
range: 4.88062095642
velocity: 0.0
doppler_bin: 8
bearing: -1.850061059
intensity: 31.2483005524
---
header: 
  seq: 1030749
  stamp: 
    secs: 1561865097
    nsecs: 628212494
  frame_id: "ti_mmwave"
point_id: 10
x: 4.466796875
y: -0.14453125
z: 1.177734375
range: 4.9241976738
velocity: 0.0
doppler_bin: 8
bearing: -1.85326147079
intensity: 30.7627620697
---
header: 
  seq: 1030750
  stamp: 
    secs: 1561865097
    nsecs: 628226856
  frame_id: "ti_mmwave"
point_id: 11
x: 4.80859375
y: -0.306640625
z: 0.94140625
range: 5.22923660278
velocity: 0.0
doppler_bin: 8
bearing: -3.64877080917
intensity: 29.6661090851
---
header: 
  seq: 1030751
  stamp: 
    secs: 1561865097
    nsecs: 628241658
  frame_id: "ti_mmwave"
point_id: 12
x: 4.83984375
y: -0.154296875
z: 1.0234375
range: 5.27281332016
velocity: 0.0
doppler_bin: 8
bearing: -1.82600235939
intensity: 30.8421859741
---
header: 
  seq: 1030752
  stamp: 
    secs: 1561865097
    nsecs: 628257228
  frame_id: "ti_mmwave"
point_id: 13
x: 1.111328125
y: -0.4609375
z: -0.2421875
range: 1.3073091507
velocity: 0.614668667316
doppler_bin: 9
bearing: -22.5268516541
intensity: 24.1497325897
---
header: 
  seq: 1030753
  stamp: 
    secs: 1561865097
    nsecs: 628271441
  frame_id: "ti_mmwave"
point_id: 14
x: 1.169921875
y: -0.435546875
z: -0.224609375
range: 1.35088610649
velocity: 0.614668667316
doppler_bin: 9
bearing: -20.4196529388
intensity: 27.0842094421
---
header: 
  seq: 1030754
  stamp: 
    secs: 1561865097
    nsecs: 628323969
  frame_id: "ti_mmwave"
point_id: 15
x: 1.224609375
y: -0.44921875
z: -0.109375
range: 1.39446306229
velocity: 0.614668667316
doppler_bin: 9
bearing: -20.1443576813
intensity: 26.5801143646
---
header: 
  seq: 1030755
  stamp: 
    secs: 1561865097
    nsecs: 628341062
  frame_id: "ti_mmwave"
point_id: 16
x: 1.150390625
y: 0.22265625
z: -0.185546875
range: 1.2637321949
velocity: -2.45867466927
doppler_bin: 4
bearing: 10.9540624619
intensity: 21.7609119415
---
header: 
  seq: 1030756
  stamp: 
    secs: 1561865097
    nsecs: 628357650
  frame_id: "ti_mmwave"
point_id: 17
x: 1.189453125
y: 0.23046875
z: -0.189453125
range: 1.3073091507
velocity: -2.45867466927
doppler_bin: 4
bearing: 10.9657640457
intensity: 23.2221927643
---
header: 
  seq: 1030757
  stamp: 
    secs: 1561865097
    nsecs: 628374689
  frame_id: "ti_mmwave"
point_id: 18
x: 1.232421875
y: 0.23828125
z: -0.185546875
range: 1.35088610649
velocity: -2.45867466927
doppler_bin: 4
bearing: 10.9427690506
intensity: 21.875207901
---
header: 
  seq: 1030758
  stamp: 
    secs: 1561865097
    nsecs: 628392778
  frame_id: "ti_mmwave"
point_id: 19
x: 1.380859375
y: 0.04296875
z: -0.16796875
range: 1.48161697388
velocity: -1.84400606155
doppler_bin: 5
bearing: 1.78232049942
intensity: 24.3456897736
---
header: 
  seq: 1030759
  stamp: 
    secs: 1561865097
    nsecs: 628416658
  frame_id: "ti_mmwave"
point_id: 20
x: 1.423828125
y: 0.044921875
z: -0.13671875
range: 1.52519392967
velocity: -1.84400606155
doppler_bin: 5
bearing: 1.80708646774
intensity: 27.0415058136
---
header: 
  seq: 1030760
  stamp: 
    secs: 1561865097
    nsecs: 628441040
  frame_id: "ti_mmwave"
point_id: 21
x: 1.466796875
y: 0.046875
z: -0.12109375
range: 1.56877088547
velocity: -1.84400606155
doppler_bin: 5
bearing: 1.83040058613
intensity: 26.2013607025
---
header: 
  seq: 1030761
  stamp: 
    secs: 1561865097
    nsecs: 628497506
  frame_id: "ti_mmwave"
point_id: 22
x: 1.509765625
y: 0.046875
z: -0.1015625
range: 1.61234796047
velocity: -1.84400606155
doppler_bin: 5
bearing: 1.77834033966
intensity: 21.9033164978
---
header: 
  seq: 1030762
  stamp: 
    secs: 1561865097
    nsecs: 628522294
  frame_id: "ti_mmwave"
point_id: 23
x: 0.009765625
y: 0.03125
z: 0.025390625
range: 0.0435769706964
velocity: 0.0
doppler_bin: 8
bearing: 72.6459732056
intensity: 29.31457901
---
header: 
  seq: 1030763
  stamp: 
    secs: 1561865097
    nsecs: 628542099
  frame_id: "ti_mmwave"
point_id: 24
x: 0.041015625
y: -0.033203125
z: 0.0625
range: 0.0871539413929
velocity: 0.0
doppler_bin: 8
bearing: -38.9909973145
intensity: 30.0902576447
---
header: 
  seq: 1030764
  stamp: 
    secs: 1561865097
    nsecs: 628560736
  frame_id: "ti_mmwave"
point_id: 25
x: 0.044921875
y: -0.046875
z: 0.103515625
range: 0.130730912089
velocity: 0.0
doppler_bin: 8
bearing: -46.218875885
intensity: 28.9762706757
---
header: 
  seq: 1030765
  stamp: 
    secs: 1561865097
    nsecs: 628583219
  frame_id: "ti_mmwave"
point_id: 27
x: 1.123046875
y: -0.04296875
z: -0.748046875
range: 1.43804001808
velocity: 0.0
doppler_bin: 8
bearing: -2.1911175251
intensity: 23.7106781006
---
header: 
  seq: 1030766
  stamp: 
    secs: 1561865097
    nsecs: 628602569
  frame_id: "ti_mmwave"
point_id: 28
x: 0.880859375
y: -0.041015625
z: 0.96875
range: 1.39446306229
velocity: 0.614668667316
doppler_bin: 9
bearing: -2.6659488678
intensity: 24.6089782715
---
header: 
  seq: 1030767
  stamp: 
    secs: 1561865097
    nsecs: 687636903
  frame_id: "ti_mmwave"
point_id: 0
x: 0.01171875
y: -0.0390625
z: -0.0078125
range: 0.0435769706964
velocity: 0.0
doppler_bin: 8
bearing: -73.3007583618
intensity: 30.6520614624
---
header: 
  seq: 1030768
  stamp: 
    secs: 1561865097
    nsecs: 687721300
  frame_id: "ti_mmwave"
point_id: 1
x: 0.017578125
y: -0.080078125
z: -0.0078125
range: 0.0871539413929
velocity: 0.0
doppler_bin: 8
bearing: -77.6192398071
intensity: 31.9061183929
---
header: 
  seq: 1030769
  stamp: 
    secs: 1561865097
    nsecs: 687737860
  frame_id: "ti_mmwave"
point_id: 2
x: 0.029296875
y: -0.119140625
z: -0.005859375
range: 0.130730912089
velocity: 0.0
doppler_bin: 8
bearing: -76.1849746704
intensity: 30.1494026184
---
header: 
  seq: 1030770
  stamp: 
    secs: 1561865097
    nsecs: 687752313
  frame_id: "ti_mmwave"
point_id: 3
x: 0.056640625
y: -0.154296875
z: 0.005859375
range: 0.174307882786
velocity: 0.0
doppler_bin: 8
bearing: -69.8423843384
intensity: 25.4406795502
---
header: 
  seq: 1030771
  stamp: 
    secs: 1561865097
    nsecs: 687766508
  frame_id: "ti_mmwave"
point_id: 4
x: 1.244140625
y: -0.23828125
z: 0.056640625
range: 1.35088610649
velocity: 0.0
doppler_bin: 8
bearing: -10.8421516418
intensity: 27.2672729492
---
header: 
  seq: 1030772
  stamp: 
    secs: 1561865097
    nsecs: 687784865
  frame_id: "ti_mmwave"
point_id: 5
x: 1.28515625
y: -0.478515625
z: 0.228515625
range: 1.48161697388
velocity: 0.0
doppler_bin: 8
bearing: -20.4223327637
intensity: 24.683473587
---
header: 
  seq: 1030773
  stamp: 
    secs: 1561865097
    nsecs: 687799593
  frame_id: "ti_mmwave"
point_id: 6
x: 2.6171875
y: -0.17578125
z: 1.04296875
range: 3.00681090355
velocity: 0.0
doppler_bin: 8
bearing: -3.84245300293
intensity: 28.9982051849
---
header: 
  seq: 1030774
  stamp: 
    secs: 1561865097
    nsecs: 687825706
  frame_id: "ti_mmwave"
point_id: 7
x: 2.689453125
y: -0.08984375
z: 0.978515625
range: 3.05038785934
velocity: 0.0
doppler_bin: 8
bearing: -1.91330885887
intensity: 32.1932258606
---
header: 
  seq: 1030775
  stamp: 
    secs: 1561865097
    nsecs: 687938474
  frame_id: "ti_mmwave"
point_id: 8
x: 2.75390625
y: -0.08984375
z: 0.919921875
range: 3.09396481514
velocity: 0.0
doppler_bin: 8
bearing: -1.86856126785
intensity: 31.1561050415
---
header: 
  seq: 1030776
  stamp: 
    secs: 1561865097
    nsecs: 687983198
  frame_id: "ti_mmwave"
point_id: 9
x: 4.435546875
y: -0.142578125
z: 1.13671875
range: 4.88062095642
velocity: 0.0
doppler_bin: 8
bearing: -1.84110629559
intensity: 31.3129787445
---
header: 
  seq: 1030777
  stamp: 
    secs: 1561865097
    nsecs: 687998825
  frame_id: "ti_mmwave"
point_id: 10
x: 4.48046875
y: -0.14453125
z: 1.125
range: 4.9241976738
velocity: 0.0
doppler_bin: 8
bearing: -1.847610116
intensity: 30.7990455627
---
header: 
  seq: 1030778
  stamp: 
    secs: 1561865097
    nsecs: 688011879
  frame_id: "ti_mmwave"
point_id: 11
x: 4.853515625
y: -0.306640625
z: 0.662109375
range: 5.22923660278
velocity: 0.0
doppler_bin: 8
bearing: -3.6150894165
intensity: 30.5918464661
---
header: 
  seq: 1030779
  stamp: 
    secs: 1561865097
    nsecs: 688026629
  frame_id: "ti_mmwave"
point_id: 12
x: 4.849609375
y: -0.30859375
z: 0.943359375
range: 5.27281332016
velocity: 0.0
doppler_bin: 8
bearing: -3.6409766674
intensity: 30.9482040405
---
header: 
  seq: 1030780
  stamp: 
    secs: 1561865097
    nsecs: 688040917
  frame_id: "ti_mmwave"
point_id: 13
x: 1.072265625
y: 0.20703125
z: -0.169921875
range: 1.1765781641
velocity: -2.45867466927
doppler_bin: 4
bearing: 10.9281005859
intensity: 23.7291202545
---
header: 
  seq: 1030781
  stamp: 
    secs: 1561865097
    nsecs: 688055588
  frame_id: "ti_mmwave"
point_id: 14
x: 1.11328125
y: 0.21484375
z: -0.16796875
range: 1.22015523911
velocity: -2.45867466927
doppler_bin: 4
bearing: 10.9228048325
intensity: 25.9879055023
---
header: 
  seq: 1030782
  stamp: 
    secs: 1561865097
    nsecs: 688068990
  frame_id: "ti_mmwave"
point_id: 15
x: 1.146484375
y: 0.259765625
z: -0.1640625
range: 1.2637321949
velocity: -2.45867466927
doppler_bin: 4
bearing: 12.7662916183
intensity: 24.7129173279
---
header: 
  seq: 1030783
  stamp: 
    secs: 1561865097
    nsecs: 688125822
  frame_id: "ti_mmwave"
point_id: 16
x: 1.388671875
y: -0.04296875
z: -0.05078125
range: 1.48161697388
velocity: -1.22933733463
doppler_bin: 6
bearing: -1.77229964733
intensity: 24.9692974091
---
header: 
  seq: 1030784
  stamp: 
    secs: 1561865097
    nsecs: 688143463
  frame_id: "ti_mmwave"
point_id: 17
x: 1.298828125
y: -0.1640625
z: 0.01171875
range: 1.39446306229
velocity: -0.614668667316
doppler_bin: 7
bearing: -7.19923353195
intensity: 29.7726612091
---
header: 
  seq: 1030785
  stamp: 
    secs: 1561865097
    nsecs: 688156145
  frame_id: "ti_mmwave"
point_id: 18
x: 1.337890625
y: -0.16796875
z: -0.056640625
range: 1.43804001808
velocity: -0.614668667316
doppler_bin: 7
bearing: -7.15589761734
intensity: 28.9652614594
---
header: 
  seq: 1030786
  stamp: 
    secs: 1561865097
    nsecs: 688169517
  frame_id: "ti_mmwave"
point_id: 19
x: 0.009765625
y: 0.03125
z: 0.025390625
range: 0.0435769706964
velocity: 0.0
doppler_bin: 8
bearing: 72.6459732056
intensity: 29.3094902039
---
header: 
  seq: 1030787
  stamp: 
    secs: 1561865097
    nsecs: 688187770
  frame_id: "ti_mmwave"
point_id: 20
x: 0.041015625
y: -0.033203125
z: 0.0625
range: 0.0871539413929
velocity: 0.0
doppler_bin: 8
bearing: -38.9909973145
intensity: 30.0902576447
---
header: 
  seq: 1030788
  stamp: 
    secs: 1561865097
    nsecs: 688230105
  frame_id: "ti_mmwave"
point_id: 21
x: 0.044921875
y: -0.046875
z: 0.103515625
range: 0.130730912089
velocity: 0.0
doppler_bin: 8
bearing: -46.218875885
intensity: 28.9762706757
---
header: 
  seq: 1030789
  stamp: 
    secs: 1561865097
    nsecs: 688247572
  frame_id: "ti_mmwave"
point_id: 23
x: 0.98046875
y: -0.04296875
z: -0.984375
range: 1.48161697388
velocity: 0.0
doppler_bin: 8
bearing: -2.50936484337
intensity: 24.4560413361
---
header: 
  seq: 1030790
  stamp: 
    secs: 1561865097
    nsecs: 689223651
  frame_id: "ti_mmwave"
point_id: 0
x: 0.01171875
y: -0.0390625
z: -0.0078125
range: 0.0435769706964
velocity: 0.0
doppler_bin: 8
bearing: -73.3007583618
intensity: 30.6445808411
---
header: 
  seq: 1030791
  stamp: 
    secs: 1561865097
    nsecs: 689260115
  frame_id: "ti_mmwave"
point_id: 1
x: 0.017578125
y: -0.080078125
z: -0.0078125
range: 0.0871539413929
velocity: 0.0
doppler_bin: 8
bearing: -77.6192398071
intensity: 31.9005146027
---
header: 
  seq: 1030792
  stamp: 
    secs: 1561865097
    nsecs: 689275546
  frame_id: "ti_mmwave"
point_id: 2
x: 0.029296875
y: -0.119140625
z: -0.005859375
range: 0.130730912089
velocity: 0.0
doppler_bin: 8
bearing: -76.1849746704
intensity: 30.1494026184
---
header: 
  seq: 1030793
  stamp: 
    secs: 1561865097
    nsecs: 689297099
  frame_id: "ti_mmwave"
point_id: 3
x: 0.056640625
y: -0.154296875
z: 0.005859375
range: 0.174307882786
velocity: 0.0
doppler_bin: 8
bearing: -69.8423843384
intensity: 25.4406795502
---
header: 
  seq: 1030794
  stamp: 
    secs: 1561865097
    nsecs: 689319296
  frame_id: "ti_mmwave"
point_id: 4
x: 0.46875
y: -0.080078125
z: 1.17578125
range: 1.35088610649
velocity: 0.0
doppler_bin: 8
bearing: -9.69444465637
intensity: 23.3845653534
---
header: 
  seq: 1030795
  stamp: 
    secs: 1561865097
    nsecs: 689371338
  frame_id: "ti_mmwave"
point_id: 5
x: 1.240234375
y: -0.408203125
z: -0.091796875
range: 1.39446306229
velocity: 0.0
doppler_bin: 8
bearing: -18.218126297
intensity: 24.857213974
---
header: 
  seq: 1030796
  stamp: 
    secs: 1561865097
    nsecs: 689385743
  frame_id: "ti_mmwave"
point_id: 6
x: 1.296875
y: -0.337890625
z: -0.162109375
range: 1.43804001808
velocity: 0.0
doppler_bin: 8
bearing: -14.603307724
intensity: 29.0308990479
---
header: 
  seq: 1030797
  stamp: 
    secs: 1561865097
    nsecs: 689398817
  frame_id: "ti_mmwave"
point_id: 7
x: 1.341796875
y: -0.34765625
z: -0.103515625
range: 1.48161697388
velocity: 0.0
doppler_bin: 8
bearing: -14.5257720947
intensity: 29.4151134491
---
header: 
  seq: 1030798
  stamp: 
    secs: 1561865097
    nsecs: 689411367
  frame_id: "ti_mmwave"
point_id: 8
x: 1.38671875
y: -0.357421875
z: 0.03515625
range: 1.52519392967
velocity: 0.0
doppler_bin: 8
bearing: -14.453209877
intensity: 26.3447723389
---
header: 
  seq: 1030799
  stamp: 
    secs: 1561865097
    nsecs: 689433445
  frame_id: "ti_mmwave"
point_id: 9
x: 2.62109375
y: -0.17578125
z: 1.03125
range: 3.00681090355
velocity: 0.0
doppler_bin: 8
bearing: -3.83674383163
intensity: 28.9872512817
---
header: 
  seq: 1030800
  stamp: 
    secs: 1561865097
    nsecs: 689453779
  frame_id: "ti_mmwave"
point_id: 10
x: 2.693359375
y: -0.08984375
z: 0.96875
range: 3.05038785934
velocity: 0.0
doppler_bin: 8
bearing: -1.91053581238
intensity: 32.1958465576
---
header: 
  seq: 1030801
  stamp: 
    secs: 1561865097
    nsecs: 689497980
  frame_id: "ti_mmwave"
point_id: 11
x: 2.7578125
y: -0.08984375
z: 0.904296875
range: 3.09396481514
velocity: 0.0
doppler_bin: 8
bearing: -1.86591637135
intensity: 31.1627559662
---
header: 
  seq: 1030802
  stamp: 
    secs: 1561865097
    nsecs: 689511623
  frame_id: "ti_mmwave"
point_id: 12
x: 4.41796875
y: -0.142578125
z: 1.203125
range: 4.88062095642
velocity: 0.0
doppler_bin: 8
bearing: -1.84842634201
intensity: 31.4144973755
---
header: 
  seq: 1030803
  stamp: 
    secs: 1561865097
    nsecs: 689526740
  frame_id: "ti_mmwave"
point_id: 13
x: 4.455078125
y: -0.14453125
z: 1.22265625
range: 4.9241976738
velocity: 0.0
doppler_bin: 8
bearing: -1.85813295841
intensity: 30.9516925812
---
header: 
  seq: 1030804
  stamp: 
    secs: 1561865097
    nsecs: 689539796
  frame_id: "ti_mmwave"
point_id: 14
x: 4.814453125
y: -0.306640625
z: 0.904296875
range: 5.22923660278
velocity: 0.0
doppler_bin: 8
bearing: -3.64434218407
intensity: 30.3782482147
---
header: 
  seq: 1030805
  stamp: 
    secs: 1561865097
    nsecs: 689552599
  frame_id: "ti_mmwave"
point_id: 15
x: 4.841796875
y: -0.30859375
z: 0.98046875
range: 5.27281332016
velocity: 0.0
doppler_bin: 8
bearing: -3.64683556557
intensity: 31.3353881836
---
header: 
  seq: 1030806
  stamp: 
    secs: 1561865097
    nsecs: 689565463
  frame_id: "ti_mmwave"
point_id: 16
x: 0.974609375
y: 0.287109375
z: -0.11328125
range: 1.08942425251
velocity: -2.45867466927
doppler_bin: 4
bearing: 16.4144020081
intensity: 24.0993309021
---
header: 
  seq: 1030807
  stamp: 
    secs: 1561865097
    nsecs: 689579550
  frame_id: "ti_mmwave"
point_id: 17
x: 1.0234375
y: 0.265625
z: -0.109375
range: 1.13300120831
velocity: -2.45867466927
doppler_bin: 4
bearing: 14.5496330261
intensity: 25.4654273987
---
header: 
  seq: 1030808
  stamp: 
    secs: 1561865097
    nsecs: 689603585
  frame_id: "ti_mmwave"
point_id: 18
x: 1.064453125
y: 0.275390625
z: -0.103515625
range: 1.1765781641
velocity: -2.45867466927
doppler_bin: 4
bearing: 14.5052642822
intensity: 23.7106781006
---
header: 
  seq: 1030809
  stamp: 
    secs: 1561865097
    nsecs: 689623034
  frame_id: "ti_mmwave"
point_id: 19
x: 1.2265625
y: 0.0390625
z: -0.04296875
range: 1.3073091507
velocity: -2.45867466927
doppler_bin: 4
bearing: 1.82409000397
intensity: 26.2838897705
---
header: 
  seq: 1030810
  stamp: 
    secs: 1561865097
    nsecs: 689677262
  frame_id: "ti_mmwave"
point_id: 20
x: 1.267578125
y: -0.0
z: -0.0390625
range: 1.35088610649
velocity: -2.45867466927
doppler_bin: 4
bearing: -0.0
intensity: 27.7815132141
---
header: 
  seq: 1030811
  stamp: 
    secs: 1561865097
    nsecs: 689690893
  frame_id: "ti_mmwave"
point_id: 21
x: 1.306640625
y: 0.041015625
z: -0.0625
range: 1.39446306229
velocity: -2.45867466927
doppler_bin: 4
bearing: 1.79793179035
intensity: 25.8433113098
---
header: 
  seq: 1030812
  stamp: 
    secs: 1561865097
    nsecs: 689704693
  frame_id: "ti_mmwave"
point_id: 22
x: 0.009765625
y: 0.03125
z: 0.025390625
range: 0.0435769706964
velocity: 0.0
doppler_bin: 8
bearing: 72.6459732056
intensity: 29.31457901
---
header: 
  seq: 1030813
  stamp: 
    secs: 1561865097
    nsecs: 689719729
  frame_id: "ti_mmwave"
point_id: 23
x: 0.041015625
y: -0.033203125
z: 0.0625
range: 0.0871539413929
velocity: 0.0
doppler_bin: 8
bearing: -38.9909973145
intensity: 30.0902576447
---
header: 
  seq: 1030814
  stamp: 
    secs: 1561865097
    nsecs: 689734849
  frame_id: "ti_mmwave"
point_id: 24
x: 0.044921875
y: -0.046875
z: 0.103515625
range: 0.130730912089
velocity: 0.0
doppler_bin: 8
bearing: -46.218875885
intensity: 28.9762706757
---
header: 
  seq: 1030815
  stamp: 
    secs: 1561865097
    nsecs: 689753647
  frame_id: "ti_mmwave"
point_id: 26
x: 0.09375
y: 0.041015625
z: 1.3046875
range: 1.39446306229
velocity: 0.0
doppler_bin: 8
bearing: 23.6293773651
intensity: 23.7839794159
---
header: 
  seq: 1030816
  stamp: 
    secs: 1561865097
    nsecs: 689767958
  frame_id: "ti_mmwave"
point_id: 27
x: 0.71875
y: 0.134765625
z: 1.23046875
range: 1.52519392967
velocity: 0.0
doppler_bin: 8
bearing: 10.6196546555
intensity: 23.7291202545
---
header: 
  seq: 1030817
  stamp: 
    secs: 1561865097
    nsecs: 748020265
  frame_id: "ti_mmwave"
point_id: 0
x: 0.01171875
y: -0.0390625
z: -0.0078125
range: 0.0435769706964
velocity: 0.0
doppler_bin: 8
bearing: -73.3007583618
intensity: 30.6483230591
---
header: 
  seq: 1030818
  stamp: 
    secs: 1561865097
    nsecs: 748101177
  frame_id: "ti_mmwave"
point_id: 1
x: 0.017578125
y: -0.080078125
z: -0.0078125
range: 0.0871539413929
velocity: 0.0
doppler_bin: 8
bearing: -77.6192398071
intensity: 31.9005146027
---
header: 
  seq: 1030819
  stamp: 
    secs: 1561865097
    nsecs: 748114594
  frame_id: "ti_mmwave"
point_id: 2
x: 0.029296875
y: -0.119140625
z: -0.005859375
range: 0.130730912089
velocity: 0.0
doppler_bin: 8
bearing: -76.1849746704
intensity: 30.1452045441
---
header: 
  seq: 1030820
  stamp: 
    secs: 1561865097
    nsecs: 748123235
  frame_id: "ti_mmwave"
point_id: 3
x: 0.056640625
y: -0.154296875
z: 0.005859375
range: 0.174307882786
velocity: 0.0
doppler_bin: 8
bearing: -69.8423843384
intensity: 25.4282550812
---
header: 
  seq: 1030821
  stamp: 
    secs: 1561865097
    nsecs: 748131314
  frame_id: "ti_mmwave"
point_id: 4
x: 0.78515625
y: -0.080078125
z: -0.9921875
range: 1.35088610649
velocity: 0.0
doppler_bin: 8
bearing: -5.82346343994
intensity: 23.9269695282
---
header: 
  seq: 1030822
  stamp: 
    secs: 1561865097
    nsecs: 748139540
  frame_id: "ti_mmwave"
point_id: 5
x: 1.1015625
y: -0.205078125
z: -0.677734375
range: 1.39446306229
velocity: 0.0
doppler_bin: 8
bearing: -10.5460329056
intensity: 27.3957233429
---
header: 
  seq: 1030823
  stamp: 
    secs: 1561865097
    nsecs: 748151135
  frame_id: "ti_mmwave"
point_id: 6
x: 1.265625
y: -0.294921875
z: -0.3671875
range: 1.43804001808
velocity: 0.0
doppler_bin: 8
bearing: -13.1172504425
intensity: 30.0173377991
---
header: 
  seq: 1030824
  stamp: 
    secs: 1561865097
    nsecs: 748162824
  frame_id: "ti_mmwave"
point_id: 7
x: 1.275390625
y: -0.3046875
z: -0.46484375
range: 1.48161697388
velocity: 0.0
doppler_bin: 8
bearing: -13.4359846115
intensity: 29.4001808167
---
header: 
  seq: 1030825
  stamp: 
    secs: 1561865097
    nsecs: 748178939
  frame_id: "ti_mmwave"
point_id: 8
x: 1.126953125
y: -0.1796875
z: -0.865234375
range: 1.52519392967
velocity: 0.0
doppler_bin: 8
bearing: -9.0592918396
intensity: 24.563659668
---
header: 
  seq: 1030826
  stamp: 
    secs: 1561865097
    nsecs: 748191356
  frame_id: "ti_mmwave"
point_id: 9
x: 2.6171875
y: -0.17578125
z: 1.041015625
range: 3.00681090355
velocity: 0.0
doppler_bin: 8
bearing: -3.84245300293
intensity: 29.0579586029
---
header: 
  seq: 1030827
  stamp: 
    secs: 1561865097
    nsecs: 748203620
  frame_id: "ti_mmwave"
point_id: 10
x: 2.69140625
y: -0.08984375
z: 0.970703125
range: 3.05038785934
velocity: 0.0
doppler_bin: 8
bearing: -1.91192126274
intensity: 32.2453308105
---
header: 
  seq: 1030828
  stamp: 
    secs: 1561865097
    nsecs: 748356389
  frame_id: "ti_mmwave"
point_id: 11
x: 2.751953125
y: -0.08984375
z: 0.921875
range: 3.09396481514
velocity: 0.0
doppler_bin: 8
bearing: -1.86988639832
intensity: 31.1826477051
---
header: 
  seq: 1030829
  stamp: 
    secs: 1561865097
    nsecs: 748375871
  frame_id: "ti_mmwave"
point_id: 12
x: 4.42578125
y: -0.142578125
z: 1.17578125
range: 4.88062095642
velocity: 0.0
doppler_bin: 8
bearing: -1.84516572952
intensity: 31.4238948822
---
header: 
  seq: 1030830
  stamp: 
    secs: 1561865097
    nsecs: 748384412
  frame_id: "ti_mmwave"
point_id: 13
x: 4.490234375
y: -0.14453125
z: 1.08984375
range: 4.9241976738
velocity: 0.0
doppler_bin: 8
bearing: -1.84359478951
intensity: 31.2645606995
---
header: 
  seq: 1030831
  stamp: 
    secs: 1561865097
    nsecs: 748392453
  frame_id: "ti_mmwave"
point_id: 14
x: 4.84765625
y: -0.306640625
z: 0.71484375
range: 5.22923660278
velocity: 0.0
doppler_bin: 8
bearing: -3.61944746971
intensity: 30.2201576233
---
header: 
  seq: 1030832
  stamp: 
    secs: 1561865097
    nsecs: 748419695
  frame_id: "ti_mmwave"
point_id: 15
x: 4.849609375
y: -0.154296875
z: 0.974609375
range: 5.27281332016
velocity: 0.0
doppler_bin: 8
bearing: -1.82232797146
intensity: 31.1494445801
---
header: 
  seq: 1030833
  stamp: 
    secs: 1561865097
    nsecs: 748434228
  frame_id: "ti_mmwave"
point_id: 16
x: 0.935546875
y: 0.275390625
z: -0.111328125
range: 1.04584729671
velocity: -3.07334327698
doppler_bin: 3
bearing: 16.4024906158
intensity: 23.344537735
---
header: 
  seq: 1030834
  stamp: 
    secs: 1561865097
    nsecs: 748447461
  frame_id: "ti_mmwave"
point_id: 17
x: 0.974609375
y: 0.287109375
z: -0.109375
range: 1.08942425251
velocity: -3.07334327698
doppler_bin: 3
bearing: 16.4144020081
intensity: 20.6445808411
---
header: 
  seq: 1030835
  stamp: 
    secs: 1561865097
    nsecs: 748456063
  frame_id: "ti_mmwave"
point_id: 18
x: 0.90234375
y: 0.263671875
z: -0.037109375
range: 1.00227034092
velocity: -2.45867466927
doppler_bin: 4
bearing: 16.288772583
intensity: 22.810333252
---
header: 
  seq: 1030836
  stamp: 
    secs: 1561865097
    nsecs: 748515807
  frame_id: "ti_mmwave"
point_id: 19
x: 1.185546875
y: 0.037109375
z: -0.015625
range: 1.2637321949
velocity: -2.45867466927
doppler_bin: 4
bearing: 1.79285740852
intensity: 23.5602588654
---
header: 
  seq: 1030837
  stamp: 
    secs: 1561865097
    nsecs: 748526605
  frame_id: "ti_mmwave"
point_id: 20
x: 0.009765625
y: 0.03125
z: 0.025390625
range: 0.0435769706964
velocity: 0.0
doppler_bin: 8
bearing: 72.6459732056
intensity: 29.31457901
---
header: 
  seq: 1030838
  stamp: 
    secs: 1561865097
    nsecs: 748535848
  frame_id: "ti_mmwave"
point_id: 21
x: 0.041015625
y: -0.033203125
z: 0.0625
range: 0.0871539413929
velocity: 0.0
doppler_bin: 8
bearing: -38.9909973145
intensity: 30.0860023499
---
header: 
  seq: 1030839
  stamp: 
    secs: 1561865097
    nsecs: 748546081
  frame_id: "ti_mmwave"
point_id: 22
x: 0.044921875
y: -0.046875
z: 0.103515625
range: 0.130730912089
velocity: 0.0
doppler_bin: 8
bearing: -46.218875885
intensity: 28.9707698822
---
header: 
  seq: 1030840
  stamp: 
    secs: 1561865097
    nsecs: 748557065
  frame_id: "ti_mmwave"
point_id: 24
x: 0.78125
y: 1.1640625
z: -0.294921875
range: 1.52519392967
velocity: 0.0
doppler_bin: 8
bearing: 56.1328201294
intensity: 21.8469142914
---
header: 
  seq: 1030841
  stamp: 
    secs: 1561865097
    nsecs: 749533456
  frame_id: "ti_mmwave"
point_id: 0
x: 0.01171875
y: -0.0390625
z: -0.0078125
range: 0.0435769706964
velocity: 0.0
doppler_bin: 8
bearing: -73.3007583618
intensity: 30.6520614624
---
header: 
  seq: 1030842
  stamp: 
    secs: 1561865097
    nsecs: 749598781
  frame_id: "ti_mmwave"
point_id: 1
x: 0.017578125
y: -0.080078125
z: -0.0078125
range: 0.0871539413929
velocity: 0.0
doppler_bin: 8
bearing: -77.6192398071
intensity: 31.9033164978
---
header: 
  seq: 1030843
  stamp: 
    secs: 1561865097
    nsecs: 749616203
  frame_id: "ti_mmwave"
point_id: 2
x: 0.029296875
y: -0.119140625
z: -0.005859375
range: 0.130730912089
velocity: 0.0
doppler_bin: 8
bearing: -76.1849746704
intensity: 30.1535968781
---
header: 
  seq: 1030844
  stamp: 
    secs: 1561865097
    nsecs: 749628427
  frame_id: "ti_mmwave"
point_id: 3
x: 0.056640625
y: -0.154296875
z: 0.005859375
range: 0.174307882786
velocity: 0.0
doppler_bin: 8
bearing: -69.8423843384
intensity: 25.4530715942
---
header: 
  seq: 1030845
  stamp: 
    secs: 1561865097
    nsecs: 749640357
  frame_id: "ti_mmwave"
point_id: 4
x: 0.75
y: -0.119140625
z: 1.015625
range: 1.35088610649
velocity: 0.0
doppler_bin: 8
bearing: -9.02625274658
intensity: 23.9619941711
---
header: 
  seq: 1030846
  stamp: 
    secs: 1561865097
    nsecs: 749804328
  frame_id: "ti_mmwave"
point_id: 5
x: 1.017578125
y: -0.1640625
z: 0.806640625
range: 1.39446306229
velocity: 0.0
doppler_bin: 8
bearing: -9.15888881683
intensity: 25.2762985229
---
header: 
  seq: 1030847
  stamp: 
    secs: 1561865097
    nsecs: 749839835
  frame_id: "ti_mmwave"
point_id: 6
x: 1.302734375
y: -0.294921875
z: 0.189453125
range: 1.43804001808
velocity: 0.0
doppler_bin: 8
bearing: -12.7559900284
intensity: 28.1424751282
---
header: 
  seq: 1030848
  stamp: 
    secs: 1561865097
    nsecs: 749857286
  frame_id: "ti_mmwave"
point_id: 7
x: 1.357421875
y: -0.3046875
z: -0.02734375
range: 1.48161697388
velocity: 0.0
doppler_bin: 8
bearing: -12.6509552002
intensity: 28.9209461212
---
header: 
  seq: 1030849
  stamp: 
    secs: 1561865097
    nsecs: 749873036
  frame_id: "ti_mmwave"
point_id: 8
x: 1.396484375
y: -0.3125
z: -0.029296875
range: 1.52519392967
velocity: 0.0
doppler_bin: 8
bearing: -12.6136274338
intensity: 27.0671787262
---
header: 
  seq: 1030850
  stamp: 
    secs: 1561865097
    nsecs: 749887627
  frame_id: "ti_mmwave"
point_id: 9
x: 2.61328125
y: -0.17578125
z: 1.05078125
range: 3.00681090355
velocity: 0.0
doppler_bin: 8
bearing: -3.84817934036
intensity: 28.9376182556
---
header: 
  seq: 1030851
  stamp: 
    secs: 1561865097
    nsecs: 749898277
  frame_id: "ti_mmwave"
point_id: 10
x: 2.69140625
y: -0.08984375
z: 0.97265625
range: 3.05038785934
velocity: 0.0
doppler_bin: 8
bearing: -1.91192126274
intensity: 32.1431388855
---
header: 
  seq: 1030852
  stamp: 
    secs: 1561865097
    nsecs: 749960633
  frame_id: "ti_mmwave"
point_id: 11
x: 2.7578125
y: -0.08984375
z: 0.908203125
range: 3.09396481514
velocity: 0.0
doppler_bin: 8
bearing: -1.86591637135
intensity: 31.0687046051
---
header: 
  seq: 1030853
  stamp: 
    secs: 1561865097
    nsecs: 749975184
  frame_id: "ti_mmwave"
point_id: 12
x: 4.421875
y: -0.142578125
z: 1.1875
range: 4.88062095642
velocity: 0.0
doppler_bin: 8
bearing: -1.84679484367
intensity: 31.0924091339
---
header: 
  seq: 1030854
  stamp: 
    secs: 1561865097
    nsecs: 749986241
  frame_id: "ti_mmwave"
point_id: 13
x: 4.51171875
y: -0.14453125
z: 0.994140625
range: 4.9241976738
velocity: 0.0
doppler_bin: 8
bearing: -1.83482170105
intensity: 31.2839927673
---
header: 
  seq: 1030855
  stamp: 
    secs: 1561865097
    nsecs: 749994361
  frame_id: "ti_mmwave"
point_id: 14
x: 4.6484375
y: -0.146484375
z: 0.345703125
range: 4.96777486801
velocity: 0.0
doppler_bin: 8
bearing: -1.80494213104
intensity: 30.0
---
header: 
  seq: 1030856
  stamp: 
    secs: 1561865097
    nsecs: 750003236
  frame_id: "ti_mmwave"
point_id: 15
x: 4.796875
y: -0.306640625
z: 0.99609375
range: 5.22923660278
velocity: 0.0
doppler_bin: 8
bearing: -3.65766072273
intensity: 29.6941585541
---
header: 
  seq: 1030857
  stamp: 
    secs: 1561865097
    nsecs: 750010969
  frame_id: "ti_mmwave"
point_id: 16
x: 4.833984375
y: -0.154296875
z: 1.056640625
range: 5.27281332016
velocity: 0.0
doppler_bin: 8
bearing: -1.82821428776
intensity: 31.1159858704
---
header: 
  seq: 1030858
  stamp: 
    secs: 1561865097
    nsecs: 750019324
  frame_id: "ti_mmwave"
point_id: 17
x: 0.751953125
y: 0.193359375
z: -0.001953125
range: 0.827962458134
velocity: -3.07334327698
doppler_bin: 3
bearing: 14.4207735062
intensity: 22.718416214
---
header: 
  seq: 1030859
  stamp: 
    secs: 1561865097
    nsecs: 750027165
  frame_id: "ti_mmwave"
point_id: 18
x: 0.798828125
y: 0.1796875
z: -0.001953125
range: 0.871539413929
velocity: -3.07334327698
doppler_bin: 3
bearing: 12.6770496368
intensity: 28.767950058
---
header: 
  seq: 1030860
  stamp: 
    secs: 1561865097
    nsecs: 750035731
  frame_id: "ti_mmwave"
point_id: 19
x: 0.837890625
y: 0.1875
z: -0.001953125
range: 0.915116369724
velocity: -3.07334327698
doppler_bin: 3
bearing: 12.6136274338
intensity: 30.8062648773
---
header: 
  seq: 1030861
  stamp: 
    secs: 1561865097
    nsecs: 750044243
  frame_id: "ti_mmwave"
point_id: 20
x: 0.87109375
y: 0.224609375
z: 0.0
range: 0.958693385124
velocity: -3.07334327698
doppler_bin: 3
bearing: 14.4586381912
intensity: 29.3550720215
---
header: 
  seq: 1030862
  stamp: 
    secs: 1561865097
    nsecs: 750053397
  frame_id: "ti_mmwave"
point_id: 21
x: 0.91015625
y: 0.234375
z: 0.01171875
range: 1.00227034092
velocity: -3.07334327698
doppler_bin: 3
bearing: 14.4405412674
intensity: 24.1830120087
---
header: 
  seq: 1030863
  stamp: 
    secs: 1561865097
    nsecs: 750062594
  frame_id: "ti_mmwave"
point_id: 22
x: 0.009765625
y: 0.03125
z: 0.025390625
range: 0.0435769706964
velocity: 0.0
doppler_bin: 8
bearing: 72.6459732056
intensity: 29.3196620941
---
header: 
  seq: 1030864
  stamp: 
    secs: 1561865097
    nsecs: 750071046
  frame_id: "ti_mmwave"
point_id: 23
x: 0.041015625
y: -0.033203125
z: 0.0625
range: 0.0871539413929
velocity: 0.0
doppler_bin: 8
bearing: -38.9909973145
intensity: 30.0945091248
---
header: 
  seq: 1030865
  stamp: 
    secs: 1561865097
    nsecs: 750077478
  frame_id: "ti_mmwave"
point_id: 24
x: 0.044921875
y: -0.046875
z: 0.103515625
range: 0.130730912089
velocity: 0.0
doppler_bin: 8
bearing: -46.218875885
intensity: 28.9707698822
---
header: 
  seq: 1030866
  stamp: 
    secs: 1561865097
    nsecs: 750102594
  frame_id: "ti_mmwave"
point_id: 26
x: 1.126953125
y: -0.24609375
z: 0.619140625
range: 1.39446306229
velocity: 0.0
doppler_bin: 8
bearing: -12.3183555603
intensity: 25.2633934021
---
header: 
  seq: 1030867
  stamp: 
    secs: 1561865097
    nsecs: 807619808
  frame_id: "ti_mmwave"
point_id: 0
x: 0.01171875
y: -0.0390625
z: -0.0078125
range: 0.0435769706964
velocity: 0.0
doppler_bin: 8
bearing: -73.3007583618
intensity: 30.6520614624
---
header: 
  seq: 1030868
  stamp: 
    secs: 1561865097
    nsecs: 807671497
  frame_id: "ti_mmwave"
point_id: 1
x: 0.017578125
y: -0.080078125
z: -0.0078125
range: 0.0871539413929
velocity: 0.0
doppler_bin: 8
bearing: -77.6192398071
intensity: 31.9033164978
---
header: 
  seq: 1030869
  stamp: 
    secs: 1561865097
    nsecs: 807679161
  frame_id: "ti_mmwave"
point_id: 2
x: 0.029296875
y: -0.119140625
z: -0.005859375
range: 0.130730912089
velocity: 0.0
doppler_bin: 8
bearing: -76.1849746704
intensity: 30.1494026184
---
header: 
  seq: 1030870
  stamp: 
    secs: 1561865097
    nsecs: 807684762
  frame_id: "ti_mmwave"
point_id: 3
x: 0.056640625
y: -0.154296875
z: 0.005859375
range: 0.174307882786
velocity: 0.0
doppler_bin: 8
bearing: -69.8423843384
intensity: 25.4406795502
---
header: 
  seq: 1030871
  stamp: 
    secs: 1561865097
    nsecs: 807691984
  frame_id: "ti_mmwave"
point_id: 4
x: 0.7421875
y: -0.080078125
z: -1.025390625
range: 1.35088610649
velocity: 0.0
doppler_bin: 8
bearing: -6.15809059143
intensity: 22.9446620941
---
header: 
  seq: 1030872
  stamp: 
    secs: 1561865097
    nsecs: 807697291
  frame_id: "ti_mmwave"
point_id: 5
x: 1.22265625
y: -0.408203125
z: 0.23046875
range: 1.39446306229
velocity: 0.0
doppler_bin: 8
bearing: -18.4624023438
intensity: 24.9276046753
---
header: 
  seq: 1030873
  stamp: 
    secs: 1561865097
    nsecs: 807702841
  frame_id: "ti_mmwave"
point_id: 6
x: 1.306640625
y: -0.337890625
z: 0.03515625
range: 1.43804001808
velocity: 0.0
doppler_bin: 8
bearing: -14.4987840652
intensity: 28.8479537964
---
header: 
  seq: 1030874
  stamp: 
    secs: 1561865097
    nsecs: 807708433
  frame_id: "ti_mmwave"
point_id: 7
x: 1.357421875
y: -0.3046875
z: -0.009765625
range: 1.48161697388
velocity: 0.0
doppler_bin: 8
bearing: -12.6509552002
intensity: 29.4596061707
---
header: 
  seq: 1030875
  stamp: 
    secs: 1561865097
    nsecs: 807716465
  frame_id: "ti_mmwave"
point_id: 8
x: 1.38671875
y: -0.357421875
z: 0.00390625
range: 1.52519392967
velocity: 0.0
doppler_bin: 8
bearing: -14.453209877
intensity: 27.1432971954
---
header: 
  seq: 1030876
  stamp: 
    secs: 1561865097
    nsecs: 807826833
  frame_id: "ti_mmwave"
point_id: 9
x: 2.607421875
y: -0.17578125
z: 1.06640625
range: 3.00681090355
velocity: 0.0
doppler_bin: 8
bearing: -3.8568007946
intensity: 28.9982051849
---
header: 
  seq: 1030877
  stamp: 
    secs: 1561865097
    nsecs: 807839075
  frame_id: "ti_mmwave"
point_id: 10
x: 2.685546875
y: -0.08984375
z: 0.990234375
range: 3.05038785934
velocity: 0.0
doppler_bin: 8
bearing: -1.91608965397
intensity: 32.2063102722
---
header: 
  seq: 1030878
  stamp: 
    secs: 1561865097
    nsecs: 807843323
  frame_id: "ti_mmwave"
point_id: 11
x: 2.74609375
y: -0.08984375
z: 0.94140625
range: 3.09396481514
velocity: 0.0
doppler_bin: 8
bearing: -1.8738732338
intensity: 31.1826477051
---
header: 
  seq: 1030879
  stamp: 
    secs: 1561865097
    nsecs: 807857591
  frame_id: "ti_mmwave"
point_id: 12
x: 4.392578125
y: -0.142578125
z: 1.294921875
range: 4.88062095642
velocity: 0.0
doppler_bin: 8
bearing: -1.85910367966
intensity: 31.4395103455
---
header: 
  seq: 1030880
  stamp: 
    secs: 1561865097
    nsecs: 807867284
  frame_id: "ti_mmwave"
point_id: 13
x: 4.439453125
y: -0.14453125
z: 1.279296875
range: 4.9241976738
velocity: 0.0
doppler_bin: 8
bearing: -1.86466813087
intensity: 31.2645606995
---
header: 
  seq: 1030881
  stamp: 
    secs: 1561865097
    nsecs: 807876081
  frame_id: "ti_mmwave"
point_id: 14
x: 4.837890625
y: -0.154296875
z: 1.037109375
range: 5.27281332016
velocity: 0.0
doppler_bin: 8
bearing: -1.82673919201
intensity: 30.6855697632
---
header: 
  seq: 1030882
  stamp: 
    secs: 1561865097
    nsecs: 807904994
  frame_id: "ti_mmwave"
point_id: 15
x: 0.720703125
y: 0.138671875
z: 0.048828125
range: 0.784385442734
velocity: -3.07334327698
doppler_bin: 3
bearing: 10.89128685
intensity: 25.2762985229
---
header: 
  seq: 1030883
  stamp: 
    secs: 1561865097
    nsecs: 807911095
  frame_id: "ti_mmwave"
point_id: 16
x: 0.765625
y: 0.12109375
z: 0.041015625
range: 0.827962458134
velocity: -3.07334327698
doppler_bin: 3
bearing: 8.98763751984
intensity: 28.727388382
---
header: 
  seq: 1030884
  stamp: 
    secs: 1561865097
    nsecs: 807917668
  frame_id: "ti_mmwave"
point_id: 17
x: 0.802734375
y: 0.154296875
z: 0.03125
range: 0.871539413929
velocity: -3.07334327698
doppler_bin: 3
bearing: 10.8803567886
intensity: 28.1756534576
---
header: 
  seq: 1030885
  stamp: 
    secs: 1561865097
    nsecs: 807923468
  frame_id: "ti_mmwave"
point_id: 18
x: 0.84765625
y: 0.134765625
z: 0.033203125
range: 0.915116369724
velocity: -3.07334327698
doppler_bin: 3
bearing: 9.03363037109
intensity: 23.8560619354
---
header: 
  seq: 1030886
  stamp: 
    secs: 1561865097
    nsecs: 807928710
  frame_id: "ti_mmwave"
point_id: 19
x: 0.685546875
y: 0.087890625
z: 0.072265625
range: 0.740808486938
velocity: -1.84400606155
doppler_bin: 5
bearing: 7.30575990677
intensity: 22.2010803223
---
header: 
  seq: 1030887
  stamp: 
    secs: 1561865097
    nsecs: 807933872
  frame_id: "ti_mmwave"
point_id: 20
x: 0.7265625
y: 0.091796875
z: 0.0703125
range: 0.784385442734
velocity: -1.84400606155
doppler_bin: 5
bearing: 7.20082950592
intensity: 26.6558094025
---
header: 
  seq: 1030888
  stamp: 
    secs: 1561865097
    nsecs: 807938999
  frame_id: "ti_mmwave"
point_id: 21
x: 0.767578125
y: 0.09765625
z: 0.064453125
range: 0.827962458134
velocity: -1.84400606155
doppler_bin: 5
bearing: 7.25058555603
intensity: 27.283536911
---
header: 
  seq: 1030889
  stamp: 
    secs: 1561865097
    nsecs: 807967551
  frame_id: "ti_mmwave"
point_id: 22
x: 0.009765625
y: 0.03125
z: 0.025390625
range: 0.0435769706964
velocity: 0.0
doppler_bin: 8
bearing: 72.6459732056
intensity: 29.3094902039
---
header: 
  seq: 1030890
  stamp: 
    secs: 1561865097
    nsecs: 807977213
  frame_id: "ti_mmwave"
point_id: 23
x: 0.041015625
y: -0.033203125
z: 0.0625
range: 0.0871539413929
velocity: 0.0
doppler_bin: 8
bearing: -38.9909973145
intensity: 30.081741333
---
header: 
  seq: 1030891
  stamp: 
    secs: 1561865097
    nsecs: 807983621
  frame_id: "ti_mmwave"
point_id: 24
x: 0.044921875
y: -0.046875
z: 0.103515625
range: 0.130730912089
velocity: 0.0
doppler_bin: 8
bearing: -46.218875885
intensity: 28.9652614594
---
header: 
  seq: 1030892
  stamp: 
    secs: 1561865097
    nsecs: 807994289
  frame_id: "ti_mmwave"
point_id: 26
x: 0.638671875
y: 0.08203125
z: -1.138671875
range: 1.39446306229
velocity: 0.0
doppler_bin: 8
bearing: 7.31901884079
intensity: 23.1806335449
---
header: 
  seq: 1030893
  stamp: 
    secs: 1561865097
    nsecs: 808834955
  frame_id: "ti_mmwave"
point_id: 0
x: 0.01171875
y: -0.0390625
z: -0.0078125
range: 0.0435769706964
velocity: 0.0
doppler_bin: 8
bearing: -73.3007583618
intensity: 30.6520614624
---
header: 
  seq: 1030894
  stamp: 
    secs: 1561865097
    nsecs: 808872288
  frame_id: "ti_mmwave"
point_id: 1
x: 0.017578125
y: -0.080078125
z: -0.0078125
range: 0.0871539413929
velocity: 0.0
doppler_bin: 8
bearing: -77.6192398071
intensity: 31.9061183929
---
header: 
  seq: 1030895
  stamp: 
    secs: 1561865097
    nsecs: 808883371
  frame_id: "ti_mmwave"
point_id: 2
x: 0.029296875
y: -0.119140625
z: -0.005859375
range: 0.130730912089
velocity: 0.0
doppler_bin: 8
bearing: -76.1849746704
intensity: 30.1494026184
---
header: 
  seq: 1030896
  stamp: 
    secs: 1561865097
    nsecs: 808891900
  frame_id: "ti_mmwave"
point_id: 3
x: 0.056640625
y: -0.154296875
z: 0.005859375
range: 0.174307882786
velocity: 0.0
doppler_bin: 8
bearing: -69.8423843384
intensity: 25.4406795502
---
header: 
  seq: 1030897
  stamp: 
    secs: 1561865097
    nsecs: 808899643
  frame_id: "ti_mmwave"
point_id: 4
x: 0.455078125
y: -0.0390625
z: -1.18359375
range: 1.35088610649
velocity: 0.0
doppler_bin: 8
bearing: -4.90606689453
intensity: 22.9666519165
---
header: 
  seq: 1030898
  stamp: 
    secs: 1561865097
    nsecs: 808908720
  frame_id: "ti_mmwave"
point_id: 5
x: 0.71484375
y: -0.041015625
z: -1.095703125
range: 1.39446306229
velocity: 0.0
doppler_bin: 8
bearing: -3.28386211395
intensity: 24.7421627045
---
header: 
  seq: 1030899
  stamp: 
    secs: 1561865097
    nsecs: 808915090
  frame_id: "ti_mmwave"
point_id: 6
x: 1.298828125
y: -0.337890625
z: -0.142578125
range: 1.43804001808
velocity: 0.0
doppler_bin: 8
bearing: -14.5822868347
intensity: 26.3245735168
---
header: 
  seq: 1030900
  stamp: 
    secs: 1561865097
    nsecs: 808920551
  frame_id: "ti_mmwave"
point_id: 7
x: 1.337890625
y: -0.34765625
z: -0.1484375
range: 1.48161697388
velocity: 0.0
doppler_bin: 8
bearing: -14.5663805008
intensity: 27.2591171265
---
header: 
  seq: 1030901
  stamp: 
    secs: 1561865097
    nsecs: 808926070
  frame_id: "ti_mmwave"
point_id: 8
x: 1.369140625
y: -0.357421875
z: -0.21484375
range: 1.52519392967
velocity: 0.0
doppler_bin: 8
bearing: -14.6308555603
intensity: 24.9276046753
---
header: 
  seq: 1030902
  stamp: 
    secs: 1561865097
    nsecs: 808939275
  frame_id: "ti_mmwave"
point_id: 9
x: 2.625
y: -0.17578125
z: 1.021484375
range: 3.00681090355
velocity: 0.0
doppler_bin: 8
bearing: -3.83105134964
intensity: 29.1328392029
---
header: 
  seq: 1030903
  stamp: 
    secs: 1561865097
    nsecs: 808944679
  frame_id: "ti_mmwave"
point_id: 10
x: 2.697265625
y: -0.08984375
z: 0.95703125
range: 3.05038785934
velocity: 0.0
doppler_bin: 8
bearing: -1.90777087212
intensity: 32.360332489
---
header: 
  seq: 1030904
  stamp: 
    secs: 1561865097
    nsecs: 808986458
  frame_id: "ti_mmwave"
point_id: 11
x: 2.740234375
y: -0.181640625
z: 0.9453125
range: 3.09396481514
velocity: 0.0
doppler_bin: 8
bearing: -3.79239034653
intensity: 31.4238948822
---
header: 
  seq: 1030905
  stamp: 
    secs: 1561865097
    nsecs: 808992846
  frame_id: "ti_mmwave"
point_id: 12
x: 4.37890625
y: -0.142578125
z: 1.34375
range: 4.88062095642
velocity: 0.0
doppler_bin: 8
bearing: -1.86490392685
intensity: 31.058506012
---
header: 
  seq: 1030906
  stamp: 
    secs: 1561865097
    nsecs: 808998696
  frame_id: "ti_mmwave"
point_id: 13
x: 4.3046875
y: -0.14453125
z: 1.677734375
range: 4.9241976738
velocity: 0.0
doppler_bin: 8
bearing: -1.9230017662
intensity: 30.293838501
---
header: 
  seq: 1030907
  stamp: 
    secs: 1561865097
    nsecs: 809004015
  frame_id: "ti_mmwave"
point_id: 14
x: 4.73046875
y: -0.44921875
z: -0.5703125
range: 5.09850549698
velocity: 0.0
doppler_bin: 8
bearing: -5.42470264435
intensity: 31.8241462708
---
header: 
  seq: 1030908
  stamp: 
    secs: 1561865097
    nsecs: 809009193
  frame_id: "ti_mmwave"
point_id: 15
x: 4.7890625
y: -0.150390625
z: -0.58203125
range: 5.14208269119
velocity: 0.0
doppler_bin: 8
bearing: -1.79866480827
intensity: 32.2271652222
---
header: 
  seq: 1030909
  stamp: 
    secs: 1561865097
    nsecs: 809014288
  frame_id: "ti_mmwave"
point_id: 16
x: 4.84765625
y: -0.154296875
z: 0.984375
range: 5.27281332016
velocity: 0.0
doppler_bin: 8
bearing: -1.82306158543
intensity: 31.1058979034
---
header: 
  seq: 1030910
  stamp: 
    secs: 1561865097
    nsecs: 809019923
  frame_id: "ti_mmwave"
point_id: 17
x: 4.87890625
y: -0.15625
z: 1.03515625
range: 5.31639051437
velocity: 0.0
doppler_bin: 8
bearing: -1.83430600166
intensity: 29.0902080536
---
header: 
  seq: 1030911
  stamp: 
    secs: 1561865097
    nsecs: 809025247
  frame_id: "ti_mmwave"
point_id: 18
x: 0.685546875
y: -0.087890625
z: 0.072265625
range: 0.740808486938
velocity: 0.614668667316
doppler_bin: 9
bearing: -7.30575990677
intensity: 26.5991611481
---
header: 
  seq: 1030912
  stamp: 
    secs: 1561865097
    nsecs: 809031088
  frame_id: "ti_mmwave"
point_id: 19
x: 0.728515625
y: -0.068359375
z: 0.083984375
range: 0.784385442734
velocity: 0.614668667316
doppler_bin: 9
bearing: -5.36058330536
intensity: 28.5491294861
---
header: 
  seq: 1030913
  stamp: 
    secs: 1561865097
    nsecs: 809036237
  frame_id: "ti_mmwave"
point_id: 20
x: 0.767578125
y: -0.072265625
z: 0.091796875
range: 0.827962458134
velocity: 0.614668667316
doppler_bin: 9
bearing: -5.37840557098
intensity: 26.7394199371
---
header: 
  seq: 1030914
  stamp: 
    secs: 1561865097
    nsecs: 809041835
  frame_id: "ti_mmwave"
point_id: 21
x: 0.80859375
y: -0.05078125
z: 0.1171875
range: 0.871539413929
velocity: 0.614668667316
doppler_bin: 9
bearing: -3.59356617928
intensity: 20.6445808411
---
header: 
  seq: 1030915
  stamp: 
    secs: 1561865097
    nsecs: 809047228
  frame_id: "ti_mmwave"
point_id: 22
x: 0.818359375
y: -0.0
z: 0.01953125
range: 0.871539413929
velocity: -0.614668667316
doppler_bin: 7
bearing: -0.0
intensity: 20.4921798706
---
header: 
  seq: 1030916
  stamp: 
    secs: 1561865097
    nsecs: 809053031
  frame_id: "ti_mmwave"
point_id: 23
x: 0.009765625
y: 0.03125
z: 0.025390625
range: 0.0435769706964
velocity: 0.0
doppler_bin: 8
bearing: 72.6459732056
intensity: 29.31457901
---
header: 
  seq: 1030917
  stamp: 
    secs: 1561865097
    nsecs: 809059262
  frame_id: "ti_mmwave"
point_id: 24
x: 0.041015625
y: -0.033203125
z: 0.0625
range: 0.0871539413929
velocity: 0.0
doppler_bin: 8
bearing: -38.9909973145
intensity: 30.0945091248
---
header: 
  seq: 1030918
  stamp: 
    secs: 1561865097
    nsecs: 809065122
  frame_id: "ti_mmwave"
point_id: 25
x: 0.044921875
y: -0.046875
z: 0.103515625
range: 0.130730912089
velocity: 0.0
doppler_bin: 8
bearing: -46.218875885
intensity: 28.9817657471
---
header: 
  seq: 1030919
  stamp: 
    secs: 1561865097
    nsecs: 809071667
  frame_id: "ti_mmwave"
point_id: 27
x: 1.17578125
y: -0.474609375
z: 0.037109375
range: 1.35088610649
velocity: 0.0
doppler_bin: 8
bearing: -21.9816875458
intensity: 20.934217453
---
header: 
  seq: 1030920
  stamp: 
    secs: 1561865097
    nsecs: 809077304
  frame_id: "ti_mmwave"
point_id: 28
x: 1.224609375
y: -0.44921875
z: 0.10546875
range: 1.39446306229
velocity: 0.0
doppler_bin: 8
bearing: -20.1443576813
intensity: 24.5178642273
---
header: 
  seq: 1030921
  stamp: 
    secs: 1561865097
    nsecs: 809082895
  frame_id: "ti_mmwave"
point_id: 29
x: 2.775390625
y: -0.0
z: 0.85546875
range: 3.09396481514
velocity: 0.0
doppler_bin: 8
bearing: -0.0
intensity: 31.3987903595
---
header: 
  seq: 1030922
  stamp: 
    secs: 1561865097
    nsecs: 867823872
  frame_id: "ti_mmwave"
point_id: 0
x: 0.01171875
y: -0.0390625
z: -0.0078125
range: 0.0435769706964
velocity: 0.0
doppler_bin: 8
bearing: -73.3007583618
intensity: 30.6483230591
---
header: 
  seq: 1030923
  stamp: 
    secs: 1561865097
    nsecs: 867903701
  frame_id: "ti_mmwave"
point_id: 1
x: 0.017578125
y: -0.080078125
z: -0.0078125
range: 0.0871539413929
velocity: 0.0
doppler_bin: 8
bearing: -77.6192398071
intensity: 31.9005146027
---
header: 
  seq: 1030924
  stamp: 
    secs: 1561865097
    nsecs: 867915329
  frame_id: "ti_mmwave"
point_id: 2
x: 0.029296875
y: -0.119140625
z: -0.005859375
range: 0.130730912089
velocity: 0.0
doppler_bin: 8
bearing: -76.1849746704
intensity: 30.1494026184
---
header: 
  seq: 1030925
  stamp: 
    secs: 1561865097
    nsecs: 867923665
  frame_id: "ti_mmwave"
point_id: 3
x: 0.056640625
y: -0.154296875
z: 0.005859375
range: 0.174307882786
velocity: 0.0
doppler_bin: 8
bearing: -69.8423843384
intensity: 25.4406795502
---
header: 
  seq: 1030926
  stamp: 
    secs: 1561865097
    nsecs: 867932147
  frame_id: "ti_mmwave"
point_id: 4
x: 1.212890625
y: -0.31640625
z: -0.19140625
range: 1.35088610649
velocity: 0.0
doppler_bin: 8
bearing: -14.6208734512
intensity: 22.7875366211
---
header: 
  seq: 1030927
  stamp: 
    secs: 1561865097
    nsecs: 867940348
  frame_id: "ti_mmwave"
point_id: 5
x: 1.255859375
y: -0.3671875
z: 0.0546875
range: 1.39446306229
velocity: 0.0
doppler_bin: 8
bearing: -16.2978363037
intensity: 26.3548374176
---
header: 
  seq: 1030928
  stamp: 
    secs: 1561865097
    nsecs: 867990497
  frame_id: "ti_mmwave"
point_id: 6
x: 1.3046875
y: -0.337890625
z: 0.068359375
range: 1.43804001808
velocity: 0.0
doppler_bin: 8
bearing: -14.5195703506
intensity: 27.5281639099
---
header: 
  seq: 1030929
  stamp: 
    secs: 1561865097
    nsecs: 868171299
  frame_id: "ti_mmwave"
point_id: 7
x: 1.345703125
y: -0.34765625
z: 0.046875
range: 1.48161697388
velocity: 0.0
doppler_bin: 8
bearing: -14.4853830338
intensity: 26.0530509949
---
header: 
  seq: 1030930
  stamp: 
    secs: 1561865097
    nsecs: 868222355
  frame_id: "ti_mmwave"
point_id: 8
x: 2.6171875
y: -0.17578125
z: 1.041015625
range: 3.00681090355
velocity: 0.0
doppler_bin: 8
bearing: -3.84245300293
intensity: 29.0525608063
---
header: 
  seq: 1030931
  stamp: 
    secs: 1561865097
    nsecs: 868250817
  frame_id: "ti_mmwave"
point_id: 9
x: 2.693359375
y: -0.08984375
z: 0.966796875
range: 3.05038785934
velocity: 0.0
doppler_bin: 8
bearing: -1.91053581238
intensity: 32.2063102722
---
header: 
  seq: 1030932
  stamp: 
    secs: 1561865097
    nsecs: 868260700
  frame_id: "ti_mmwave"
point_id: 10
x: 2.7578125
y: -0.08984375
z: 0.904296875
range: 3.09396481514
velocity: 0.0
doppler_bin: 8
bearing: -1.86591637135
intensity: 31.1394329071
---
header: 
  seq: 1030933
  stamp: 
    secs: 1561865097
    nsecs: 868322904
  frame_id: "ti_mmwave"
point_id: 11
x: 4.306640625
y: -0.142578125
z: 1.4296875
range: 4.83704376221
velocity: 0.0
doppler_bin: 8
bearing: -1.89617455006
intensity: 27.8532981873
---
header: 
  seq: 1030934
  stamp: 
    secs: 1561865097
    nsecs: 868338820
  frame_id: "ti_mmwave"
point_id: 12
x: 4.3984375
y: -0.142578125
z: 1.271484375
range: 4.88062095642
velocity: 0.0
doppler_bin: 8
bearing: -1.8566287756
intensity: 31.6435279846
---
header: 
  seq: 1030935
  stamp: 
    secs: 1561865097
    nsecs: 868360251
  frame_id: "ti_mmwave"
point_id: 13
x: 4.416015625
y: -0.14453125
z: 1.359375
range: 4.9241976738
velocity: 0.0
doppler_bin: 8
bearing: -1.87455761433
intensity: 31.2287101746
---
header: 
  seq: 1030936
  stamp: 
    secs: 1561865097
    nsecs: 868382908
  frame_id: "ti_mmwave"
point_id: 14
x: 4.740234375
y: -0.298828125
z: -0.591796875
range: 5.09850549698
velocity: 0.0
doppler_bin: 8
bearing: -3.60719799995
intensity: 31.7955169678
---
header: 
  seq: 1030937
  stamp: 
    secs: 1561865097
    nsecs: 868492877
  frame_id: "ti_mmwave"
point_id: 15
x: 4.77734375
y: -0.150390625
z: -0.669921875
range: 5.14208269119
velocity: 0.0
doppler_bin: 8
bearing: -1.80307364464
intensity: 31.9312458038
---
header: 
  seq: 1030938
  stamp: 
    secs: 1561865097
    nsecs: 868523692
  frame_id: "ti_mmwave"
point_id: 16
x: 4.828125
y: -0.154296875
z: 1.07421875
range: 5.27281332016
velocity: 0.0
doppler_bin: 8
bearing: -1.83043134212
intensity: 30.4296913147
---
header: 
  seq: 1030939
  stamp: 
    secs: 1561865097
    nsecs: 868586463
  frame_id: "ti_mmwave"
point_id: 17
x: 0.6640625
y: -0.1953125
z: 0.05859375
range: 0.740808486938
velocity: 2.45867466927
doppler_bin: 12
bearing: -16.389541626
intensity: 20.5307846069
---
header: 
  seq: 1030940
  stamp: 
    secs: 1561865097
    nsecs: 868604341
  frame_id: "ti_mmwave"
point_id: 18
x: 0.703125
y: -0.20703125
z: 0.07421875
range: 0.784385442734
velocity: 2.45867466927
doppler_bin: 12
bearing: -16.4067726135
intensity: 26.8214511871
---
header: 
  seq: 1030941
  stamp: 
    secs: 1561865097
    nsecs: 868616082
  frame_id: "ti_mmwave"
point_id: 19
x: 0.740234375
y: -0.21875
z: 0.083984375
range: 0.827962458134
velocity: 2.45867466927
doppler_bin: 12
bearing: -16.4631748199
intensity: 28.656961441
---
header: 
  seq: 1030942
  stamp: 
    secs: 1561865097
    nsecs: 868654710
  frame_id: "ti_mmwave"
point_id: 20
x: 0.779296875
y: -0.23046875
z: 0.087890625
range: 0.871539413929
velocity: 2.45867466927
doppler_bin: 12
bearing: -16.4750232697
intensity: 26.7760696411
---
header: 
  seq: 1030943
  stamp: 
    secs: 1561865097
    nsecs: 868669590
  frame_id: "ti_mmwave"
point_id: 21
x: 0.83203125
y: -0.1875
z: 0.103515625
range: 0.915116369724
velocity: 2.45867466927
doppler_bin: 12
bearing: -12.6995840073
intensity: 20.934217453
---
header: 
  seq: 1030944
  stamp: 
    secs: 1561865097
    nsecs: 868683701
  frame_id: "ti_mmwave"
point_id: 22
x: 0.009765625
y: 0.03125
z: 0.025390625
range: 0.0435769706964
velocity: 0.0
doppler_bin: 8
bearing: 72.6459732056
intensity: 29.31457901
---
header: 
  seq: 1030945
  stamp: 
    secs: 1561865097
    nsecs: 868695693
  frame_id: "ti_mmwave"
point_id: 23
x: 0.041015625
y: -0.033203125
z: 0.0625
range: 0.0871539413929
velocity: 0.0
doppler_bin: 8
bearing: -38.9909973145
intensity: 30.0902576447
---
header: 
  seq: 1030946
  stamp: 
    secs: 1561865097
    nsecs: 868706676
  frame_id: "ti_mmwave"
point_id: 24
x: 0.044921875
y: -0.046875
z: 0.103515625
range: 0.130730912089
velocity: 0.0
doppler_bin: 8
bearing: -46.218875885
intensity: 28.9762706757
---
header: 
  seq: 1030947
  stamp: 
    secs: 1561865097
    nsecs: 868722480
  frame_id: "ti_mmwave"
point_id: 26
x: 0.80078125
y: -0.0
z: -0.982421875
range: 1.35088610649
velocity: 0.0
doppler_bin: 8
bearing: -0.0
intensity: 21.9312458038
---
header: 
  seq: 1030948
  stamp: 
    secs: 1561865097
    nsecs: 868822362
  frame_id: "ti_mmwave"
point_id: 27
x: 0.615234375
y: 0.08203125
z: -1.15234375
range: 1.39446306229
velocity: 0.0
doppler_bin: 8
bearing: 7.59464359283
intensity: 23.7474842072
---
header: 
  seq: 1030949
  stamp: 
    secs: 1561865097
    nsecs: 868850772
  frame_id: "ti_mmwave"
point_id: 28
x: 4.75
y: -0.453125
z: -0.72265625
range: 5.14208269119
velocity: 0.0
doppler_bin: 8
bearing: -5.44922590256
intensity: 31.9173030853
---
header: 
  seq: 1030950
  stamp: 
    secs: 1561865097
    nsecs: 869218676
  frame_id: "ti_mmwave"
point_id: 0
x: 0.01171875
y: -0.0390625
z: -0.0078125
range: 0.0435769706964
velocity: 0.0
doppler_bin: 8
bearing: -73.3007583618
intensity: 30.6483230591
---
header: 
  seq: 1030951
  stamp: 
    secs: 1561865097
    nsecs: 869275759
  frame_id: "ti_mmwave"
point_id: 1
x: 0.017578125
y: -0.080078125
z: -0.0078125
range: 0.0871539413929
velocity: 0.0
doppler_bin: 8
bearing: -77.6192398071
intensity: 31.9061183929
---
header: 
  seq: 1030952
  stamp: 
    secs: 1561865097
    nsecs: 869293859
  frame_id: "ti_mmwave"
point_id: 2
x: 0.029296875
y: -0.119140625
z: -0.005859375
range: 0.130730912089
velocity: 0.0
doppler_bin: 8
bearing: -76.1849746704
intensity: 30.1535968781
---
header: 
  seq: 1030953
  stamp: 
    secs: 1561865097
    nsecs: 869307673
  frame_id: "ti_mmwave"
point_id: 3
x: 0.056640625
y: -0.154296875
z: 0.005859375
range: 0.174307882786
velocity: 0.0
doppler_bin: 8
bearing: -69.8423843384
intensity: 25.4530715942
---
header: 
  seq: 1030954
  stamp: 
    secs: 1561865097
    nsecs: 869323597
  frame_id: "ti_mmwave"
point_id: 4
x: 1.193359375
y: -0.357421875
z: 0.23828125
range: 1.35088610649
velocity: 0.0
doppler_bin: 8
bearing: -16.6734313965
intensity: 23.9967365265
---
header: 
  seq: 1030955
  stamp: 
    secs: 1561865097
    nsecs: 869396783
  frame_id: "ti_mmwave"
point_id: 5
x: 1.232421875
y: -0.328125
z: 0.29296875
range: 1.39446306229
velocity: 0.0
doppler_bin: 8
bearing: -14.9088087082
intensity: 27.7378635406
---
header: 
  seq: 1030956
  stamp: 
    secs: 1561865097
    nsecs: 869408076
  frame_id: "ti_mmwave"
point_id: 6
x: 1.296875
y: -0.294921875
z: 0.232421875
range: 1.43804001808
velocity: 0.0
doppler_bin: 8
bearing: -12.8117256165
intensity: 29.1539974213
---
header: 
  seq: 1030957
  stamp: 
    secs: 1561865097
    nsecs: 869417987
  frame_id: "ti_mmwave"
point_id: 7
x: 1.34375
y: -0.3046875
z: -0.185546875
range: 1.48161697388
velocity: 0.0
doppler_bin: 8
bearing: -12.7754678726
intensity: 29.122220993
---
header: 
  seq: 1030958
  stamp: 
    secs: 1561865097
    nsecs: 869425564
  frame_id: "ti_mmwave"
point_id: 8
x: 1.39453125
y: -0.267578125
z: -0.177734375
range: 1.52519392967
velocity: 0.0
doppler_bin: 8
bearing: -10.8617153168
intensity: 26.7302093506
---
header: 
  seq: 1030959
  stamp: 
    secs: 1561865097
    nsecs: 869434314
  frame_id: "ti_mmwave"
point_id: 9
x: 2.611328125
y: -0.17578125
z: 1.056640625
range: 3.00681090355
velocity: 0.0
doppler_bin: 8
bearing: -3.85104894638
intensity: 28.9982051849
---
header: 
  seq: 1030960
  stamp: 
    secs: 1561865097
    nsecs: 869441581
  frame_id: "ti_mmwave"
point_id: 10
x: 2.6875
y: -0.08984375
z: 0.984375
range: 3.05038785934
velocity: 0.0
doppler_bin: 8
bearing: -1.91469812393
intensity: 32.1958465576
---
header: 
  seq: 1030961
  stamp: 
    secs: 1561865097
    nsecs: 869449882
  frame_id: "ti_mmwave"
point_id: 11
x: 2.75390625
y: -0.08984375
z: 0.91796875
range: 3.09396481514
velocity: 0.0
doppler_bin: 8
bearing: -1.86856126785
intensity: 31.1660766602
---
header: 
  seq: 1030962
  stamp: 
    secs: 1561865097
    nsecs: 869456234
  frame_id: "ti_mmwave"
point_id: 12
x: 4.39453125
y: -0.142578125
z: 1.287109375
range: 4.88062095642
velocity: 0.0
doppler_bin: 8
bearing: -1.8582777977
intensity: 31.4829406738
---
header: 
  seq: 1030963
  stamp: 
    secs: 1561865097
    nsecs: 869483678
  frame_id: "ti_mmwave"
point_id: 13
x: 4.3984375
y: -0.14453125
z: 1.4140625
range: 4.9241976738
velocity: 0.0
doppler_bin: 8
bearing: -1.88204371929
intensity: 31.0448703766
---
header: 
  seq: 1030964
  stamp: 
    secs: 1561865097
    nsecs: 869505845
  frame_id: "ti_mmwave"
point_id: 14
x: 4.740234375
y: -0.298828125
z: -0.595703125
range: 5.09850549698
velocity: 0.0
doppler_bin: 8
bearing: -3.60719799995
intensity: 31.9200954437
---
header: 
  seq: 1030965
  stamp: 
    secs: 1561865097
    nsecs: 869526013
  frame_id: "ti_mmwave"
point_id: 15
x: 4.76953125
y: -0.30078125
z: -0.67578125
range: 5.14208269119
velocity: 0.0
doppler_bin: 8
bearing: -3.60846877098
intensity: 32.2530937195
---
header: 
  seq: 1030966
  stamp: 
    secs: 1561865097
    nsecs: 869541352
  frame_id: "ti_mmwave"
point_id: 16
x: 4.8515625
y: -0.154296875
z: 0.96875
range: 5.27281332016
velocity: 0.0
doppler_bin: 8
bearing: -1.82159459591
intensity: 30.962146759
---
header: 
  seq: 1030967
  stamp: 
    secs: 1561865097
    nsecs: 869560862
  frame_id: "ti_mmwave"
point_id: 17
x: 0.8203125
y: -0.365234375
z: 0.046875
range: 0.958693385124
velocity: 3.68801212311
doppler_bin: 14
bearing: -24.0004501343
intensity: 20.293838501
---
header: 
  seq: 1030968
  stamp: 
    secs: 1561865097
    nsecs: 869629388
  frame_id: "ti_mmwave"
point_id: 18
x: 0.009765625
y: 0.03125
z: 0.025390625
range: 0.0435769706964
velocity: 0.0
