header: 
  seq: 1379416
  stamp: 
    secs: 1561868364
    nsecs: 606354084
  frame_id: "ti_mmwave"
point_id: 0
x: 0.01171875
y: -0.0390625
z: -0.0078125
range: 0.0435769706964
velocity: 0.0
doppler_bin: 8
bearing: -73.3007583618
intensity: 30.6408348083
---
header: 
  seq: 1379417
  stamp: 
    secs: 1561868364
    nsecs: 606432605
  frame_id: "ti_mmwave"
point_id: 1
x: 0.017578125
y: -0.080078125
z: -0.0078125
range: 0.0871539413929
velocity: 0.0
doppler_bin: 8
bearing: -77.6192398071
intensity: 31.9005146027
---
header: 
  seq: 1379418
  stamp: 
    secs: 1561868364
    nsecs: 606464027
  frame_id: "ti_mmwave"
point_id: 2
x: 0.029296875
y: -0.119140625
z: -0.005859375
range: 0.130730912089
velocity: 0.0
doppler_bin: 8
bearing: -76.1849746704
intensity: 30.1199302673
---
header: 
  seq: 1379419
  stamp: 
    secs: 1561868364
    nsecs: 606477704
  frame_id: "ti_mmwave"
point_id: 3
x: 0.056640625
y: -0.154296875
z: 0.005859375
range: 0.174307882786
velocity: 0.0
doppler_bin: 8
bearing: -69.8423843384
intensity: 25.4530715942
---
header: 
  seq: 1379420
  stamp: 
    secs: 1561868364
    nsecs: 606489064
  frame_id: "ti_mmwave"
point_id: 4
x: 0.130859375
y: -0.080078125
z: 1.259765625
range: 1.35088610649
velocity: 0.0
doppler_bin: 8
bearing: -31.4641437531
intensity: 23.0749607086
---
header: 
  seq: 1379421
  stamp: 
    secs: 1561868364
    nsecs: 606499640
  frame_id: "ti_mmwave"
point_id: 6
x: 0.419921875
y: -0.083984375
z: -1.279296875
range: 1.43804001808
velocity: 0.0
doppler_bin: 8
bearing: -11.3099327087
intensity: 23.0535144806
---
header: 
  seq: 1379422
  stamp: 
    secs: 1561868364
    nsecs: 606508993
  frame_id: "ti_mmwave"
point_id: 7
x: 0.572265625
y: -0.04296875
z: -1.267578125
range: 1.48161697388
velocity: 0.0
doppler_bin: 8
bearing: -4.29401493073
intensity: 21.6731739044
---
header: 
  seq: 1379423
  stamp: 
    secs: 1561868364
    nsecs: 606521444
  frame_id: "ti_mmwave"
point_id: 8
x: 1.716796875
y: -0.052734375
z: -0.00390625
range: 1.83023273945
velocity: 0.0
doppler_bin: 8
bearing: -1.75938534737
intensity: 28.5308952332
---
header: 
  seq: 1379424
  stamp: 
    secs: 1561868364
    nsecs: 606529939
  frame_id: "ti_mmwave"
point_id: 9
x: 1.755859375
y: -0.109375
z: 0.0390625
range: 1.87380969524
velocity: 0.0
doppler_bin: 8
bearing: -3.56443095207
intensity: 28.4073314667
---
header: 
  seq: 1379425
  stamp: 
    secs: 1561868364
    nsecs: 606537919
  frame_id: "ti_mmwave"
point_id: 10
x: 2.607421875
y: -0.17578125
z: 1.06640625
range: 3.00681090355
velocity: 0.0
doppler_bin: 8
bearing: -3.8568007946
intensity: 28.9320678711
---
header: 
  seq: 1379426
  stamp: 
    secs: 1561868364
    nsecs: 606546788
  frame_id: "ti_mmwave"
point_id: 11
x: 2.654296875
y: -0.1796875
z: 1.05859375
range: 3.05038785934
velocity: 0.0
doppler_bin: 8
bearing: -3.87283420563
intensity: 32.1404876709
---
header: 
  seq: 1379427
  stamp: 
    secs: 1561868364
    nsecs: 606555169
  frame_id: "ti_mmwave"
point_id: 12
x: 2.751953125
y: -0.08984375
z: 0.921875
range: 3.09396481514
velocity: 0.0
doppler_bin: 8
bearing: -1.86988639832
intensity: 31.0754909515
---
header: 
  seq: 1379428
  stamp: 
    secs: 1561868364
    nsecs: 606567689
  frame_id: "ti_mmwave"
point_id: 13
x: 4.40234375
y: -0.287109375
z: 1.23828125
range: 4.88062095642
velocity: 0.0
doppler_bin: 8
bearing: -3.73139691353
intensity: 29.9431724548
---
header: 
  seq: 1379429
  stamp: 
    secs: 1561868364
    nsecs: 606724855
  frame_id: "ti_mmwave"
point_id: 14
x: 4.4453125
y: -0.14453125
z: 1.259765625
range: 4.9241976738
velocity: 0.0
doppler_bin: 8
bearing: -1.86221218109
intensity: 29.5036487579
---
header: 
  seq: 1379430
  stamp: 
    secs: 1561868364
    nsecs: 606747330
  frame_id: "ti_mmwave"
point_id: 15
x: 1.6640625
y: 0.158203125
z: 0.130859375
range: 1.78665578365
velocity: -1.22933733463
doppler_bin: 6
bearing: 5.43081092834
intensity: 25.1321754456
---
header: 
  seq: 1379431
  stamp: 
    secs: 1561868364
    nsecs: 606755873
  frame_id: "ti_mmwave"
point_id: 16
x: 1.75
y: 0.109375
z: -0.13671875
range: 1.87380969524
velocity: -1.22933733463
doppler_bin: 6
bearing: 3.57633447647
intensity: 24.9136161804
---
header: 
  seq: 1379432
  stamp: 
    secs: 1561868364
    nsecs: 606764204
  frame_id: "ti_mmwave"
point_id: 17
x: 1.787109375
y: 0.11328125
z: -0.181640625
range: 1.91738677025
velocity: -1.22933733463
doppler_bin: 6
bearing: 3.62701106071
intensity: 25.3275432587
---
header: 
  seq: 1379433
  stamp: 
    secs: 1561868364
    nsecs: 606774381
  frame_id: "ti_mmwave"
point_id: 19
x: 0.041015625
y: -0.033203125
z: 0.0625
range: 0.0871539413929
velocity: 0.0
doppler_bin: 8
bearing: -38.9909973145
intensity: 30.0902576447
---
header: 
  seq: 1379434
  stamp: 
    secs: 1561868364
    nsecs: 606782444
  frame_id: "ti_mmwave"
point_id: 20
x: 0.044921875
y: -0.046875
z: 0.103515625
range: 0.130730912089
velocity: 0.0
doppler_bin: 8
bearing: -46.218875885
intensity: 29.0091304779
---
header: 
  seq: 1379435
  stamp: 
    secs: 1561868364
    nsecs: 607578250
  frame_id: "ti_mmwave"
point_id: 0
x: 0.01171875
y: -0.0390625
z: -0.0078125
range: 0.0435769706964
velocity: 0.0
doppler_bin: 8
bearing: -73.3007583618
intensity: 30.6445808411
---
header: 
  seq: 1379436
  stamp: 
    secs: 1561868364
    nsecs: 607646553
  frame_id: "ti_mmwave"
point_id: 1
x: 0.017578125
y: -0.080078125
z: -0.0078125
range: 0.0871539413929
velocity: 0.0
doppler_bin: 8
bearing: -77.6192398071
intensity: 31.9005146027
---
header: 
  seq: 1379437
  stamp: 
    secs: 1561868364
    nsecs: 607664083
  frame_id: "ti_mmwave"
point_id: 2
x: 0.029296875
y: -0.119140625
z: -0.005859375
range: 0.130730912089
velocity: 0.0
doppler_bin: 8
bearing: -76.1849746704
intensity: 30.1114730835
---
header: 
  seq: 1379438
  stamp: 
    secs: 1561868364
    nsecs: 607676365
  frame_id: "ti_mmwave"
point_id: 3
x: 0.056640625
y: -0.154296875
z: 0.005859375
range: 0.174307882786
velocity: 0.0
doppler_bin: 8
bearing: -69.8423843384
intensity: 25.4406795502
---
header: 
  seq: 1379439
  stamp: 
    secs: 1561868364
    nsecs: 607688277
  frame_id: "ti_mmwave"
point_id: 4
x: 0.15625
y: -0.080078125
z: 1.255859375
range: 1.35088610649
velocity: 0.0
doppler_bin: 8
bearing: -27.1351394653
intensity: 23.0749607086
---
header: 
  seq: 1379440
  stamp: 
    secs: 1561868364
    nsecs: 607701016
  frame_id: "ti_mmwave"
point_id: 5
x: 0.029296875
y: -0.08203125
z: 1.306640625
range: 1.39446306229
velocity: 0.0
doppler_bin: 8
bearing: -70.3461761475
intensity: 24.6389293671
---
header: 
  seq: 1379441
  stamp: 
    secs: 1561868364
    nsecs: 607716141
  frame_id: "ti_mmwave"
point_id: 6
x: 0.396484375
y: -0.083984375
z: -1.287109375
range: 1.43804001808
velocity: 0.0
doppler_bin: 8
bearing: -11.9597616196
intensity: 23.0963020325
---
header: 
  seq: 1379442
  stamp: 
    secs: 1561868364
    nsecs: 607752633
  frame_id: "ti_mmwave"
point_id: 7
x: 1.7578125
y: -0.0546875
z: -0.01171875
range: 1.87380969524
velocity: 0.0
doppler_bin: 8
bearing: -1.78196060658
intensity: 28.633228302
---
header: 
  seq: 1379443
  stamp: 
    secs: 1561868364
    nsecs: 607854766
  frame_id: "ti_mmwave"
point_id: 8
x: 2.6171875
y: -0.17578125
z: 1.041015625
range: 3.00681090355
velocity: 0.0
doppler_bin: 8
bearing: -3.84245300293
intensity: 29.0308990479
---
header: 
  seq: 1379444
  stamp: 
    secs: 1561868364
    nsecs: 607884485
  frame_id: "ti_mmwave"
point_id: 9
x: 2.662109375
y: -0.1796875
z: 1.037109375
range: 3.05038785934
velocity: 0.0
doppler_bin: 8
bearing: -3.86150240898
intensity: 32.2167510986
---
header: 
  seq: 1379445
  stamp: 
    secs: 1561868364
    nsecs: 607900053
  frame_id: "ti_mmwave"
point_id: 10
x: 2.755859375
y: -0.08984375
z: 0.912109375
range: 3.09396481514
velocity: 0.0
doppler_bin: 8
bearing: -1.86723792553
intensity: 31.3097667694
---
header: 
  seq: 1379446
  stamp: 
    secs: 1561868364
    nsecs: 607914665
  frame_id: "ti_mmwave"
point_id: 11
x: 1.826171875
y: 0.115234375
z: -0.203125
range: 1.96096372604
velocity: -1.22933733463
doppler_bin: 6
bearing: 3.61066842079
intensity: 22.718416214
---
header: 
  seq: 1379447
  stamp: 
    secs: 1561868364
    nsecs: 607928408
  frame_id: "ti_mmwave"
point_id: 12
x: 1.6640625
y: -0.0
z: 0.216796875
range: 1.78665578365
velocity: -0.614668667316
doppler_bin: 7
bearing: -0.0
intensity: 28.3884906769
---
header: 
  seq: 1379448
  stamp: 
    secs: 1561868364
    nsecs: 607937687
  frame_id: "ti_mmwave"
point_id: 13
x: 1.716796875
y: -0.0
z: 0.0859375
range: 1.83023273945
velocity: -0.614668667316
doppler_bin: 7
bearing: -0.0
intensity: 28.7909584045
---
header: 
  seq: 1379449
  stamp: 
    secs: 1561868364
    nsecs: 608008478
  frame_id: "ti_mmwave"
point_id: 15
x: 0.041015625
y: -0.033203125
z: 0.0625
range: 0.0871539413929
velocity: 0.0
doppler_bin: 8
bearing: -38.9909973145
intensity: 30.0902576447
---
header: 
  seq: 1379450
  stamp: 
    secs: 1561868364
    nsecs: 608123557
  frame_id: "ti_mmwave"
point_id: 16
x: 0.044921875
y: -0.046875
z: 0.103515625
range: 0.130730912089
velocity: 0.0
doppler_bin: 8
bearing: -46.218875885
intensity: 29.0036716461
---
header: 
  seq: 1379451
  stamp: 
    secs: 1561868364
    nsecs: 666168617
  frame_id: "ti_mmwave"
point_id: 0
x: 0.01171875
y: -0.0390625
z: -0.0078125
range: 0.0435769706964
velocity: 0.0
doppler_bin: 8
bearing: -73.3007583618
intensity: 30.6483230591
---
header: 
  seq: 1379452
  stamp: 
    secs: 1561868364
    nsecs: 666245506
  frame_id: "ti_mmwave"
point_id: 1
x: 0.017578125
y: -0.080078125
z: -0.0078125
range: 0.0871539413929
velocity: 0.0
doppler_bin: 8
bearing: -77.6192398071
intensity: 31.9033164978
---
header: 
  seq: 1379453
  stamp: 
    secs: 1561868364
    nsecs: 666261216
  frame_id: "ti_mmwave"
point_id: 2
x: 0.029296875
y: -0.119140625
z: -0.005859375
range: 0.130730912089
velocity: 0.0
doppler_bin: 8
bearing: -76.1849746704
intensity: 30.1199302673
---
header: 
  seq: 1379454
  stamp: 
    secs: 1561868364
    nsecs: 666275587
  frame_id: "ti_mmwave"
point_id: 3
x: 0.056640625
y: -0.154296875
z: 0.0078125
range: 0.174307882786
velocity: 0.0
doppler_bin: 8
bearing: -69.8423843384
intensity: 25.4530715942
---
header: 
  seq: 1379455
  stamp: 
    secs: 1561868364
    nsecs: 666296372
  frame_id: "ti_mmwave"
point_id: 4
x: 0.142578125
y: -0.080078125
z: 1.2578125
range: 1.35088610649
velocity: 0.0
doppler_bin: 8
bearing: -29.3204746246
intensity: 23.1175384521
---
header: 
  seq: 1379456
  stamp: 
    secs: 1561868364
    nsecs: 666373194
  frame_id: "ti_mmwave"
point_id: 5
x: 0.07421875
y: -0.08203125
z: 1.3046875
range: 1.39446306229
velocity: 0.0
doppler_bin: 8
bearing: -47.8624038696
intensity: 24.6538276672
---
header: 
  seq: 1379457
  stamp: 
    secs: 1561868364
    nsecs: 666386676
  frame_id: "ti_mmwave"
point_id: 6
x: 0.404296875
y: -0.083984375
z: -1.28515625
range: 1.43804001808
velocity: 0.0
doppler_bin: 8
bearing: -11.7351255417
intensity: 23.1597042084
---
header: 
  seq: 1379458
  stamp: 
    secs: 1561868364
    nsecs: 666397771
  frame_id: "ti_mmwave"
point_id: 7
x: 0.55859375
y: -0.04296875
z: -1.2734375
range: 1.48161697388
velocity: 0.0
doppler_bin: 8
bearing: -4.39870548248
intensity: 21.7318630219
---
header: 
  seq: 1379459
  stamp: 
    secs: 1561868364
    nsecs: 666409621
  frame_id: "ti_mmwave"
point_id: 8
x: 2.615234375
y: -0.17578125
z: 1.046875
range: 3.00681090355
velocity: 0.0
doppler_bin: 8
bearing: -3.84531402588
intensity: 28.9982051849
---
header: 
  seq: 1379460
  stamp: 
    secs: 1561868364
    nsecs: 666423416
  frame_id: "ti_mmwave"
point_id: 9
x: 2.689453125
y: -0.08984375
z: 0.9765625
range: 3.05038785934
velocity: 0.0
doppler_bin: 8
bearing: -1.91330885887
intensity: 32.2063102722
---
header: 
  seq: 1379461
  stamp: 
    secs: 1561868364
    nsecs: 666434688
  frame_id: "ti_mmwave"
point_id: 10
x: 2.751953125
y: -0.08984375
z: 0.921875
range: 3.09396481514
velocity: 0.0
doppler_bin: 8
bearing: -1.86988639832
intensity: 31.2287101746
---
header: 
  seq: 1379462
  stamp: 
    secs: 1561868364
    nsecs: 666445933
  frame_id: "ti_mmwave"
point_id: 11
x: 1.525390625
y: 0.291015625
z: -0.044921875
range: 1.65592491627
velocity: -1.84400606155
doppler_bin: 5
bearing: 10.801153183
intensity: 20.2118930817
---
header: 
  seq: 1379463
  stamp: 
    secs: 1561868364
    nsecs: 666460043
  frame_id: "ti_mmwave"
point_id: 12
x: 1.56640625
y: 0.298828125
z: -0.048828125
range: 1.69950187206
velocity: -1.84400606155
doppler_bin: 5
bearing: 10.8007116318
intensity: 23.5218257904
---
header: 
  seq: 1379464
  stamp: 
    secs: 1561868364
    nsecs: 666471820
  frame_id: "ti_mmwave"
point_id: 13
x: 1.60546875
y: 0.306640625
z: -0.0703125
range: 1.74307882786
velocity: -1.84400606155
doppler_bin: 5
bearing: 10.8131217957
intensity: 23.2837963104
---
header: 
  seq: 1379465
  stamp: 
    secs: 1561868364
    nsecs: 666484808
  frame_id: "ti_mmwave"
point_id: 14
x: 1.67578125
y: 0.052734375
z: -0.056640625
range: 1.78665578365
velocity: -0.614668667316
doppler_bin: 7
bearing: 1.80241930485
intensity: 28.5003318787
---
header: 
  seq: 1379466
  stamp: 
    secs: 1561868364
    nsecs: 666497517
  frame_id: "ti_mmwave"
point_id: 15
x: 1.712890625
y: 0.107421875
z: -0.080078125
range: 1.83023273945
velocity: -0.614668667316
doppler_bin: 7
bearing: 3.58853602409
intensity: 31.1394329071
---
header: 
  seq: 1379467
  stamp: 
    secs: 1561868364
    nsecs: 666560722
  frame_id: "ti_mmwave"
point_id: 16
x: 1.751953125
y: 0.109375
z: -0.09765625
range: 1.87380969524
velocity: -0.614668667316
doppler_bin: 7
bearing: 3.57235765457
intensity: 30.0475120544
---
header: 
  seq: 1379468
  stamp: 
    secs: 1561868364
    nsecs: 666583164
  frame_id: "ti_mmwave"
point_id: 18
x: 0.041015625
y: -0.033203125
z: 0.0625
range: 0.0871539413929
velocity: 0.0
doppler_bin: 8
bearing: -38.9909973145
intensity: 30.0945091248
---
header: 
  seq: 1379469
  stamp: 
    secs: 1561868364
    nsecs: 666594819
  frame_id: "ti_mmwave"
point_id: 19
x: 0.044921875
y: -0.046875
z: 0.103515625
range: 0.130730912089
velocity: 0.0
doppler_bin: 8
bearing: -46.218875885
intensity: 29.0091304779
---
header: 
  seq: 1379470
  stamp: 
    secs: 1561868364
    nsecs: 667668577
  frame_id: "ti_mmwave"
point_id: 0
x: 0.01171875
y: -0.0390625
z: -0.0078125
range: 0.0435769706964
velocity: 0.0
doppler_bin: 8
bearing: -73.3007583618
intensity: 30.6445808411
---
header: 
  seq: 1379471
  stamp: 
    secs: 1561868364
    nsecs: 667705945
  frame_id: "ti_mmwave"
point_id: 1
x: 0.017578125
y: -0.080078125
z: -0.0078125
range: 0.0871539413929
velocity: 0.0
doppler_bin: 8
bearing: -77.6192398071
intensity: 31.9005146027
---
header: 
  seq: 1379472
  stamp: 
    secs: 1561868364
    nsecs: 667720889
  frame_id: "ti_mmwave"
point_id: 2
x: 0.029296875
y: -0.119140625
z: -0.005859375
range: 0.130730912089
velocity: 0.0
doppler_bin: 8
bearing: -76.1849746704
intensity: 30.1157035828
---
header: 
  seq: 1379473
  stamp: 
    secs: 1561868364
    nsecs: 667736589
  frame_id: "ti_mmwave"
point_id: 3
x: 0.056640625
y: -0.154296875
z: 0.005859375
range: 0.174307882786
velocity: 0.0
doppler_bin: 8
bearing: -69.8423843384
intensity: 25.4530715942
---
header: 
  seq: 1379474
  stamp: 
    secs: 1561868364
    nsecs: 667782081
  frame_id: "ti_mmwave"
point_id: 4
x: 0.130859375
y: -0.080078125
z: 1.259765625
range: 1.35088610649
velocity: 0.0
doppler_bin: 8
bearing: -31.4641437531
intensity: 23.1175384521
---
header: 
  seq: 1379475
  stamp: 
    secs: 1561868364
    nsecs: 667794160
  frame_id: "ti_mmwave"
point_id: 5
x: 0.0546875
y: -0.08203125
z: 1.3046875
range: 1.39446306229
velocity: 0.0
doppler_bin: 8
bearing: -56.3099327087
intensity: 24.6538276672
---
header: 
  seq: 1379476
  stamp: 
    secs: 1561868364
    nsecs: 667808063
  frame_id: "ti_mmwave"
point_id: 6
x: 0.40625
y: -0.083984375
z: -1.28515625
range: 1.43804001808
velocity: 0.0
doppler_bin: 8
bearing: -11.6802606583
intensity: 23.1175384521
---
header: 
  seq: 1379477
  stamp: 
    secs: 1561868364
    nsecs: 667819889
  frame_id: "ti_mmwave"
point_id: 7
x: 0.564453125
y: -0.04296875
z: -1.271484375
range: 1.48161697388
velocity: 0.0
doppler_bin: 8
bearing: -4.35321998596
intensity: 21.7026176453
---
header: 
  seq: 1379478
  stamp: 
    secs: 1561868364
    nsecs: 667832195
  frame_id: "ti_mmwave"
point_id: 8
x: 2.625
y: -0.17578125
z: 1.021484375
range: 3.00681090355
velocity: 0.0
doppler_bin: 8
bearing: -3.83105134964
intensity: 29.2788333893
---
header: 
  seq: 1379479
  stamp: 
    secs: 1561868364
    nsecs: 667844825
  frame_id: "ti_mmwave"
point_id: 9
x: 2.6640625
y: -0.1796875
z: 1.03515625
range: 3.05038785934
velocity: 0.0
doppler_bin: 8
bearing: -3.85868024826
intensity: 32.3197898865
---
header: 
  seq: 1379480
  stamp: 
    secs: 1561868364
    nsecs: 667888229
  frame_id: "ti_mmwave"
point_id: 10
x: 2.75390625
y: -0.08984375
z: 0.919921875
range: 3.09396481514
velocity: 0.0
doppler_bin: 8
bearing: -1.86856126785
intensity: 31.3129787445
---
header: 
  seq: 1379481
  stamp: 
    secs: 1561868364
    nsecs: 667903774
  frame_id: "ti_mmwave"
point_id: 11
x: 1.5
y: 0.189453125
z: -0.080078125
range: 1.61234796047
velocity: -2.45867466927
doppler_bin: 4
bearing: 7.19846010208
intensity: 21.9589958191
---
header: 
  seq: 1379482
  stamp: 
    secs: 1561868364
    nsecs: 667915188
  frame_id: "ti_mmwave"
point_id: 12
x: 1.5390625
y: 0.193359375
z: -0.08984375
range: 1.65592491627
velocity: -2.45867466927
doppler_bin: 4
bearing: 7.16080951691
intensity: 21.1394329071
---
header: 
  seq: 1379483
  stamp: 
    secs: 1561868364
    nsecs: 667974562
  frame_id: "ti_mmwave"
point_id: 13
x: 1.626953125
y: 0.05078125
z: -0.169921875
range: 1.74307882786
velocity: -0.614668667316
doppler_bin: 7
bearing: 1.78776311874
intensity: 29.0308990479
---
header: 
  seq: 1379484
  stamp: 
    secs: 1561868364
    nsecs: 667994562
  frame_id: "ti_mmwave"
point_id: 14
x: 1.673828125
y: 0.052734375
z: -0.095703125
range: 1.78665578365
velocity: -0.614668667316
doppler_bin: 7
bearing: 1.80452108383
intensity: 34.0449180603
---
header: 
  seq: 1379485
  stamp: 
    secs: 1561868364
    nsecs: 668008671
  frame_id: "ti_mmwave"
point_id: 15
x: 1.71484375
y: 0.052734375
z: -0.0703125
range: 1.83023273945
velocity: -0.614668667316
doppler_bin: 7
bearing: 1.76138806343
intensity: 34.7697639465
---
header: 
  seq: 1379486
  stamp: 
    secs: 1561868364
    nsecs: 668021397
  frame_id: "ti_mmwave"
point_id: 16
x: 1.75390625
y: 0.109375
z: -0.07421875
range: 1.87380969524
velocity: -0.614668667316
doppler_bin: 7
bearing: 3.56838989258
intensity: 31.7753658295
---
header: 
  seq: 1379487
  stamp: 
    secs: 1561868364
    nsecs: 668044008
  frame_id: "ti_mmwave"
point_id: 17
x: 1.787109375
y: 0.11328125
z: -0.189453125
range: 1.91738677025
velocity: -0.614668667316
doppler_bin: 7
bearing: 3.62701106071
intensity: 25.3781909943
---
header: 
  seq: 1379488
  stamp: 
    secs: 1561868364
    nsecs: 668071524
  frame_id: "ti_mmwave"
point_id: 21
x: 0.041015625
y: -0.033203125
z: 0.0625
range: 0.0871539413929
velocity: 0.0
doppler_bin: 8
bearing: -38.9909973145
intensity: 30.0902576447
---
header: 
  seq: 1379489
  stamp: 
    secs: 1561868364
    nsecs: 668114425
  frame_id: "ti_mmwave"
point_id: 22
x: 0.044921875
y: -0.046875
z: 0.103515625
range: 0.130730912089
velocity: 0.0
doppler_bin: 8
bearing: -46.218875885
intensity: 29.0091304779
---
header: 
  seq: 1379490
  stamp: 
    secs: 1561868364
    nsecs: 726818731
  frame_id: "ti_mmwave"
point_id: 0
x: 0.01171875
y: -0.0390625
z: -0.0078125
range: 0.0435769706964
velocity: 0.0
doppler_bin: 8
bearing: -73.3007583618
intensity: 30.6408348083
---
header: 
  seq: 1379491
  stamp: 
    secs: 1561868364
    nsecs: 726891243
  frame_id: "ti_mmwave"
point_id: 1
x: 0.017578125
y: -0.080078125
z: -0.0078125
range: 0.0871539413929
velocity: 0.0
doppler_bin: 8
bearing: -77.6192398071
intensity: 31.8977088928
---
header: 
  seq: 1379492
  stamp: 
    secs: 1561868364
    nsecs: 726909351
  frame_id: "ti_mmwave"
point_id: 2
x: 0.029296875
y: -0.119140625
z: -0.005859375
range: 0.130730912089
velocity: 0.0
doppler_bin: 8
bearing: -76.1849746704
intensity: 30.1157035828
---
header: 
  seq: 1379493
  stamp: 
    secs: 1561868364
    nsecs: 726922468
  frame_id: "ti_mmwave"
point_id: 3
x: 0.056640625
y: -0.154296875
z: 0.005859375
range: 0.174307882786
velocity: 0.0
doppler_bin: 8
bearing: -69.8423843384
intensity: 25.4530715942
---
header: 
  seq: 1379494
  stamp: 
    secs: 1561868364
    nsecs: 726941664
  frame_id: "ti_mmwave"
point_id: 4
x: 0.13671875
y: -0.080078125
z: 1.2578125
range: 1.35088610649
velocity: 0.0
doppler_bin: 8
bearing: -30.3581142426
intensity: 23.1175384521
---
header: 
  seq: 1379495
  stamp: 
    secs: 1561868364
    nsecs: 726962231
  frame_id: "ti_mmwave"
point_id: 6
x: 0.431640625
y: -0.083984375
z: -1.275390625
range: 1.43804001808
velocity: 0.0
doppler_bin: 8
bearing: -11.0104799271
intensity: 23.1175384521
---
header: 
  seq: 1379496
  stamp: 
    secs: 1561868364
    nsecs: 727033397
  frame_id: "ti_mmwave"
point_id: 7
x: 1.673828125
y: -0.0
z: -0.1171875
range: 1.78665578365
velocity: 0.0
doppler_bin: 8
bearing: -0.0
intensity: 31.6375751495
---
header: 
  seq: 1379497
  stamp: 
    secs: 1561868364
    nsecs: 727046735
  frame_id: "ti_mmwave"
point_id: 8
x: 1.71484375
y: -0.0
z: -0.1015625
range: 1.83023273945
velocity: 0.0
doppler_bin: 8
bearing: -0.0
intensity: 30.8564720154
---
header: 
  seq: 1379498
  stamp: 
    secs: 1561868364
    nsecs: 727057560
  frame_id: "ti_mmwave"
point_id: 9
x: 1.751953125
y: -0.0
z: -0.158203125
range: 1.87380969524
velocity: 0.0
doppler_bin: 8
bearing: -0.0
intensity: 27.0757026672
---
header: 
  seq: 1379499
  stamp: 
    secs: 1561868364
    nsecs: 727068409
  frame_id: "ti_mmwave"
point_id: 10
x: 2.603515625
y: -0.17578125
z: 1.07421875
range: 3.00681090355
velocity: 0.0
doppler_bin: 8
bearing: -3.86257004738
intensity: 28.9652614594
---
header: 
  seq: 1379500
  stamp: 
    secs: 1561868364
    nsecs: 727080731
  frame_id: "ti_mmwave"
point_id: 11
x: 2.65625
y: -0.1796875
z: 1.0546875
range: 3.05038785934
velocity: 0.0
doppler_bin: 8
bearing: -3.86999511719
intensity: 32.1800994873
---
header: 
  seq: 1379501
  stamp: 
    secs: 1561868364
    nsecs: 727091599
  frame_id: "ti_mmwave"
point_id: 12
x: 2.767578125
y: -0.0
z: 0.87890625
range: 3.09396481514
velocity: 0.0
doppler_bin: 8
bearing: -0.0
intensity: 31.1159858704
---
header: 
  seq: 1379502
  stamp: 
    secs: 1561868364
    nsecs: 727102873
  frame_id: "ti_mmwave"
point_id: 13
x: 1.37109375
y: 0.216796875
z: -0.068359375
range: 1.48161697388
velocity: -3.07334327698
doppler_bin: 3
bearing: 8.98519992828
intensity: 24.1830120087
---
header: 
  seq: 1379503
  stamp: 
    secs: 1561868364
    nsecs: 727116511
  frame_id: "ti_mmwave"
point_id: 14
x: 1.419921875
y: 0.1796875
z: -0.05859375
range: 1.52519392967
velocity: -3.07334327698
doppler_bin: 3
bearing: 7.21229791641
intensity: 26.6931686401
---
header: 
  seq: 1379504
  stamp: 
    secs: 1561868364
    nsecs: 727129512
  frame_id: "ti_mmwave"
point_id: 15
x: 1.453125
y: 0.23046875
z: -0.076171875
range: 1.56877088547
velocity: -3.07334327698
doppler_bin: 3
bearing: 9.0121679306
intensity: 25.7170886993
---
header: 
  seq: 1379505
  stamp: 
    secs: 1561868364
    nsecs: 727142238
  frame_id: "ti_mmwave"
point_id: 16
x: 1.4921875
y: 0.236328125
z: -0.09375
range: 1.61234796047
velocity: -3.07334327698
doppler_bin: 3
bearing: 8.99958229065
intensity: 21.0720996857
---
header: 
  seq: 1379506
  stamp: 
    secs: 1561868364
    nsecs: 727153653
  frame_id: "ti_mmwave"
point_id: 17
x: 1.603515625
y: 0.05078125
z: -0.31640625
range: 1.74307882786
velocity: -0.614668667316
doppler_bin: 7
bearing: 1.81387650967
intensity: 29.1855449677
---
header: 
  seq: 1379507
  stamp: 
    secs: 1561868364
    nsecs: 727220929
  frame_id: "ti_mmwave"
point_id: 19
x: 0.041015625
y: -0.033203125
z: 0.0625
range: 0.0871539413929
velocity: 0.0
doppler_bin: 8
bearing: -38.9909973145
intensity: 30.0945091248
---
header: 
  seq: 1379508
  stamp: 
    secs: 1561868364
    nsecs: 727236694
  frame_id: "ti_mmwave"
point_id: 20
x: 0.044921875
y: -0.046875
z: 0.103515625
range: 0.130730912089
velocity: 0.0
doppler_bin: 8
bearing: -46.218875885
intensity: 29.0091304779
---
header: 
  seq: 1379509
  stamp: 
    secs: 1561868364
    nsecs: 786183171
  frame_id: "ti_mmwave"
point_id: 0
x: 0.01171875
y: -0.0390625
z: -0.0078125
range: 0.0435769706964
velocity: 0.0
doppler_bin: 8
bearing: -73.3007583618
intensity: 30.6445808411
---
header: 
  seq: 1379510
  stamp: 
    secs: 1561868364
    nsecs: 786267290
  frame_id: "ti_mmwave"
point_id: 1
x: 0.017578125
y: -0.080078125
z: -0.0078125
range: 0.0871539413929
velocity: 0.0
doppler_bin: 8
bearing: -77.6192398071
intensity: 31.9033164978
---
header: 
  seq: 1379511
  stamp: 
    secs: 1561868364
    nsecs: 786281612
  frame_id: "ti_mmwave"
point_id: 2
x: 0.029296875
y: -0.119140625
z: -0.005859375
range: 0.130730912089
velocity: 0.0
doppler_bin: 8
bearing: -76.1849746704
intensity: 30.1157035828
---
header: 
  seq: 1379512
  stamp: 
    secs: 1561868364
    nsecs: 786290046
  frame_id: "ti_mmwave"
point_id: 3
x: 0.056640625
y: -0.154296875
z: 0.0078125
range: 0.174307882786
velocity: 0.0
doppler_bin: 8
bearing: -69.8423843384
intensity: 25.4406795502
---
header: 
  seq: 1379513
  stamp: 
    secs: 1561868364
    nsecs: 786299498
  frame_id: "ti_mmwave"
point_id: 4
x: 0.169921875
y: -0.080078125
z: 1.25390625
range: 1.35088610649
velocity: 0.0
doppler_bin: 8
bearing: -25.232831955
intensity: 23.0749607086
---
header: 
  seq: 1379514
  stamp: 
    secs: 1561868364
    nsecs: 786308138
  frame_id: "ti_mmwave"
point_id: 5
x: 0.021484375
y: -0.08203125
z: 1.306640625
range: 1.39446306229
velocity: 0.0
doppler_bin: 8
bearing: -75.3236083984
intensity: 24.6389293671
---
header: 
  seq: 1379515
  stamp: 
    secs: 1561868364
    nsecs: 786318033
  frame_id: "ti_mmwave"
point_id: 6
x: 0.4296875
y: -0.083984375
z: -1.27734375
range: 1.43804001808
velocity: 0.0
doppler_bin: 8
bearing: -11.0592975616
intensity: 23.1175384521
---
header: 
  seq: 1379516
  stamp: 
    secs: 1561868364
    nsecs: 786336686
  frame_id: "ti_mmwave"
point_id: 7
x: 0.59375
y: -0.04296875
z: -1.2578125
range: 1.48161697388
velocity: 0.0
doppler_bin: 8
bearing: -4.13918924332
intensity: 21.7318630219
---
header: 
  seq: 1379517
  stamp: 
    secs: 1561868364
    nsecs: 786463087
  frame_id: "ti_mmwave"
point_id: 8
x: 2.63671875
y: -0.17578125
z: 0.990234375
range: 3.00681090355
velocity: 0.0
doppler_bin: 8
bearing: -3.81407499313
intensity: 28.9097957611
---
header: 
  seq: 1379518
  stamp: 
    secs: 1561868364
    nsecs: 786479327
  frame_id: "ti_mmwave"
point_id: 9
x: 2.693359375
y: -0.08984375
z: 0.970703125
range: 3.05038785934
velocity: 0.0
doppler_bin: 8
bearing: -1.91053581238
intensity: 32.1005096436
---
header: 
  seq: 1379519
  stamp: 
    secs: 1561868364
    nsecs: 786491425
  frame_id: "ti_mmwave"
point_id: 10
x: 2.748046875
y: -0.08984375
z: 0.9375
range: 3.09396481514
velocity: 0.0
doppler_bin: 8
bearing: -1.8725425005
intensity: 31.00715065
---
header: 
  seq: 1379520
  stamp: 
    secs: 1561868364
    nsecs: 786499945
  frame_id: "ti_mmwave"
point_id: 11
x: 1.244140625
y: 0.158203125
z: -0.185546875
range: 1.35088610649
velocity: -3.68801212311
doppler_bin: 2
bearing: 7.24675750732
intensity: 22.2530937195
---
header: 
  seq: 1379521
  stamp: 
    secs: 1561868364
    nsecs: 786523483
  frame_id: "ti_mmwave"
point_id: 12
x: 1.287109375
y: 0.1640625
z: -0.17578125
range: 1.39446306229
velocity: -3.68801212311
doppler_bin: 2
bearing: 7.2640838623
intensity: 25.403295517
---
header: 
  seq: 1379522
  stamp: 
    secs: 1561868364
    nsecs: 786571199
  frame_id: "ti_mmwave"
point_id: 13
x: 1.328125
y: 0.16796875
z: -0.16796875
range: 1.43804001808
velocity: -3.68801212311
doppler_bin: 2
bearing: 7.20796346664
intensity: 24.9415454865
---
header: 
  seq: 1379523
  stamp: 
    secs: 1561868364
    nsecs: 786610054
  frame_id: "ti_mmwave"
point_id: 14
x: 1.373046875
y: 0.173828125
z: -0.146484375
range: 1.48161697388
velocity: -3.68801212311
doppler_bin: 2
bearing: 7.21527671814
intensity: 20.8278541565
---
header: 
  seq: 1379524
  stamp: 
    secs: 1561868364
    nsecs: 786628332
  frame_id: "ti_mmwave"
point_id: 15
x: 1.58203125
y: 0.19921875
z: 0.0546875
range: 1.69950187206
velocity: -1.22933733463
doppler_bin: 6
bearing: 7.17724561691
intensity: 23.8021125793
---
header: 
  seq: 1379525
  stamp: 
    secs: 1561868364
    nsecs: 786641395
  frame_id: "ti_mmwave"
point_id: 16
x: 1.62109375
y: 0.205078125
z: 0.06640625
range: 1.74307882786
velocity: -1.22933733463
doppler_bin: 6
bearing: 7.20996236801
intensity: 26.981004715
---
header: 
  seq: 1379526
  stamp: 
    secs: 1561868364
    nsecs: 786682349
  frame_id: "ti_mmwave"
point_id: 17
x: 1.662109375
y: 0.208984375
z: 0.09375
range: 1.78665578365
velocity: -1.22933733463
doppler_bin: 6
bearing: 7.16644525528
intensity: 26.4738292694
---
header: 
  seq: 1379527
  stamp: 
    secs: 1561868364
    nsecs: 786714408
  frame_id: "ti_mmwave"
point_id: 20
x: 0.041015625
y: -0.033203125
z: 0.0625
range: 0.0871539413929
velocity: 0.0
doppler_bin: 8
bearing: -38.9909973145
intensity: 30.0902576447
---
header: 
  seq: 1379528
  stamp: 
    secs: 1561868364
    nsecs: 786730513
  frame_id: "ti_mmwave"
point_id: 21
x: 0.046875
y: -0.046875
z: 0.103515625
range: 0.130730912089
velocity: 0.0
doppler_bin: 8
bearing: -45.0
intensity: 29.0091304779
---
header: 
  seq: 1379529
  stamp: 
    secs: 1561868364
    nsecs: 787393112
  frame_id: "ti_mmwave"
point_id: 0
x: 0.01171875
y: -0.0390625
z: -0.0078125
range: 0.0435769706964
velocity: 0.0
doppler_bin: 8
bearing: -73.3007583618
intensity: 30.6408348083
---
header: 
  seq: 1379530
  stamp: 
    secs: 1561868364
    nsecs: 787446660
  frame_id: "ti_mmwave"
point_id: 1
x: 0.017578125
y: -0.080078125
z: -0.0078125
range: 0.0871539413929
velocity: 0.0
doppler_bin: 8
bearing: -77.6192398071
intensity: 31.9005146027
---
header: 
  seq: 1379531
  stamp: 
    secs: 1561868364
    nsecs: 787467153
  frame_id: "ti_mmwave"
point_id: 2
x: 0.029296875
y: -0.119140625
z: -0.005859375
range: 0.130730912089
velocity: 0.0
doppler_bin: 8
bearing: -76.1849746704
intensity: 30.1157035828
---
header: 
  seq: 1379532
  stamp: 
    secs: 1561868364
    nsecs: 787483487
  frame_id: "ti_mmwave"
point_id: 3
x: 0.056640625
y: -0.154296875
z: 0.005859375
range: 0.174307882786
velocity: 0.0
doppler_bin: 8
bearing: -69.8423843384
intensity: 25.4406795502
---
header: 
  seq: 1379533
  stamp: 
    secs: 1561868364
    nsecs: 787596702
  frame_id: "ti_mmwave"
point_id: 4
x: 0.099609375
y: -0.080078125
z: 1.26171875
range: 1.35088610649
velocity: 0.0
doppler_bin: 8
bearing: -38.7965545654
intensity: 23.0963020325
---
header: 
  seq: 1379534
  stamp: 
    secs: 1561868364
    nsecs: 787627246
  frame_id: "ti_mmwave"
point_id: 6
x: 0.451171875
y: -0.083984375
z: -1.26953125
range: 1.43804001808
velocity: 0.0
doppler_bin: 8
bearing: -10.5447587967
intensity: 23.0749607086
---
header: 
  seq: 1379535
  stamp: 
    secs: 1561868364
    nsecs: 787641704
  frame_id: "ti_mmwave"
point_id: 7
x: 0.59765625
y: -0.04296875
z: -1.255859375
range: 1.48161697388
velocity: 0.0
doppler_bin: 8
bearing: -4.11222887039
intensity: 21.6731739044
---
header: 
  seq: 1379536
  stamp: 
    secs: 1561868364
    nsecs: 787659487
  frame_id: "ti_mmwave"
point_id: 8
x: 2.625
y: -0.17578125
z: 1.0234375
range: 3.00681090355
velocity: 0.0
doppler_bin: 8
bearing: -3.83105134964
intensity: 29.0254669189
---
header: 
  seq: 1379537
  stamp: 
    secs: 1561868364
    nsecs: 787712684
  frame_id: "ti_mmwave"
point_id: 9
x: 2.693359375
y: -0.08984375
z: 0.96875
range: 3.05038785934
velocity: 0.0
doppler_bin: 8
bearing: -1.91053581238
intensity: 32.1165428162
---
header: 
  seq: 1379538
  stamp: 
    secs: 1561868364
    nsecs: 787728424
  frame_id: "ti_mmwave"
point_id: 10
x: 2.7578125
y: -0.08984375
z: 0.908203125
range: 3.09396481514
velocity: 0.0
doppler_bin: 8
bearing: -1.86591637135
intensity: 31.0346164703
---
header: 
  seq: 1379539
  stamp: 
    secs: 1561868364
    nsecs: 787742500
  frame_id: "ti_mmwave"
point_id: 11
x: 1.5859375
y: -0.150390625
z: 0.068359375
range: 1.69950187206
velocity: -0.614668667316
doppler_bin: 7
bearing: -5.41702222824
intensity: 26.6651802063
---
header: 
  seq: 1379540
  stamp: 
    secs: 1561868364
    nsecs: 787758077
  frame_id: "ti_mmwave"
point_id: 12
x: 1.63671875
y: -0.0
z: -0.0234375
range: 1.74307882786
velocity: -0.614668667316
doppler_bin: 7
bearing: -0.0
intensity: 27.3078231812
---
header: 
  seq: 1379541
  stamp: 
    secs: 1561868364
    nsecs: 787775367
  frame_id: "ti_mmwave"
point_id: 13
x: 1.673828125
y: -0.0
z: -0.099609375
range: 1.78665578365
velocity: -0.614668667316
doppler_bin: 7
bearing: -0.0
intensity: 27.6342792511
---
header: 
  seq: 1379542
  stamp: 
    secs: 1561868364
    nsecs: 787825895
  frame_id: "ti_mmwave"
point_id: 14
x: 1.70703125
y: -0.0
z: -0.19140625
range: 1.83023273945
velocity: -0.614668667316
doppler_bin: 7
bearing: -0.0
intensity: 26.4345264435
---
header: 
  seq: 1379543
  stamp: 
    secs: 1561868364
    nsecs: 787846349
  frame_id: "ti_mmwave"
point_id: 16
x: 0.041015625
y: -0.033203125
z: 0.0625
range: 0.0871539413929
velocity: 0.0
doppler_bin: 8
bearing: -38.9909973145
intensity: 30.0945091248
---
header: 
  seq: 1379544
  stamp: 
    secs: 1561868364
    nsecs: 787859433
  frame_id: "ti_mmwave"
point_id: 17
x: 0.044921875
y: -0.046875
z: 0.103515625
range: 0.130730912089
velocity: 0.0
doppler_bin: 8
bearing: -46.218875885
intensity: 29.0091304779
---
header: 
  seq: 1379545
  stamp: 
    secs: 1561868364
    nsecs: 846103504
  frame_id: "ti_mmwave"
point_id: 0
x: 0.01171875
y: -0.0390625
z: -0.0078125
range: 0.0435769706964
velocity: 0.0
doppler_bin: 8
bearing: -73.3007583618
intensity: 30.6483230591
---
header: 
  seq: 1379546
  stamp: 
    secs: 1561868364
    nsecs: 846177456
  frame_id: "ti_mmwave"
point_id: 1
x: 0.017578125
y: -0.080078125
z: -0.0078125
range: 0.0871539413929
velocity: 0.0
doppler_bin: 8
bearing: -77.6192398071
intensity: 31.9033164978
---
header: 
  seq: 1379547
  stamp: 
    secs: 1561868364
    nsecs: 846193784
  frame_id: "ti_mmwave"
point_id: 2
x: 0.029296875
y: -0.119140625
z: -0.005859375
range: 0.130730912089
velocity: 0.0
doppler_bin: 8
bearing: -76.1849746704
intensity: 30.1114730835
---
header: 
  seq: 1379548
  stamp: 
    secs: 1561868364
    nsecs: 846208843
  frame_id: "ti_mmwave"
point_id: 3
x: 0.056640625
y: -0.154296875
z: 0.005859375
range: 0.174307882786
velocity: 0.0
doppler_bin: 8
bearing: -69.8423843384
intensity: 25.4406795502
---
header: 
  seq: 1379549
  stamp: 
    secs: 1561868364
    nsecs: 846223420
  frame_id: "ti_mmwave"
point_id: 4
x: 0.0703125
y: -0.080078125
z: 1.263671875
range: 1.35088610649
velocity: 0.0
doppler_bin: 8
bearing: -48.7152862549
intensity: 23.138671875
---
header: 
  seq: 1379550
  stamp: 
    secs: 1561868364
    nsecs: 846301208
  frame_id: "ti_mmwave"
point_id: 5
x: 0.142578125
y: -0.08203125
z: -1.298828125
range: 1.39446306229
velocity: 0.0
doppler_bin: 8
bearing: -29.913646698
intensity: 24.6389293671
---
header: 
  seq: 1379551
  stamp: 
    secs: 1561868364
    nsecs: 846314990
  frame_id: "ti_mmwave"
point_id: 6
x: 0.462890625
y: -0.083984375
z: -1.265625
range: 1.43804001808
velocity: 0.0
doppler_bin: 8
bearing: -10.2835702896
intensity: 23.0535144806
---
header: 
  seq: 1379552
  stamp: 
    secs: 1561868364
    nsecs: 846325992
  frame_id: "ti_mmwave"
point_id: 7
x: 2.609375
y: -0.17578125
z: 1.060546875
range: 3.00681090355
velocity: 0.0
doppler_bin: 8
bearing: -3.85392260551
intensity: 29.0254669189
---
header: 
  seq: 1379553
  stamp: 
    secs: 1561868364
    nsecs: 846336547
  frame_id: "ti_mmwave"
point_id: 8
x: 2.658203125
y: -0.1796875
z: 1.05078125
range: 3.05038785934
velocity: 0.0
doppler_bin: 8
bearing: -3.86716008186
intensity: 32.2375526428
---
header: 
  seq: 1379554
  stamp: 
    secs: 1561868364
    nsecs: 846347552
  frame_id: "ti_mmwave"
point_id: 9
x: 2.748046875
y: -0.08984375
z: 0.935546875
range: 3.09396481514
velocity: 0.0
doppler_bin: 8
bearing: -1.8725425005
intensity: 31.2024478912
---
header: 
  seq: 1379555
  stamp: 
    secs: 1561868364
    nsecs: 846357738
  frame_id: "ti_mmwave"
point_id: 10
x: 1.037109375
y: 0.06640625
z: -0.228515625
range: 1.13300120831
velocity: -1.22933733463
doppler_bin: 6
bearing: 3.66365504265
intensity: 20.4139270782
---
header: 
  seq: 1379556
  stamp: 
    secs: 1561868364
    nsecs: 846371826
  frame_id: "ti_mmwave"
point_id: 11
x: 1.078125
y: 0.103515625
z: -0.216796875
range: 1.1765781641
velocity: -1.22933733463
doppler_bin: 6
bearing: 5.48441314697
intensity: 25.6584777832
---
header: 
  seq: 1379557
  stamp: 
    secs: 1561868364
    nsecs: 846383056
  frame_id: "ti_mmwave"
point_id: 12
x: 1.119140625
y: 0.107421875
z: -0.21484375
range: 1.22015523911
velocity: -1.22933733463
doppler_bin: 6
bearing: 5.48279762268
intensity: 26.9108142853
---
header: 
  seq: 1379558
  stamp: 
    secs: 1561868364
    nsecs: 846395003
  frame_id: "ti_mmwave"
point_id: 13
x: 1.162109375
y: 0.111328125
z: -0.21484375
range: 1.2637321949
velocity: -1.22933733463
doppler_bin: 6
bearing: 5.47214031219
intensity: 24.871383667
---
header: 
  seq: 1379559
  stamp: 
    secs: 1561868364
    nsecs: 846407876
  frame_id: "ti_mmwave"
point_id: 14
x: 1.634765625
y: -0.0
z: -0.060546875
range: 1.74307882786
velocity: -0.614668667316
doppler_bin: 7
bearing: -0.0
intensity: 28.1557769775
---
header: 
  seq: 1379560
  stamp: 
    secs: 1561868364
    nsecs: 846417102
  frame_id: "ti_mmwave"
point_id: 15
x: 1.67578125
y: -0.0
z: -0.07421875
range: 1.78665578365
velocity: -0.614668667316
doppler_bin: 7
bearing: -0.0
intensity: 27.8247261047
---
header: 
  seq: 1379561
  stamp: 
    secs: 1561868364
    nsecs: 846445326
  frame_id: "ti_mmwave"
point_id: 17
x: 0.041015625
y: -0.033203125
z: 0.0625
range: 0.0871539413929
velocity: 0.0
doppler_bin: 8
bearing: -38.9909973145
intensity: 30.0902576447
---
header: 
  seq: 1379562
  stamp: 
    secs: 1561868364
    nsecs: 846509902
  frame_id: "ti_mmwave"
point_id: 18
x: 0.044921875
y: -0.046875
z: 0.103515625
range: 0.130730912089
velocity: 0.0
doppler_bin: 8
bearing: -46.218875885
intensity: 28.9982051849
---
header: 
  seq: 1379563
  stamp: 
    secs: 1561868364
    nsecs: 847494681
  frame_id: "ti_mmwave"
point_id: 0
x: 0.01171875
y: -0.0390625
z: -0.0078125
range: 0.0435769706964
velocity: 0.0
doppler_bin: 8
bearing: -73.3007583618
intensity: 30.6520614624
---
header: 
  seq: 1379564
  stamp: 
    secs: 1561868364
    nsecs: 847570111
  frame_id: "ti_mmwave"
point_id: 1
x: 0.017578125
y: -0.080078125
z: -0.0078125
range: 0.0871539413929
velocity: 0.0
doppler_bin: 8
bearing: -77.6192398071
intensity: 31.9061183929
---
header: 
  seq: 1379565
  stamp: 
    secs: 1561868364
    nsecs: 847589940
  frame_id: "ti_mmwave"
point_id: 2
x: 0.029296875
y: -0.119140625
z: -0.005859375
range: 0.130730912089
velocity: 0.0
doppler_bin: 8
bearing: -76.1849746704
intensity: 30.1199302673
---
header: 
  seq: 1379566
  stamp: 
    secs: 1561868364
    nsecs: 847606015
  frame_id: "ti_mmwave"
point_id: 3
x: 0.056640625
y: -0.154296875
z: 0.005859375
range: 0.174307882786
velocity: 0.0
doppler_bin: 8
bearing: -69.8423843384
intensity: 25.4654273987
---
header: 
  seq: 1379567
  stamp: 
    secs: 1561868364
    nsecs: 847622022
  frame_id: "ti_mmwave"
point_id: 4
x: 0.3828125
y: -0.080078125
z: 1.20703125
range: 1.35088610649
velocity: 0.0
doppler_bin: 8
bearing: -11.8149757385
intensity: 23.0749607086
---
header: 
  seq: 1379568
  stamp: 
    secs: 1561868364
    nsecs: 847638159
  frame_id: "ti_mmwave"
point_id: 5
x: 0.1875
y: -0.08203125
z: 1.29296875
range: 1.39446306229
velocity: 0.0
doppler_bin: 8
bearing: -23.6293773651
intensity: 24.6686763763
---
header: 
  seq: 1379569
  stamp: 
    secs: 1561868364
    nsecs: 847651962
  frame_id: "ti_mmwave"
point_id: 6
x: 1.544921875
y: 0.146484375
z: -0.087890625
range: 1.65592491627
velocity: 0.0
doppler_bin: 8
bearing: 5.41640329361
intensity: 25.9217681885
---
header: 
  seq: 1379570
  stamp: 
    secs: 1561868364
    nsecs: 847664777
  frame_id: "ti_mmwave"
point_id: 7
x: 2.6640625
y: -0.1796875
z: 1.03515625
range: 3.05038785934
velocity: 0.0
doppler_bin: 8
bearing: -3.85868024826
intensity: 32.2036972046
---
header: 
  seq: 1379571
  stamp: 
    secs: 1561868364
    nsecs: 847680140
  frame_id: "ti_mmwave"
point_id: 8
x: 2.7578125
y: -0.08984375
z: 0.904296875
range: 3.09396481514
velocity: 0.0
doppler_bin: 8
bearing: -1.86591637135
intensity: 31.205739975
---
header: 
  seq: 1379572
  stamp: 
    secs: 1561868364
    nsecs: 847765402
  frame_id: "ti_mmwave"
point_id: 9
x: 1.0390625
y: 0.06640625
z: -0.21484375
range: 1.13300120831
velocity: 0.614668667316
doppler_bin: 9
bearing: 3.65678715706
intensity: 21.3033370972
---
header: 
  seq: 1379573
  stamp: 
    secs: 1561868364
    nsecs: 847785706
  frame_id: "ti_mmwave"
point_id: 10
x: 1.083984375
y: 0.103515625
z: -0.181640625
range: 1.1765781641
velocity: 0.614668667316
doppler_bin: 9
bearing: 5.45494699478
intensity: 26.7851829529
---
header: 
  seq: 1379574
  stamp: 
    secs: 1561868364
    nsecs: 847800659
  frame_id: "ti_mmwave"
point_id: 11
x: 1.126953125
y: 0.107421875
z: -0.169921875
range: 1.22015523911
velocity: 0.614668667316
doppler_bin: 9
bearing: 5.44501829147
intensity: 28.3758850098
---
header: 
  seq: 1379575
  stamp: 
    secs: 1561868364
    nsecs: 847816469
  frame_id: "ti_mmwave"
point_id: 12
x: 1.169921875
y: 0.111328125
z: -0.158203125
range: 1.2637321949
velocity: 0.614668667316
doppler_bin: 9
bearing: 5.43581819534
intensity: 26.6558094025
---
header: 
  seq: 1379576
  stamp: 
    secs: 1561868364
    nsecs: 847830973
  frame_id: "ti_mmwave"
point_id: 13
x: 1.2109375
y: 0.154296875
z: -0.125
range: 1.3073091507
velocity: 0.614668667316
doppler_bin: 9
bearing: 7.26146173477
intensity: 21.7897701263
---
header: 
  seq: 1379577
  stamp: 
    secs: 1561868364
    nsecs: 847843534
  frame_id: "ti_mmwave"
point_id: 14
x: 1.580078125
y: 0.05078125
z: -0.2109375
range: 1.69950187206
velocity: -0.614668667316
doppler_bin: 7
bearing: 1.84076356888
intensity: 29.0036716461
---
header: 
  seq: 1379578
  stamp: 
    secs: 1561868364
    nsecs: 847860331
  frame_id: "ti_mmwave"
point_id: 15
x: 1.6171875
y: 0.05078125
z: -0.244140625
range: 1.74307882786
velocity: -0.614668667316
doppler_bin: 7
bearing: 1.79855191708
intensity: 28.6153450012
---
header: 
  seq: 1379579
  stamp: 
    secs: 1561868364
    nsecs: 847909850
  frame_id: "ti_mmwave"
point_id: 16
x: 1.671875
y: -0.0
z: -0.130859375
range: 1.78665578365
velocity: -0.614668667316
doppler_bin: 7
bearing: -0.0
intensity: 25.6110134125
---
header: 
  seq: 1379580
  stamp: 
    secs: 1561868364
    nsecs: 847929242
  frame_id: "ti_mmwave"
point_id: 18
x: 0.041015625
y: -0.033203125
z: 0.0625
range: 0.0871539413929
velocity: 0.0
doppler_bin: 8
bearing: -38.9909973145
intensity: 30.0902576447
---
header: 
  seq: 1379581
  stamp: 
    secs: 1561868364
    nsecs: 847971002
  frame_id: "ti_mmwave"
point_id: 19
x: 0.044921875
y: -0.046875
z: 0.103515625
range: 0.130730912089
velocity: 0.0
doppler_bin: 8
bearing: -46.218875885
intensity: 29.0036716461
---
header: 
  seq: 1379582
  stamp: 
    secs: 1561868364
    nsecs: 847992051
  frame_id: "ti_mmwave"
point_id: 22
x: 0.4296875
y: -0.306640625
z: 1.107421875
range: 1.3073091507
velocity: 0.614668667316
doppler_bin: 9
bearing: -35.5130348206
intensity: 18.864906311
---
header: 
  seq: 1379583
  stamp: 
    secs: 1561868364
    nsecs: 906266850
  frame_id: "ti_mmwave"
point_id: 0
x: 0.01171875
y: -0.0390625
z: -0.0078125
range: 0.0435769706964
velocity: 0.0
doppler_bin: 8
bearing: -73.3007583618
intensity: 30.6483230591
---
header: 
  seq: 1379584
  stamp: 
    secs: 1561868364
    nsecs: 906370717
  frame_id: "ti_mmwave"
point_id: 1
x: 0.017578125
y: -0.080078125
z: -0.0078125
range: 0.0871539413929
velocity: 0.0
doppler_bin: 8
bearing: -77.6192398071
intensity: 31.9033164978
---
header: 
  seq: 1379585
  stamp: 
    secs: 1561868364
    nsecs: 906382774
  frame_id: "ti_mmwave"
point_id: 2
x: 0.029296875
y: -0.119140625
z: -0.005859375
range: 0.130730912089
velocity: 0.0
doppler_bin: 8
bearing: -76.1849746704
intensity: 30.1157035828
---
header: 
  seq: 1379586
  stamp: 
    secs: 1561868364
    nsecs: 906391377
  frame_id: "ti_mmwave"
point_id: 3
x: 0.056640625
y: -0.154296875
z: 0.005859375
range: 0.174307882786
velocity: 0.0
doppler_bin: 8
bearing: -69.8423843384
intensity: 25.4282550812
---
header: 
  seq: 1379587
  stamp: 
    secs: 1561868364
    nsecs: 906400765
  frame_id: "ti_mmwave"
point_id: 4
x: 0.150390625
y: -0.080078125
z: 1.255859375
range: 1.35088610649
velocity: 0.0
doppler_bin: 8
bearing: -28.0338516235
intensity: 23.0535144806
---
header: 
  seq: 1379588
  stamp: 
    secs: 1561868364
    nsecs: 906432145
  frame_id: "ti_mmwave"
point_id: 5
x: 0.025390625
y: -0.08203125
z: 1.306640625
range: 1.39446306229
velocity: 0.0
doppler_bin: 8
bearing: -72.8014526367
intensity: 24.6089782715
---
header: 
  seq: 1379589
  stamp: 
    secs: 1561868364
    nsecs: 906593915
  frame_id: "ti_mmwave"
point_id: 6
x: 0.4140625
y: -0.083984375
z: -1.28125
range: 1.43804001808
velocity: 0.0
doppler_bin: 8
bearing: -11.4657688141
intensity: 23.0749607086
---
header: 
  seq: 1379590
  stamp: 
    secs: 1561868364
    nsecs: 906613057
  frame_id: "ti_mmwave"
point_id: 7
x: 1.583984375
y: -0.0
z: -0.1875
range: 1.69950187206
velocity: 0.0
doppler_bin: 8
bearing: -0.0
intensity: 26.9196510315
---
header: 
  seq: 1379591
  stamp: 
    secs: 1561868364
    nsecs: 906621465
  frame_id: "ti_mmwave"
point_id: 8
x: 2.689453125
y: -0.08984375
z: 0.978515625
range: 3.05038785934
velocity: 0.0
doppler_bin: 8
bearing: -1.91330885887
intensity: 32.0493354797
---
header: 
  seq: 1379592
  stamp: 
    secs: 1561868364
    nsecs: 906629861
  frame_id: "ti_mmwave"
point_id: 9
x: 2.751953125
y: -0.08984375
z: 0.92578125
range: 3.09396481514
velocity: 0.0
doppler_bin: 8
bearing: -1.86988639832
intensity: 31.0890312195
---
header: 
  seq: 1379593
  stamp: 
    secs: 1561868364
    nsecs: 906637931
  frame_id: "ti_mmwave"
point_id: 10
x: 1.115234375
y: 0.072265625
z: -0.25390625
range: 1.22015523911
velocity: 1.22933733463
doppler_bin: 10
bearing: 3.70750308037
intensity: 21.0037059784
---
header: 
  seq: 1379594
  stamp: 
    secs: 1561868364
    nsecs: 906645899
  frame_id: "ti_mmwave"
point_id: 11
x: 1.16015625
y: 0.07421875
z: -0.232421875
range: 1.2637321949
velocity: 1.22933733463
doppler_bin: 10
bearing: 3.66039824486
intensity: 21.875207901
---
header: 
  seq: 1379595
  stamp: 
    secs: 1561868364
    nsecs: 906651223
  frame_id: "ti_mmwave"
point_id: 12
x: 1.466796875
y: -0.138671875
z: -0.0078125
range: 1.56877088547
velocity: -0.614668667316
doppler_bin: 7
bearing: -5.40072584152
intensity: 25.3019962311
---
header: 
  seq: 1379596
  stamp: 
    secs: 1561868364
    nsecs: 906685213
  frame_id: "ti_mmwave"
point_id: 13
x: 1.5078125
y: -0.142578125
z: 0.009765625
range: 1.61234796047
velocity: -0.614668667316
doppler_bin: 7
bearing: -5.40180301666
intensity: 26.3648796082
---
header: 
  seq: 1379597
  stamp: 
    secs: 1561868364
    nsecs: 906695936
  frame_id: "ti_mmwave"
point_id: 15
x: 0.041015625
y: -0.033203125
z: 0.0625
range: 0.0871539413929
velocity: 0.0
doppler_bin: 8
bearing: -38.9909973145
intensity: 30.0902576447
---
header: 
  seq: 1379598
  stamp: 
    secs: 1561868364
    nsecs: 906852734
  frame_id: "ti_mmwave"
point_id: 16
x: 0.044921875
y: -0.046875
z: 0.103515625
range: 0.130730912089
velocity: 0.0
doppler_bin: 8
bearing: -46.218875885
intensity: 29.0091304779
---
header: 
  seq: 1379599
  stamp: 
    secs: 1561868364
    nsecs: 907646307
  frame_id: "ti_mmwave"
point_id: 0
x: 0.01171875
y: -0.0390625
z: -0.0078125
range: 0.0435769706964
velocity: 0.0
doppler_bin: 8
bearing: -73.3007583618
intensity: 30.6445808411
---
header: 
  seq: 1379600
  stamp: 
    secs: 1561868364
    nsecs: 907691037
  frame_id: "ti_mmwave"
point_id: 1
x: 0.017578125
y: -0.080078125
z: -0.0078125
range: 0.0871539413929
velocity: 0.0
doppler_bin: 8
bearing: -77.6192398071
intensity: 31.9005146027
---
header: 
  seq: 1379601
  stamp: 
    secs: 1561868364
    nsecs: 907701832
  frame_id: "ti_mmwave"
point_id: 2
x: 0.029296875
y: -0.119140625
z: -0.005859375
range: 0.130730912089
velocity: 0.0
doppler_bin: 8
bearing: -76.1849746704
intensity: 30.1157035828
---
header: 
  seq: 1379602
  stamp: 
    secs: 1561868364
    nsecs: 907711974
  frame_id: "ti_mmwave"
point_id: 3
x: 0.056640625
y: -0.154296875
z: 0.005859375
range: 0.174307882786
velocity: 0.0
doppler_bin: 8
bearing: -69.8423843384
intensity: 25.4406795502
---
header: 
  seq: 1379603
  stamp: 
    secs: 1561868364
    nsecs: 907720991
  frame_id: "ti_mmwave"
point_id: 4
x: 0.076171875
y: -0.080078125
z: 1.263671875
range: 1.35088610649
velocity: 0.0
doppler_bin: 8
bearing: -46.4320983887
intensity: 23.1175384521
---
header: 
  seq: 1379604
  stamp: 
    secs: 1561868364
    nsecs: 907730729
  frame_id: "ti_mmwave"
point_id: 5
x: 0.046875
y: -0.08203125
z: -1.3046875
range: 1.39446306229
velocity: 0.0
doppler_bin: 8
bearing: -60.255115509
intensity: 24.6089782715
---
header: 
  seq: 1379605
  stamp: 
    secs: 1561868364
    nsecs: 907785745
  frame_id: "ti_mmwave"
point_id: 6
x: 0.421875
y: -0.083984375
z: -1.279296875
range: 1.43804001808
velocity: 0.0
doppler_bin: 8
bearing: -11.2589120865
intensity: 23.0102996826
---
header: 
  seq: 1379606
  stamp: 
    secs: 1561868364
    nsecs: 907795027
  frame_id: "ti_mmwave"
point_id: 7
x: 0.552734375
y: -0.04296875
z: -1.275390625
range: 1.48161697388
velocity: 0.0
doppler_bin: 8
bearing: -4.44514894485
intensity: 21.6731739044
---
header: 
  seq: 1379607
  stamp: 
    secs: 1561868364
    nsecs: 907803058
  frame_id: "ti_mmwave"
point_id: 8
x: 1.5078125
y: -0.0
z: 0.125
range: 1.61234796047
velocity: 0.0
doppler_bin: 8
bearing: -0.0
intensity: 26.0314445496
---
header: 
  seq: 1379608
  stamp: 
    secs: 1561868364
    nsecs: 907810814
  frame_id: "ti_mmwave"
point_id: 9
x: 1.548828125
y: -0.048828125
z: 0.119140625
range: 1.65592491627
velocity: 0.0
doppler_bin: 8
bearing: -1.80570006371
intensity: 30.0689373016
---
header: 
  seq: 1379609
  stamp: 
    secs: 1561868364
    nsecs: 907820061
  frame_id: "ti_mmwave"
point_id: 10
x: 1.591796875
y: -0.0
z: 0.09765625
range: 1.69950187206
velocity: 0.0
doppler_bin: 8
bearing: -0.0
intensity: 30.7627620697
---
header: 
  seq: 1379610
  stamp: 
    secs: 1561868364
    nsecs: 907827962
  frame_id: "ti_mmwave"
point_id: 11
x: 1.634765625
y: -0.05078125
z: -0.02734375
range: 1.74307882786
velocity: 0.0
doppler_bin: 8
bearing: -1.77922511101
intensity: 28.7157287598
---
header: 
  seq: 1379611
  stamp: 
    secs: 1561868364
    nsecs: 907835515
  frame_id: "ti_mmwave"
point_id: 12
x: 2.61328125
y: -0.17578125
z: 1.052734375
range: 3.00681090355
velocity: 0.0
doppler_bin: 8
bearing: -3.84817934036
intensity: 29.1750545502
---
header: 
  seq: 1379612
  stamp: 
    secs: 1561868364
    nsecs: 907844514
  frame_id: "ti_mmwave"
point_id: 13
x: 2.66015625
y: -0.1796875
z: 1.044921875
range: 3.05038785934
velocity: 0.0
doppler_bin: 8
bearing: -3.86432933807
intensity: 32.1932258606
---
header: 
  seq: 1379613
  stamp: 
    secs: 1561868364
    nsecs: 907852192
  frame_id: "ti_mmwave"
point_id: 14
x: 2.7578125
y: -0.08984375
z: 0.90625
range: 3.09396481514
velocity: 0.0
doppler_bin: 8
bearing: -1.86591637135
intensity: 31.1360912323
---
header: 
  seq: 1379614
  stamp: 
    secs: 1561868364
    nsecs: 907859941
  frame_id: "ti_mmwave"
point_id: 15
x: 1.21484375
y: 0.076171875
z: -0.162109375
range: 1.3073091507
velocity: 1.84400606155
doppler_bin: 11
bearing: 3.58780407906
intensity: 20.9691009521
---
header: 
  seq: 1379615
  stamp: 
    secs: 1561868364
    nsecs: 907867820
  frame_id: "ti_mmwave"
point_id: 16
x: 1.416015625
y: -0.134765625
z: 0.166015625
range: 1.52519392967
velocity: -1.22933733463
doppler_bin: 6
bearing: -5.43660259247
intensity: 20.4921798706
---
header: 
  seq: 1379616
  stamp: 
    secs: 1561868364
    nsecs: 907877237
  frame_id: "ti_mmwave"
point_id: 17
x: 1.4609375
y: -0.138671875
z: 0.12890625
range: 1.56877088547
velocity: -1.22933733463
doppler_bin: 6
bearing: -5.4222574234
intensity: 23.2428245544
---
header: 
  seq: 1379617
  stamp: 
    secs: 1561868364
    nsecs: 907884241
  frame_id: "ti_mmwave"
point_id: 19
x: 0.041015625
y: -0.033203125
z: 0.0625
range: 0.0871539413929
velocity: 0.0
doppler_bin: 8
bearing: -38.9909973145
intensity: 30.0902576447
---
header: 
  seq: 1379618
  stamp: 
    secs: 1561868364
    nsecs: 907903312
  frame_id: "ti_mmwave"
point_id: 20
x: 0.046875
y: -0.046875
z: 0.103515625
range: 0.130730912089
velocity: 0.0
doppler_bin: 8
bearing: -45.0
intensity: 29.0036716461
---
header: 
  seq: 1379619
  stamp: 
    secs: 1561868364
    nsecs: 966155493
  frame_id: "ti_mmwave"
point_id: 0
x: 0.01171875
y: -0.0390625
z: -0.0078125
range: 0.0435769706964
velocity: 0.0
doppler_bin: 8
bearing: -73.3007583618
intensity: 30.6445808411
---
header: 
  seq: 1379620
  stamp: 
    secs: 1561868364
    nsecs: 966231633
  frame_id: "ti_mmwave"
point_id: 1
x: 0.017578125
y: -0.080078125
z: -0.0078125
range: 0.0871539413929
velocity: 0.0
doppler_bin: 8
bearing: -77.6192398071
intensity: 31.9005146027
---
header: 
  seq: 1379621
  stamp: 
    secs: 1561868364
    nsecs: 966242900
  frame_id: "ti_mmwave"
point_id: 2
x: 0.029296875
y: -0.119140625
z: -0.005859375
range: 0.130730912089
velocity: 0.0
doppler_bin: 8
bearing: -76.1849746704
intensity: 30.1157035828
---
header: 
  seq: 1379622
  stamp: 
    secs: 1561868364
    nsecs: 966253025
  frame_id: "ti_mmwave"
point_id: 3
x: 0.056640625
y: -0.154296875
z: 0.005859375
range: 0.174307882786
velocity: 0.0
doppler_bin: 8
bearing: -69.8423843384
intensity: 25.4530715942
---
header: 
  seq: 1379623
  stamp: 
    secs: 1561868364
    nsecs: 966262182
  frame_id: "ti_mmwave"
point_id: 4
x: 0.1171875
y: -0.080078125
z: 1.259765625
range: 1.35088610649
velocity: 0.0
doppler_bin: 8
bearing: -34.3460998535
intensity: 23.138671875
---
header: 
  seq: 1379624
  stamp: 
    secs: 1561868364
    nsecs: 966270812
  frame_id: "ti_mmwave"
point_id: 5
x: 0.048828125
y: -0.08203125
z: -1.3046875
range: 1.39446306229
velocity: 0.0
doppler_bin: 8
bearing: -59.2372817993
intensity: 24.6239795685
---
header: 
  seq: 1379625
  stamp: 
    secs: 1561868364
    nsecs: 966279307
  frame_id: "ti_mmwave"
point_id: 6
x: 0.4140625
y: -0.083984375
z: -1.28125
range: 1.43804001808
velocity: 0.0
doppler_bin: 8
bearing: -11.4657688141
intensity: 23.0749607086
---
header: 
  seq: 1379626
  stamp: 
    secs: 1561868364
    nsecs: 966288068
  frame_id: "ti_mmwave"
point_id: 7
x: 0.5546875
y: -0.04296875
z: -1.275390625
range: 1.48161697388
velocity: 0.0
doppler_bin: 8
bearing: -4.42955970764
intensity: 21.6731739044
---
header: 
  seq: 1379627
  stamp: 
    secs: 1561868364
    nsecs: 966296587
  frame_id: "ti_mmwave"
point_id: 8
x: 1.546875
y: 0.146484375
z: 0.033203125
range: 1.65592491627
velocity: 0.0
doppler_bin: 8
bearing: 5.40960502625
intensity: 28.0413951874
---
header: 
  seq: 1379628
  stamp: 
    secs: 1561868364
    nsecs: 966306099
  frame_id: "ti_mmwave"
point_id: 9
x: 1.587890625
y: 0.150390625
z: -0.03515625
range: 1.69950187206
velocity: 0.0
doppler_bin: 8
bearing: 5.41039848328
intensity: 27.9657440186
---
header: 
  seq: 1379629
  stamp: 
    secs: 1561868364
    nsecs: 966468683
  frame_id: "ti_mmwave"
point_id: 10
x: 2.619140625
y: -0.17578125
z: 1.03515625
range: 3.00681090355
velocity: 0.0
doppler_bin: 8
bearing: -3.83959650993
intensity: 28.9153747559
---
header: 
  seq: 1379630
  stamp: 
    secs: 1561868364
    nsecs: 966487425
  frame_id: "ti_mmwave"
point_id: 11
x: 2.66015625
y: -0.1796875
z: 1.04296875
range: 3.05038785934
velocity: 0.0
doppler_bin: 8
bearing: -3.86432933807
intensity: 32.1853561401
---
header: 
  seq: 1379631
  stamp: 
    secs: 1561868364
    nsecs: 966496200
  frame_id: "ti_mmwave"
point_id: 12
x: 2.75390625
y: -0.08984375
z: 0.919921875
range: 3.09396481514
velocity: 0.0
doppler_bin: 8
bearing: -1.86856126785
intensity: 31.2385158539
---
header: 
  seq: 1379632
  stamp: 
    secs: 1561868364
    nsecs: 966506418
  frame_id: "ti_mmwave"
point_id: 14
x: 0.041015625
y: -0.033203125
z: 0.0625
range: 0.0871539413929
velocity: 0.0
doppler_bin: 8
bearing: -38.9909973145
intensity: 30.0902576447
---
header: 
  seq: 1379633
  stamp: 
    secs: 1561868364
    nsecs: 966514265
  frame_id: "ti_mmwave"
point_id: 15
x: 0.044921875
y: -0.046875
z: 0.103515625
range: 0.130730912089
velocity: 0.0
doppler_bin: 8
bearing: -46.218875885
intensity: 29.0036716461
---
header: 
  seq: 1379634
  stamp: 
    secs: 1561868364
    nsecs: 967589216
  frame_id: "ti_mmwave"
point_id: 0
x: 0.01171875
y: -0.0390625
z: -0.0078125
range: 0.0435769706964
velocity: 0.0
doppler_bin: 8
bearing: -73.3007583618
intensity: 30.6483230591
---
header: 
  seq: 1379635
  stamp: 
    secs: 1561868364
    nsecs: 967646793
  frame_id: "ti_mmwave"
point_id: 1
x: 0.017578125
y: -0.080078125
z: -0.0078125
range: 0.0871539413929
velocity: 0.0
doppler_bin: 8
bearing: -77.6192398071
intensity: 31.9005146027
---
header: 
  seq: 1379636
  stamp: 
    secs: 1561868364
    nsecs: 967668771
  frame_id: "ti_mmwave"
point_id: 2
x: 0.029296875
y: -0.119140625
z: -0.005859375
range: 0.130730912089
velocity: 0.0
doppler_bin: 8
bearing: -76.1849746704
intensity: 30.1199302673
---
header: 
  seq: 1379637
  stamp: 
    secs: 1561868364
    nsecs: 967685322
  frame_id: "ti_mmwave"
point_id: 3
x: 0.056640625
y: -0.154296875
z: 0.005859375
range: 0.174307882786
velocity: 0.0
doppler_bin: 8
bearing: -69.8423843384
intensity: 25.4530715942
---
header: 
  seq: 1379638
  stamp: 
    secs: 1561868364
    nsecs: 967745221
  frame_id: "ti_mmwave"
point_id: 4
x: 0.12890625
y: -0.080078125
z: 1.259765625
range: 1.35088610649
velocity: 0.0
doppler_bin: 8
bearing: -31.8490524292
intensity: 23.0749607086
---
header: 
  seq: 1379639
  stamp: 
    secs: 1561868364
    nsecs: 967758906
  frame_id: "ti_mmwave"
point_id: 5
x: 0.091796875
y: -0.08203125
z: 1.302734375
range: 1.39446306229
velocity: 0.0
doppler_bin: 8
bearing: -41.7845153809
intensity: 24.6239795685
---
header: 
  seq: 1379640
  stamp: 
    secs: 1561868364
    nsecs: 967770638
  frame_id: "ti_mmwave"
point_id: 6
x: 0.400390625
y: -0.083984375
z: -1.287109375
range: 1.43804001808
velocity: 0.0
doppler_bin: 8
bearing: -11.8463935852
intensity: 23.0963020325
---
header: 
  seq: 1379641
  stamp: 
    secs: 1561868364
    nsecs: 967782530
  frame_id: "ti_mmwave"
point_id: 7
x: 2.62890625
y: -0.17578125
z: 1.013671875
range: 3.00681090355
velocity: 0.0
doppler_bin: 8
bearing: -3.82537555695
intensity: 28.8930168152
---
header: 
  seq: 1379642
  stamp: 
    secs: 1561868364
    nsecs: 967795448
  frame_id: "ti_mmwave"
point_id: 8
x: 2.6953125
y: -0.08984375
z: 0.96484375
range: 3.05038785934
velocity: 0.0
doppler_bin: 8
bearing: -1.90915250778
intensity: 32.129863739
---
header: 
  seq: 1379643
  stamp: 
    secs: 1561868364
    nsecs: 967806716
  frame_id: "ti_mmwave"
point_id: 9
x: 2.7578125
y: -0.08984375
z: 0.90625
range: 3.09396481514
velocity: 0.0
doppler_bin: 8
bearing: -1.86591637135
intensity: 31.2188796997
---
header: 
  seq: 1379644
  stamp: 
    secs: 1561868364
    nsecs: 967823509
  frame_id: "ti_mmwave"
point_id: 10
x: 1.54296875
y: 0.193359375
z: 0.00390625
range: 1.65592491627
velocity: 0.614668667316
doppler_bin: 9
bearing: 7.14286851883
intensity: 29.7312793732
---
header: 
  seq: 1379645
  stamp: 
    secs: 1561868364
    nsecs: 967875390
  frame_id: "ti_mmwave"
point_id: 11
x: 1.587890625
y: 0.150390625
z: 0.001953125
range: 1.69950187206
velocity: 0.614668667316
doppler_bin: 9
bearing: 5.41039848328
