header: 
  seq: 1536776
  stamp: 
    secs: 1561683675
    nsecs: 383306386
  frame_id: "ti_mmwave"
point_id: 0
x: 0.01171875
y: -0.0390625
z: -0.0078125
range: 0.0435769706964
velocity: 0.0
doppler_bin: 8
bearing: -73.3007583618
intensity: 30.7736797333
---
header: 
  seq: 1536777
  stamp: 
    secs: 1561683675
    nsecs: 383409015
  frame_id: "ti_mmwave"
point_id: 1
x: 0.017578125
y: -0.080078125
z: -0.0078125
range: 0.0871539413929
velocity: 0.0
doppler_bin: 8
bearing: -77.6192398071
intensity: 32.0112380981
---
header: 
  seq: 1536778
  stamp: 
    secs: 1561683675
    nsecs: 383426769
  frame_id: "ti_mmwave"
point_id: 2
x: 0.029296875
y: -0.119140625
z: -0.005859375
range: 0.130730912089
velocity: 0.0
doppler_bin: 8
bearing: -76.1849746704
intensity: 30.2530593872
---
header: 
  seq: 1536779
  stamp: 
    secs: 1561683675
    nsecs: 383437535
  frame_id: "ti_mmwave"
point_id: 3
x: 0.056640625
y: -0.154296875
z: 0.005859375
range: 0.174307882786
velocity: 0.0
doppler_bin: 8
bearing: -69.8423843384
intensity: 25.5266819
---
header: 
  seq: 1536780
  stamp: 
    secs: 1561683675
    nsecs: 383448910
  frame_id: "ti_mmwave"
point_id: 4
x: 0.345703125
y: -0.080078125
z: -1.216796875
range: 1.35088610649
velocity: 0.0
doppler_bin: 8
bearing: -13.0418901443
intensity: 21.9312458038
---
header: 
  seq: 1536781
  stamp: 
    secs: 1561683675
    nsecs: 383462765
  frame_id: "ti_mmwave"
point_id: 5
x: 0.267578125
y: -0.041015625
z: 1.28125
range: 1.39446306229
velocity: 0.0
doppler_bin: 8
bearing: -8.71473312378
intensity: 23.2837963104
---
header: 
  seq: 1536782
  stamp: 
    secs: 1561683675
    nsecs: 383621478
  frame_id: "ti_mmwave"
point_id: 6
x: 0.44921875
y: -0.04296875
z: 1.271484375
range: 1.43804001808
velocity: 0.0
doppler_bin: 8
bearing: -5.4638428688
intensity: 21.875207901
---
header: 
  seq: 1536783
  stamp: 
    secs: 1561683675
    nsecs: 383651267
  frame_id: "ti_mmwave"
point_id: 8
x: 1.66015625
y: 0.109375
z: -0.572265625
range: 1.87380969524
velocity: 0.0
doppler_bin: 8
bearing: 3.76933383942
intensity: 27.0243053436
---
header: 
  seq: 1536784
  stamp: 
    secs: 1561683675
    nsecs: 383664493
  frame_id: "ti_mmwave"
point_id: 9
x: 2.546875
y: -0.263671875
z: 1.1875
range: 3.00681090355
velocity: 0.0
doppler_bin: 8
bearing: -5.91063833237
intensity: 29.5133743286
---
header: 
  seq: 1536785
  stamp: 
    secs: 1561683675
    nsecs: 383673875
  frame_id: "ti_mmwave"
point_id: 10
x: 2.60546875
y: -0.267578125
z: 1.15625
range: 3.05038785934
velocity: 0.0
doppler_bin: 8
bearing: -5.86364221573
intensity: 32.8057823181
---
header: 
  seq: 1536786
  stamp: 
    secs: 1561683675
    nsecs: 383681931
  frame_id: "ti_mmwave"
point_id: 11
x: 2.6640625
y: -0.271484375
z: 1.125
range: 3.09396481514
velocity: 0.0
doppler_bin: 8
bearing: -5.81870603561
intensity: 31.9893188477
---
header: 
  seq: 1536787
  stamp: 
    secs: 1561683675
    nsecs: 383690728
  frame_id: "ti_mmwave"
point_id: 12
x: 4.41015625
y: -0.287109375
z: 1.208984375
range: 4.88062095642
velocity: 0.0
doppler_bin: 8
bearing: -3.72480559349
intensity: 30.788192749
---
header: 
  seq: 1536788
  stamp: 
    secs: 1561683675
    nsecs: 383700627
  frame_id: "ti_mmwave"
point_id: 13
x: 4.46875
y: -0.2890625
z: 1.1484375
range: 4.9241976738
velocity: 0.0
doppler_bin: 8
bearing: -3.70103907585
intensity: 30.2036132812
---
header: 
  seq: 1536789
  stamp: 
    secs: 1561683675
    nsecs: 383709228
  frame_id: "ti_mmwave"
point_id: 14
x: 4.884765625
y: -0.30859375
z: 0.734375
range: 5.27281332016
velocity: 0.0
doppler_bin: 8
bearing: -3.6148416996
intensity: 30.6855697632
---
header: 
  seq: 1536790
  stamp: 
    secs: 1561683675
    nsecs: 383719997
  frame_id: "ti_mmwave"
point_id: 16
x: 0.041015625
y: -0.033203125
z: 0.0625
range: 0.0871539413929
velocity: 0.0
doppler_bin: 8
bearing: -38.9909973145
intensity: 30.1703338623
---
header: 
  seq: 1536791
  stamp: 
    secs: 1561683675
    nsecs: 383731127
  frame_id: "ti_mmwave"
point_id: 17
x: 0.044921875
y: -0.046875
z: 0.103515625
range: 0.130730912089
velocity: 0.0
doppler_bin: 8
bearing: -46.218875885
intensity: 29.0687351227
---
header: 
  seq: 1536792
  stamp: 
    secs: 1561683675
    nsecs: 383762576
  frame_id: "ti_mmwave"
point_id: 19
x: 1.11328125
y: -0.515625
z: 0.3203125
range: 1.35088610649
velocity: 0.0
doppler_bin: 8
bearing: -24.8515853882
intensity: 19.0308990479
---
header: 
  seq: 1536793
  stamp: 
    secs: 1561683675
    nsecs: 383834735
  frame_id: "ti_mmwave"
point_id: 20
x: 1.484375
y: -0.193359375
z: -0.419921875
range: 1.65592491627
velocity: 0.0
doppler_bin: 8
bearing: -7.42173910141
intensity: 24.5939254761
---
header: 
  seq: 1536794
  stamp: 
    secs: 1561683675
    nsecs: 383849122
  frame_id: "ti_mmwave"
point_id: 21
x: 1.70703125
y: -0.330078125
z: 0.265625
range: 1.87380969524
velocity: 0.0
doppler_bin: 8
bearing: -10.9438705444
intensity: 26.7394199371
---
header: 
  seq: 1536795
  stamp: 
    secs: 1561683675
    nsecs: 383862682
  frame_id: "ti_mmwave"
point_id: 22
x: 2.912109375
y: -1.861328125
z: -3.0078125
range: 4.88062095642
velocity: 0.0
doppler_bin: 8
bearing: -32.5854263306
intensity: 27.7887439728
---
header: 
  seq: 1536796
  stamp: 
    secs: 1561683675
    nsecs: 383874770
  frame_id: "ti_mmwave"
point_id: 23
x: 2.88671875
y: -2.021484375
z: -2.9921875
range: 4.9241976738
velocity: 0.0
doppler_bin: 8
bearing: -35.0024261475
intensity: 27.3639640808
---
header: 
  seq: 1536797
  stamp: 
    secs: 1561683675
    nsecs: 384990879
  frame_id: "ti_mmwave"
point_id: 0
x: 0.01171875
y: -0.0390625
z: -0.0078125
range: 0.0435769706964
velocity: 0.0
doppler_bin: 8
bearing: -73.3007583618
intensity: 30.7700424194
---
header: 
  seq: 1536798
  stamp: 
    secs: 1561683675
    nsecs: 385059597
  frame_id: "ti_mmwave"
point_id: 1
x: 0.017578125
y: -0.080078125
z: -0.0078125
range: 0.0871539413929
velocity: 0.0
doppler_bin: 8
bearing: -77.6192398071
intensity: 32.0085067749
---
header: 
  seq: 1536799
  stamp: 
    secs: 1561683675
    nsecs: 385079921
  frame_id: "ti_mmwave"
point_id: 2
x: 0.029296875
y: -0.119140625
z: -0.00390625
range: 0.130730912089
velocity: 0.0
doppler_bin: 8
bearing: -76.1849746704
intensity: 30.2530593872
---
header: 
  seq: 1536800
  stamp: 
    secs: 1561683675
    nsecs: 385103997
  frame_id: "ti_mmwave"
point_id: 3
x: 0.056640625
y: -0.154296875
z: 0.0078125
range: 0.174307882786
velocity: 0.0
doppler_bin: 8
bearing: -69.8423843384
intensity: 25.5388298035
---
header: 
  seq: 1536801
  stamp: 
    secs: 1561683675
    nsecs: 385184296
  frame_id: "ti_mmwave"
point_id: 4
x: 0.34375
y: -0.080078125
z: -1.21875
range: 1.35088610649
velocity: 0.0
doppler_bin: 8
bearing: -13.1134386063
intensity: 21.9589958191
---
header: 
  seq: 1536802
  stamp: 
    secs: 1561683675
    nsecs: 385200333
  frame_id: "ti_mmwave"
point_id: 5
x: 0.291015625
y: -0.041015625
z: 1.275390625
range: 1.39446306229
velocity: 0.0
doppler_bin: 8
bearing: -8.02240371704
intensity: 23.2837963104
---
header: 
  seq: 1536803
  stamp: 
    secs: 1561683675
    nsecs: 385212135
  frame_id: "ti_mmwave"
point_id: 6
x: 0.37890625
y: -0.0
z: 1.294921875
range: 1.43804001808
velocity: 0.0
doppler_bin: 8
bearing: -0.0
intensity: 21.9033164978
---
header: 
  seq: 1536804
  stamp: 
    secs: 1561683675
    nsecs: 385224427
  frame_id: "ti_mmwave"
point_id: 7
x: 1.552734375
y: -0.0
z: 0.064453125
range: 1.65592491627
velocity: 0.0
doppler_bin: 8
bearing: -0.0
intensity: 25.7403125763
---
header: 
  seq: 1536805
  stamp: 
    secs: 1561683675
    nsecs: 385247385
  frame_id: "ti_mmwave"
point_id: 8
x: 1.595703125
y: -0.0
z: 0.025390625
range: 1.69950187206
velocity: 0.0
doppler_bin: 8
bearing: -0.0
intensity: 26.4640369415
---
header: 
  seq: 1536806
  stamp: 
    secs: 1561683675
    nsecs: 385268853
  frame_id: "ti_mmwave"
point_id: 9
x: 1.703125
y: 0.107421875
z: -0.1953125
range: 1.83023273945
velocity: 0.0
doppler_bin: 8
bearing: 3.60905861855
intensity: 26.6931686401
---
header: 
  seq: 1536807
  stamp: 
    secs: 1561683675
    nsecs: 385323629
  frame_id: "ti_mmwave"
point_id: 10
x: 1.74609375
y: 0.109375
z: -0.185546875
range: 1.87380969524
velocity: 0.0
doppler_bin: 8
bearing: 3.58431434631
intensity: 28.2736930847
---
header: 
  seq: 1536808
  stamp: 
    secs: 1561683675
    nsecs: 385337031
  frame_id: "ti_mmwave"
point_id: 11
x: 1.787109375
y: 0.11328125
z: -0.1875
range: 1.91738677025
velocity: 0.0
doppler_bin: 8
bearing: 3.62701106071
intensity: 26.4542236328
---
header: 
  seq: 1536809
  stamp: 
    secs: 1561683675
    nsecs: 385347962
  frame_id: "ti_mmwave"
point_id: 12
x: 2.53125
y: -0.263671875
z: 1.220703125
range: 3.00681090355
velocity: 0.0
doppler_bin: 8
bearing: -5.94686317444
intensity: 29.4596061707
---
header: 
  seq: 1536810
  stamp: 
    secs: 1561683675
    nsecs: 385359880
  frame_id: "ti_mmwave"
point_id: 13
x: 2.59765625
y: -0.267578125
z: 1.173828125
range: 3.05038785934
velocity: 0.0
doppler_bin: 8
bearing: -5.88115358353
intensity: 32.7921066284
---
header: 
  seq: 1536811
  stamp: 
    secs: 1561683675
    nsecs: 385399356
  frame_id: "ti_mmwave"
point_id: 14
x: 2.65625
y: -0.271484375
z: 1.142578125
range: 3.09396481514
velocity: 0.0
doppler_bin: 8
bearing: -5.83570146561
intensity: 32.0167007446
---
header: 
  seq: 1536812
  stamp: 
    secs: 1561683675
    nsecs: 385416687
  frame_id: "ti_mmwave"
point_id: 15
x: 4.4140625
y: -0.287109375
z: 1.193359375
range: 4.88062095642
velocity: 0.0
doppler_bin: 8
bearing: -3.72151875496
intensity: 30.9307136536
---
header: 
  seq: 1536813
  stamp: 
    secs: 1561683675
    nsecs: 385428493
  frame_id: "ti_mmwave"
point_id: 16
x: 4.466796875
y: -0.2890625
z: 1.15234375
range: 4.9241976738
velocity: 0.0
doppler_bin: 8
bearing: -3.70265316963
intensity: 30.3742656708
---
header: 
  seq: 1536814
  stamp: 
    secs: 1561683675
    nsecs: 385441728
  frame_id: "ti_mmwave"
point_id: 17
x: 4.884765625
y: -0.30859375
z: 0.732421875
range: 5.27281332016
velocity: 0.0
doppler_bin: 8
bearing: -3.6148416996
intensity: 30.7261753082
---
header: 
  seq: 1536815
  stamp: 
    secs: 1561683675
    nsecs: 385457714
  frame_id: "ti_mmwave"
point_id: 19
x: 0.041015625
y: -0.033203125
z: 0.0625
range: 0.0871539413929
velocity: 0.0
doppler_bin: 8
bearing: -38.9909973145
intensity: 30.1745071411
---
header: 
  seq: 1536816
  stamp: 
    secs: 1561683675
    nsecs: 385470528
  frame_id: "ti_mmwave"
point_id: 20
x: 0.044921875
y: -0.046875
z: 0.103515625
range: 0.130730912089
velocity: 0.0
doppler_bin: 8
bearing: -46.218875885
intensity: 29.0741138458
---
header: 
  seq: 1536817
  stamp: 
    secs: 1561683675
    nsecs: 385482311
  frame_id: "ti_mmwave"
point_id: 22
x: 1.115234375
y: -0.515625
z: 0.31640625
range: 1.35088610649
velocity: 0.0
doppler_bin: 8
bearing: -24.8133087158
intensity: 19.1381378174
---
header: 
  seq: 1536818
  stamp: 
    secs: 1561683675
    nsecs: 385544857
  frame_id: "ti_mmwave"
point_id: 24
x: 1.240234375
y: -0.375
z: -1.12890625
range: 1.83023273945
velocity: 0.0
doppler_bin: 8
bearing: -16.8233337402
intensity: 23.9269695282
---
header: 
  seq: 1536819
  stamp: 
    secs: 1561683675
    nsecs: 385562326
  frame_id: "ti_mmwave"
point_id: 25
x: 1.24609375
y: -0.384765625
z: -1.1796875
range: 1.87380969524
velocity: 0.0
doppler_bin: 8
bearing: -17.1595058441
intensity: 25.7403125763
---
header: 
  seq: 1536820
  stamp: 
    secs: 1561683675
    nsecs: 385574865
  frame_id: "ti_mmwave"
point_id: 26
x: 1.1171875
y: -0.44921875
z: -1.337890625
range: 1.91738677025
velocity: 0.0
doppler_bin: 8
bearing: -21.9049568176
intensity: 23.5793476105
---
header: 
  seq: 1536821
  stamp: 
    secs: 1561683675
    nsecs: 385586130
  frame_id: "ti_mmwave"
point_id: 27
x: 2.88671875
y: -2.021484375
z: -2.990234375
range: 4.9241976738
velocity: 0.0
doppler_bin: 8
bearing: -35.0024261475
intensity: 27.466342926
---
header: 
  seq: 1536822
  stamp: 
    secs: 1561683675
    nsecs: 443408871
  frame_id: "ti_mmwave"
point_id: 0
x: 0.01171875
y: -0.0390625
z: -0.0078125
range: 0.0435769706964
velocity: 0.0
doppler_bin: 8
bearing: -73.3007583618
intensity: 30.7700424194
---
header: 
  seq: 1536823
  stamp: 
    secs: 1561683675
    nsecs: 443493510
  frame_id: "ti_mmwave"
point_id: 1
x: 0.017578125
y: -0.080078125
z: -0.0078125
range: 0.0871539413929
velocity: 0.0
doppler_bin: 8
bearing: -77.6192398071
intensity: 32.0085067749
---
header: 
  seq: 1536824
  stamp: 
    secs: 1561683675
    nsecs: 443512562
  frame_id: "ti_mmwave"
point_id: 2
x: 0.029296875
y: -0.119140625
z: -0.005859375
range: 0.130730912089
velocity: 0.0
doppler_bin: 8
bearing: -76.1849746704
intensity: 30.2530593872
---
header: 
  seq: 1536825
  stamp: 
    secs: 1561683675
    nsecs: 443529261
  frame_id: "ti_mmwave"
point_id: 3
x: 0.056640625
y: -0.154296875
z: 0.005859375
range: 0.174307882786
velocity: 0.0
doppler_bin: 8
bearing: -69.8423843384
intensity: 25.5266819
---
header: 
  seq: 1536826
  stamp: 
    secs: 1561683675
    nsecs: 443541738
  frame_id: "ti_mmwave"
point_id: 4
x: 0.33984375
y: -0.080078125
z: -1.21875
range: 1.35088610649
velocity: 0.0
doppler_bin: 8
bearing: -13.2588720322
intensity: 21.9589958191
---
header: 
  seq: 1536827
  stamp: 
    secs: 1561683675
    nsecs: 443554131
  frame_id: "ti_mmwave"
point_id: 5
x: 0.2734375
y: -0.041015625
z: 1.279296875
range: 1.39446306229
velocity: 0.0
doppler_bin: 8
bearing: -8.53076648712
intensity: 23.2837963104
---
header: 
  seq: 1536828
  stamp: 
    secs: 1561683675
    nsecs: 443567529
  frame_id: "ti_mmwave"
point_id: 6
x: 0.37109375
y: -0.0
z: 1.298828125
range: 1.43804001808
velocity: 0.0
doppler_bin: 8
bearing: -0.0
intensity: 21.875207901
---
header: 
  seq: 1536829
  stamp: 
    secs: 1561683675
    nsecs: 443582699
  frame_id: "ti_mmwave"
point_id: 8
x: 1.72265625
y: -0.0546875
z: -0.35546875
range: 1.87380969524
velocity: 0.0
doppler_bin: 8
bearing: -1.81830310822
intensity: 28.656961441
---
header: 
  seq: 1536830
  stamp: 
    secs: 1561683675
    nsecs: 443597200
  frame_id: "ti_mmwave"
point_id: 9
x: 1.77734375
y: 0.056640625
z: -0.271484375
range: 1.91738677025
velocity: 0.0
doppler_bin: 8
bearing: 1.82529187202
intensity: 27.5358314514
---
header: 
  seq: 1536831
  stamp: 
    secs: 1561683675
    nsecs: 443610339
  frame_id: "ti_mmwave"
point_id: 10
x: 2.55859375
y: -0.263671875
z: 1.162109375
range: 3.00681090355
velocity: 0.0
doppler_bin: 8
bearing: -5.88375711441
intensity: 29.4349460602
---
header: 
  seq: 1536832
  stamp: 
    secs: 1561683675
    nsecs: 443636337
  frame_id: "ti_mmwave"
point_id: 11
x: 2.611328125
y: -0.267578125
z: 1.14453125
range: 3.05038785934
velocity: 0.0
doppler_bin: 8
bearing: -5.85057687759
intensity: 32.8057823181
---
header: 
  seq: 1536833
  stamp: 
    secs: 1561683675
    nsecs: 443729869
  frame_id: "ti_mmwave"
point_id: 12
x: 2.669921875
y: -0.271484375
z: 1.111328125
range: 3.09396481514
velocity: 0.0
doppler_bin: 8
bearing: -5.80602359772
intensity: 32.0276069641
---
header: 
  seq: 1536834
  stamp: 
    secs: 1561683675
    nsecs: 443746499
  frame_id: "ti_mmwave"
point_id: 13
x: 4.41796875
y: -0.287109375
z: 1.177734375
range: 4.88062095642
velocity: 0.0
doppler_bin: 8
bearing: -3.71823716164
intensity: 30.9516925812
---
header: 
  seq: 1536835
  stamp: 
    secs: 1561683675
    nsecs: 443758491
  frame_id: "ti_mmwave"
point_id: 14
x: 4.4765625
y: -0.2890625
z: 1.111328125
range: 4.9241976738
velocity: 0.0
doppler_bin: 8
bearing: -3.69459795952
intensity: 30.3782482147
---
header: 
  seq: 1536836
  stamp: 
    secs: 1561683675
    nsecs: 443770615
  frame_id: "ti_mmwave"
point_id: 15
x: 4.8828125
y: -0.30859375
z: 0.74609375
range: 5.27281332016
velocity: 0.0
doppler_bin: 8
bearing: -3.61628341675
intensity: 30.7591171265
---
header: 
  seq: 1536837
  stamp: 
    secs: 1561683675
    nsecs: 443787303
  frame_id: "ti_mmwave"
point_id: 17
x: 0.041015625
y: -0.033203125
z: 0.0625
range: 0.0871539413929
velocity: 0.0
doppler_bin: 8
bearing: -38.9909973145
intensity: 30.1703338623
---
header: 
  seq: 1536838
  stamp: 
    secs: 1561683675
    nsecs: 443801836
  frame_id: "ti_mmwave"
point_id: 18
x: 0.044921875
y: -0.046875
z: 0.103515625
range: 0.130730912089
velocity: 0.0
doppler_bin: 8
bearing: -46.218875885
intensity: 29.0687351227
---
header: 
  seq: 1536839
  stamp: 
    secs: 1561683675
    nsecs: 443817330
  frame_id: "ti_mmwave"
point_id: 20
x: 1.119140625
y: -0.515625
z: 0.298828125
range: 1.35088610649
velocity: 0.0
doppler_bin: 8
bearing: -24.7370834351
intensity: 19.0308990479
---
header: 
  seq: 1536840
  stamp: 
    secs: 1561683675
    nsecs: 443832276
  frame_id: "ti_mmwave"
point_id: 21
x: 1.529296875
y: -0.2421875
z: 0.125
range: 1.65592491627
velocity: 0.0
doppler_bin: 8
bearing: -8.99892807007
intensity: 24.1497325897
---
header: 
  seq: 1536841
  stamp: 
    secs: 1561683675
    nsecs: 443882093
  frame_id: "ti_mmwave"
point_id: 22
x: 2.8203125
y: -2.021484375
z: -3.052734375
range: 4.9241976738
velocity: 0.0
doppler_bin: 8
bearing: -35.6314048767
intensity: 27.4741172791
---
header: 
  seq: 1536842
  stamp: 
    secs: 1561683675
    nsecs: 503575032
  frame_id: "ti_mmwave"
point_id: 0
x: 0.01171875
y: -0.0390625
z: -0.0078125
range: 0.0435769706964
velocity: 0.0
doppler_bin: 8
bearing: -73.3007583618
intensity: 30.7700424194
---
header: 
  seq: 1536843
  stamp: 
    secs: 1561683675
    nsecs: 503652443
  frame_id: "ti_mmwave"
point_id: 1
x: 0.017578125
y: -0.080078125
z: -0.0078125
range: 0.0871539413929
velocity: 0.0
doppler_bin: 8
bearing: -77.6192398071
intensity: 32.0085067749
---
header: 
  seq: 1536844
  stamp: 
    secs: 1561683675
    nsecs: 503663657
  frame_id: "ti_mmwave"
point_id: 2
x: 0.041015625
y: -0.115234375
z: -0.0078125
range: 0.130730912089
velocity: 0.0
doppler_bin: 8
bearing: -70.4077224731
intensity: 30.248960495
---
header: 
  seq: 1536845
  stamp: 
    secs: 1561683675
    nsecs: 503672157
  frame_id: "ti_mmwave"
point_id: 3
x: 0.056640625
y: -0.154296875
z: 0.005859375
range: 0.174307882786
velocity: 0.0
doppler_bin: 8
bearing: -69.8423843384
intensity: 25.5388298035
---
header: 
  seq: 1536846
  stamp: 
    secs: 1561683675
    nsecs: 503682671
  frame_id: "ti_mmwave"
point_id: 4
x: 0.345703125
y: -0.080078125
z: -1.216796875
range: 1.35088610649
velocity: 0.0
doppler_bin: 8
bearing: -13.0418901443
intensity: 21.9589958191
---
header: 
  seq: 1536847
  stamp: 
    secs: 1561683675
    nsecs: 503691016
  frame_id: "ti_mmwave"
point_id: 5
x: 0.2734375
y: -0.041015625
z: 1.279296875
range: 1.39446306229
velocity: 0.0
doppler_bin: 8
bearing: -8.53076648712
intensity: 23.2633590698
---
header: 
  seq: 1536848
  stamp: 
    secs: 1561683675
    nsecs: 503700868
  frame_id: "ti_mmwave"
point_id: 6
x: 0.37890625
y: -0.0
z: 1.294921875
range: 1.43804001808
velocity: 0.0
doppler_bin: 8
bearing: -0.0
intensity: 21.9033164978
---
header: 
  seq: 1536849
  stamp: 
    secs: 1561683675
    nsecs: 503710230
  frame_id: "ti_mmwave"
point_id: 7
x: 2.556640625
y: -0.263671875
z: 1.166015625
range: 3.00681090355
velocity: 0.0
doppler_bin: 8
bearing: -5.88822031021
intensity: 29.3550720215
---
header: 
  seq: 1536850
  stamp: 
    secs: 1561683675
    nsecs: 503720300
  frame_id: "ti_mmwave"
point_id: 8
x: 2.607421875
y: -0.267578125
z: 1.15234375
range: 3.05038785934
velocity: 0.0
doppler_bin: 8
bearing: -5.85928010941
intensity: 32.7715072632
---
header: 
  seq: 1536851
  stamp: 
    secs: 1561683675
    nsecs: 503729360
  frame_id: "ti_mmwave"
point_id: 9
x: 2.666015625
y: -0.271484375
z: 1.1171875
range: 3.09396481514
velocity: 0.0
doppler_bin: 8
bearing: -5.81447267532
intensity: 32.0357666016
---
header: 
  seq: 1536852
  stamp: 
    secs: 1561683675
    nsecs: 503748967
  frame_id: "ti_mmwave"
point_id: 10
x: 4.416015625
y: -0.287109375
z: 1.185546875
range: 4.88062095642
velocity: 0.0
doppler_bin: 8
bearing: -3.71987724304
intensity: 30.8849048615
---
header: 
  seq: 1536853
  stamp: 
    secs: 1561683675
    nsecs: 503758717
  frame_id: "ti_mmwave"
point_id: 11
x: 4.4765625
y: -0.2890625
z: 1.1171875
range: 4.9241976738
velocity: 0.0
doppler_bin: 8
bearing: -3.69459795952
intensity: 30.3059978485
---
header: 
  seq: 1536854
  stamp: 
    secs: 1561683675
    nsecs: 503776419
  frame_id: "ti_mmwave"
point_id: 12
x: 4.8828125
y: -0.30859375
z: 0.751953125
range: 5.27281332016
velocity: 0.0
doppler_bin: 8
bearing: -3.61628341675
intensity: 30.7700424194
---
header: 
  seq: 1536855
  stamp: 
    secs: 1561683675
    nsecs: 503800117
  frame_id: "ti_mmwave"
point_id: 14
x: 0.041015625
y: -0.033203125
z: 0.0625
range: 0.0871539413929
velocity: 0.0
doppler_bin: 8
bearing: -38.9909973145
intensity: 30.1703338623
---
header: 
  seq: 1536856
  stamp: 
    secs: 1561683675
    nsecs: 503979147
  frame_id: "ti_mmwave"
point_id: 15
x: 0.044921875
y: -0.046875
z: 0.103515625
range: 0.130730912089
velocity: 0.0
doppler_bin: 8
bearing: -46.218875885
intensity: 29.0687351227
---
header: 
  seq: 1536857
  stamp: 
    secs: 1561683675
    nsecs: 504007807
  frame_id: "ti_mmwave"
point_id: 17
x: 1.119140625
y: -0.474609375
z: 0.36328125
range: 1.35088610649
velocity: 0.0
doppler_bin: 8
bearing: -22.9810123444
intensity: 19.0308990479
---
header: 
  seq: 1536858
  stamp: 
    secs: 1561683675
    nsecs: 504026759
  frame_id: "ti_mmwave"
point_id: 18
x: 2.84765625
y: -2.021484375
z: -3.029296875
range: 4.9241976738
velocity: 0.0
doppler_bin: 8
bearing: -35.3700485229
intensity: 27.4115161896
---
header: 
  seq: 1536859
  stamp: 
    secs: 1561683675
    nsecs: 504897963
  frame_id: "ti_mmwave"
point_id: 0
x: 0.01171875
y: -0.0390625
z: -0.0078125
range: 0.0435769706964
velocity: 0.0
doppler_bin: 8
bearing: -73.3007583618
intensity: 30.7736797333
---
header: 
  seq: 1536860
  stamp: 
    secs: 1561683675
    nsecs: 504961577
  frame_id: "ti_mmwave"
point_id: 1
x: 0.017578125
y: -0.080078125
z: -0.0078125
range: 0.0871539413929
velocity: 0.0
doppler_bin: 8
bearing: -77.6192398071
intensity: 32.0112380981
---
header: 
  seq: 1536861
  stamp: 
    secs: 1561683675
    nsecs: 504978651
  frame_id: "ti_mmwave"
point_id: 2
x: 0.029296875
y: -0.119140625
z: -0.005859375
range: 0.130730912089
velocity: 0.0
doppler_bin: 8
bearing: -76.1849746704
intensity: 30.2571544647
---
header: 
  seq: 1536862
  stamp: 
    secs: 1561683675
    nsecs: 504994046
  frame_id: "ti_mmwave"
point_id: 3
x: 0.056640625
y: -0.154296875
z: 0.005859375
range: 0.174307882786
velocity: 0.0
doppler_bin: 8
bearing: -69.8423843384
intensity: 25.5388298035
---
header: 
  seq: 1536863
  stamp: 
    secs: 1561683675
    nsecs: 505008088
  frame_id: "ti_mmwave"
point_id: 4
x: 0.38671875
y: -0.080078125
z: -1.205078125
range: 1.35088610649
velocity: 0.0
doppler_bin: 8
bearing: -11.6989374161
intensity: 21.9033164978
---
header: 
  seq: 1536864
  stamp: 
    secs: 1561683675
    nsecs: 505023452
  frame_id: "ti_mmwave"
point_id: 5
x: 0.2421875
y: -0.041015625
z: 1.28515625
range: 1.39446306229
velocity: 0.0
doppler_bin: 8
bearing: -9.61211490631
intensity: 23.2837963104
---
header: 
  seq: 1536865
  stamp: 
    secs: 1561683675
    nsecs: 505036755
  frame_id: "ti_mmwave"
point_id: 6
x: 0.38671875
y: -0.0
z: 1.29296875
range: 1.43804001808
velocity: 0.0
doppler_bin: 8
bearing: -0.0
intensity: 21.9033164978
---
header: 
  seq: 1536866
  stamp: 
    secs: 1561683675
    nsecs: 505051345
  frame_id: "ti_mmwave"
point_id: 7
x: 1.52734375
y: -0.146484375
z: -0.24609375
range: 1.65592491627
velocity: 0.0
doppler_bin: 8
bearing: -5.47836303711
intensity: 25.4157924652
---
header: 
  seq: 1536867
  stamp: 
    secs: 1561683675
    nsecs: 505064818
  frame_id: "ti_mmwave"
point_id: 8
x: 2.55078125
y: -0.263671875
z: 1.181640625
range: 3.00681090355
velocity: 0.0
doppler_bin: 8
bearing: -5.90165042877
intensity: 29.4051647186
---
header: 
  seq: 1536868
  stamp: 
    secs: 1561683675
    nsecs: 505078887
  frame_id: "ti_mmwave"
point_id: 9
x: 2.603515625
y: -0.267578125
z: 1.1640625
range: 3.05038785934
velocity: 0.0
doppler_bin: 8
bearing: -5.8680100441
intensity: 32.8035087585
---
header: 
  seq: 1536869
  stamp: 
    secs: 1561683675
    nsecs: 505092171
  frame_id: "ti_mmwave"
point_id: 10
x: 2.65625
y: -0.271484375
z: 1.142578125
range: 3.09396481514
velocity: 0.0
doppler_bin: 8
bearing: -5.83570146561
intensity: 32.0194320679
---
header: 
  seq: 1536870
  stamp: 
    secs: 1561683675
    nsecs: 505104975
  frame_id: "ti_mmwave"
point_id: 11
x: 4.416015625
y: -0.287109375
z: 1.185546875
range: 4.88062095642
velocity: 0.0
doppler_bin: 8
bearing: -3.71987724304
intensity: 30.9096298218
---
header: 
  seq: 1536871
  stamp: 
    secs: 1561683675
    nsecs: 505118993
  frame_id: "ti_mmwave"
point_id: 12
x: 4.474609375
y: -0.2890625
z: 1.125
range: 4.9241976738
velocity: 0.0
doppler_bin: 8
bearing: -3.69620633125
intensity: 30.3261871338
---
header: 
  seq: 1536872
  stamp: 
    secs: 1561683675
    nsecs: 505132643
  frame_id: "ti_mmwave"
point_id: 13
x: 4.880859375
y: -0.30859375
z: 0.763671875
range: 5.27281332016
velocity: 0.0
doppler_bin: 8
bearing: -3.61772704124
intensity: 30.7335166931
---
header: 
  seq: 1536873
  stamp: 
    secs: 1561683675
    nsecs: 505148781
  frame_id: "ti_mmwave"
point_id: 15
x: 0.041015625
y: -0.033203125
z: 0.0625
range: 0.0871539413929
velocity: 0.0
doppler_bin: 8
bearing: -38.9909973145
intensity: 30.1745071411
---
header: 
  seq: 1536874
  stamp: 
    secs: 1561683675
    nsecs: 505308546
  frame_id: "ti_mmwave"
point_id: 16
x: 0.044921875
y: -0.046875
z: 0.103515625
range: 0.130730912089
velocity: 0.0
doppler_bin: 8
bearing: -46.218875885
intensity: 29.0741138458
---
header: 
  seq: 1536875
  stamp: 
    secs: 1561683675
    nsecs: 505375872
  frame_id: "ti_mmwave"
point_id: 18
x: 1.12109375
y: -0.474609375
z: 0.35546875
range: 1.35088610649
velocity: 0.0
doppler_bin: 8
bearing: -22.9451236725
intensity: 19.0308990479
---
header: 
  seq: 1536876
  stamp: 
    secs: 1561683675
    nsecs: 505408564
  frame_id: "ti_mmwave"
point_id: 20
x: 2.861328125
y: -2.021484375
z: -3.015625
range: 4.9241976738
velocity: 0.0
doppler_bin: 8
bearing: -35.2406158447
intensity: 27.4429302216
---
header: 
  seq: 1536877
  stamp: 
    secs: 1561683675
    nsecs: 563322548
  frame_id: "ti_mmwave"
point_id: 0
x: 0.01171875
y: -0.0390625
z: -0.0078125
range: 0.0435769706964
velocity: 0.0
doppler_bin: 8
bearing: -73.3007583618
intensity: 30.7700424194
---
header: 
  seq: 1536878
  stamp: 
    secs: 1561683675
    nsecs: 563422460
  frame_id: "ti_mmwave"
point_id: 1
x: 0.017578125
y: -0.080078125
z: -0.0078125
range: 0.0871539413929
velocity: 0.0
doppler_bin: 8
bearing: -77.6192398071
intensity: 32.0085067749
---
header: 
  seq: 1536879
  stamp: 
    secs: 1561683675
    nsecs: 563435419
  frame_id: "ti_mmwave"
point_id: 2
x: 0.041015625
y: -0.115234375
z: -0.0078125
range: 0.130730912089
velocity: 0.0
doppler_bin: 8
bearing: -70.4077224731
intensity: 30.2530593872
---
header: 
  seq: 1536880
  stamp: 
    secs: 1561683675
    nsecs: 563444078
  frame_id: "ti_mmwave"
point_id: 3
x: 0.056640625
y: -0.154296875
z: 0.0078125
range: 0.174307882786
velocity: 0.0
doppler_bin: 8
bearing: -69.8423843384
intensity: 25.550945282
---
header: 
  seq: 1536881
  stamp: 
    secs: 1561683675
    nsecs: 563454081
  frame_id: "ti_mmwave"
point_id: 4
x: 0.326171875
y: -0.080078125
z: -1.22265625
range: 1.35088610649
velocity: 0.0
doppler_bin: 8
bearing: -13.7938089371
intensity: 21.9589958191
---
header: 
  seq: 1536882
  stamp: 
    secs: 1561683675
    nsecs: 563462056
  frame_id: "ti_mmwave"
point_id: 5
x: 0.29296875
y: -0.041015625
z: 1.275390625
range: 1.39446306229
velocity: 0.0
doppler_bin: 8
bearing: -7.96961069107
intensity: 23.2837963104
---
header: 
  seq: 1536883
  stamp: 
    secs: 1561683675
    nsecs: 563469865
  frame_id: "ti_mmwave"
point_id: 6
x: 0.455078125
y: -0.04296875
z: 1.26953125
range: 1.43804001808
velocity: 0.0
doppler_bin: 8
bearing: -5.39391040802
intensity: 21.9312458038
---
header: 
  seq: 1536884
  stamp: 
    secs: 1561683675
    nsecs: 563478306
  frame_id: "ti_mmwave"
point_id: 7
x: 0.43359375
y: 0.630859375
z: 1.353515625
range: 1.65592491627
velocity: 0.0
doppler_bin: 8
bearing: 55.499004364
intensity: 25.3019962311
---
header: 
  seq: 1536885
  stamp: 
    secs: 1561683675
    nsecs: 563486379
  frame_id: "ti_mmwave"
point_id: 8
x: 1.59375
y: -0.0
z: -0.064453125
range: 1.69950187206
velocity: 0.0
doppler_bin: 8
bearing: -0.0
intensity: 26.4933490753
---
header: 
  seq: 1536886
  stamp: 
    secs: 1561683675
    nsecs: 563495230
  frame_id: "ti_mmwave"
point_id: 9
x: 1.728515625
y: -0.1640625
z: -0.27734375
range: 1.87380969524
velocity: 0.0
doppler_bin: 8
bearing: -5.42200040817
intensity: 27.5127906799
---
header: 
  seq: 1536887
  stamp: 
    secs: 1561683675
    nsecs: 563507927
  frame_id: "ti_mmwave"
point_id: 10
x: 1.7734375
y: -0.11328125
z: -0.291015625
range: 1.91738677025
velocity: 0.0
doppler_bin: 8
bearing: -3.65489697456
intensity: 27.058637619
---
header: 
  seq: 1536888
  stamp: 
    secs: 1561683675
    nsecs: 563521526
  frame_id: "ti_mmwave"
point_id: 11
x: 2.560546875
y: -0.263671875
z: 1.158203125
range: 3.00681090355
velocity: 0.0
doppler_bin: 8
bearing: -5.87930107117
intensity: 29.5085144043
---
header: 
  seq: 1536889
  stamp: 
    secs: 1561683675
    nsecs: 563532802
  frame_id: "ti_mmwave"
point_id: 12
x: 2.611328125
y: -0.267578125
z: 1.14453125
range: 3.05038785934
velocity: 0.0
doppler_bin: 8
bearing: -5.85057687759
intensity: 32.8600730896
---
header: 
  seq: 1536890
  stamp: 
    secs: 1561683675
    nsecs: 563540879
  frame_id: "ti_mmwave"
point_id: 13
x: 2.66796875
y: -0.271484375
z: 1.115234375
range: 3.09396481514
velocity: 0.0
doppler_bin: 8
bearing: -5.81024503708
intensity: 32.1031837463
---
header: 
  seq: 1536891
  stamp: 
    secs: 1561683675
    nsecs: 563548652
  frame_id: "ti_mmwave"
point_id: 14
x: 4.419921875
y: -0.287109375
z: 1.173828125
range: 4.88062095642
velocity: 0.0
doppler_bin: 8
bearing: -3.71659874916
intensity: 30.9482040405
---
header: 
  seq: 1536892
  stamp: 
    secs: 1561683675
    nsecs: 563557065
  frame_id: "ti_mmwave"
point_id: 15
x: 4.4765625
y: -0.2890625
z: 1.1171875
range: 4.9241976738
velocity: 0.0
doppler_bin: 8
bearing: -3.69459795952
intensity: 30.4060230255
---
header: 
  seq: 1536893
  stamp: 
    secs: 1561683675
    nsecs: 563567547
  frame_id: "ti_mmwave"
point_id: 16
x: 4.8828125
y: -0.30859375
z: 0.751953125
range: 5.27281332016
velocity: 0.0
doppler_bin: 8
bearing: -3.61628341675
intensity: 30.7664051056
---
header: 
  seq: 1536894
  stamp: 
    secs: 1561683675
    nsecs: 563590348
  frame_id: "ti_mmwave"
point_id: 18
x: 0.041015625
y: -0.033203125
z: 0.0625
range: 0.0871539413929
velocity: 0.0
doppler_bin: 8
bearing: -38.9909973145
intensity: 30.1703338623
---
header: 
  seq: 1536895
  stamp: 
    secs: 1561683675
    nsecs: 563605032
  frame_id: "ti_mmwave"
point_id: 19
x: 0.044921875
y: -0.046875
z: 0.103515625
range: 0.130730912089
velocity: 0.0
doppler_bin: 8
bearing: -46.218875885
intensity: 29.0687351227
---
header: 
  seq: 1536896
  stamp: 
    secs: 1561683675
    nsecs: 563619027
  frame_id: "ti_mmwave"
point_id: 21
x: 1.119140625
y: -0.515625
z: 0.302734375
range: 1.35088610649
velocity: 0.0
doppler_bin: 8
bearing: -24.7370834351
intensity: 19.0308990479
---
header: 
  seq: 1536897
  stamp: 
    secs: 1561683675
    nsecs: 563780152
  frame_id: "ti_mmwave"
point_id: 22
x: 1.552734375
y: -0.0
z: 0.076171875
range: 1.65592491627
velocity: 0.0
doppler_bin: 8
bearing: -0.0
intensity: 24.8995857239
---
header: 
  seq: 1536898
  stamp: 
    secs: 1561683675
    nsecs: 563808735
  frame_id: "ti_mmwave"
point_id: 23
x: 0.70703125
y: 0.59765625
z: 1.298828125
range: 1.69950187206
velocity: 0.0
doppler_bin: 8
bearing: 40.2079696655
intensity: 23.8738975525
---
header: 
  seq: 1536899
  stamp: 
    secs: 1561683675
    nsecs: 563821677
  frame_id: "ti_mmwave"
point_id: 24
x: 2.8515625
y: -2.021484375
z: -3.025390625
range: 4.9241976738
velocity: 0.0
doppler_bin: 8
bearing: -35.3329849243
intensity: 27.4507484436
---
header: 
  seq: 1536900
  stamp: 
    secs: 1561683675
    nsecs: 564793443
  frame_id: "ti_mmwave"
point_id: 0
x: 0.01171875
y: -0.0390625
z: -0.0078125
range: 0.0435769706964
velocity: 0.0
doppler_bin: 8
bearing: -73.3007583618
intensity: 30.7700424194
---
header: 
  seq: 1536901
  stamp: 
    secs: 1561683675
    nsecs: 564863219
  frame_id: "ti_mmwave"
point_id: 1
x: 0.017578125
y: -0.080078125
z: -0.0078125
range: 0.0871539413929
velocity: 0.0
doppler_bin: 8
bearing: -77.6192398071
intensity: 32.0085067749
---
header: 
  seq: 1536902
  stamp: 
    secs: 1561683675
    nsecs: 564881647
  frame_id: "ti_mmwave"
point_id: 2
x: 0.029296875
y: -0.119140625
z: -0.005859375
range: 0.130730912089
velocity: 0.0
doppler_bin: 8
bearing: -76.1849746704
intensity: 30.2530593872
---
header: 
  seq: 1536903
  stamp: 
    secs: 1561683675
    nsecs: 564896639
  frame_id: "ti_mmwave"
point_id: 3
x: 0.056640625
y: -0.154296875
z: 0.005859375
range: 0.174307882786
velocity: 0.0
doppler_bin: 8
bearing: -69.8423843384
intensity: 25.5266819
---
header: 
  seq: 1536904
  stamp: 
    secs: 1561683675
    nsecs: 564915603
  frame_id: "ti_mmwave"
point_id: 4
x: 0.359375
y: -0.080078125
z: -1.212890625
range: 1.35088610649
velocity: 0.0
doppler_bin: 8
bearing: -12.5617752075
intensity: 21.9312458038
---
header: 
  seq: 1536905
  stamp: 
    secs: 1561683675
    nsecs: 564999230
  frame_id: "ti_mmwave"
point_id: 5
x: 0.267578125
y: -0.041015625
z: 1.28125
range: 1.39446306229
velocity: 0.0
doppler_bin: 8
bearing: -8.71473312378
intensity: 23.2633590698
---
header: 
  seq: 1536906
  stamp: 
    secs: 1561683675
    nsecs: 565015252
  frame_id: "ti_mmwave"
point_id: 6
x: 0.48046875
y: -0.04296875
z: 1.259765625
range: 1.43804001808
velocity: 0.0
doppler_bin: 8
bearing: -5.11041736603
intensity: 21.9312458038
---
header: 
  seq: 1536907
  stamp: 
    secs: 1561683675
    nsecs: 565030135
  frame_id: "ti_mmwave"
point_id: 7
x: 1.51953125
y: -0.146484375
z: -0.29296875
range: 1.65592491627
velocity: 0.0
doppler_bin: 8
bearing: -5.50635671616
intensity: 25.8771095276
---
header: 
  seq: 1536908
  stamp: 
    secs: 1561683675
    nsecs: 565043434
  frame_id: "ti_mmwave"
point_id: 8
x: 1.583984375
y: -0.099609375
z: -0.1640625
range: 1.69950187206
velocity: 0.0
doppler_bin: 8
bearing: -3.59832549095
intensity: 27.5127906799
---
header: 
  seq: 1536909
  stamp: 
    secs: 1561683675
    nsecs: 565058669
  frame_id: "ti_mmwave"
point_id: 9
x: 1.697265625
y: -0.107421875
z: -0.244140625
range: 1.83023273945
velocity: 0.0
doppler_bin: 8
bearing: -3.62148451805
intensity: 26.3648796082
---
header: 
  seq: 1536910
  stamp: 
    secs: 1561683675
    nsecs: 565072328
  frame_id: "ti_mmwave"
point_id: 10
x: 1.736328125
y: -0.109375
z: -0.2578125
range: 1.87380969524
velocity: 0.0
doppler_bin: 8
bearing: -3.60442066193
intensity: 28.2994670868
---
header: 
  seq: 1536911
  stamp: 
    secs: 1561683675
    nsecs: 565113490
  frame_id: "ti_mmwave"
point_id: 11
x: 1.76953125
y: -0.11328125
z: -0.3046875
range: 1.91738677025
velocity: 0.0
doppler_bin: 8
bearing: -3.66294336319
intensity: 27.0243053436
---
header: 
  seq: 1536912
  stamp: 
    secs: 1561683675
    nsecs: 565136140
  frame_id: "ti_mmwave"
point_id: 12
x: 2.541015625
y: -0.263671875
z: 1.19921875
range: 3.00681090355
velocity: 0.0
doppler_bin: 8
bearing: -5.92417097092
intensity: 29.4546852112
---
header: 
  seq: 1536913
  stamp: 
    secs: 1561683675
    nsecs: 565157781
  frame_id: "ti_mmwave"
point_id: 13
x: 2.603515625
y: -0.267578125
z: 1.1640625
range: 3.05038785934
velocity: 0.0
doppler_bin: 8
bearing: -5.8680100441
intensity: 32.7623214722
---
header: 
  seq: 1536914
  stamp: 
    secs: 1561683675
    nsecs: 565180127
  frame_id: "ti_mmwave"
point_id: 14
x: 2.662109375
y: -0.181640625
z: 1.14453125
range: 3.09396481514
velocity: 0.0
doppler_bin: 8
bearing: -3.90334677696
intensity: 31.9700469971
---
header: 
  seq: 1536915
  stamp: 
    secs: 1561683675
    nsecs: 565204851
  frame_id: "ti_mmwave"
point_id: 15
x: 4.412109375
y: -0.287109375
z: 1.203125
range: 4.88062095642
velocity: 0.0
doppler_bin: 8
bearing: -3.72316122055
intensity: 30.7700424194
---
header: 
  seq: 1536916
  stamp: 
    secs: 1561683675
    nsecs: 565227542
  frame_id: "ti_mmwave"
point_id: 16
x: 4.46484375
y: -0.2890625
z: 1.162109375
range: 4.9241976738
velocity: 0.0
doppler_bin: 8
bearing: -3.70426845551
intensity: 30.1241531372
---
header: 
  seq: 1536917
  stamp: 
    secs: 1561683675
    nsecs: 565251188
  frame_id: "ti_mmwave"
point_id: 17
x: 4.88671875
y: -0.30859375
z: 0.7265625
range: 5.27281332016
velocity: 0.0
doppler_bin: 8
bearing: -3.61340069771
intensity: 30.7040729523
---
header: 
  seq: 1536918
  stamp: 
    secs: 1561683675
    nsecs: 565276402
  frame_id: "ti_mmwave"
point_id: 19
x: 0.041015625
y: -0.033203125
z: 0.0625
range: 0.0871539413929
velocity: 0.0
doppler_bin: 8
bearing: -38.9909973145
intensity: 30.1703338623
---
header: 
  seq: 1536919
  stamp: 
    secs: 1561683675
    nsecs: 565427980
  frame_id: "ti_mmwave"
point_id: 20
x: 0.044921875
y: -0.046875
z: 0.103515625
range: 0.130730912089
velocity: 0.0
doppler_bin: 8
bearing: -46.218875885
intensity: 29.0741138458
---
header: 
  seq: 1536920
  stamp: 
    secs: 1561683675
    nsecs: 565448156
  frame_id: "ti_mmwave"
point_id: 22
x: 1.203125
y: 0.357421875
z: 0.177734375
range: 1.35088610649
velocity: 0.0
doppler_bin: 8
bearing: 16.5455226898
intensity: 19.0848503113
---
header: 
  seq: 1536921
  stamp: 
    secs: 1561683675
    nsecs: 565464819
  frame_id: "ti_mmwave"
point_id: 24
x: 2.91796875
y: -1.861328125
z: -3.001953125
range: 4.88062095642
velocity: 0.0
doppler_bin: 8
bearing: -32.5331878662
intensity: 27.7887439728
---
header: 
  seq: 1536922
  stamp: 
    secs: 1561683675
    nsecs: 565478460
  frame_id: "ti_mmwave"
point_id: 25
x: 2.916015625
y: -2.021484375
z: -2.9609375
range: 4.9241976738
velocity: 0.0
doppler_bin: 8
bearing: -34.7310562134
intensity: 27.3319721222
---
header: 
  seq: 1536923
  stamp: 
    secs: 1561683675
    nsecs: 623313504
  frame_id: "ti_mmwave"
point_id: 0
x: 0.01171875
y: -0.0390625
z: -0.0078125
range: 0.0435769706964
velocity: 0.0
doppler_bin: 8
bearing: -73.3007583618
intensity: 30.7736797333
---
header: 
  seq: 1536924
  stamp: 
    secs: 1561683675
    nsecs: 623425692
  frame_id: "ti_mmwave"
point_id: 1
x: 0.017578125
y: -0.080078125
z: -0.0078125
range: 0.0871539413929
velocity: 0.0
doppler_bin: 8
bearing: -77.6192398071
intensity: 32.0112380981
---
header: 
  seq: 1536925
  stamp: 
    secs: 1561683675
    nsecs: 623441558
  frame_id: "ti_mmwave"
point_id: 2
x: 0.029296875
y: -0.119140625
z: -0.005859375
range: 0.130730912089
velocity: 0.0
doppler_bin: 8
bearing: -76.1849746704
intensity: 30.2571544647
---
header: 
  seq: 1536926
  stamp: 
    secs: 1561683675
    nsecs: 623450856
  frame_id: "ti_mmwave"
point_id: 3
x: 0.056640625
y: -0.154296875
z: 0.005859375
range: 0.174307882786
velocity: 0.0
doppler_bin: 8
bearing: -69.8423843384
intensity: 25.550945282
---
header: 
  seq: 1536927
  stamp: 
    secs: 1561683675
    nsecs: 623461503
  frame_id: "ti_mmwave"
point_id: 4
x: 0.341796875
y: -0.080078125
z: -1.21875
range: 1.35088610649
velocity: 0.0
doppler_bin: 8
bearing: -13.1857614517
intensity: 21.9589958191
---
header: 
  seq: 1536928
  stamp: 
    secs: 1561683675
    nsecs: 623475288
  frame_id: "ti_mmwave"
point_id: 5
x: 0.27734375
y: -0.041015625
z: 1.279296875
range: 1.39446306229
velocity: 0.0
doppler_bin: 8
bearing: -8.41234493256
intensity: 23.2837963104
---
header: 
  seq: 1536929
  stamp: 
    secs: 1561683675
    nsecs: 623633812
  frame_id: "ti_mmwave"
point_id: 6
x: 0.474609375
y: -0.04296875
z: 1.263671875
range: 1.43804001808
velocity: 0.0
doppler_bin: 8
bearing: -5.17316865921
intensity: 21.9033164978
---
header: 
  seq: 1536930
  stamp: 
    secs: 1561683675
    nsecs: 623684358
  frame_id: "ti_mmwave"
point_id: 7
x: 2.54296875
y: -0.263671875
z: 1.1953125
range: 3.00681090355
velocity: 0.0
doppler_bin: 8
bearing: -5.91965341568
intensity: 29.4051647186
---
header: 
  seq: 1536931
  stamp: 
    secs: 1561683675
    nsecs: 623712834
  frame_id: "ti_mmwave"
point_id: 8
x: 2.60546875
y: -0.267578125
z: 1.158203125
range: 3.05038785934
velocity: 0.0
doppler_bin: 8
bearing: -5.86364221573
intensity: 32.7577171326
---
header: 
  seq: 1536932
  stamp: 
    secs: 1561683675
    nsecs: 623729841
  frame_id: "ti_mmwave"
point_id: 9
x: 2.66796875
y: -0.181640625
z: 1.130859375
range: 3.09396481514
velocity: 0.0
doppler_bin: 8
bearing: -3.89480042458
intensity: 31.9810695648
---
header: 
  seq: 1536933
  stamp: 
    secs: 1561683675
    nsecs: 623744478
  frame_id: "ti_mmwave"
point_id: 10
x: 4.416015625
y: -0.287109375
z: 1.185546875
range: 4.88062095642
velocity: 0.0
doppler_bin: 8
bearing: -3.71987724304
intensity: 30.9131507874
---
header: 
  seq: 1536934
  stamp: 
    secs: 1561683675
    nsecs: 623760317
  frame_id: "ti_mmwave"
point_id: 11
x: 4.466796875
y: -0.2890625
z: 1.154296875
range: 4.9241976738
velocity: 0.0
doppler_bin: 8
bearing: -3.70265316963
intensity: 30.3542976379
---
header: 
  seq: 1536935
  stamp: 
    secs: 1561683675
    nsecs: 623775382
  frame_id: "ti_mmwave"
point_id: 12
x: 4.88671875
y: -0.30859375
z: 0.73046875
range: 5.27281332016
velocity: 0.0
doppler_bin: 8
bearing: -3.61340069771
intensity: 30.5422992706
---
header: 
  seq: 1536936
  stamp: 
    secs: 1561683675
    nsecs: 623793842
  frame_id: "ti_mmwave"
point_id: 14
x: 0.041015625
y: -0.033203125
z: 0.0625
range: 0.0871539413929
velocity: 0.0
doppler_bin: 8
bearing: -38.9909973145
intensity: 30.1703338623
---
header: 
  seq: 1536937
  stamp: 
    secs: 1561683675
    nsecs: 623804770
  frame_id: "ti_mmwave"
point_id: 15
x: 0.044921875
y: -0.046875
z: 0.103515625
range: 0.130730912089
velocity: 0.0
doppler_bin: 8
bearing: -46.218875885
intensity: 29.0687351227
---
header: 
  seq: 1536938
  stamp: 
    secs: 1561683675
    nsecs: 623976721
  frame_id: "ti_mmwave"
point_id: 17
x: 1.1171875
y: -0.515625
z: 0.30859375
range: 1.35088610649
velocity: 0.0
doppler_bin: 8
bearing: -24.7751407623
intensity: 19.0848503113
---
header: 
  seq: 1536939
  stamp: 
    secs: 1561683675
    nsecs: 624006562
  frame_id: "ti_mmwave"
point_id: 18
x: 2.9140625
y: -2.021484375
z: -2.962890625
range: 4.9241976738
velocity: 0.0
doppler_bin: 8
bearing: -34.7490348816
intensity: 27.4193916321
---
header: 
  seq: 1536940
  stamp: 
    secs: 1561683675
    nsecs: 624692797
  frame_id: "ti_mmwave"
point_id: 0
x: 0.01171875
y: -0.0390625
z: -0.0078125
range: 0.0435769706964
velocity: 0.0
doppler_bin: 8
bearing: -73.3007583618
intensity: 30.7700424194
---
header: 
  seq: 1536941
  stamp: 
    secs: 1561683675
    nsecs: 624743570
  frame_id: "ti_mmwave"
point_id: 1
x: 0.017578125
y: -0.080078125
z: -0.0078125
range: 0.0871539413929
velocity: 0.0
doppler_bin: 8
bearing: -77.6192398071
intensity: 32.0112380981
---
header: 
  seq: 1536942
  stamp: 
    secs: 1561683675
    nsecs: 624765252
  frame_id: "ti_mmwave"
point_id: 2
x: 0.029296875
y: -0.119140625
z: -0.005859375
range: 0.130730912089
velocity: 0.0
doppler_bin: 8
bearing: -76.1849746704
intensity: 30.2571544647
---
header: 
  seq: 1536943
  stamp: 
    secs: 1561683675
    nsecs: 624787756
  frame_id: "ti_mmwave"
point_id: 3
x: 0.056640625
y: -0.154296875
z: 0.005859375
range: 0.174307882786
velocity: 0.0
doppler_bin: 8
bearing: -69.8423843384
intensity: 25.5388298035
---
header: 
  seq: 1536944
  stamp: 
    secs: 1561683675
    nsecs: 624815944
  frame_id: "ti_mmwave"
point_id: 4
x: 0.369140625
y: -0.080078125
z: -1.2109375
range: 1.35088610649
velocity: 0.0
doppler_bin: 8
bearing: -12.2396001816
intensity: 21.9865703583
---
header: 
  seq: 1536945
  stamp: 
    secs: 1561683675
    nsecs: 624889071
  frame_id: "ti_mmwave"
point_id: 5
x: 0.275390625
y: -0.041015625
z: 1.279296875
range: 1.39446306229
velocity: 0.0
doppler_bin: 8
bearing: -8.47114467621
intensity: 23.2837963104
---
header: 
  seq: 1536946
  stamp: 
    secs: 1561683675
    nsecs: 624909400
  frame_id: "ti_mmwave"
point_id: 6
x: 0.38671875
y: -0.0
z: 1.29296875
range: 1.43804001808
velocity: 0.0
doppler_bin: 8
bearing: -0.0
intensity: 21.875207901
---
header: 
  seq: 1536947
  stamp: 
    secs: 1561683675
    nsecs: 624926195
  frame_id: "ti_mmwave"
point_id: 7
x: 2.546875
y: -0.263671875
z: 1.189453125
range: 3.00681090355
velocity: 0.0
doppler_bin: 8
bearing: -5.91063833237
intensity: 29.4645233154
---
header: 
  seq: 1536948
  stamp: 
    secs: 1561683675
    nsecs: 624938229
  frame_id: "ti_mmwave"
point_id: 8
x: 2.59765625
y: -0.267578125
z: 1.173828125
range: 3.05038785934
velocity: 0.0
doppler_bin: 8
bearing: -5.88115358353
intensity: 32.7760925293
---
header: 
  seq: 1536949
  stamp: 
    secs: 1561683675
    nsecs: 624966599
  frame_id: "ti_mmwave"
point_id: 9
x: 2.654296875
y: -0.271484375
z: 1.1484375
range: 3.09396481514
velocity: 0.0
doppler_bin: 8
bearing: -5.83996629715
intensity: 31.9589958191
---
header: 
  seq: 1536950
  stamp: 
    secs: 1561683675
    nsecs: 625021668
  frame_id: "ti_mmwave"
point_id: 10
x: 4.4140625
y: -0.287109375
z: 1.193359375
range: 4.88062095642
velocity: 0.0
doppler_bin: 8
bearing: -3.72151875496
intensity: 30.8813610077
---
header: 
  seq: 1536951
  stamp: 
    secs: 1561683675
    nsecs: 625037741
  frame_id: "ti_mmwave"
point_id: 11
x: 4.470703125
y: -0.2890625
z: 1.140625
range: 4.9241976738
velocity: 0.0
doppler_bin: 8
bearing: -3.69942688942
intensity: 30.3702793121
---
header: 
  seq: 1536952
  stamp: 
    secs: 1561683675
    nsecs: 625049444
  frame_id: "ti_mmwave"
point_id: 12
x: 4.8828125
y: -0.30859375
z: 0.744140625
range: 5.27281332016
velocity: 0.0
doppler_bin: 8
bearing: -3.61628341675
intensity: 30.9482040405
---
header: 
  seq: 1536953
  stamp: 
    secs: 1561683675
    nsecs: 625067376
  frame_id: "ti_mmwave"
point_id: 14
x: 0.041015625
y: -0.033203125
z: 0.0625
range: 0.0871539413929
velocity: 0.0
doppler_bin: 8
bearing: -38.9909973145
intensity: 30.1745071411
---
header: 
  seq: 1536954
  stamp: 
    secs: 1561683675
    nsecs: 625078747
  frame_id: "ti_mmwave"
point_id: 15
x: 0.044921875
y: -0.046875
z: 0.103515625
range: 0.130730912089
velocity: 0.0
doppler_bin: 8
bearing: -46.218875885
intensity: 29.0687351227
---
header: 
  seq: 1536955
  stamp: 
    secs: 1561683675
    nsecs: 625138187
  frame_id: "ti_mmwave"
point_id: 17
x: 1.12109375
y: -0.474609375
z: 0.353515625
range: 1.35088610649
velocity: 0.0
doppler_bin: 8
bearing: -22.9451236725
intensity: 19.1381378174
---
header: 
  seq: 1536956
  stamp: 
    secs: 1561683675
    nsecs: 625155338
  frame_id: "ti_mmwave"
point_id: 18
x: 2.880859375
y: -2.021484375
z: -2.99609375
range: 4.9241976738
velocity: 0.0
doppler_bin: 8
bearing: -35.057144165
intensity: 27.4272518158
---
header: 
  seq: 1536957
  stamp: 
    secs: 1561683675
    nsecs: 683723048
  frame_id: "ti_mmwave"
point_id: 0
x: 0.01171875
y: -0.0390625
z: -0.0078125
range: 0.0435769706964
velocity: 0.0
doppler_bin: 8
bearing: -73.3007583618
intensity: 30.7664051056
---
header: 
  seq: 1536958
  stamp: 
    secs: 1561683675
    nsecs: 683854598
  frame_id: "ti_mmwave"
point_id: 1
x: 0.017578125
y: -0.080078125
z: -0.0078125
range: 0.0871539413929
velocity: 0.0
doppler_bin: 8
bearing: -77.6192398071
intensity: 32.0085067749
---
header: 
  seq: 1536959
  stamp: 
    secs: 1561683675
    nsecs: 683865918
  frame_id: "ti_mmwave"
point_id: 2
x: 0.029296875
y: -0.119140625
z: -0.005859375
range: 0.130730912089
velocity: 0.0
doppler_bin: 8
bearing: -76.1849746704
intensity: 30.2530593872
---
header: 
  seq: 1536960
  stamp: 
    secs: 1561683675
    nsecs: 683874519
  frame_id: "ti_mmwave"
point_id: 3
x: 0.056640625
y: -0.154296875
z: 0.005859375
range: 0.174307882786
velocity: 0.0
doppler_bin: 8
bearing: -69.8423843384
intensity: 25.5388298035
---
header: 
  seq: 1536961
  stamp: 
    secs: 1561683675
    nsecs: 683883105
  frame_id: "ti_mmwave"
point_id: 4
x: 0.359375
y: -0.080078125
z: -1.212890625
range: 1.35088610649
velocity: 0.0
doppler_bin: 8
bearing: -12.5617752075
intensity: 21.9865703583
---
header: 
  seq: 1536962
  stamp: 
    secs: 1561683675
    nsecs: 683894033
  frame_id: "ti_mmwave"
point_id: 5
x: 0.271484375
y: -0.041015625
z: 1.279296875
range: 1.39446306229
velocity: 0.0
doppler_bin: 8
bearing: -8.59122562408
intensity: 23.2837963104
---
header: 
  seq: 1536963
  stamp: 
    secs: 1561683675
    nsecs: 683903105
  frame_id: "ti_mmwave"
point_id: 6
x: 0.47265625
y: -0.04296875
z: 1.263671875
range: 1.43804001808
velocity: 0.0
doppler_bin: 8
bearing: -5.19442892075
intensity: 21.9033164978
---
header: 
  seq: 1536964
  stamp: 
    secs: 1561683675
    nsecs: 683911252
  frame_id: "ti_mmwave"
point_id: 7
x: 2.548828125
y: -0.263671875
z: 1.185546875
range: 3.00681090355
velocity: 0.0
doppler_bin: 8
bearing: -5.90614128113
intensity: 29.4250411987
---
header: 
  seq: 1536965
  stamp: 
    secs: 1561683675
    nsecs: 683919176
  frame_id: "ti_mmwave"
point_id: 8
x: 2.60546875
y: -0.267578125
z: 1.15625
range: 3.05038785934
velocity: 0.0
doppler_bin: 8
bearing: -5.86364221573
intensity: 32.7943878174
---
header: 
  seq: 1536966
  stamp: 
    secs: 1561683675
    nsecs: 683926722
  frame_id: "ti_mmwave"
point_id: 9
x: 2.662109375
y: -0.271484375
z: 1.126953125
range: 3.09396481514
velocity: 0.0
doppler_bin: 8
bearing: -5.82294607162
intensity: 32.0276069641
---
header: 
  seq: 1536967
  stamp: 
    secs: 1561683675
    nsecs: 683934852
  frame_id: "ti_mmwave"
point_id: 10
x: 4.4140625
y: -0.287109375
z: 1.189453125
range: 4.88062095642
velocity: 0.0
doppler_bin: 8
bearing: -3.72151875496
intensity: 30.9829750061
---
header: 
  seq: 1536968
  stamp: 
    secs: 1561683675
    nsecs: 683943071
  frame_id: "ti_mmwave"
point_id: 11
x: 4.470703125
y: -0.2890625
z: 1.138671875
range: 4.9241976738
velocity: 0.0
doppler_bin: 8
bearing: -3.69942688942
intensity: 30.4257545471
---
header: 
  seq: 1536969
  stamp: 
    secs: 1561683675
    nsecs: 683952652
  frame_id: "ti_mmwave"
point_id: 12
x: 4.859375
y: -0.46484375
z: 0.82421875
range: 5.27281332016
velocity: 0.0
doppler_bin: 8
bearing: -5.46423959732
intensity: 30.5192394257
---
header: 
  seq: 1536970
  stamp: 
    secs: 1561683675
    nsecs: 683963325
  frame_id: "ti_mmwave"
point_id: 14
x: 0.041015625
y: -0.033203125
z: 0.0625
range: 0.0871539413929
velocity: 0.0
doppler_bin: 8
bearing: -38.9909973145
intensity: 30.1703338623
---
header: 
  seq: 1536971
  stamp: 
    secs: 1561683675
    nsecs: 683973465
  frame_id: "ti_mmwave"
point_id: 15
x: 0.044921875
y: -0.046875
z: 0.103515625
range: 0.130730912089
velocity: 0.0
doppler_bin: 8
bearing: -46.218875885
intensity: 29.0633506775
---
header: 
  seq: 1536972
  stamp: 
    secs: 1561683675
    nsecs: 683996466
  frame_id: "ti_mmwave"
point_id: 17
x: 1.201171875
y: 0.357421875
z: 0.19140625
range: 1.35088610649
velocity: 0.0
doppler_bin: 8
bearing: 16.5709533691
intensity: 19.0308990479
---
header: 
  seq: 1536973
  stamp: 
    secs: 1561683675
    nsecs: 684006919
  frame_id: "ti_mmwave"
point_id: 18
x: 2.83203125
y: -2.021484375
z: -3.04296875
range: 4.9241976738
velocity: 0.0
doppler_bin: 8
bearing: -35.5189857483
intensity: 27.5050830841
---
header: 
  seq: 1536974
  stamp: 
    secs: 1561683675
    nsecs: 685180189
  frame_id: "ti_mmwave"
point_id: 0
x: 0.01171875
y: -0.0390625
z: -0.0078125
range: 0.0435769706964
velocity: 0.0
doppler_bin: 8
bearing: -73.3007583618
intensity: 30.788192749
---
header: 
  seq: 1536975
  stamp: 
    secs: 1561683675
    nsecs: 685244279
  frame_id: "ti_mmwave"
point_id: 1
x: 0.017578125
y: -0.080078125
z: -0.0078125
range: 0.0871539413929
velocity: 0.0
doppler_bin: 8
bearing: -77.6192398071
intensity: 32.0167007446
---
header: 
  seq: 1536976
  stamp: 
    secs: 1561683675
    nsecs: 685276177
  frame_id: "ti_mmwave"
point_id: 2
x: 0.029296875
y: -0.119140625
z: -0.005859375
range: 0.130730912089
velocity: 0.0
doppler_bin: 8
bearing: -76.1849746704
intensity: 30.2571544647
---
header: 
  seq: 1536977
  stamp: 
    secs: 1561683675
    nsecs: 685335022
  frame_id: "ti_mmwave"
point_id: 3
x: 0.056640625
y: -0.154296875
z: 0.005859375
range: 0.174307882786
velocity: 0.0
doppler_bin: 8
bearing: -69.8423843384
intensity: 25.5388298035
---
header: 
  seq: 1536978
  stamp: 
    secs: 1561683675
    nsecs: 685350901
  frame_id: "ti_mmwave"
point_id: 4
x: 0.36328125
y: -0.080078125
z: -1.212890625
range: 1.35088610649
velocity: 0.0
doppler_bin: 8
bearing: -12.4309225082
intensity: 21.9312458038
---
header: 
  seq: 1536979
  stamp: 
    secs: 1561683675
    nsecs: 685361002
  frame_id: "ti_mmwave"
point_id: 5
x: 0.2578125
y: -0.041015625
z: 1.283203125
range: 1.39446306229
velocity: 0.0
doppler_bin: 8
bearing: -9.03948307037
intensity: 23.2633590698
---
header: 
  seq: 1536980
  stamp: 
    secs: 1561683675
    nsecs: 685402710
  frame_id: "ti_mmwave"
point_id: 6
x: 0.474609375
y: -0.04296875
z: 1.263671875
range: 1.43804001808
velocity: 0.0
doppler_bin: 8
bearing: -5.17316865921
intensity: 21.9312458038
---
header: 
  seq: 1536981
  stamp: 
    secs: 1561683675
    nsecs: 685426171
  frame_id: "ti_mmwave"
point_id: 8
x: 1.59375
y: -0.05078125
z: 0.0078125
range: 1.69950187206
velocity: 0.0
doppler_bin: 8
bearing: -1.82498347759
intensity: 28.6272754669
---
header: 
  seq: 1536982
  stamp: 
    secs: 1561683675
    nsecs: 685447018
  frame_id: "ti_mmwave"
point_id: 9
x: 1.63671875
y: -0.0
z: 0.009765625
range: 1.74307882786
velocity: 0.0
doppler_bin: 8
bearing: -0.0
intensity: 28.4010601044
---
header: 
  seq: 1536983
  stamp: 
    secs: 1561683675
    nsecs: 685460081
  frame_id: "ti_mmwave"
point_id: 10
x: 1.67578125
y: -0.107421875
z: -0.359375
range: 1.83023273945
velocity: 0.0
doppler_bin: 8
bearing: -3.66778802872
intensity: 26.180480957
---
header: 
  seq: 1536984
  stamp: 
    secs: 1561683675
    nsecs: 685471556
  frame_id: "ti_mmwave"
point_id: 11
x: 1.71875
y: -0.109375
z: -0.353515625
range: 1.87380969524
velocity: 0.0
doppler_bin: 8
bearing: -3.64118528366
intensity: 28.2085800171
---
header: 
  seq: 1536985
  stamp: 
    secs: 1561683675
    nsecs: 685492654
  frame_id: "ti_mmwave"
point_id: 12
x: 1.77734375
y: -0.0
z: -0.28515625
range: 1.91738677025
velocity: 0.0
doppler_bin: 8
bearing: -0.0
intensity: 27.4350967407
---
header: 
  seq: 1536986
  stamp: 
    secs: 1561683675
    nsecs: 685507182
  frame_id: "ti_mmwave"
point_id: 13
x: 2.544921875
y: -0.263671875
z: 1.189453125
range: 3.00681090355
velocity: 0.0
doppler_bin: 8
bearing: -5.91514253616
intensity: 29.4645233154
---
header: 
  seq: 1536987
  stamp: 
    secs: 1561683675
    nsecs: 685517864
  frame_id: "ti_mmwave"
point_id: 14
x: 2.6015625
y: -0.267578125
z: 1.1640625
range: 3.05038785934
velocity: 0.0
doppler_bin: 8
bearing: -5.87238502502
intensity: 32.8035087585
---
header: 
  seq: 1536988
  stamp: 
    secs: 1561683675
    nsecs: 685568577
  frame_id: "ti_mmwave"
point_id: 15
x: 2.66015625
y: -0.271484375
z: 1.1328125
range: 3.09396481514
velocity: 0.0
doppler_bin: 8
bearing: -5.82719182968
intensity: 32.0057678223
---
header: 
  seq: 1536989
  stamp: 
    secs: 1561683675
    nsecs: 685582921
  frame_id: "ti_mmwave"
point_id: 16
x: 4.4140625
y: -0.287109375
z: 1.19140625
range: 4.88062095642
velocity: 0.0
doppler_bin: 8
bearing: -3.72151875496
intensity: 30.8564720154
---
header: 
  seq: 1536990
  stamp: 
    secs: 1561683675
    nsecs: 685594534
  frame_id: "ti_mmwave"
point_id: 17
x: 4.47265625
y: -0.2890625
z: 1.1328125
range: 4.9241976738
velocity: 0.0
doppler_bin: 8
bearing: -3.6978161335
intensity: 30.2816448212
---
header: 
  seq: 1536991
  stamp: 
    secs: 1561683675
    nsecs: 685606446
  frame_id: "ti_mmwave"
point_id: 18
x: 4.875
y: -0.30859375
z: 0.802734375
range: 5.27281332016
velocity: 0.0
doppler_bin: 8
bearing: -3.62206339836
intensity: 30.1703338623
---
header: 
  seq: 1536992
  stamp: 
    secs: 1561683675
    nsecs: 685620575
  frame_id: "ti_mmwave"
point_id: 20
x: 0.041015625
y: -0.033203125
z: 0.0625
range: 0.0871539413929
velocity: 0.0
doppler_bin: 8
bearing: -38.9909973145
intensity: 30.1703338623
---
header: 
  seq: 1536993
  stamp: 
    secs: 1561683675
    nsecs: 685635013
  frame_id: "ti_mmwave"
point_id: 21
x: 0.044921875
y: -0.046875
z: 0.103515625
range: 0.130730912089
velocity: 0.0
doppler_bin: 8
bearing: -46.218875885
intensity: 29.0687351227
---
header: 
  seq: 1536994
  stamp: 
    secs: 1561683675
    nsecs: 685687263
  frame_id: "ti_mmwave"
point_id: 23
x: 1.12109375
y: -0.474609375
z: 0.35546875
range: 1.35088610649
velocity: 0.0
doppler_bin: 8
bearing: -22.9451236725
intensity: 18.9762706757
---
header: 
  seq: 1536995
  stamp: 
    secs: 1561683675
    nsecs: 685700605
  frame_id: "ti_mmwave"
point_id: 24
x: 1.552734375
y: -0.048828125
z: -0.04296875
range: 1.65592491627
velocity: 0.0
doppler_bin: 8
bearing: -1.80116057396
intensity: 25.2504482269
---
header: 
  seq: 1536996
  stamp: 
    secs: 1561683675
    nsecs: 685715568
  frame_id: "ti_mmwave"
point_id: 25
x: 2.8046875
y: -2.021484375
z: -3.068359375
range: 4.9241976738
velocity: 0.0
doppler_bin: 8
bearing: -35.7822532654
intensity: 27.4036273956
---
header: 
  seq: 1536997
  stamp: 
    secs: 1561683675
    nsecs: 743305040
  frame_id: "ti_mmwave"
point_id: 0
x: 0.01171875
y: -0.0390625
z: -0.0078125
range: 0.0435769706964
velocity: 0.0
doppler_bin: 8
bearing: -73.3007583618
intensity: 30.7736797333
---
header: 
  seq: 1536998
  stamp: 
    secs: 1561683675
    nsecs: 743411341
  frame_id: "ti_mmwave"
point_id: 1
x: 0.017578125
y: -0.080078125
z: -0.0078125
range: 0.0871539413929
velocity: 0.0
doppler_bin: 8
bearing: -77.6192398071
intensity: 32.0112380981
---
header: 
  seq: 1536999
  stamp: 
    secs: 1561683675
    nsecs: 743429949
  frame_id: "ti_mmwave"
point_id: 2
x: 0.029296875
y: -0.119140625
z: -0.005859375
range: 0.130730912089
velocity: 0.0
doppler_bin: 8
bearing: -76.1849746704
intensity: 30.2530593872
---
header: 
  seq: 1537000
  stamp: 
    secs: 1561683675
    nsecs: 743439132
  frame_id: "ti_mmwave"
point_id: 3
x: 0.056640625
y: -0.154296875
z: 0.005859375
range: 0.174307882786
velocity: 0.0
doppler_bin: 8
bearing: -69.8423843384
intensity: 25.5388298035
---
header: 
  seq: 1537001
  stamp: 
    secs: 1561683675
    nsecs: 743450132
  frame_id: "ti_mmwave"
point_id: 4
x: 0.361328125
y: -0.080078125
z: -1.212890625
range: 1.35088610649
velocity: 0.0
doppler_bin: 8
bearing: -12.4960107803
intensity: 21.9589958191
---
header: 
  seq: 1537002
  stamp: 
    secs: 1561683675
    nsecs: 743462444
  frame_id: "ti_mmwave"
point_id: 5
x: 0.291015625
y: -0.041015625
z: 1.275390625
range: 1.39446306229
velocity: 0.0
doppler_bin: 8
bearing: -8.02240371704
intensity: 23.2837963104
---
header: 
  seq: 1537003
  stamp: 
    secs: 1561683675
    nsecs: 743470914
  frame_id: "ti_mmwave"
point_id: 6
x: 0.47265625
y: -0.04296875
z: 1.263671875
range: 1.43804001808
velocity: 0.0
doppler_bin: 8
bearing: -5.19442892075
intensity: 21.9312458038
---
header: 
  seq: 1537004
  stamp: 
    secs: 1561683675
    nsecs: 743479539
  frame_id: "ti_mmwave"
point_id: 7
x: 1.6328125
y: -0.1015625
z: 0.04296875
range: 1.74307882786
velocity: 0.0
doppler_bin: 8
bearing: -3.55926680565
intensity: 28.2542610168
---
header: 
  seq: 1537005
  stamp: 
    secs: 1561683675
    nsecs: 743487831
  frame_id: "ti_mmwave"
point_id: 8
x: 1.7109375
y: 0.052734375
z: -0.15234375
range: 1.83023273945
velocity: 0.0
doppler_bin: 8
bearing: 1.765406847
intensity: 27.058637619
---
header: 
  seq: 1537006
  stamp: 
    secs: 1561683675
    nsecs: 743498507
  frame_id: "ti_mmwave"
point_id: 9
x: 1.75
y: 0.0546875
z: -0.162109375
range: 1.87380969524
velocity: 0.0
doppler_bin: 8
bearing: 1.7899106741
intensity: 29.863237381
---
header: 
  seq: 1537007
  stamp: 
    secs: 1561683675
    nsecs: 743662081
  frame_id: "ti_mmwave"
point_id: 10
x: 1.787109375
y: 0.056640625
z: -0.205078125
range: 1.91738677025
velocity: 0.0
doppler_bin: 8
bearing: 1.81532406807
intensity: 29.2941894531
---
header: 
  seq: 1537008
