header: 
  seq: 2959042
  stamp: 
    secs: 1561685918
    nsecs: 932418576
  frame_id: "ti_mmwave"
point_id: 0
x: 0.01171875
y: -0.0390625
z: -0.0078125
range: 0.0435769706964
velocity: 0.0
doppler_bin: 8
bearing: -73.3007583618
intensity: 30.7554702759
---
header: 
  seq: 2959043
  stamp: 
    secs: 1561685918
    nsecs: 932525511
  frame_id: "ti_mmwave"
point_id: 1
x: 0.017578125
y: -0.080078125
z: -0.0078125
range: 0.0871539413929
velocity: 0.0
doppler_bin: 8
bearing: -77.6192398071
intensity: 31.9975509644
---
header: 
  seq: 2959044
  stamp: 
    secs: 1561685918
    nsecs: 932550212
  frame_id: "ti_mmwave"
point_id: 2
x: 0.029296875
y: -0.119140625
z: -0.00390625
range: 0.130730912089
velocity: 0.0
doppler_bin: 8
bearing: -76.1849746704
intensity: 30.2284069061
---
header: 
  seq: 2959045
  stamp: 
    secs: 1561685918
    nsecs: 932562855
  frame_id: "ti_mmwave"
point_id: 3
x: 0.056640625
y: -0.154296875
z: 0.005859375
range: 0.174307882786
velocity: 0.0
doppler_bin: 8
bearing: -69.8423843384
intensity: 25.5266819
---
header: 
  seq: 2959046
  stamp: 
    secs: 1561685918
    nsecs: 932578544
  frame_id: "ti_mmwave"
point_id: 4
x: 0.3359375
y: -0.080078125
z: -1.220703125
range: 1.35088610649
velocity: 0.0
doppler_bin: 8
bearing: -13.4075088501
intensity: 22.0139713287
---
header: 
  seq: 2959047
  stamp: 
    secs: 1561685918
    nsecs: 932592123
  frame_id: "ti_mmwave"
point_id: 5
x: 0.310546875
y: -0.041015625
z: 1.271484375
range: 1.39446306229
velocity: 0.0
doppler_bin: 8
bearing: -7.52382040024
intensity: 23.3041381836
---
header: 
  seq: 2959048
  stamp: 
    secs: 1561685918
    nsecs: 932607056
  frame_id: "ti_mmwave"
point_id: 6
x: 0.44140625
y: -0.0
z: 1.275390625
range: 1.43804001808
velocity: 0.0
doppler_bin: 8
bearing: -0.0
intensity: 21.9589958191
---
header: 
  seq: 2959049
  stamp: 
    secs: 1561685918
    nsecs: 932657143
  frame_id: "ti_mmwave"
point_id: 7
x: 1.716796875
y: -0.0
z: -0.076171875
range: 1.83023273945
velocity: 0.0
doppler_bin: 8
bearing: -0.0
intensity: 28.312297821
---
header: 
  seq: 2959050
  stamp: 
    secs: 1561685918
    nsecs: 932675390
  frame_id: "ti_mmwave"
point_id: 8
x: 1.7578125
y: -0.0
z: -0.0625
range: 1.87380969524
velocity: 0.0
doppler_bin: 8
bearing: -0.0
intensity: 31.2123146057
---
header: 
  seq: 2959051
  stamp: 
    secs: 1561685918
    nsecs: 932687189
  frame_id: "ti_mmwave"
point_id: 9
x: 1.798828125
y: 0.056640625
z: -0.052734375
range: 1.91738677025
velocity: 0.0
doppler_bin: 8
bearing: 1.8035056591
intensity: 30.6370849609
---
header: 
  seq: 2959052
  stamp: 
    secs: 1561685918
    nsecs: 932864962
  frame_id: "ti_mmwave"
point_id: 10
x: 1.837890625
y: 0.056640625
z: 0.09765625
range: 1.96096372604
velocity: 0.0
doppler_bin: 8
bearing: 1.76519858837
intensity: 26.1595001221
---
header: 
  seq: 2959053
  stamp: 
    secs: 1561685918
    nsecs: 932888086
  frame_id: "ti_mmwave"
point_id: 11
x: 2.5390625
y: -0.263671875
z: 1.203125
range: 3.00681090355
velocity: 0.0
doppler_bin: 8
bearing: -5.92869567871
intensity: 29.2634239197
---
header: 
  seq: 2959054
  stamp: 
    secs: 1561685918
    nsecs: 932897715
  frame_id: "ti_mmwave"
point_id: 12
x: 2.6015625
y: -0.267578125
z: 1.166015625
range: 3.05038785934
velocity: 0.0
doppler_bin: 8
bearing: -5.87238502502
intensity: 32.7091178894
---
header: 
  seq: 2959055
  stamp: 
    secs: 1561685918
    nsecs: 932909170
  frame_id: "ti_mmwave"
point_id: 13
x: 2.6640625
y: -0.181640625
z: 1.142578125
range: 3.09396481514
velocity: 0.0
doppler_bin: 8
bearing: -3.90049386024
intensity: 32.0030326843
---
header: 
  seq: 2959056
  stamp: 
    secs: 1561685918
    nsecs: 932917765
  frame_id: "ti_mmwave"
point_id: 14
x: 4.38671875
y: -0.287109375
z: 1.291015625
range: 4.88062095642
velocity: 0.0
doppler_bin: 8
bearing: -3.74464988708
intensity: 30.2612457275
---
header: 
  seq: 2959057
  stamp: 
    secs: 1561685918
    nsecs: 932923498
  frame_id: "ti_mmwave"
point_id: 15
x: 4.412109375
y: -0.2890625
z: 1.34765625
range: 4.9241976738
velocity: 0.0
doppler_bin: 8
bearing: -3.74841666222
intensity: 30.0
---
header: 
  seq: 2959058
  stamp: 
    secs: 1561685918
    nsecs: 932953015
  frame_id: "ti_mmwave"
point_id: 17
x: 0.041015625
y: -0.033203125
z: 0.0625
range: 0.0871539413929
velocity: 0.0
doppler_bin: 8
bearing: -38.9909973145
intensity: 30.1619739532
---
header: 
  seq: 2959059
  stamp: 
    secs: 1561685918
    nsecs: 932971306
  frame_id: "ti_mmwave"
point_id: 18
x: 0.044921875
y: -0.046875
z: 0.103515625
range: 0.130730912089
velocity: 0.0
doppler_bin: 8
bearing: -46.218875885
intensity: 29.0741138458
---
header: 
  seq: 2959060
  stamp: 
    secs: 1561685918
    nsecs: 932981806
  frame_id: "ti_mmwave"
point_id: 20
x: 1.212890625
y: 0.357421875
z: 0.095703125
range: 1.35088610649
velocity: 0.0
doppler_bin: 8
bearing: 16.419506073
intensity: 19.3951931
---
header: 
  seq: 2959061
  stamp: 
    secs: 1561685918
    nsecs: 934011205
  frame_id: "ti_mmwave"
point_id: 0
x: 0.01171875
y: -0.0390625
z: -0.0078125
range: 0.0435769706964
velocity: 0.0
doppler_bin: 8
bearing: -73.3007583618
intensity: 30.7591171265
---
header: 
  seq: 2959062
  stamp: 
    secs: 1561685918
    nsecs: 934084391
  frame_id: "ti_mmwave"
point_id: 1
x: 0.017578125
y: -0.080078125
z: -0.0078125
range: 0.0871539413929
velocity: 0.0
doppler_bin: 8
bearing: -77.6192398071
intensity: 31.9975509644
---
header: 
  seq: 2959063
  stamp: 
    secs: 1561685918
    nsecs: 934105730
  frame_id: "ti_mmwave"
point_id: 2
x: 0.029296875
y: -0.119140625
z: -0.00390625
range: 0.130730912089
velocity: 0.0
doppler_bin: 8
bearing: -76.1849746704
intensity: 30.2242832184
---
header: 
  seq: 2959064
  stamp: 
    secs: 1561685918
    nsecs: 934119667
  frame_id: "ti_mmwave"
point_id: 3
x: 0.056640625
y: -0.154296875
z: 0.005859375
range: 0.174307882786
velocity: 0.0
doppler_bin: 8
bearing: -69.8423843384
intensity: 25.5266819
---
header: 
  seq: 2959065
  stamp: 
    secs: 1561685918
    nsecs: 934221278
  frame_id: "ti_mmwave"
point_id: 4
x: 0.326171875
y: -0.080078125
z: -1.22265625
range: 1.35088610649
velocity: 0.0
doppler_bin: 8
bearing: -13.7938089371
intensity: 22.0412006378
---
header: 
  seq: 2959066
  stamp: 
    secs: 1561685918
    nsecs: 934251976
  frame_id: "ti_mmwave"
point_id: 5
x: 0.306640625
y: -0.041015625
z: 1.271484375
range: 1.39446306229
velocity: 0.0
doppler_bin: 8
bearing: -7.6185464859
intensity: 23.3041381836
---
header: 
  seq: 2959067
  stamp: 
    secs: 1561685918
    nsecs: 934267355
  frame_id: "ti_mmwave"
point_id: 6
x: 0.400390625
y: -0.0
z: 1.2890625
range: 1.43804001808
velocity: 0.0
doppler_bin: 8
bearing: -0.0
intensity: 21.9865703583
---
header: 
  seq: 2959068
  stamp: 
    secs: 1561685918
    nsecs: 934281243
  frame_id: "ti_mmwave"
point_id: 7
x: 1.712890625
y: -0.052734375
z: -0.115234375
range: 1.83023273945
velocity: 0.0
doppler_bin: 8
bearing: -1.76339519024
intensity: 28.3947811127
---
header: 
  seq: 2959069
  stamp: 
    secs: 1561685918
    nsecs: 934294467
  frame_id: "ti_mmwave"
point_id: 8
x: 1.75390625
y: -0.0546875
z: -0.11328125
range: 1.87380969524
velocity: 0.0
doppler_bin: 8
bearing: -1.78592669964
intensity: 32.1431388855
---
header: 
  seq: 2959070
  stamp: 
    secs: 1561685918
    nsecs: 934326355
  frame_id: "ti_mmwave"
point_id: 9
x: 1.791015625
y: -0.11328125
z: -0.1484375
range: 1.91738677025
velocity: 0.0
doppler_bin: 8
bearing: -3.61912178993
intensity: 31.9645252228
---
header: 
  seq: 2959071
  stamp: 
    secs: 1561685918
    nsecs: 934349506
  frame_id: "ti_mmwave"
point_id: 10
x: 1.8125
y: -0.171875
z: -0.26953125
range: 1.96096372604
velocity: 0.0
doppler_bin: 8
bearing: -5.41702222824
intensity: 28.350561142
---
header: 
  seq: 2959072
  stamp: 
    secs: 1561685918
    nsecs: 934435663
  frame_id: "ti_mmwave"
point_id: 11
x: 2.548828125
y: -0.263671875
z: 1.181640625
range: 3.00681090355
velocity: 0.0
doppler_bin: 8
bearing: -5.90614128113
intensity: 29.4101428986
---
header: 
  seq: 2959073
  stamp: 
    secs: 1561685918
    nsecs: 934449731
  frame_id: "ti_mmwave"
point_id: 12
x: 2.603515625
y: -0.267578125
z: 1.162109375
range: 3.05038785934
velocity: 0.0
doppler_bin: 8
bearing: -5.8680100441
intensity: 32.7623214722
---
header: 
  seq: 2959074
  stamp: 
    secs: 1561685918
    nsecs: 934461441
  frame_id: "ti_mmwave"
point_id: 13
x: 2.662109375
y: -0.181640625
z: 1.1484375
range: 3.09396481514
velocity: 0.0
doppler_bin: 8
bearing: -3.90334677696
intensity: 31.9728050232
---
header: 
  seq: 2959075
  stamp: 
    secs: 1561685918
    nsecs: 934481024
  frame_id: "ti_mmwave"
point_id: 15
x: 0.041015625
y: -0.033203125
z: 0.0625
range: 0.0871539413929
velocity: 0.0
doppler_bin: 8
bearing: -38.9909973145
intensity: 30.1703338623
---
header: 
  seq: 2959076
  stamp: 
    secs: 1561685918
    nsecs: 934496015
  frame_id: "ti_mmwave"
point_id: 16
x: 0.044921875
y: -0.046875
z: 0.103515625
range: 0.130730912089
velocity: 0.0
doppler_bin: 8
bearing: -46.218875885
intensity: 29.0741138458
---
header: 
  seq: 2959077
  stamp: 
    secs: 1561685918
    nsecs: 934512141
  frame_id: "ti_mmwave"
point_id: 18
x: 1.21484375
y: 0.357421875
z: 0.05859375
range: 1.35088610649
velocity: 0.0
doppler_bin: 8
bearing: 16.3945274353
intensity: 19.3449840546
---
header: 
  seq: 2959078
  stamp: 
    secs: 1561685918
    nsecs: 992379016
  frame_id: "ti_mmwave"
point_id: 0
x: 0.01171875
y: -0.0390625
z: -0.0078125
range: 0.0435769706964
velocity: 0.0
doppler_bin: 8
bearing: -73.3007583618
intensity: 30.7518177032
---
header: 
  seq: 2959079
  stamp: 
    secs: 1561685918
    nsecs: 992447146
  frame_id: "ti_mmwave"
point_id: 1
x: 0.017578125
y: -0.080078125
z: -0.0078125
range: 0.0871539413929
velocity: 0.0
doppler_bin: 8
bearing: -77.6192398071
intensity: 31.994808197
---
header: 
  seq: 2959080
  stamp: 
    secs: 1561685918
    nsecs: 992458183
  frame_id: "ti_mmwave"
point_id: 2
x: 0.029296875
y: -0.119140625
z: -0.00390625
range: 0.130730912089
velocity: 0.0
doppler_bin: 8
bearing: -76.1849746704
intensity: 30.2284069061
---
header: 
  seq: 2959081
  stamp: 
    secs: 1561685918
    nsecs: 992466770
  frame_id: "ti_mmwave"
point_id: 3
x: 0.056640625
y: -0.154296875
z: 0.0078125
range: 0.174307882786
velocity: 0.0
doppler_bin: 8
bearing: -69.8423843384
intensity: 25.5266819
---
header: 
  seq: 2959082
  stamp: 
    secs: 1561685918
    nsecs: 992479910
  frame_id: "ti_mmwave"
point_id: 4
x: 0.40625
y: -0.080078125
z: -1.19921875
range: 1.35088610649
velocity: 0.0
doppler_bin: 8
bearing: -11.1509256363
intensity: 22.0412006378
---
header: 
  seq: 2959083
  stamp: 
    secs: 1561685918
    nsecs: 992487988
  frame_id: "ti_mmwave"
point_id: 5
x: 0.2578125
y: -0.041015625
z: 1.283203125
range: 1.39446306229
velocity: 0.0
doppler_bin: 8
bearing: -9.03948307037
intensity: 23.3243846893
---
header: 
  seq: 2959084
  stamp: 
    secs: 1561685918
    nsecs: 992496440
  frame_id: "ti_mmwave"
point_id: 6
x: 0.39453125
y: -0.0
z: 1.291015625
range: 1.43804001808
velocity: 0.0
doppler_bin: 8
bearing: -0.0
intensity: 21.9589958191
---
header: 
  seq: 2959085
  stamp: 
    secs: 1561685918
    nsecs: 992504850
  frame_id: "ti_mmwave"
point_id: 7
x: 1.75390625
y: -0.0546875
z: -0.12109375
range: 1.87380969524
velocity: 0.0
doppler_bin: 8
bearing: -1.78592669964
intensity: 29.8272342682
---
header: 
  seq: 2959086
  stamp: 
    secs: 1561685918
    nsecs: 992512868
  frame_id: "ti_mmwave"
point_id: 8
x: 1.78515625
y: -0.056640625
z: -0.220703125
range: 1.91738677025
velocity: 0.0
doppler_bin: 8
bearing: -1.81730902195
intensity: 31.119342804
---
header: 
  seq: 2959087
  stamp: 
    secs: 1561685918
    nsecs: 992520937
  frame_id: "ti_mmwave"
point_id: 9
x: 1.810546875
y: -0.115234375
z: -0.31640625
range: 1.96096372604
velocity: 0.0
doppler_bin: 8
bearing: -3.64174461365
intensity: 29.6941585541
---
header: 
  seq: 2959088
  stamp: 
    secs: 1561685918
    nsecs: 992674937
  frame_id: "ti_mmwave"
point_id: 10
x: 2.5703125
y: -0.263671875
z: 1.13671875
range: 3.00681090355
velocity: 0.0
doppler_bin: 8
bearing: -5.85711812973
intensity: 29.3196620941
---
header: 
  seq: 2959089
  stamp: 
    secs: 1561685918
    nsecs: 992693508
  frame_id: "ti_mmwave"
point_id: 11
x: 2.615234375
y: -0.267578125
z: 1.13671875
range: 3.05038785934
velocity: 0.0
doppler_bin: 8
bearing: -5.84189844131
intensity: 32.7508087158
---
header: 
  seq: 2959090
  stamp: 
    secs: 1561685918
    nsecs: 992702076
  frame_id: "ti_mmwave"
point_id: 12
x: 2.66796875
y: -0.181640625
z: 1.134765625
range: 3.09396481514
velocity: 0.0
doppler_bin: 8
bearing: -3.89480042458
intensity: 32.0248832703
---
header: 
  seq: 2959091
  stamp: 
    secs: 1561685918
    nsecs: 992711222
  frame_id: "ti_mmwave"
point_id: 13
x: 1.642578125
y: -0.052734375
z: 0.333984375
range: 1.78665578365
velocity: 0.614668667316
doppler_bin: 9
bearing: -1.8388286829
intensity: 27.1180725098
---
header: 
  seq: 2959092
  stamp: 
    secs: 1561685918
    nsecs: 992719725
  frame_id: "ti_mmwave"
point_id: 14
x: 1.6796875
y: -0.107421875
z: 0.34765625
range: 1.83023273945
velocity: 0.614668667316
doppler_bin: 9
bearing: -3.65928149223
intensity: 27.9309158325
---
header: 
  seq: 2959093
  stamp: 
    secs: 1561685918
    nsecs: 992730986
  frame_id: "ti_mmwave"
point_id: 16
x: 0.041015625
y: -0.033203125
z: 0.0625
range: 0.0871539413929
velocity: 0.0
doppler_bin: 8
bearing: -38.9909973145
intensity: 30.157787323
---
header: 
  seq: 2959094
  stamp: 
    secs: 1561685918
    nsecs: 992739449
  frame_id: "ti_mmwave"
point_id: 17
x: 0.044921875
y: -0.046875
z: 0.103515625
range: 0.130730912089
velocity: 0.0
doppler_bin: 8
bearing: -46.218875885
intensity: 29.0687351227
---
header: 
  seq: 2959095
  stamp: 
    secs: 1561685918
    nsecs: 992749396
  frame_id: "ti_mmwave"
point_id: 19
x: 1.21484375
y: 0.357421875
z: 0.07421875
range: 1.35088610649
velocity: 0.0
doppler_bin: 8
bearing: 16.3945274353
intensity: 19.3951931
---
header: 
  seq: 2959096
  stamp: 
    secs: 1561685918
    nsecs: 993546440
  frame_id: "ti_mmwave"
point_id: 0
x: 0.01171875
y: -0.0390625
z: -0.0078125
range: 0.0435769706964
velocity: 0.0
doppler_bin: 8
bearing: -73.3007583618
intensity: 30.7554702759
---
header: 
  seq: 2959097
  stamp: 
    secs: 1561685918
    nsecs: 993604051
  frame_id: "ti_mmwave"
point_id: 1
x: 0.017578125
y: -0.080078125
z: -0.0078125
range: 0.0871539413929
velocity: 0.0
doppler_bin: 8
bearing: -77.6192398071
intensity: 31.994808197
---
header: 
  seq: 2959098
  stamp: 
    secs: 1561685918
    nsecs: 993622751
  frame_id: "ti_mmwave"
point_id: 2
x: 0.029296875
y: -0.119140625
z: -0.00390625
range: 0.130730912089
velocity: 0.0
doppler_bin: 8
bearing: -76.1849746704
intensity: 30.2242832184
---
header: 
  seq: 2959099
  stamp: 
    secs: 1561685918
    nsecs: 993635297
  frame_id: "ti_mmwave"
point_id: 3
x: 0.056640625
y: -0.154296875
z: 0.005859375
range: 0.174307882786
velocity: 0.0
doppler_bin: 8
bearing: -69.8423843384
intensity: 25.5266819
---
header: 
  seq: 2959100
  stamp: 
    secs: 1561685918
    nsecs: 993646904
  frame_id: "ti_mmwave"
point_id: 4
x: 0.37109375
y: -0.080078125
z: -1.2109375
range: 1.35088610649
velocity: 0.0
doppler_bin: 8
bearing: -12.177107811
intensity: 22.0412006378
---
header: 
  seq: 2959101
  stamp: 
    secs: 1561685918
    nsecs: 993657271
  frame_id: "ti_mmwave"
point_id: 5
x: 0.283203125
y: -0.041015625
z: 1.27734375
range: 1.39446306229
velocity: 0.0
doppler_bin: 8
bearing: -8.24071216583
intensity: 23.3243846893
---
header: 
  seq: 2959102
  stamp: 
    secs: 1561685918
    nsecs: 993665427
  frame_id: "ti_mmwave"
point_id: 6
x: 0.41015625
y: -0.0
z: 1.287109375
range: 1.43804001808
velocity: 0.0
doppler_bin: 8
bearing: -0.0
intensity: 21.9865703583
---
header: 
  seq: 2959103
  stamp: 
    secs: 1561685918
    nsecs: 993673569
  frame_id: "ti_mmwave"
point_id: 7
x: 1.78515625
y: -0.224609375
z: -0.021484375
range: 1.91738677025
velocity: 0.0
doppler_bin: 8
bearing: -7.17130327225
intensity: 27.9657440186
---
header: 
  seq: 2959104
  stamp: 
    secs: 1561685918
    nsecs: 993681600
  frame_id: "ti_mmwave"
point_id: 8
x: 2.517578125
y: -0.263671875
z: 1.248046875
range: 3.00681090355
velocity: 0.0
doppler_bin: 8
bearing: -5.97892427444
intensity: 29.4497585297
---
header: 
  seq: 2959105
  stamp: 
    secs: 1561685918
    nsecs: 993700558
  frame_id: "ti_mmwave"
point_id: 9
x: 2.591796875
y: -0.267578125
z: 1.1875
range: 3.05038785934
velocity: 0.0
doppler_bin: 8
bearing: -5.89435625076
intensity: 32.7461967468
---
header: 
  seq: 2959106
  stamp: 
    secs: 1561685918
    nsecs: 993708622
  frame_id: "ti_mmwave"
point_id: 10
x: 2.65625
y: -0.181640625
z: 1.158203125
range: 3.09396481514
velocity: 0.0
doppler_bin: 8
bearing: -3.91193032265
intensity: 31.9562301636
---
header: 
  seq: 2959107
  stamp: 
    secs: 1561685918
    nsecs: 993718289
  frame_id: "ti_mmwave"
point_id: 12
x: 0.041015625
y: -0.033203125
z: 0.0625
range: 0.0871539413929
velocity: 0.0
doppler_bin: 8
bearing: -38.9909973145
intensity: 30.157787323
---
header: 
  seq: 2959108
  stamp: 
    secs: 1561685918
    nsecs: 993726252
  frame_id: "ti_mmwave"
point_id: 13
x: 0.044921875
y: -0.046875
z: 0.103515625
range: 0.130730912089
velocity: 0.0
doppler_bin: 8
bearing: -46.218875885
intensity: 29.0687351227
---
header: 
  seq: 2959109
  stamp: 
    secs: 1561685918
    nsecs: 993737124
  frame_id: "ti_mmwave"
point_id: 15
x: 1.21484375
y: 0.357421875
z: 0.076171875
range: 1.35088610649
velocity: 0.0
doppler_bin: 8
bearing: 16.3945274353
intensity: 19.3449840546
---
header: 
  seq: 2959110
  stamp: 
    secs: 1561685919
    nsecs:  52414918
  frame_id: "ti_mmwave"
point_id: 0
x: 0.01171875
y: -0.0390625
z: -0.0078125
range: 0.0435769706964
velocity: 0.0
doppler_bin: 8
bearing: -73.3007583618
intensity: 30.7554702759
---
header: 
  seq: 2959111
  stamp: 
    secs: 1561685919
    nsecs:  52501210
  frame_id: "ti_mmwave"
point_id: 1
x: 0.017578125
y: -0.080078125
z: -0.0078125
range: 0.0871539413929
velocity: 0.0
doppler_bin: 8
bearing: -77.6192398071
intensity: 31.9975509644
---
header: 
  seq: 2959112
  stamp: 
    secs: 1561685919
    nsecs:  52513658
  frame_id: "ti_mmwave"
point_id: 2
x: 0.029296875
y: -0.119140625
z: -0.00390625
range: 0.130730912089
velocity: 0.0
doppler_bin: 8
bearing: -76.1849746704
intensity: 30.2284069061
---
header: 
  seq: 2959113
  stamp: 
    secs: 1561685919
    nsecs:  52522272
  frame_id: "ti_mmwave"
point_id: 3
x: 0.056640625
y: -0.154296875
z: 0.005859375
range: 0.174307882786
velocity: 0.0
doppler_bin: 8
bearing: -69.8423843384
intensity: 25.5144996643
---
header: 
  seq: 2959114
  stamp: 
    secs: 1561685919
    nsecs:  52531368
  frame_id: "ti_mmwave"
point_id: 4
x: 0.345703125
y: -0.080078125
z: -1.216796875
range: 1.35088610649
velocity: 0.0
doppler_bin: 8
bearing: -13.0418901443
intensity: 21.9865703583
---
header: 
  seq: 2959115
  stamp: 
    secs: 1561685919
    nsecs:  52540173
  frame_id: "ti_mmwave"
point_id: 5
x: 0.3125
y: -0.041015625
z: 1.271484375
range: 1.39446306229
velocity: 0.0
doppler_bin: 8
bearing: -7.47732973099
intensity: 23.2837963104
---
header: 
  seq: 2959116
  stamp: 
    secs: 1561685919
    nsecs:  52548252
  frame_id: "ti_mmwave"
point_id: 6
x: 0.41796875
y: -0.0
z: 1.283203125
range: 1.43804001808
velocity: 0.0
doppler_bin: 8
bearing: -0.0
intensity: 21.9865703583
---
header: 
  seq: 2959117
  stamp: 
    secs: 1561685919
    nsecs:  52556752
  frame_id: "ti_mmwave"
point_id: 7
x: 1.751953125
y: -0.0546875
z: -0.134765625
range: 1.87380969524
velocity: 0.0
doppler_bin: 8
bearing: -1.78791642189
intensity: 28.767950058
---
header: 
  seq: 2959118
  stamp: 
    secs: 1561685919
    nsecs:  52569394
  frame_id: "ti_mmwave"
point_id: 8
x: 1.79296875
y: 0.056640625
z: 0.13671875
range: 1.91738677025
velocity: 0.0
doppler_bin: 8
bearing: 1.80939567089
intensity: 27.6342792511
---
header: 
  seq: 2959119
  stamp: 
    secs: 1561685919
    nsecs:  52673845
  frame_id: "ti_mmwave"
point_id: 9
x: 2.54296875
y: -0.263671875
z: 1.1953125
range: 3.00681090355
velocity: 0.0
doppler_bin: 8
bearing: -5.91965341568
intensity: 29.31457901
---
header: 
  seq: 2959120
  stamp: 
    secs: 1561685919
    nsecs:  52684038
  frame_id: "ti_mmwave"
point_id: 10
x: 2.599609375
y: -0.267578125
z: 1.169921875
range: 3.05038785934
velocity: 0.0
doppler_bin: 8
bearing: -5.87676620483
intensity: 32.7207374573
---
header: 
  seq: 2959121
  stamp: 
    secs: 1561685919
    nsecs:  52691867
  frame_id: "ti_mmwave"
point_id: 11
x: 2.66015625
y: -0.181640625
z: 1.15234375
range: 3.09396481514
velocity: 0.0
doppler_bin: 8
bearing: -3.90620398521
intensity: 31.9783172607
---
header: 
  seq: 2959122
  stamp: 
    secs: 1561685919
    nsecs:  52701356
  frame_id: "ti_mmwave"
point_id: 13
x: 0.041015625
y: -0.033203125
z: 0.0625
range: 0.0871539413929
velocity: 0.0
doppler_bin: 8
bearing: -38.9909973145
intensity: 30.1661548615
---
header: 
  seq: 2959123
  stamp: 
    secs: 1561685919
    nsecs:  52709336
  frame_id: "ti_mmwave"
point_id: 14
x: 0.044921875
y: -0.046875
z: 0.103515625
range: 0.130730912089
velocity: 0.0
doppler_bin: 8
bearing: -46.218875885
intensity: 29.0741138458
---
header: 
  seq: 2959124
  stamp: 
    secs: 1561685919
    nsecs:  52718654
  frame_id: "ti_mmwave"
point_id: 16
x: 1.212890625
y: 0.357421875
z: 0.103515625
range: 1.35088610649
velocity: 0.0
doppler_bin: 8
bearing: 16.419506073
intensity: 19.2941894531
---
header: 
  seq: 2959125
  stamp: 
    secs: 1561685919
    nsecs:  52727760
  frame_id: "ti_mmwave"
point_id: 17
x: 1.16015625
y: -0.5625
z: -1.255859375
range: 1.91738677025
velocity: 0.0
doppler_bin: 8
bearing: -25.866355896
intensity: 25.2374649048
---
header: 
  seq: 2959126
  stamp: 
    secs: 1561685919
    nsecs:  53763253
  frame_id: "ti_mmwave"
point_id: 0
x: 0.01171875
y: -0.0390625
z: -0.0078125
range: 0.0435769706964
velocity: 0.0
doppler_bin: 8
bearing: -73.3007583618
intensity: 30.7554702759
---
header: 
  seq: 2959127
  stamp: 
    secs: 1561685919
    nsecs:  53832145
  frame_id: "ti_mmwave"
point_id: 1
x: 0.017578125
y: -0.080078125
z: -0.0078125
range: 0.0871539413929
velocity: 0.0
doppler_bin: 8
bearing: -77.6192398071
intensity: 31.994808197
---
header: 
  seq: 2959128
  stamp: 
    secs: 1561685919
    nsecs:  53849974
  frame_id: "ti_mmwave"
point_id: 2
x: 0.029296875
y: -0.119140625
z: -0.00390625
range: 0.130730912089
velocity: 0.0
doppler_bin: 8
bearing: -76.1849746704
intensity: 30.2242832184
---
header: 
  seq: 2959129
  stamp: 
    secs: 1561685919
    nsecs:  53870255
  frame_id: "ti_mmwave"
point_id: 3
x: 0.056640625
y: -0.154296875
z: 0.005859375
range: 0.174307882786
velocity: 0.0
doppler_bin: 8
bearing: -69.8423843384
intensity: 25.5266819
---
header: 
  seq: 2959130
  stamp: 
    secs: 1561685919
    nsecs:  53928039
  frame_id: "ti_mmwave"
point_id: 4
x: 0.345703125
y: -0.080078125
z: -1.216796875
range: 1.35088610649
velocity: 0.0
doppler_bin: 8
bearing: -13.0418901443
intensity: 22.0682582855
---
header: 
  seq: 2959131
  stamp: 
    secs: 1561685919
    nsecs:  53943832
  frame_id: "ti_mmwave"
point_id: 5
x: 0.306640625
y: -0.041015625
z: 1.271484375
range: 1.39446306229
velocity: 0.0
doppler_bin: 8
bearing: -7.6185464859
intensity: 23.344537735
---
header: 
  seq: 2959132
  stamp: 
    secs: 1561685919
    nsecs:  53957343
  frame_id: "ti_mmwave"
point_id: 6
x: 0.42578125
y: -0.0
z: 1.28125
range: 1.43804001808
velocity: 0.0
doppler_bin: 8
bearing: -0.0
intensity: 21.9865703583
---
header: 
  seq: 2959133
  stamp: 
    secs: 1561685919
    nsecs:  53970764
  frame_id: "ti_mmwave"
point_id: 7
x: 1.7109375
y: -0.107421875
z: -0.123046875
range: 1.83023273945
velocity: 0.0
doppler_bin: 8
bearing: -3.59262180328
intensity: 28.182258606
---
header: 
  seq: 2959134
  stamp: 
    secs: 1561685919
    nsecs:  53983700
  frame_id: "ti_mmwave"
point_id: 8
x: 1.75
y: -0.0546875
z: -0.16796875
range: 1.87380969524
velocity: 0.0
doppler_bin: 8
bearing: -1.7899106741
intensity: 31.6286296844
---
header: 
  seq: 2959135
  stamp: 
    secs: 1561685919
    nsecs:  53995465
  frame_id: "ti_mmwave"
point_id: 9
x: 1.783203125
y: -0.056640625
z: -0.240234375
range: 1.91738677025
velocity: 0.0
doppler_bin: 8
bearing: -1.81929790974
intensity: 31.5198230743
---
header: 
  seq: 2959136
  stamp: 
    secs: 1561685919
    nsecs:  54039956
  frame_id: "ti_mmwave"
point_id: 10
x: 1.79296875
y: -0.0
z: -0.416015625
range: 1.96096372604
velocity: 0.0
doppler_bin: 8
bearing: -0.0
intensity: 29.2788333893
---
header: 
  seq: 2959137
  stamp: 
    secs: 1561685919
    nsecs:  54053997
  frame_id: "ti_mmwave"
point_id: 11
x: 1.857421875
y: -0.05859375
z: -0.298828125
range: 2.00454068184
velocity: 0.0
doppler_bin: 8
bearing: -1.80683863163
intensity: 28.4073314667
---
header: 
  seq: 2959138
  stamp: 
    secs: 1561685919
    nsecs:  54067455
  frame_id: "ti_mmwave"
point_id: 12
x: 1.896484375
y: -0.0
z: -0.314453125
range: 2.04811763763
velocity: 0.0
doppler_bin: 8
bearing: -0.0
intensity: 26.4836006165
---
header: 
  seq: 2959139
  stamp: 
    secs: 1561685919
    nsecs:  54093502
  frame_id: "ti_mmwave"
point_id: 13
x: 2.55078125
y: -0.263671875
z: 1.1796875
range: 3.00681090355
velocity: 0.0
doppler_bin: 8
bearing: -5.90165042877
intensity: 29.4792366028
---
header: 
  seq: 2959140
  stamp: 
    secs: 1561685919
    nsecs:  54115581
  frame_id: "ti_mmwave"
point_id: 14
x: 2.611328125
y: -0.267578125
z: 1.142578125
range: 3.05038785934
velocity: 0.0
doppler_bin: 8
bearing: -5.85057687759
intensity: 32.8533210754
---
header: 
  seq: 2959141
  stamp: 
    secs: 1561685919
    nsecs:  54137123
  frame_id: "ti_mmwave"
point_id: 15
x: 2.66796875
y: -0.181640625
z: 1.134765625
range: 3.09396481514
velocity: 0.0
doppler_bin: 8
bearing: -3.89480042458
intensity: 32.0897865295
---
header: 
  seq: 2959142
  stamp: 
    secs: 1561685919
    nsecs:  54161808
  frame_id: "ti_mmwave"
point_id: 17
x: 0.041015625
y: -0.033203125
z: 0.0625
range: 0.0871539413929
velocity: 0.0
doppler_bin: 8
bearing: -38.9909973145
intensity: 30.1661548615
---
header: 
  seq: 2959143
  stamp: 
    secs: 1561685919
    nsecs:  54309613
  frame_id: "ti_mmwave"
point_id: 18
x: 0.044921875
y: -0.046875
z: 0.103515625
range: 0.130730912089
velocity: 0.0
doppler_bin: 8
bearing: -46.218875885
intensity: 29.0687351227
---
header: 
  seq: 2959144
  stamp: 
    secs: 1561685919
    nsecs:  54339258
  frame_id: "ti_mmwave"
point_id: 20
x: 1.21484375
y: 0.357421875
z: 0.052734375
range: 1.35088610649
velocity: 0.0
doppler_bin: 8
bearing: 16.3945274353
intensity: 19.2427921295
---
header: 
  seq: 2959145
  stamp: 
    secs: 1561685919
    nsecs:  54352736
  frame_id: "ti_mmwave"
point_id: 21
x: 1.71484375
y: -0.0
z: -0.115234375
range: 1.83023273945
velocity: 0.0
doppler_bin: 8
bearing: -0.0
intensity: 28.1756534576
---
header: 
  seq: 2959146
  stamp: 
    secs: 1561685919
    nsecs: 112340688
  frame_id: "ti_mmwave"
point_id: 0
x: 0.01171875
y: -0.0390625
z: -0.0078125
range: 0.0435769706964
velocity: 0.0
doppler_bin: 8
bearing: -73.3007583618
intensity: 30.7591171265
---
header: 
  seq: 2959147
  stamp: 
    secs: 1561685919
    nsecs: 112482170
  frame_id: "ti_mmwave"
point_id: 1
x: 0.017578125
y: -0.080078125
z: -0.0078125
range: 0.0871539413929
velocity: 0.0
doppler_bin: 8
bearing: -77.6192398071
intensity: 31.9975509644
---
header: 
  seq: 2959148
  stamp: 
    secs: 1561685919
    nsecs: 112500304
  frame_id: "ti_mmwave"
point_id: 2
x: 0.029296875
y: -0.119140625
z: -0.00390625
range: 0.130730912089
velocity: 0.0
doppler_bin: 8
bearing: -76.1849746704
intensity: 30.2284069061
---
header: 
  seq: 2959149
  stamp: 
    secs: 1561685919
    nsecs: 112518211
  frame_id: "ti_mmwave"
point_id: 3
x: 0.056640625
y: -0.154296875
z: 0.0078125
range: 0.174307882786
velocity: 0.0
doppler_bin: 8
bearing: -69.8423843384
intensity: 25.5266819
---
header: 
  seq: 2959150
  stamp: 
    secs: 1561685919
    nsecs: 112532013
  frame_id: "ti_mmwave"
point_id: 4
x: 0.376953125
y: -0.080078125
z: -1.208984375
range: 1.35088610649
velocity: 0.0
doppler_bin: 8
bearing: -11.9933481216
intensity: 22.0682582855
---
header: 
  seq: 2959151
  stamp: 
    secs: 1561685919
    nsecs: 112548555
  frame_id: "ti_mmwave"
point_id: 5
x: 0.26953125
y: -0.041015625
z: 1.28125
range: 1.39446306229
velocity: 0.0
doppler_bin: 8
bearing: -8.65254211426
intensity: 23.3243846893
---
header: 
  seq: 2959152
  stamp: 
    secs: 1561685919
    nsecs: 112561815
  frame_id: "ti_mmwave"
point_id: 6
x: 0.388671875
y: -0.0
z: 1.29296875
range: 1.43804001808
velocity: 0.0
doppler_bin: 8
bearing: -0.0
intensity: 21.9589958191
---
header: 
  seq: 2959153
  stamp: 
    secs: 1561685919
    nsecs: 112576271
  frame_id: "ti_mmwave"
point_id: 7
x: 1.693359375
y: -0.109375
z: -0.458984375
range: 1.87380969524
velocity: 0.0
doppler_bin: 8
bearing: -3.69563174248
intensity: 26.9196510315
---
header: 
  seq: 2959154
  stamp: 
    secs: 1561685919
    nsecs: 112590747
  frame_id: "ti_mmwave"
point_id: 8
x: 1.75
y: -0.224609375
z: -0.357421875
range: 1.91738677025
velocity: 0.0
doppler_bin: 8
bearing: -7.3138256073
intensity: 28.0753498077
---
header: 
  seq: 2959155
  stamp: 
    secs: 1561685919
    nsecs: 112622599
  frame_id: "ti_mmwave"
point_id: 9
x: 1.8046875
y: -0.287109375
z: -0.220703125
range: 1.96096372604
velocity: 0.0
doppler_bin: 8
bearing: -9.03948307037
intensity: 27.4973640442
---
header: 
  seq: 2959156
  stamp: 
    secs: 1561685919
    nsecs: 112637730
  frame_id: "ti_mmwave"
point_id: 10
x: 2.541015625
y: -0.263671875
z: 1.19921875
range: 3.00681090355
velocity: 0.0
doppler_bin: 8
bearing: -5.92417097092
intensity: 29.5375976562
---
header: 
  seq: 2959157
  stamp: 
    secs: 1561685919
    nsecs: 112653164
  frame_id: "ti_mmwave"
point_id: 11
x: 2.599609375
y: -0.267578125
z: 1.169921875
range: 3.05038785934
velocity: 0.0
doppler_bin: 8
bearing: -5.87676620483
intensity: 32.8262214661
---
header: 
  seq: 2959158
  stamp: 
    secs: 1561685919
    nsecs: 112666202
  frame_id: "ti_mmwave"
point_id: 12
x: 2.66015625
y: -0.181640625
z: 1.15234375
range: 3.09396481514
velocity: 0.0
doppler_bin: 8
bearing: -3.90620398521
intensity: 32.0790367126
---
header: 
  seq: 2959159
  stamp: 
    secs: 1561685919
    nsecs: 112686165
  frame_id: "ti_mmwave"
point_id: 14
x: 0.041015625
y: -0.033203125
z: 0.0625
range: 0.0871539413929
velocity: 0.0
doppler_bin: 8
bearing: -38.9909973145
intensity: 30.1661548615
---
header: 
  seq: 2959160
  stamp: 
    secs: 1561685919
    nsecs: 112783021
  frame_id: "ti_mmwave"
point_id: 15
x: 0.044921875
y: -0.046875
z: 0.103515625
range: 0.130730912089
velocity: 0.0
doppler_bin: 8
bearing: -46.218875885
intensity: 29.0741138458
---
header: 
  seq: 2959161
  stamp: 
    secs: 1561685919
    nsecs: 112802033
  frame_id: "ti_mmwave"
point_id: 17
x: 1.212890625
y: 0.357421875
z: 0.09765625
range: 1.35088610649
velocity: 0.0
doppler_bin: 8
bearing: 16.419506073
intensity: 19.4448261261
---
header: 
  seq: 2959162
  stamp: 
    secs: 1561685919
    nsecs: 172381676
  frame_id: "ti_mmwave"
point_id: 0
x: 0.01171875
y: -0.0390625
z: -0.0078125
range: 0.0435769706964
velocity: 0.0
doppler_bin: 8
bearing: -73.3007583618
intensity: 30.7554702759
---
header: 
  seq: 2959163
  stamp: 
    secs: 1561685919
    nsecs: 172474784
  frame_id: "ti_mmwave"
point_id: 1
x: 0.017578125
y: -0.080078125
z: -0.0078125
range: 0.0871539413929
velocity: 0.0
doppler_bin: 8
bearing: -77.6192398071
intensity: 31.994808197
---
header: 
  seq: 2959164
  stamp: 
    secs: 1561685919
    nsecs: 172487897
  frame_id: "ti_mmwave"
point_id: 2
x: 0.029296875
y: -0.119140625
z: -0.005859375
range: 0.130730912089
velocity: 0.0
doppler_bin: 8
bearing: -76.1849746704
intensity: 30.2242832184
---
header: 
  seq: 2959165
  stamp: 
    secs: 1561685919
    nsecs: 172496223
  frame_id: "ti_mmwave"
point_id: 3
x: 0.056640625
y: -0.154296875
z: 0.005859375
range: 0.174307882786
velocity: 0.0
doppler_bin: 8
bearing: -69.8423843384
intensity: 25.5144996643
---
header: 
  seq: 2959166
  stamp: 
    secs: 1561685919
    nsecs: 172504122
  frame_id: "ti_mmwave"
point_id: 4
x: 0.359375
y: -0.080078125
z: -1.212890625
range: 1.35088610649
velocity: 0.0
doppler_bin: 8
bearing: -12.5617752075
intensity: 22.0139713287
---
header: 
  seq: 2959167
  stamp: 
    secs: 1561685919
    nsecs: 172512586
  frame_id: "ti_mmwave"
point_id: 5
x: 0.2734375
y: -0.041015625
z: 1.279296875
range: 1.39446306229
velocity: 0.0
doppler_bin: 8
bearing: -8.53076648712
intensity: 23.3041381836
---
header: 
  seq: 2959168
  stamp: 
    secs: 1561685919
    nsecs: 172520398
  frame_id: "ti_mmwave"
point_id: 6
x: 0.47265625
y: -0.04296875
z: 1.263671875
range: 1.43804001808
velocity: 0.0
doppler_bin: 8
bearing: -5.19442892075
intensity: 21.9865703583
---
header: 
  seq: 2959169
  stamp: 
    secs: 1561685919
    nsecs: 172527867
  frame_id: "ti_mmwave"
point_id: 7
x: 1.716796875
y: -0.052734375
z: -0.009765625
range: 1.83023273945
velocity: 0.0
doppler_bin: 8
bearing: -1.75938534737
intensity: 28.2607479095
---
header: 
  seq: 2959170
  stamp: 
    secs: 1561685919
    nsecs: 172548659
  frame_id: "ti_mmwave"
point_id: 8
x: 1.7578125
y: -0.0546875
z: 0.005859375
range: 1.87380969524
velocity: 0.0
doppler_bin: 8
bearing: -1.78196060658
intensity: 31.0037059784
---
header: 
  seq: 2959171
  stamp: 
    secs: 1561685919
    nsecs: 172559607
  frame_id: "ti_mmwave"
point_id: 9
x: 1.796875
y: -0.056640625
z: 0.0859375
range: 1.91738677025
velocity: 0.0
doppler_bin: 8
bearing: -1.80546462536
intensity: 30.2653331757
---
header: 
  seq: 2959172
  stamp: 
    secs: 1561685919
    nsecs: 172568001
  frame_id: "ti_mmwave"
point_id: 10
x: 2.5546875
y: -0.263671875
z: 1.16796875
range: 3.00681090355
velocity: 0.0
doppler_bin: 8
bearing: -5.89269018173
intensity: 29.4051647186
---
header: 
  seq: 2959173
  stamp: 
    secs: 1561685919
    nsecs: 172575909
  frame_id: "ti_mmwave"
point_id: 11
x: 2.609375
y: -0.267578125
z: 1.1484375
range: 3.05038785934
velocity: 0.0
doppler_bin: 8
bearing: -5.85492515564
intensity: 32.7669143677
---
header: 
  seq: 2959174
  stamp: 
    secs: 1561685919
    nsecs: 172737754
  frame_id: "ti_mmwave"
point_id: 12
x: 2.666015625
y: -0.181640625
z: 1.138671875
range: 3.09396481514
velocity: 0.0
doppler_bin: 8
bearing: -3.89764523506
intensity: 32.0357666016
---
header: 
  seq: 2959175
  stamp: 
    secs: 1561685919
    nsecs: 172758834
  frame_id: "ti_mmwave"
point_id: 14
x: 0.041015625
y: -0.033203125
z: 0.0625
range: 0.0871539413929
velocity: 0.0
doppler_bin: 8
bearing: -38.9909973145
intensity: 30.157787323
---
header: 
  seq: 2959176
  stamp: 
    secs: 1561685919
    nsecs: 172767856
  frame_id: "ti_mmwave"
point_id: 15
x: 0.044921875
y: -0.046875
z: 0.103515625
range: 0.130730912089
velocity: 0.0
doppler_bin: 8
bearing: -46.218875885
intensity: 29.0687351227
---
header: 
  seq: 2959177
  stamp: 
    secs: 1561685919
    nsecs: 172808742
  frame_id: "ti_mmwave"
point_id: 17
x: 1.212890625
y: 0.357421875
z: 0.087890625
range: 1.35088610649
velocity: 0.0
doppler_bin: 8
bearing: 16.419506073
intensity: 19.3449840546
---
header: 
  seq: 2959178
  stamp: 
    secs: 1561685919
    nsecs: 173443920
  frame_id: "ti_mmwave"
point_id: 0
x: 0.01171875
y: -0.0390625
z: -0.0078125
range: 0.0435769706964
velocity: 0.0
doppler_bin: 8
bearing: -73.3007583618
intensity: 30.7518177032
---
header: 
  seq: 2959179
  stamp: 
    secs: 1561685919
    nsecs: 173503962
  frame_id: "ti_mmwave"
point_id: 1
x: 0.017578125
y: -0.080078125
z: -0.0078125
range: 0.0871539413929
velocity: 0.0
doppler_bin: 8
bearing: -77.6192398071
intensity: 31.994808197
---
header: 
  seq: 2959180
  stamp: 
    secs: 1561685919
    nsecs: 173522400
  frame_id: "ti_mmwave"
point_id: 2
x: 0.029296875
y: -0.119140625
z: -0.00390625
range: 0.130730912089
velocity: 0.0
doppler_bin: 8
bearing: -76.1849746704
intensity: 30.2242832184
---
header: 
  seq: 2959181
  stamp: 
    secs: 1561685919
    nsecs: 173535442
  frame_id: "ti_mmwave"
point_id: 3
x: 0.056640625
y: -0.154296875
z: 0.005859375
range: 0.174307882786
velocity: 0.0
doppler_bin: 8
bearing: -69.8423843384
intensity: 25.5266819
---
header: 
  seq: 2959182
  stamp: 
    secs: 1561685919
    nsecs: 173548185
  frame_id: "ti_mmwave"
point_id: 4
x: 0.357421875
y: -0.080078125
z: -1.21484375
range: 1.35088610649
velocity: 0.0
doppler_bin: 8
bearing: -12.6282215118
intensity: 22.0139713287
---
header: 
  seq: 2959183
  stamp: 
    secs: 1561685919
    nsecs: 173564550
  frame_id: "ti_mmwave"
point_id: 5
x: 0.271484375
y: -0.041015625
z: 1.279296875
range: 1.39446306229
velocity: 0.0
doppler_bin: 8
bearing: -8.59122562408
intensity: 23.2837963104
---
header: 
  seq: 2959184
  stamp: 
    secs: 1561685919
    nsecs: 173577005
  frame_id: "ti_mmwave"
point_id: 6
x: 0.380859375
y: -0.0
z: 1.294921875
range: 1.43804001808
velocity: 0.0
doppler_bin: 8
bearing: -0.0
intensity: 21.9312458038
---
header: 
  seq: 2959185
  stamp: 
    secs: 1561685919
    nsecs: 173589462
  frame_id: "ti_mmwave"
point_id: 7
x: 1.708984375
y: -0.107421875
z: 0.134765625
range: 1.83023273945
velocity: 0.0
doppler_bin: 8
bearing: -3.5967168808
intensity: 27.7011528015
---
header: 
  seq: 2959186
  stamp: 
    secs: 1561685919
    nsecs: 173601420
  frame_id: "ti_mmwave"
point_id: 8
x: 1.818359375
y: -0.171875
z: -0.228515625
range: 1.96096372604
velocity: 0.0
doppler_bin: 8
bearing: -5.39967012405
intensity: 27.7887439728
---
header: 
  seq: 2959187
  stamp: 
    secs: 1561685919
    nsecs: 173615585
  frame_id: "ti_mmwave"
point_id: 9
x: 2.560546875
y: -0.263671875
z: 1.15625
range: 3.00681090355
velocity: 0.0
doppler_bin: 8
bearing: -5.87930107117
intensity: 29.5616836548
---
header: 
  seq: 2959188
  stamp: 
    secs: 1561685919
    nsecs: 173628742
  frame_id: "ti_mmwave"
point_id: 10
x: 2.615234375
y: -0.267578125
z: 1.13671875
range: 3.05038785934
velocity: 0.0
doppler_bin: 8
bearing: -5.84189844131
intensity: 32.8352737427
---
header: 
  seq: 2959189
  stamp: 
    secs: 1561685919
    nsecs: 173642580
  frame_id: "ti_mmwave"
point_id: 11
x: 2.671875
y: -0.181640625
z: 1.123046875
range: 3.09396481514
velocity: 0.0
doppler_bin: 8
bearing: -3.88912391663
intensity: 32.0790367126
---
header: 
  seq: 2959190
  stamp: 
    secs: 1561685919
    nsecs: 173659041
  frame_id: "ti_mmwave"
point_id: 13
x: 0.041015625
y: -0.033203125
z: 0.0625
range: 0.0871539413929
velocity: 0.0
doppler_bin: 8
bearing: -38.9909973145
intensity: 30.1703338623
---
header: 
  seq: 2959191
  stamp: 
    secs: 1561685919
    nsecs: 173701353
  frame_id: "ti_mmwave"
point_id: 14
x: 0.044921875
y: -0.046875
z: 0.103515625
range: 0.130730912089
velocity: 0.0
doppler_bin: 8
bearing: -46.218875885
intensity: 29.0794849396
---
header: 
  seq: 2959192
  stamp: 
    secs: 1561685919
    nsecs: 173732067
  frame_id: "ti_mmwave"
point_id: 16
x: 1.21484375
y: 0.357421875
z: 0.083984375
range: 1.35088610649
velocity: 0.0
doppler_bin: 8
bearing: 16.3945274353
intensity: 19.2941894531
---
header: 
  seq: 2959193
  stamp: 
    secs: 1561685919
    nsecs: 232299402
  frame_id: "ti_mmwave"
point_id: 0
x: 0.01171875
y: -0.0390625
z: -0.0078125
range: 0.0435769706964
velocity: 0.0
doppler_bin: 8
bearing: -73.3007583618
intensity: 30.7554702759
---
header: 
  seq: 2959194
  stamp: 
    secs: 1561685919
    nsecs: 232365824
  frame_id: "ti_mmwave"
point_id: 1
x: 0.017578125
y: -0.080078125
z: -0.0078125
range: 0.0871539413929
velocity: 0.0
doppler_bin: 8
bearing: -77.6192398071
intensity: 31.9975509644
---
header: 
  seq: 2959195
  stamp: 
    secs: 1561685919
    nsecs: 232380779
  frame_id: "ti_mmwave"
point_id: 2
x: 0.029296875
y: -0.119140625
z: -0.00390625
range: 0.130730912089
velocity: 0.0
doppler_bin: 8
bearing: -76.1849746704
intensity: 30.2325248718
---
header: 
  seq: 2959196
  stamp: 
    secs: 1561685919
    nsecs: 232395737
  frame_id: "ti_mmwave"
point_id: 3
x: 0.056640625
y: -0.154296875
z: 0.005859375
range: 0.174307882786
velocity: 0.0
doppler_bin: 8
bearing: -69.8423843384
intensity: 25.5388298035
---
header: 
  seq: 2959197
  stamp: 
    secs: 1561685919
    nsecs: 232408706
  frame_id: "ti_mmwave"
point_id: 4
x: 0.326171875
y: -0.080078125
z: -1.22265625
range: 1.35088610649
velocity: 0.0
doppler_bin: 8
bearing: -13.7938089371
intensity: 22.0412006378
---
header: 
  seq: 2959198
  stamp: 
    secs: 1561685919
    nsecs: 232492364
  frame_id: "ti_mmwave"
point_id: 5
x: 0.3125
y: -0.041015625
z: 1.26953125
range: 1.39446306229
velocity: 0.0
doppler_bin: 8
bearing: -7.47732973099
intensity: 23.3243846893
---
header: 
  seq: 2959199
  stamp: 
    secs: 1561685919
    nsecs: 232507051
  frame_id: "ti_mmwave"
point_id: 6
x: 0.416015625
y: -0.0
z: 1.283203125
range: 1.43804001808
velocity: 0.0
doppler_bin: 8
bearing: -0.0
intensity: 22.0139713287
---
header: 
  seq: 2959200
  stamp: 
    secs: 1561685919
    nsecs: 232517468
  frame_id: "ti_mmwave"
point_id: 7
x: 1.74609375
y: -0.0
z: 0.216796875
range: 1.87380969524
velocity: 0.0
doppler_bin: 8
bearing: -0.0
intensity: 29.6331558228
---
header: 
  seq: 2959201
  stamp: 
    secs: 1561685919
    nsecs: 232528519
  frame_id: "ti_mmwave"
point_id: 8
x: 1.791015625
y: -0.0
z: 0.173828125
range: 1.91738677025
velocity: 0.0
doppler_bin: 8
bearing: -0.0
intensity: 29.1434307098
---
header: 
  seq: 2959202
  stamp: 
    secs: 1561685919
    nsecs: 232540728
  frame_id: "ti_mmwave"
point_id: 9
x: 2.53125
y: -0.263671875
z: 1.220703125
range: 3.00681090355
velocity: 0.0
doppler_bin: 8
bearing: -5.94686317444
intensity: 29.4694328308
---
header: 
  seq: 2959203
  stamp: 
    secs: 1561685919
    nsecs: 232553259
  frame_id: "ti_mmwave"
point_id: 10
x: 2.60546875
y: -0.267578125
z: 1.158203125
range: 3.05038785934
velocity: 0.0
doppler_bin: 8
bearing: -5.86364221573
intensity: 32.8216896057
---
header: 
  seq: 2959204
  stamp: 
    secs: 1561685919
    nsecs: 232602498
  frame_id: "ti_mmwave"
point_id: 11
x: 2.671875
y: -0.181640625
z: 1.123046875
range: 3.09396481514
velocity: 0.0
doppler_bin: 8
bearing: -3.88912391663
intensity: 32.1112060547
---
header: 
  seq: 2959205
  stamp: 
    secs: 1561685919
    nsecs: 232658365
  frame_id: "ti_mmwave"
point_id: 13
x: 0.041015625
y: -0.033203125
z: 0.0625
range: 0.0871539413929
velocity: 0.0
doppler_bin: 8
bearing: -38.9909973145
intensity: 30.1619739532
---
header: 
  seq: 2959206
  stamp: 
    secs: 1561685919
    nsecs: 232672074
  frame_id: "ti_mmwave"
point_id: 14
x: 0.044921875
y: -0.046875
z: 0.103515625
range: 0.130730912089
velocity: 0.0
doppler_bin: 8
bearing: -46.218875885
intensity: 29.0741138458
---
header: 
  seq: 2959207
  stamp: 
    secs: 1561685919
    nsecs: 232685519
  frame_id: "ti_mmwave"
point_id: 16
x: 1.21484375
y: 0.357421875
z: 0.080078125
range: 1.35088610649
velocity: 0.0
doppler_bin: 8
bearing: 16.3945274353
intensity: 19.2941894531
---
header: 
  seq: 2959208
  stamp: 
    secs: 1561685919
    nsecs: 233539360
  frame_id: "ti_mmwave"
point_id: 0
x: 0.01171875
y: -0.0390625
z: -0.0078125
range: 0.0435769706964
velocity: 0.0
doppler_bin: 8
bearing: -73.3007583618
intensity: 30.7518177032
---
header: 
  seq: 2959209
  stamp: 
    secs: 1561685919
    nsecs: 233601627
  frame_id: "ti_mmwave"
point_id: 1
x: 0.017578125
y: -0.080078125
z: -0.0078125
range: 0.0871539413929
velocity: 0.0
doppler_bin: 8
bearing: -77.6192398071
intensity: 31.9975509644
---
header: 
  seq: 2959210
  stamp: 
    secs: 1561685919
    nsecs: 233620325
  frame_id: "ti_mmwave"
point_id: 2
x: 0.029296875
y: -0.119140625
z: -0.00390625
range: 0.130730912089
velocity: 0.0
doppler_bin: 8
bearing: -76.1849746704
intensity: 30.2284069061
---
header: 
  seq: 2959211
  stamp: 
    secs: 1561685919
    nsecs: 233634349
  frame_id: "ti_mmwave"
point_id: 3
x: 0.056640625
y: -0.154296875
z: 0.005859375
range: 0.174307882786
velocity: 0.0
doppler_bin: 8
bearing: -69.8423843384
intensity: 25.5266819
---
header: 
  seq: 2959212
  stamp: 
    secs: 1561685919
    nsecs: 233657031
  frame_id: "ti_mmwave"
point_id: 4
x: 0.32421875
y: -0.080078125
z: -1.22265625
range: 1.35088610649
velocity: 0.0
doppler_bin: 8
bearing: -13.8737030029
intensity: 22.0139713287
---
header: 
  seq: 2959213
  stamp: 
    secs: 1561685919
    nsecs: 233733682
  frame_id: "ti_mmwave"
point_id: 5
x: 0.314453125
y: -0.041015625
z: 1.26953125
range: 1.39446306229
velocity: 0.0
doppler_bin: 8
bearing: -7.43140792847
intensity: 23.2837963104
---
header: 
  seq: 2959214
  stamp: 
    secs: 1561685919
    nsecs: 233747967
  frame_id: "ti_mmwave"
point_id: 6
x: 0.427734375
y: -0.0
z: 1.28125
range: 1.43804001808
velocity: 0.0
doppler_bin: 8
bearing: -0.0
intensity: 21.9589958191
---
header: 
  seq: 2959215
  stamp: 
    secs: 1561685919
    nsecs: 233761283
  frame_id: "ti_mmwave"
point_id: 7
x: 1.75
y: -0.1640625
z: 0.0625
range: 1.87380969524
velocity: 0.0
doppler_bin: 8
bearing: -5.35582494736
intensity: 27.8958072662
---
header: 
  seq: 2959216
  stamp: 
    secs: 1561685919
    nsecs: 233772323
  frame_id: "ti_mmwave"
point_id: 8
x: 1.796875
y: -0.11328125
z: 0.029296875
range: 1.91738677025
velocity: 0.0
doppler_bin: 8
bearing: -3.60735106468
intensity: 29.2531204224
---
header: 
  seq: 2959217
  stamp: 
    secs: 1561685919
    nsecs: 233783327
  frame_id: "ti_mmwave"
point_id: 9
x: 1.8359375
y: -0.115234375
z: -0.08984375
range: 1.96096372604
velocity: 0.0
doppler_bin: 8
bearing: -3.59151291847
intensity: 28.8252449036
---
header: 
  seq: 2959218
  stamp: 
    secs: 1561685919
    nsecs: 233794594
  frame_id: "ti_mmwave"
point_id: 10
x: 1.865234375
y: -0.234375
z: -0.083984375
range: 2.00454068184
velocity: 0.0
doppler_bin: 8
bearing: -7.16193294525
intensity: 27.1683769226
---
header: 
  seq: 2959219
  stamp: 
    secs: 1561685919
    nsecs: 233807790
  frame_id: "ti_mmwave"
point_id: 11
x: 2.548828125
y: -0.263671875
z: 1.181640625
range: 3.00681090355
velocity: 0.0
doppler_bin: 8
bearing: -5.90614128113
intensity: 29.3348731995
---
header: 
  seq: 2959220
  stamp: 
    secs: 1561685919
    nsecs: 233819027
  frame_id: "ti_mmwave"
point_id: 12
x: 2.603515625
y: -0.267578125
z: 1.16015625
range: 3.05038785934
velocity: 0.0
doppler_bin: 8
bearing: -5.8680100441
intensity: 32.753112793
---
header: 
  seq: 2959221
  stamp: 
    secs: 1561685919
    nsecs: 233830932
  frame_id: "ti_mmwave"
point_id: 13
x: 2.6640625
y: -0.181640625
z: 1.14453125
range: 3.09396481514
velocity: 0.0
doppler_bin: 8
bearing: -3.90049386024
intensity: 31.9893188477
---
header: 
  seq: 2959222
  stamp: 
    secs: 1561685919
    nsecs: 233900842
  frame_id: "ti_mmwave"
point_id: 15
x: 0.041015625
y: -0.033203125
z: 0.0625
range: 0.0871539413929
velocity: 0.0
doppler_bin: 8
bearing: -38.9909973145
intensity: 30.1703338623
---
header: 
  seq: 2959223
  stamp: 
    secs: 1561685919
    nsecs: 233916852
  frame_id: "ti_mmwave"
point_id: 16
x: 0.044921875
y: -0.046875
z: 0.103515625
range: 0.130730912089
velocity: 0.0
doppler_bin: 8
bearing: -46.218875885
intensity: 29.0741138458
---
header: 
  seq: 2959224
  stamp: 
    secs: 1561685919
    nsecs: 233931873
  frame_id: "ti_mmwave"
point_id: 18
x: 1.212890625
y: 0.357421875
z: 0.099609375
range: 1.35088610649
velocity: 0.0
doppler_bin: 8
bearing: 16.419506073
intensity: 19.2941894531
---
header: 
  seq: 2959225
  stamp: 
    secs: 1561685919
    nsecs: 292332057
  frame_id: "ti_mmwave"
point_id: 0
x: 0.01171875
y: -0.0390625
z: -0.0078125
range: 0.0435769706964
velocity: 0.0
doppler_bin: 8
bearing: -73.3007583618
intensity: 30.7554702759
---
header: 
  seq: 2959226
  stamp: 
    secs: 1561685919
    nsecs: 292406254
  frame_id: "ti_mmwave"
point_id: 1
x: 0.017578125
y: -0.080078125
z: -0.0078125
range: 0.0871539413929
velocity: 0.0
doppler_bin: 8
bearing: -77.6192398071
intensity: 31.994808197
---
header: 
  seq: 2959227
  stamp: 
    secs: 1561685919
    nsecs: 292417427
  frame_id: "ti_mmwave"
point_id: 2
x: 0.029296875
y: -0.119140625
z: -0.00390625
range: 0.130730912089
velocity: 0.0
doppler_bin: 8
bearing: -76.1849746704
intensity: 30.2242832184
---
header: 
  seq: 2959228
  stamp: 
    secs: 1561685919
    nsecs: 292427642
  frame_id: "ti_mmwave"
point_id: 3
x: 0.056640625
y: -0.154296875
z: 0.0078125
range: 0.174307882786
velocity: 0.0
doppler_bin: 8
bearing: -69.8423843384
intensity: 25.5144996643
---
header: 
  seq: 2959229
  stamp: 
    secs: 1561685919
    nsecs: 292435618
  frame_id: "ti_mmwave"
point_id: 4
x: 0.3359375
y: -0.080078125
z: -1.220703125
range: 1.35088610649
velocity: 0.0
doppler_bin: 8
bearing: -13.4075088501
intensity: 21.9865703583
---
header: 
  seq: 2959230
  stamp: 
    secs: 1561685919
    nsecs: 292443254
  frame_id: "ti_mmwave"
point_id: 5
x: 0.294921875
y: -0.041015625
z: 1.275390625
range: 1.39446306229
velocity: 0.0
doppler_bin: 8
bearing: -7.91750335693
intensity: 23.2633590698
---
header: 
  seq: 2959231
  stamp: 
    secs: 1561685919
    nsecs: 292450929
  frame_id: "ti_mmwave"
point_id: 6
x: 0.41796875
y: -0.0
z: 1.283203125
range: 1.43804001808
velocity: 0.0
doppler_bin: 8
bearing: -0.0
intensity: 21.9312458038
---
header: 
  seq: 2959232
  stamp: 
    secs: 1561685919
    nsecs: 292458920
  frame_id: "ti_mmwave"
point_id: 7
x: 1.712890625
y: -0.0
z: -0.13671875
range: 1.83023273945
velocity: 0.0
doppler_bin: 8
bearing: -0.0
intensity: 28.9097957611
---
header: 
  seq: 2959233
  stamp: 
    secs: 1561685919
    nsecs: 292466712
  frame_id: "ti_mmwave"
point_id: 8
x: 1.7578125
y: -0.0546875
z: -0.0625
range: 1.87380969524
velocity: 0.0
doppler_bin: 8
bearing: -1.78196060658
intensity: 31.47057724
---
header: 
  seq: 2959234
  stamp: 
    secs: 1561685919
    nsecs: 292476038
  frame_id: "ti_mmwave"
point_id: 9
x: 1.798828125
y: 0.056640625
z: 0.015625
range: 1.91738677025
velocity: 0.0
doppler_bin: 8
bearing: 1.8035056591
intensity: 30.0987567902
---
header: 
  seq: 2959235
  stamp: 
    secs: 1561685919
    nsecs: 292485349
  frame_id: "ti_mmwave"
point_id: 10
x: 1.7578125
y: -0.345703125
z: -0.423828125
range: 1.96096372604
velocity: 0.0
doppler_bin: 8
bearing: -11.1261749268
intensity: 27.5587482452
---
header: 
  seq: 2959236
  stamp: 
    secs: 1561685919
    nsecs: 292493504
  frame_id: "ti_mmwave"
point_id: 11
x: 1.845703125
y: -0.234375
z: -0.283203125
range: 2.00454068184
velocity: 0.0
doppler_bin: 8
bearing: -7.23692274094
intensity: 28.182258606
---
header: 
  seq: 2959237
  stamp: 
    secs: 1561685919
    nsecs: 292501201
  frame_id: "ti_mmwave"
point_id: 12
x: 2.552734375
y: -0.263671875
z: 1.173828125
range: 3.00681090355
velocity: 0.0
doppler_bin: 8
bearing: -5.89716720581
intensity: 29.2941894531
---
header: 
  seq: 2959238
  stamp: 
    secs: 1561685919
    nsecs: 292508765
  frame_id: "ti_mmwave"
point_id: 13
x: 2.619140625
y: -0.1796875
z: 1.14453125
range: 3.05038785934
velocity: 0.0
doppler_bin: 8
bearing: -3.9246571064
intensity: 32.704460144
---
header: 
  seq: 2959239
  stamp: 
    secs: 1561685919
    nsecs: 292517114
  frame_id: "ti_mmwave"
point_id: 14
x: 2.66015625
y: -0.181640625
z: 1.15234375
range: 3.09396481514
velocity: 0.0
doppler_bin: 8
bearing: -3.90620398521
intensity: 31.9479179382
---
header: 
  seq: 2959240
  stamp: 
    secs: 1561685919
    nsecs: 292527707
  frame_id: "ti_mmwave"
point_id: 16
x: 0.041015625
y: -0.033203125
z: 0.0625
range: 0.0871539413929
velocity: 0.0
doppler_bin: 8
bearing: -38.9909973145
intensity: 30.1619739532
---
header: 
  seq: 2959241
  stamp: 
    secs: 1561685919
    nsecs: 292535962
  frame_id: "ti_mmwave"
point_id: 17
x: 0.044921875
y: -0.046875
z: 0.103515625
range: 0.130730912089
velocity: 0.0
doppler_bin: 8
bearing: -46.218875885
intensity: 29.0687351227
---
header: 
  seq: 2959242
  stamp: 
    secs: 1561685919
    nsecs: 292546775
  frame_id: "ti_mmwave"
point_id: 19
x: 1.21484375
y: 0.357421875
z: 0.06640625
range: 1.35088610649
velocity: 0.0
doppler_bin: 8
bearing: 16.3945274353
intensity: 19.3951931
---
header: 
  seq: 2959243
  stamp: 
    secs: 1561685919
    nsecs: 292556662
  frame_id: "ti_mmwave"
point_id: 20
x: 1.03125
y: 0.23046875
z: 1.505859375
range: 1.96096372604
velocity: 0.0
doppler_bin: 8
bearing: 12.5977277756
intensity: 26.5991611481
---
header: 
  seq: 2959244
  stamp: 
    secs: 1561685919
    nsecs: 293397388
  frame_id: "ti_mmwave"
point_id: 0
x: 0.01171875
y: -0.0390625
z: -0.0078125
range: 0.0435769706964
velocity: 0.0
doppler_bin: 8
bearing: -73.3007583618
intensity: 30.7591171265
---
header: 
  seq: 2959245
  stamp: 
    secs: 1561685919
    nsecs: 293457348
  frame_id: "ti_mmwave"
point_id: 1
x: 0.017578125
y: -0.080078125
z: -0.0078125
range: 0.0871539413929
velocity: 0.0
doppler_bin: 8
bearing: -77.6192398071
intensity: 31.9975509644
---
header: 
  seq: 2959246
  stamp: 
    secs: 1561685919
    nsecs: 293473432
  frame_id: "ti_mmwave"
point_id: 2
x: 0.029296875
y: -0.119140625
z: -0.00390625
range: 0.130730912089
velocity: 0.0
doppler_bin: 8
bearing: -76.1849746704
intensity: 30.2284069061
---
header: 
  seq: 2959247
  stamp: 
    secs: 1561685919
    nsecs: 293486492
  frame_id: "ti_mmwave"
point_id: 3
x: 0.056640625
y: -0.154296875
z: 0.0078125
range: 0.174307882786
velocity: 0.0
doppler_bin: 8
bearing: -69.8423843384
intensity: 25.5266819
---
header: 
  seq: 2959248
  stamp: 
    secs: 1561685919
    nsecs: 293499486
  frame_id: "ti_mmwave"
point_id: 4
x: 0.33984375
y: -0.080078125
z: -1.21875
range: 1.35088610649
velocity: 0.0
doppler_bin: 8
bearing: -13.2588720322
intensity: 22.0139713287
---
header: 
  seq: 2959249
  stamp: 
    secs: 1561685919
    nsecs: 293576646
  frame_id: "ti_mmwave"
point_id: 5
x: 0.3046875
y: -0.041015625
z: 1.2734375
range: 1.39446306229
velocity: 0.0
doppler_bin: 8
bearing: -7.66680431366
intensity: 23.2837963104
---
header: 
  seq: 2959250
  stamp: 
    secs: 1561685919
    nsecs: 293593975
  frame_id: "ti_mmwave"
point_id: 6
x: 0.419921875
y: -0.0
z: 1.283203125
range: 1.43804001808
velocity: 0.0
doppler_bin: 8
bearing: -0.0
intensity: 21.9312458038
---
header: 
  seq: 2959251
  stamp: 
    secs: 1561685919
    nsecs: 293606276
  frame_id: "ti_mmwave"
point_id: 7
x: 1.744140625
y: -0.0
z: -0.220703125
range: 1.87380969524
velocity: 0.0
doppler_bin: 8
bearing: -0.0
intensity: 28.3695678711
---
header: 
  seq: 2959252
  stamp: 
    secs: 1561685919
    nsecs: 293620864
  frame_id: "ti_mmwave"
point_id: 8
x: 1.794921875
y: -0.0
z: -0.126953125
range: 1.91738677025
velocity: 0.0
doppler_bin: 8
bearing: -0.0
intensity: 27.8604125977
---
header: 
  seq: 2959253
  stamp: 
    secs: 1561685919
    nsecs: 293637247
  frame_id: "ti_mmwave"
point_id: 9
x: 2.552734375
y: -0.263671875
z: 1.173828125
range: 3.00681090355
velocity: 0.0
doppler_bin: 8
bearing: -5.89716720581
intensity: 29.3196620941
---
header: 
  seq: 2959254
  stamp: 
    secs: 1561685919
    nsecs: 293648609
  frame_id: "ti_mmwave"
point_id: 10
x: 2.609375
y: -0.267578125
z: 1.1484375
range: 3.05038785934
velocity: 0.0
doppler_bin: 8
bearing: -5.85492515564
intensity: 32.7508087158
---
header: 
  seq: 2959255
  stamp: 
    secs: 1561685919
    nsecs: 293660293
  frame_id: "ti_mmwave"
point_id: 11
x: 2.66796875
y: -0.181640625
z: 1.130859375
range: 3.09396481514
velocity: 0.0
doppler_bin: 8
bearing: -3.89480042458
intensity: 32.0139694214
---
header: 
  seq: 2959256
  stamp: 
    secs: 1561685919
    nsecs: 293679134
  frame_id: "ti_mmwave"
point_id: 13
x: 0.041015625
y: -0.033203125
z: 0.0625
range: 0.0871539413929
velocity: 0.0
doppler_bin: 8
bearing: -38.9909973145
intensity: 30.1661548615
---
header: 
  seq: 2959257
  stamp: 
    secs: 1561685919
    nsecs: 293739509
  frame_id: "ti_mmwave"
point_id: 14
x: 0.044921875
y: -0.046875
z: 0.103515625
range: 0.130730912089
velocity: 0.0
doppler_bin: 8
bearing: -46.218875885
intensity: 29.0741138458
---
header: 
  seq: 2959258
  stamp: 
    secs: 1561685919
    nsecs: 293757238
  frame_id: "ti_mmwave"
point_id: 16
x: 1.21484375
y: 0.357421875
z: 0.052734375
range: 1.35088610649
velocity: 0.0
doppler_bin: 8
bearing: 16.3945274353
intensity: 19.2941894531
---
header: 
  seq: 2959259
  stamp: 
    secs: 1561685919
    nsecs: 352556537
  frame_id: "ti_mmwave"
point_id: 0
x: 0.01171875
y: -0.0390625
z: -0.0078125
range: 0.0435769706964
velocity: 0.0
doppler_bin: 8
bearing: -73.3007583618
intensity: 30.7554702759
---
header: 
  seq: 2959260
  stamp: 
    secs: 1561685919
    nsecs: 352631223
  frame_id: "ti_mmwave"
point_id: 1
x: 0.017578125
y: -0.080078125
z: -0.0078125
range: 0.0871539413929
velocity: 0.0
doppler_bin: 8
bearing: -77.6192398071
intensity: 31.9975509644
---
header: 
  seq: 2959261
  stamp: 
    secs: 1561685919
    nsecs: 352644715
  frame_id: "ti_mmwave"
point_id: 2
x: 0.029296875
y: -0.119140625
z: -0.00390625
range: 0.130730912089
velocity: 0.0
doppler_bin: 8
bearing: -76.1849746704
intensity: 30.2284069061
---
header: 
  seq: 2959262
  stamp: 
    secs: 1561685919
    nsecs: 352653448
  frame_id: "ti_mmwave"
point_id: 3
x: 0.056640625
y: -0.154296875
z: 0.005859375
range: 0.174307882786
velocity: 0.0
doppler_bin: 8
bearing: -69.8423843384
intensity: 25.5266819
---
header: 
  seq: 2959263
  stamp: 
    secs: 1561685919
    nsecs: 352661431
  frame_id: "ti_mmwave"
point_id: 4
x: 0.35546875
y: -0.080078125
z: -1.21484375
range: 1.35088610649
velocity: 0.0
doppler_bin: 8
bearing: -12.6953649521
intensity: 22.0951499939
---
header: 
  seq: 2959264
  stamp: 
    secs: 1561685919
    nsecs: 352669573
  frame_id: "ti_mmwave"
point_id: 5
x: 0.30078125
y: -0.041015625
z: 1.2734375
range: 1.39446306229
velocity: 0.0
doppler_bin: 8
bearing: -7.76516628265
intensity: 23.3243846893
---
header: 
  seq: 2959265
  stamp: 
    secs: 1561685919
    nsecs: 352679740
  frame_id: "ti_mmwave"
point_id: 6
x: 0.396484375
y: -0.0
z: 1.291015625
range: 1.43804001808
velocity: 0.0
doppler_bin: 8
bearing: -0.0
intensity: 21.9589958191
---
header: 
  seq: 2959266
  stamp: 
    secs: 1561685919
    nsecs: 352687806
  frame_id: "ti_mmwave"
point_id: 7
x: 1.701171875
y: -0.052734375
z: -0.23828125
range: 1.83023273945
velocity: 0.0
doppler_bin: 8
bearing: -1.77553474903
intensity: 28.4571800232
---
header: 
  seq: 2959267
  stamp: 
    secs: 1561685919
    nsecs: 352695681
  frame_id: "ti_mmwave"
point_id: 8
x: 1.73046875
y: -0.109375
z: -0.291015625
range: 1.87380969524
velocity: 0.0
doppler_bin: 8
bearing: -3.61659288406
intensity: 30.788192749
---
header: 
  seq: 2959268
  stamp: 
    secs: 1561685919
    nsecs: 352703360
  frame_id: "ti_mmwave"
point_id: 9
x: 1.751953125
y: -0.11328125
z: -0.396484375
range: 1.91738677025
velocity: 0.0
doppler_bin: 8
bearing: -3.69959378242
intensity: 30.1072387695
---
header: 
  seq: 2959269
  stamp: 
    secs: 1561685919
    nsecs: 352712026
  frame_id: "ti_mmwave"
point_id: 10
x: 1.7578125
y: -0.115234375
z: -0.53515625
range: 1.96096372604
velocity: 0.0
doppler_bin: 8
bearing: -3.75068998337
intensity: 28.5247993469
---
header: 
  seq: 2959270
  stamp: 
    secs: 1561685919
    nsecs: 352719589
  frame_id: "ti_mmwave"
point_id: 11
x: 1.830078125
y: -0.17578125
z: -0.3984375
range: 2.00454068184
velocity: 0.0
doppler_bin: 8
bearing: -5.4864988327
intensity: 27.8816833496
---
header: 
  seq: 2959271
  stamp: 
    secs: 1561685919
    nsecs: 352728480
  frame_id: "ti_mmwave"
point_id: 12
x: 0.859375
y: 2.33984375
z: -0.130859375
range: 2.65819525719
velocity: 0.0
doppler_bin: 8
bearing: 69.8327865601
intensity: 25.8883171082
---
header: 
  seq: 2959272
  stamp: 
    secs: 1561685919
    nsecs: 352738018
  frame_id: "ti_mmwave"
point_id: 13
x: 2.564453125
y: -0.263671875
z: 1.1484375
range: 3.00681090355
velocity: 0.0
doppler_bin: 8
bearing: -5.87040758133
intensity: 29.4497585297
---
header: 
  seq: 2959273
  stamp: 
    secs: 1561685919
    nsecs: 352746867
  frame_id: "ti_mmwave"
point_id: 14
x: 2.607421875
y: -0.267578125
z: 1.15234375
range: 3.05038785934
velocity: 0.0
doppler_bin: 8
bearing: -5.85928010941
intensity: 32.7829627991
---
header: 
  seq: 2959274
  stamp: 
    secs: 1561685919
    nsecs: 352755348
  frame_id: "ti_mmwave"
point_id: 15
x: 2.66796875
y: -0.181640625
z: 1.134765625
range: 3.09396481514
velocity: 0.0
doppler_bin: 8
