header: 
  seq: 1549328
  stamp: 
    secs: 1561683697
    nsecs: 823297946
  frame_id: "ti_mmwave"
point_id: 0
x: 0.01171875
y: -0.0390625
z: -0.0078125
range: 0.0435769706964
velocity: 0.0
doppler_bin: 8
bearing: -73.3007583618
intensity: 30.7591171265
---
header: 
  seq: 1549329
  stamp: 
    secs: 1561683697
    nsecs: 823407404
  frame_id: "ti_mmwave"
point_id: 1
x: 0.017578125
y: -0.080078125
z: -0.0078125
range: 0.0871539413929
velocity: 0.0
doppler_bin: 8
bearing: -77.6192398071
intensity: 32.0002937317
---
header: 
  seq: 1549330
  stamp: 
    secs: 1561683697
    nsecs: 823427321
  frame_id: "ti_mmwave"
point_id: 2
x: 0.041015625
y: -0.115234375
z: -0.0078125
range: 0.130730912089
velocity: 0.0
doppler_bin: 8
bearing: -70.4077224731
intensity: 30.2407493591
---
header: 
  seq: 1549331
  stamp: 
    secs: 1561683697
    nsecs: 823442367
  frame_id: "ti_mmwave"
point_id: 3
x: 0.056640625
y: -0.154296875
z: 0.005859375
range: 0.174307882786
velocity: 0.0
doppler_bin: 8
bearing: -69.8423843384
intensity: 25.5266819
---
header: 
  seq: 1549332
  stamp: 
    secs: 1561683697
    nsecs: 823456613
  frame_id: "ti_mmwave"
point_id: 4
x: 0.39453125
y: -0.080078125
z: -1.203125
range: 1.35088610649
velocity: 0.0
doppler_bin: 8
bearing: -11.4734783173
intensity: 21.9033164978
---
header: 
  seq: 1549333
  stamp: 
    secs: 1561683697
    nsecs: 823470917
  frame_id: "ti_mmwave"
point_id: 5
x: 0.234375
y: -0.041015625
z: 1.287109375
range: 1.39446306229
velocity: 0.0
doppler_bin: 8
bearing: -9.92624568939
intensity: 23.2428245544
---
header: 
  seq: 1549334
  stamp: 
    secs: 1561683697
    nsecs: 823551004
  frame_id: "ti_mmwave"
point_id: 6
x: 0.318359375
y: -0.0
z: 1.3125
range: 1.43804001808
velocity: 0.0
doppler_bin: 8
bearing: -0.0
intensity: 21.8469142914
---
header: 
  seq: 1549335
  stamp: 
    secs: 1561683697
    nsecs: 823566046
  frame_id: "ti_mmwave"
point_id: 7
x: 1.70703125
y: -0.052734375
z: -0.189453125
range: 1.83023273945
velocity: 0.0
doppler_bin: 8
bearing: -1.76944422722
intensity: 26.4246444702
---
header: 
  seq: 1549336
  stamp: 
    secs: 1561683697
    nsecs: 823579196
  frame_id: "ti_mmwave"
point_id: 8
x: 1.740234375
y: -0.0546875
z: -0.25390625
range: 1.87380969524
velocity: 0.0
doppler_bin: 8
bearing: -1.7999484539
intensity: 27.7959651947
---
header: 
  seq: 1549337
  stamp: 
    secs: 1561683697
    nsecs: 823592267
  frame_id: "ti_mmwave"
point_id: 9
x: 2.560546875
y: -0.263671875
z: 1.15625
range: 3.00681090355
velocity: 0.0
doppler_bin: 8
bearing: -5.87930107117
intensity: 29.4792366028
---
header: 
  seq: 1549338
  stamp: 
    secs: 1561683697
    nsecs: 823605312
  frame_id: "ti_mmwave"
point_id: 10
x: 2.609375
y: -0.267578125
z: 1.1484375
range: 3.05038785934
velocity: 0.0
doppler_bin: 8
bearing: -5.85492515564
intensity: 32.8239555359
---
header: 
  seq: 1549339
  stamp: 
    secs: 1561683697
    nsecs: 823618451
  frame_id: "ti_mmwave"
point_id: 11
x: 2.666015625
y: -0.271484375
z: 1.1171875
range: 3.09396481514
velocity: 0.0
doppler_bin: 8
bearing: -5.81447267532
intensity: 32.0194320679
---
header: 
  seq: 1549340
  stamp: 
    secs: 1561683697
    nsecs: 823631265
  frame_id: "ti_mmwave"
point_id: 12
x: 4.41796875
y: -0.287109375
z: 1.181640625
range: 4.88062095642
velocity: 0.0
doppler_bin: 8
bearing: -3.71823716164
intensity: 31.0140342712
---
header: 
  seq: 1549341
  stamp: 
    secs: 1561683697
    nsecs: 823645666
  frame_id: "ti_mmwave"
point_id: 13
x: 4.47265625
y: -0.2890625
z: 1.1328125
range: 4.9241976738
velocity: 0.0
doppler_bin: 8
bearing: -3.6978161335
intensity: 30.4336223602
---
header: 
  seq: 1549342
  stamp: 
    secs: 1561683697
    nsecs: 823660720
  frame_id: "ti_mmwave"
point_id: 14
x: 4.87890625
y: -0.30859375
z: 0.77734375
range: 5.27281332016
velocity: 0.0
doppler_bin: 8
bearing: -3.61917114258
intensity: 30.4883003235
---
header: 
  seq: 1549343
  stamp: 
    secs: 1561683697
    nsecs: 823676855
  frame_id: "ti_mmwave"
point_id: 16
x: 0.041015625
y: -0.033203125
z: 0.0625
range: 0.0871539413929
velocity: 0.0
doppler_bin: 8
bearing: -38.9909973145
intensity: 30.1703338623
---
header: 
  seq: 1549344
  stamp: 
    secs: 1561683697
    nsecs: 823690350
  frame_id: "ti_mmwave"
point_id: 17
x: 0.044921875
y: -0.046875
z: 0.103515625
range: 0.130730912089
velocity: 0.0
doppler_bin: 8
bearing: -46.218875885
intensity: 29.0633506775
---
header: 
  seq: 1549345
  stamp: 
    secs: 1561683697
    nsecs: 823706876
  frame_id: "ti_mmwave"
point_id: 19
x: 1.203125
y: 0.357421875
z: 0.185546875
range: 1.35088610649
velocity: 0.0
doppler_bin: 8
bearing: 16.5455226898
intensity: 19.0848503113
---
header: 
  seq: 1549346
  stamp: 
    secs: 1561683697
    nsecs: 823739515
  frame_id: "ti_mmwave"
point_id: 20
x: 2.857421875
y: -2.021484375
z: -3.017578125
range: 4.9241976738
velocity: 0.0
doppler_bin: 8
bearing: -35.2775154114
intensity: 27.4973640442
---
header: 
  seq: 1549347
  stamp: 
    secs: 1561683697
    nsecs: 824666783
  frame_id: "ti_mmwave"
point_id: 0
x: 0.01171875
y: -0.0390625
z: -0.0078125
range: 0.0435769706964
velocity: 0.0
doppler_bin: 8
bearing: -73.3007583618
intensity: 30.7627620697
---
header: 
  seq: 1549348
  stamp: 
    secs: 1561683697
    nsecs: 824711283
  frame_id: "ti_mmwave"
point_id: 1
x: 0.017578125
y: -0.080078125
z: -0.0078125
range: 0.0871539413929
velocity: 0.0
doppler_bin: 8
bearing: -77.6192398071
intensity: 32.0030326843
---
header: 
  seq: 1549349
  stamp: 
    secs: 1561683697
    nsecs: 824727326
  frame_id: "ti_mmwave"
point_id: 2
x: 0.029296875
y: -0.119140625
z: -0.005859375
range: 0.130730912089
velocity: 0.0
doppler_bin: 8
bearing: -76.1849746704
intensity: 30.2448558807
---
header: 
  seq: 1549350
  stamp: 
    secs: 1561683697
    nsecs: 824743779
  frame_id: "ti_mmwave"
point_id: 3
x: 0.056640625
y: -0.154296875
z: 0.005859375
range: 0.174307882786
velocity: 0.0
doppler_bin: 8
bearing: -69.8423843384
intensity: 25.5266819
---
header: 
  seq: 1549351
  stamp: 
    secs: 1561683697
    nsecs: 824757790
  frame_id: "ti_mmwave"
point_id: 4
x: 0.3671875
y: -0.080078125
z: -1.2109375
range: 1.35088610649
velocity: 0.0
doppler_bin: 8
bearing: -12.3027267456
intensity: 21.9589958191
---
header: 
  seq: 1549352
  stamp: 
    secs: 1561683697
    nsecs: 824824677
  frame_id: "ti_mmwave"
point_id: 5
x: 0.24609375
y: -0.041015625
z: 1.28515625
range: 1.39446306229
velocity: 0.0
doppler_bin: 8
bearing: -9.46232223511
intensity: 23.2633590698
---
header: 
  seq: 1549353
  stamp: 
    secs: 1561683697
    nsecs: 824839951
  frame_id: "ti_mmwave"
point_id: 6
x: 0.443359375
y: -0.04296875
z: 1.275390625
range: 1.43804001808
velocity: 0.0
doppler_bin: 8
bearing: -5.53560686111
intensity: 21.875207901
---
header: 
  seq: 1549354
  stamp: 
    secs: 1561683697
    nsecs: 824854546
  frame_id: "ti_mmwave"
point_id: 7
x: 1.685546875
y: -0.052734375
z: -0.33203125
range: 1.83023273945
velocity: 0.0
doppler_bin: 8
bearing: -1.79198312759
intensity: 26.5127792358
---
header: 
  seq: 1549355
  stamp: 
    secs: 1561683697
    nsecs: 824867483
  frame_id: "ti_mmwave"
point_id: 8
x: 1.73828125
y: -0.0
z: -0.2734375
range: 1.87380969524
velocity: 0.0
doppler_bin: 8
bearing: -0.0
intensity: 28.0071716309
---
header: 
  seq: 1549356
  stamp: 
    secs: 1561683697
    nsecs: 824881078
  frame_id: "ti_mmwave"
point_id: 9
x: 1.787109375
y: 0.056640625
z: -0.208984375
range: 1.91738677025
velocity: 0.0
doppler_bin: 8
bearing: 1.81532406807
intensity: 26.180480957
---
header: 
  seq: 1549357
  stamp: 
    secs: 1561683697
    nsecs: 824894409
  frame_id: "ti_mmwave"
point_id: 10
x: 2.548828125
y: -0.263671875
z: 1.185546875
range: 3.00681090355
velocity: 0.0
doppler_bin: 8
bearing: -5.90614128113
intensity: 29.4987773895
---
header: 
  seq: 1549358
  stamp: 
    secs: 1561683697
    nsecs: 824909992
  frame_id: "ti_mmwave"
point_id: 11
x: 2.603515625
y: -0.267578125
z: 1.1640625
range: 3.05038785934
velocity: 0.0
doppler_bin: 8
bearing: -5.8680100441
intensity: 32.817150116
---
header: 
  seq: 1549359
  stamp: 
    secs: 1561683697
    nsecs: 824934397
  frame_id: "ti_mmwave"
point_id: 12
x: 2.66015625
y: -0.271484375
z: 1.130859375
range: 3.09396481514
velocity: 0.0
doppler_bin: 8
bearing: -5.82719182968
intensity: 32.0221595764
---
header: 
  seq: 1549360
  stamp: 
    secs: 1561683697
    nsecs: 825080182
  frame_id: "ti_mmwave"
point_id: 13
x: 4.416015625
y: -0.287109375
z: 1.18359375
range: 4.88062095642
velocity: 0.0
doppler_bin: 8
bearing: -3.71987724304
intensity: 30.9551811218
---
header: 
  seq: 1549361
  stamp: 
    secs: 1561683697
    nsecs: 825141167
  frame_id: "ti_mmwave"
point_id: 14
x: 4.4765625
y: -0.2890625
z: 1.1171875
range: 4.9241976738
velocity: 0.0
doppler_bin: 8
bearing: -3.69459795952
intensity: 30.3462848663
---
header: 
  seq: 1549362
  stamp: 
    secs: 1561683697
    nsecs: 825182493
  frame_id: "ti_mmwave"
point_id: 15
x: 4.8671875
y: -0.46484375
z: 0.775390625
range: 5.27281332016
velocity: 0.0
doppler_bin: 8
bearing: -5.45552158356
intensity: 30.4453983307
---
header: 
  seq: 1549363
  stamp: 
    secs: 1561683697
    nsecs: 825202268
  frame_id: "ti_mmwave"
point_id: 17
x: 0.041015625
y: -0.033203125
z: 0.0625
range: 0.0871539413929
velocity: 0.0
doppler_bin: 8
bearing: -38.9909973145
intensity: 30.1661548615
---
header: 
  seq: 1549364
  stamp: 
    secs: 1561683697
    nsecs: 825256802
  frame_id: "ti_mmwave"
point_id: 18
x: 0.044921875
y: -0.046875
z: 0.103515625
range: 0.130730912089
velocity: 0.0
doppler_bin: 8
bearing: -46.218875885
intensity: 29.0633506775
---
header: 
  seq: 1549365
  stamp: 
    secs: 1561683697
    nsecs: 825291056
  frame_id: "ti_mmwave"
point_id: 20
x: 1.11328125
y: -0.474609375
z: 0.375
range: 1.35088610649
velocity: 0.0
doppler_bin: 8
bearing: -23.0893154144
intensity: 19.0848503113
---
header: 
  seq: 1549366
  stamp: 
    secs: 1561683697
    nsecs: 825337802
  frame_id: "ti_mmwave"
point_id: 21
x: 2.845703125
y: -2.021484375
z: -3.029296875
range: 4.9241976738
velocity: 0.0
doppler_bin: 8
bearing: -35.3886032104
intensity: 27.3957233429
---
header: 
  seq: 1549367
  stamp: 
    secs: 1561683697
    nsecs: 883271629
  frame_id: "ti_mmwave"
point_id: 0
x: 0.01171875
y: -0.0390625
z: -0.0078125
range: 0.0435769706964
velocity: 0.0
doppler_bin: 8
bearing: -73.3007583618
intensity: 30.7591171265
---
header: 
  seq: 1549368
  stamp: 
    secs: 1561683697
    nsecs: 883340584
  frame_id: "ti_mmwave"
point_id: 1
x: 0.017578125
y: -0.080078125
z: -0.0078125
range: 0.0871539413929
velocity: 0.0
doppler_bin: 8
bearing: -77.6192398071
intensity: 32.0030326843
---
header: 
  seq: 1549369
  stamp: 
    secs: 1561683697
    nsecs: 883350843
  frame_id: "ti_mmwave"
point_id: 2
x: 0.029296875
y: -0.119140625
z: -0.00390625
range: 0.130730912089
velocity: 0.0
doppler_bin: 8
bearing: -76.1849746704
intensity: 30.248960495
---
header: 
  seq: 1549370
  stamp: 
    secs: 1561683697
    nsecs: 883395088
  frame_id: "ti_mmwave"
point_id: 3
x: 0.056640625
y: -0.154296875
z: 0.005859375
range: 0.174307882786
velocity: 0.0
doppler_bin: 8
bearing: -69.8423843384
intensity: 25.5266819
---
header: 
  seq: 1549371
  stamp: 
    secs: 1561683697
    nsecs: 883410952
  frame_id: "ti_mmwave"
point_id: 4
x: 0.359375
y: -0.080078125
z: -1.212890625
range: 1.35088610649
velocity: 0.0
doppler_bin: 8
bearing: -12.5617752075
intensity: 21.9312458038
---
header: 
  seq: 1549372
  stamp: 
    secs: 1561683697
    nsecs: 883427302
  frame_id: "ti_mmwave"
point_id: 5
x: 0.275390625
y: -0.041015625
z: 1.279296875
range: 1.39446306229
velocity: 0.0
doppler_bin: 8
bearing: -8.47114467621
intensity: 23.2633590698
---
header: 
  seq: 1549373
  stamp: 
    secs: 1561683697
    nsecs: 883439247
  frame_id: "ti_mmwave"
point_id: 6
x: 0.447265625
y: -0.04296875
z: 1.2734375
range: 1.43804001808
velocity: 0.0
doppler_bin: 8
bearing: -5.48755693436
intensity: 21.9033164978
---
header: 
  seq: 1549374
  stamp: 
    secs: 1561683697
    nsecs: 883647206
  frame_id: "ti_mmwave"
point_id: 7
x: 1.68359375
y: -0.0
z: -0.34375
range: 1.83023273945
velocity: 0.0
doppler_bin: 8
bearing: -0.0
intensity: 27.5966777802
---
header: 
  seq: 1549375
  stamp: 
    secs: 1561683697
    nsecs: 883667171
  frame_id: "ti_mmwave"
point_id: 8
x: 1.734375
y: -0.0
z: -0.296875
range: 1.87380969524
velocity: 0.0
doppler_bin: 8
bearing: -0.0
intensity: 29.2168655396
---
header: 
  seq: 1549376
  stamp: 
    secs: 1561683697
    nsecs: 883675766
  frame_id: "ti_mmwave"
point_id: 9
x: 1.77734375
y: -0.056640625
z: -0.28125
range: 1.91738677025
velocity: 0.0
doppler_bin: 8
bearing: -1.82529187202
intensity: 26.8484535217
---
header: 
  seq: 1549377
  stamp: 
    secs: 1561683697
    nsecs: 883683777
  frame_id: "ti_mmwave"
point_id: 10
x: 2.556640625
y: -0.263671875
z: 1.16796875
range: 3.00681090355
velocity: 0.0
doppler_bin: 8
bearing: -5.88822031021
intensity: 29.5133743286
---
header: 
  seq: 1549378
  stamp: 
    secs: 1561683697
    nsecs: 883691464
  frame_id: "ti_mmwave"
point_id: 11
x: 2.603515625
y: -0.267578125
z: 1.1640625
range: 3.05038785934
velocity: 0.0
doppler_bin: 8
bearing: -5.8680100441
intensity: 32.8216896057
---
header: 
  seq: 1549379
  stamp: 
    secs: 1561683697
    nsecs: 883699112
  frame_id: "ti_mmwave"
point_id: 12
x: 2.66015625
y: -0.271484375
z: 1.134765625
range: 3.09396481514
velocity: 0.0
doppler_bin: 8
bearing: -5.82719182968
intensity: 32.0357666016
---
header: 
  seq: 1549380
  stamp: 
    secs: 1561683697
    nsecs: 883707302
  frame_id: "ti_mmwave"
point_id: 13
x: 4.41015625
y: -0.287109375
z: 1.20703125
range: 4.88062095642
velocity: 0.0
doppler_bin: 8
bearing: -3.72480559349
intensity: 30.8457622528
---
header: 
  seq: 1549381
  stamp: 
    secs: 1561683697
    nsecs: 883719065
  frame_id: "ti_mmwave"
point_id: 14
x: 4.462890625
y: -0.2890625
z: 1.16796875
range: 4.9241976738
velocity: 0.0
doppler_bin: 8
bearing: -3.70588517189
intensity: 30.1828422546
---
header: 
  seq: 1549382
  stamp: 
    secs: 1561683697
    nsecs: 883728672
  frame_id: "ti_mmwave"
point_id: 15
x: 4.8828125
y: -0.30859375
z: 0.751953125
range: 5.27281332016
velocity: 0.0
doppler_bin: 8
bearing: -3.61628341675
intensity: 30.5652370453
---
header: 
  seq: 1549383
  stamp: 
    secs: 1561683697
    nsecs: 883756289
  frame_id: "ti_mmwave"
point_id: 17
x: 0.041015625
y: -0.033203125
z: 0.0625
range: 0.0871539413929
velocity: 0.0
doppler_bin: 8
bearing: -38.9909973145
intensity: 30.1661548615
---
header: 
  seq: 1549384
  stamp: 
    secs: 1561683697
    nsecs: 883764669
  frame_id: "ti_mmwave"
point_id: 18
x: 0.044921875
y: -0.046875
z: 0.103515625
range: 0.130730912089
velocity: 0.0
doppler_bin: 8
bearing: -46.218875885
intensity: 29.0633506775
---
header: 
  seq: 1549385
  stamp: 
    secs: 1561683697
    nsecs: 883775610
  frame_id: "ti_mmwave"
point_id: 20
x: 1.115234375
y: -0.474609375
z: 0.373046875
range: 1.35088610649
velocity: 0.0
doppler_bin: 8
bearing: -23.0531082153
intensity: 18.9762706757
---
header: 
  seq: 1549386
  stamp: 
    secs: 1561683697
    nsecs: 883786807
  frame_id: "ti_mmwave"
point_id: 21
x: 2.91796875
y: -2.021484375
z: -2.958984375
range: 4.9241976738
velocity: 0.0
doppler_bin: 8
bearing: -34.7130966187
intensity: 27.3239383698
---
header: 
  seq: 1549387
  stamp: 
    secs: 1561683697
    nsecs: 884948289
  frame_id: "ti_mmwave"
point_id: 0
x: 0.01171875
y: -0.0390625
z: -0.0078125
range: 0.0435769706964
velocity: 0.0
doppler_bin: 8
bearing: -73.3007583618
intensity: 30.7664051056
---
header: 
  seq: 1549388
  stamp: 
    secs: 1561683697
    nsecs: 884994106
  frame_id: "ti_mmwave"
point_id: 1
x: 0.017578125
y: -0.080078125
z: -0.0078125
range: 0.0871539413929
velocity: 0.0
doppler_bin: 8
bearing: -77.6192398071
intensity: 32.0002937317
---
header: 
  seq: 1549389
  stamp: 
    secs: 1561683697
    nsecs: 885004031
  frame_id: "ti_mmwave"
point_id: 2
x: 0.029296875
y: -0.119140625
z: -0.00390625
range: 0.130730912089
velocity: 0.0
doppler_bin: 8
bearing: -76.1849746704
intensity: 30.2407493591
---
header: 
  seq: 1549390
  stamp: 
    secs: 1561683697
    nsecs: 885013878
  frame_id: "ti_mmwave"
point_id: 3
x: 0.056640625
y: -0.154296875
z: 0.005859375
range: 0.174307882786
velocity: 0.0
doppler_bin: 8
bearing: -69.8423843384
intensity: 25.5144996643
---
header: 
  seq: 1549391
  stamp: 
    secs: 1561683697
    nsecs: 885021921
  frame_id: "ti_mmwave"
point_id: 4
x: 0.3515625
y: -0.080078125
z: -1.216796875
range: 1.35088610649
velocity: 0.0
doppler_bin: 8
bearing: -12.83177948
intensity: 21.9865703583
---
header: 
  seq: 1549392
  stamp: 
    secs: 1561683697
    nsecs: 885029939
  frame_id: "ti_mmwave"
point_id: 5
x: 0.287109375
y: -0.041015625
z: 1.275390625
range: 1.39446306229
velocity: 0.0
doppler_bin: 8
bearing: -8.13010311127
intensity: 23.2633590698
---
header: 
  seq: 1549393
  stamp: 
    secs: 1561683697
    nsecs: 885038278
  frame_id: "ti_mmwave"
point_id: 6
x: 0.4609375
y: -0.04296875
z: 1.267578125
range: 1.43804001808
velocity: 0.0
doppler_bin: 8
bearing: -5.32574033737
intensity: 21.875207901
---
header: 
  seq: 1549394
  stamp: 
    secs: 1561683697
    nsecs: 885099072
  frame_id: "ti_mmwave"
point_id: 8
x: 1.59375
y: -0.0
z: 0.05078125
range: 1.69950187206
velocity: 0.0
doppler_bin: 8
bearing: -0.0
intensity: 26.1384181976
---
header: 
  seq: 1549395
  stamp: 
    secs: 1561683697
    nsecs: 885107832
  frame_id: "ti_mmwave"
point_id: 9
x: 1.693359375
y: -0.052734375
z: -0.2890625
range: 1.83023273945
velocity: 0.0
doppler_bin: 8
bearing: -1.78372108936
intensity: 27.7305469513
---
header: 
  seq: 1549396
  stamp: 
    secs: 1561683697
    nsecs: 885115652
  frame_id: "ti_mmwave"
point_id: 10
x: 1.71484375
y: -0.109375
z: -0.37890625
range: 1.87380969524
velocity: 0.0
doppler_bin: 8
bearing: -3.64945721626
intensity: 29.1645393372
---
header: 
  seq: 1549397
  stamp: 
    secs: 1561683697
    nsecs: 885123149
  frame_id: "ti_mmwave"
point_id: 11
x: 1.69921875
y: -0.224609375
z: -0.55078125
range: 1.91738677025
velocity: 0.0
doppler_bin: 8
bearing: -7.52992677689
intensity: 27.4429302216
---
header: 
  seq: 1549398
  stamp: 
    secs: 1561683697
    nsecs: 885132012
  frame_id: "ti_mmwave"
point_id: 12
x: 2.548828125
y: -0.263671875
z: 1.185546875
range: 3.00681090355
velocity: 0.0
doppler_bin: 8
bearing: -5.90614128113
intensity: 29.4596061707
---
header: 
  seq: 1549399
  stamp: 
    secs: 1561683697
    nsecs: 885139660
  frame_id: "ti_mmwave"
point_id: 13
x: 2.603515625
y: -0.267578125
z: 1.1640625
range: 3.05038785934
velocity: 0.0
doppler_bin: 8
bearing: -5.8680100441
intensity: 32.8148803711
---
header: 
  seq: 1549400
  stamp: 
    secs: 1561683697
    nsecs: 885147027
  frame_id: "ti_mmwave"
point_id: 14
x: 2.658203125
y: -0.271484375
z: 1.138671875
range: 3.09396481514
velocity: 0.0
doppler_bin: 8
bearing: -5.83144378662
intensity: 32.0248832703
---
header: 
  seq: 1549401
  stamp: 
    secs: 1561683697
    nsecs: 885156033
  frame_id: "ti_mmwave"
point_id: 15
x: 4.416015625
y: -0.287109375
z: 1.189453125
range: 4.88062095642
velocity: 0.0
doppler_bin: 8
bearing: -3.71987724304
intensity: 30.9061069489
---
header: 
  seq: 1549402
  stamp: 
    secs: 1561683697
    nsecs: 885163572
  frame_id: "ti_mmwave"
point_id: 16
x: 4.46875
y: -0.2890625
z: 1.1484375
range: 4.9241976738
velocity: 0.0
doppler_bin: 8
bearing: -3.70103907585
intensity: 30.3342380524
---
header: 
  seq: 1549403
  stamp: 
    secs: 1561683697
    nsecs: 885170994
  frame_id: "ti_mmwave"
point_id: 17
x: 4.880859375
y: -0.30859375
z: 0.759765625
range: 5.27281332016
velocity: 0.0
doppler_bin: 8
bearing: -3.61772704124
intensity: 30.7627620697
---
header: 
  seq: 1549404
  stamp: 
    secs: 1561683697
    nsecs: 885180736
  frame_id: "ti_mmwave"
point_id: 19
x: 0.041015625
y: -0.033203125
z: 0.0625
range: 0.0871539413929
velocity: 0.0
doppler_bin: 8
bearing: -38.9909973145
intensity: 30.1661548615
---
header: 
  seq: 1549405
  stamp: 
    secs: 1561683697
    nsecs: 885188223
  frame_id: "ti_mmwave"
point_id: 20
x: 0.044921875
y: -0.046875
z: 0.103515625
range: 0.130730912089
velocity: 0.0
doppler_bin: 8
bearing: -46.218875885
intensity: 29.0633506775
---
header: 
  seq: 1549406
  stamp: 
    secs: 1561683697
    nsecs: 885199164
  frame_id: "ti_mmwave"
point_id: 22
x: 1.12109375
y: -0.515625
z: 0.294921875
range: 1.35088610649
velocity: 0.0
doppler_bin: 8
bearing: -24.6991329193
intensity: 19.0848503113
---
header: 
  seq: 1549407
  stamp: 
    secs: 1561683697
    nsecs: 885206983
  frame_id: "ti_mmwave"
point_id: 23
x: 1.552734375
y: -0.048828125
z: -0.0234375
range: 1.65592491627
velocity: 0.0
doppler_bin: 8
bearing: -1.80116057396
intensity: 24.0993309021
---
header: 
  seq: 1549408
  stamp: 
    secs: 1561683697
    nsecs: 885290619
  frame_id: "ti_mmwave"
point_id: 25
x: 2.90625
y: -2.021484375
z: -2.97265625
range: 4.9241976738
velocity: 0.0
doppler_bin: 8
bearing: -34.8211021423
intensity: 27.4429302216
---
header: 
  seq: 1549409
  stamp: 
    secs: 1561683697
    nsecs: 943278923
  frame_id: "ti_mmwave"
point_id: 0
x: 0.01171875
y: -0.0390625
z: -0.0078125
range: 0.0435769706964
velocity: 0.0
doppler_bin: 8
bearing: -73.3007583618
intensity: 30.7664051056
---
header: 
  seq: 1549410
  stamp: 
    secs: 1561683697
    nsecs: 943401871
  frame_id: "ti_mmwave"
point_id: 1
x: 0.017578125
y: -0.080078125
z: -0.0078125
range: 0.0871539413929
velocity: 0.0
doppler_bin: 8
bearing: -77.6192398071
intensity: 32.0057678223
---
header: 
  seq: 1549411
  stamp: 
    secs: 1561683697
    nsecs: 943421545
  frame_id: "ti_mmwave"
point_id: 2
x: 0.029296875
y: -0.119140625
z: -0.005859375
range: 0.130730912089
velocity: 0.0
doppler_bin: 8
bearing: -76.1849746704
intensity: 30.2530593872
---
header: 
  seq: 1549412
  stamp: 
    secs: 1561683697
    nsecs: 943434859
  frame_id: "ti_mmwave"
point_id: 3
x: 0.056640625
y: -0.154296875
z: 0.005859375
range: 0.174307882786
velocity: 0.0
doppler_bin: 8
bearing: -69.8423843384
intensity: 25.5388298035
---
header: 
  seq: 1549413
  stamp: 
    secs: 1561683697
    nsecs: 943468146
  frame_id: "ti_mmwave"
point_id: 4
x: 0.37109375
y: -0.080078125
z: -1.2109375
range: 1.35088610649
velocity: 0.0
doppler_bin: 8
bearing: -12.177107811
intensity: 21.9033164978
---
header: 
  seq: 1549414
  stamp: 
    secs: 1561683697
    nsecs: 943622254
  frame_id: "ti_mmwave"
point_id: 5
x: 0.23046875
y: -0.041015625
z: 1.287109375
range: 1.39446306229
velocity: 0.0
doppler_bin: 8
bearing: -10.0910568237
intensity: 23.2428245544
---
header: 
  seq: 1549415
  stamp: 
    secs: 1561683697
    nsecs: 943671670
  frame_id: "ti_mmwave"
point_id: 6
x: 0.4296875
y: -0.04296875
z: 1.279296875
range: 1.43804001808
velocity: 0.0
doppler_bin: 8
bearing: -5.71059322357
intensity: 21.8469142914
---
header: 
  seq: 1549416
  stamp: 
    secs: 1561683697
    nsecs: 943684195
  frame_id: "ti_mmwave"
point_id: 7
x: 0.462890625
y: 0.630859375
z: 1.34375
range: 1.65592491627
velocity: 0.0
doppler_bin: 8
bearing: 53.7307815552
intensity: 25.2113800049
---
header: 
  seq: 1549417
  stamp: 
    secs: 1561683697
    nsecs: 943723804
  frame_id: "ti_mmwave"
point_id: 8
x: 1.59375
y: -0.0
z: -0.046875
range: 1.69950187206
velocity: 0.0
doppler_bin: 8
bearing: -0.0
intensity: 27.3479976654
---
header: 
  seq: 1549418
  stamp: 
    secs: 1561683697
    nsecs: 943732963
  frame_id: "ti_mmwave"
point_id: 9
x: 1.634765625
y: -0.05078125
z: -0.064453125
range: 1.74307882786
velocity: 0.0
doppler_bin: 8
bearing: -1.77922511101
intensity: 26.6838588715
---
header: 
  seq: 1549419
  stamp: 
    secs: 1561683697
    nsecs: 943743642
  frame_id: "ti_mmwave"
point_id: 10
x: 1.666015625
y: -0.052734375
z: -0.419921875
range: 1.83023273945
velocity: 0.0
doppler_bin: 8
bearing: -1.8129774332
intensity: 27.5281639099
---
header: 
  seq: 1549420
  stamp: 
    secs: 1561683697
    nsecs: 943785886
  frame_id: "ti_mmwave"
point_id: 11
x: 1.71484375
y: -0.0546875
z: -0.384765625
range: 1.87380969524
velocity: 0.0
doppler_bin: 8
bearing: -1.8265812397
intensity: 29.2737045288
---
header: 
  seq: 1549421
  stamp: 
    secs: 1561683697
    nsecs: 943803195
  frame_id: "ti_mmwave"
point_id: 12
x: 1.763671875
y: -0.056640625
z: -0.3515625
range: 1.91738677025
velocity: 0.0
doppler_bin: 8
bearing: -1.83943164349
intensity: 27.3319721222
---
header: 
  seq: 1549422
  stamp: 
    secs: 1561683697
    nsecs: 943840545
  frame_id: "ti_mmwave"
point_id: 13
x: 2.5390625
y: -0.263671875
z: 1.203125
range: 3.00681090355
velocity: 0.0
doppler_bin: 8
bearing: -5.92869567871
intensity: 29.4299964905
---
header: 
  seq: 1549423
  stamp: 
    secs: 1561683697
    nsecs: 943867374
  frame_id: "ti_mmwave"
point_id: 14
x: 2.603515625
y: -0.267578125
z: 1.16015625
range: 3.05038785934
velocity: 0.0
doppler_bin: 8
bearing: -5.8680100441
intensity: 32.8035087585
---
header: 
  seq: 1549424
  stamp: 
    secs: 1561683697
    nsecs: 943922867
  frame_id: "ti_mmwave"
point_id: 15
x: 2.666015625
y: -0.271484375
z: 1.1171875
range: 3.09396481514
velocity: 0.0
doppler_bin: 8
bearing: -5.81447267532
intensity: 32.0628585815
---
header: 
  seq: 1549425
  stamp: 
    secs: 1561683697
    nsecs: 943939241
  frame_id: "ti_mmwave"
point_id: 16
x: 4.41796875
y: -0.287109375
z: 1.181640625
range: 4.88062095642
velocity: 0.0
doppler_bin: 8
bearing: -3.71823716164
intensity: 30.9166698456
---
header: 
  seq: 1549426
  stamp: 
    secs: 1561683697
    nsecs: 943950109
  frame_id: "ti_mmwave"
point_id: 17
x: 4.48046875
y: -0.2890625
z: 1.095703125
range: 4.9241976738
velocity: 0.0
doppler_bin: 8
bearing: -3.69138598442
intensity: 30.358297348
---
header: 
  seq: 1549427
  stamp: 
    secs: 1561683697
    nsecs: 943960795
  frame_id: "ti_mmwave"
point_id: 18
x: 4.755859375
y: -0.453125
z: -0.693359375
range: 5.14208269119
velocity: 0.0
doppler_bin: 8
bearing: -5.44255256653
intensity: 30.3342380524
---
header: 
  seq: 1549428
  stamp: 
    secs: 1561683697
    nsecs: 944005829
  frame_id: "ti_mmwave"
point_id: 19
x: 4.876953125
y: -0.30859375
z: 0.78515625
range: 5.27281332016
velocity: 0.0
doppler_bin: 8
bearing: -3.62061715126
intensity: 30.6445808411
---
header: 
  seq: 1549429
  stamp: 
    secs: 1561683697
    nsecs: 944055933
  frame_id: "ti_mmwave"
point_id: 21
x: 0.041015625
y: -0.033203125
z: 0.0625
range: 0.0871539413929
velocity: 0.0
doppler_bin: 8
bearing: -38.9909973145
intensity: 30.1661548615
---
header: 
  seq: 1549430
  stamp: 
    secs: 1561683697
    nsecs: 944083725
  frame_id: "ti_mmwave"
point_id: 22
x: 0.044921875
y: -0.046875
z: 0.103515625
range: 0.130730912089
velocity: 0.0
doppler_bin: 8
bearing: -46.218875885
intensity: 29.0633506775
---
header: 
  seq: 1549431
  stamp: 
    secs: 1561683697
    nsecs: 944102678
  frame_id: "ti_mmwave"
point_id: 24
x: 1.119140625
y: -0.474609375
z: 0.361328125
range: 1.35088610649
velocity: 0.0
doppler_bin: 8
bearing: -22.9810123444
intensity: 19.1381378174
---
header: 
  seq: 1549432
  stamp: 
    secs: 1561683697
    nsecs: 944209708
  frame_id: "ti_mmwave"
point_id: 25
x: 1.55078125
y: 0.048828125
z: 0.1015625
range: 1.65592491627
velocity: 0.0
doppler_bin: 8
bearing: 1.80342757702
intensity: 25.1851387024
---
header: 
  seq: 1549433
  stamp: 
    secs: 1561683697
    nsecs: 944226558
  frame_id: "ti_mmwave"
point_id: 26
x: 2.83203125
y: -2.021484375
z: -3.04296875
range: 4.9241976738
velocity: 0.0
doppler_bin: 8
bearing: -35.5189857483
intensity: 27.4896278381
---
header: 
  seq: 1549434
  stamp: 
    secs: 1561683698
    nsecs:   3415052
  frame_id: "ti_mmwave"
point_id: 0
x: 0.01171875
y: -0.0390625
z: -0.0078125
range: 0.0435769706964
velocity: 0.0
doppler_bin: 8
bearing: -73.3007583618
intensity: 30.7664051056
---
header: 
  seq: 1549435
  stamp: 
    secs: 1561683698
    nsecs:   3493433
  frame_id: "ti_mmwave"
point_id: 1
x: 0.017578125
y: -0.080078125
z: -0.0078125
range: 0.0871539413929
velocity: 0.0
doppler_bin: 8
bearing: -77.6192398071
intensity: 32.0085067749
---
header: 
  seq: 1549436
  stamp: 
    secs: 1561683698
    nsecs:   3504819
  frame_id: "ti_mmwave"
point_id: 2
x: 0.029296875
y: -0.119140625
z: -0.005859375
range: 0.130730912089
velocity: 0.0
doppler_bin: 8
bearing: -76.1849746704
intensity: 30.2530593872
---
header: 
  seq: 1549437
  stamp: 
    secs: 1561683698
    nsecs:   3513021
  frame_id: "ti_mmwave"
point_id: 3
x: 0.056640625
y: -0.154296875
z: 0.005859375
range: 0.174307882786
velocity: 0.0
doppler_bin: 8
bearing: -69.8423843384
intensity: 25.5388298035
---
header: 
  seq: 1549438
  stamp: 
    secs: 1561683698
    nsecs:   3523526
  frame_id: "ti_mmwave"
point_id: 4
x: 0.361328125
y: -0.080078125
z: -1.212890625
range: 1.35088610649
velocity: 0.0
doppler_bin: 8
bearing: -12.4960107803
intensity: 21.9312458038
---
header: 
  seq: 1549439
  stamp: 
    secs: 1561683698
    nsecs:   3531734
  frame_id: "ti_mmwave"
point_id: 5
x: 0.283203125
y: -0.041015625
z: 1.27734375
range: 1.39446306229
velocity: 0.0
doppler_bin: 8
bearing: -8.24071216583
intensity: 23.2633590698
---
header: 
  seq: 1549440
  stamp: 
    secs: 1561683698
    nsecs:   3540005
  frame_id: "ti_mmwave"
point_id: 6
x: 0.4765625
y: -0.04296875
z: 1.26171875
range: 1.43804001808
velocity: 0.0
doppler_bin: 8
bearing: -5.15208148956
intensity: 21.8469142914
---
header: 
  seq: 1549441
  stamp: 
    secs: 1561683698
    nsecs:   3552569
  frame_id: "ti_mmwave"
point_id: 8
x: 2.54296875
y: -0.263671875
z: 1.197265625
range: 3.00681090355
velocity: 0.0
doppler_bin: 8
bearing: -5.91965341568
intensity: 29.4398880005
---
header: 
  seq: 1549442
  stamp: 
    secs: 1561683698
    nsecs:   3561034
  frame_id: "ti_mmwave"
point_id: 9
x: 2.59765625
y: -0.267578125
z: 1.173828125
range: 3.05038785934
velocity: 0.0
doppler_bin: 8
bearing: -5.88115358353
intensity: 32.7554168701
---
header: 
  seq: 1549443
  stamp: 
    secs: 1561683698
    nsecs:   3568797
  frame_id: "ti_mmwave"
point_id: 10
x: 2.658203125
y: -0.181640625
z: 1.158203125
range: 3.09396481514
velocity: 0.0
doppler_bin: 8
bearing: -3.90906453133
intensity: 31.9312458038
---
header: 
  seq: 1549444
  stamp: 
    secs: 1561683698
    nsecs:   3576906
  frame_id: "ti_mmwave"
point_id: 11
x: 4.416015625
y: -0.287109375
z: 1.1875
range: 4.88062095642
velocity: 0.0
doppler_bin: 8
bearing: -3.71987724304
intensity: 30.824262619
---
header: 
  seq: 1549445
  stamp: 
    secs: 1561683698
    nsecs:   3585243
  frame_id: "ti_mmwave"
point_id: 12
x: 4.474609375
y: -0.2890625
z: 1.126953125
range: 4.9241976738
velocity: 0.0
doppler_bin: 8
bearing: -3.69620633125
intensity: 30.1535968781
---
header: 
  seq: 1549446
  stamp: 
    secs: 1561683698
    nsecs:   3594659
  frame_id: "ti_mmwave"
point_id: 13
x: 4.7265625
y: -0.44921875
z: -0.595703125
range: 5.09850549698
velocity: 0.0
doppler_bin: 8
bearing: -5.42915868759
intensity: 30.6818580627
---
header: 
  seq: 1549447
  stamp: 
    secs: 1561683698
    nsecs:   3603248
  frame_id: "ti_mmwave"
point_id: 14
x: 4.748046875
y: -0.603515625
z: -0.6328125
range: 5.14208269119
velocity: 0.0
doppler_bin: 8
bearing: -7.24391698837
intensity: 31.5136985779
---
header: 
  seq: 1549448
  stamp: 
    secs: 1561683698
    nsecs:   3612722
  frame_id: "ti_mmwave"
point_id: 15
x: 4.861328125
y: -0.46484375
z: 0.806640625
range: 5.27281332016
velocity: 0.0
doppler_bin: 8
bearing: -5.46205759048
intensity: 30.6669845581
---
header: 
  seq: 1549449
  stamp: 
    secs: 1561683698
    nsecs:   3622963
  frame_id: "ti_mmwave"
point_id: 17
x: 0.041015625
y: -0.033203125
z: 0.0625
range: 0.0871539413929
velocity: 0.0
doppler_bin: 8
bearing: -38.9909973145
intensity: 30.1745071411
---
header: 
  seq: 1549450
  stamp: 
    secs: 1561683698
    nsecs:   3643600
  frame_id: "ti_mmwave"
point_id: 18
x: 0.044921875
y: -0.046875
z: 0.103515625
range: 0.130730912089
velocity: 0.0
doppler_bin: 8
bearing: -46.218875885
intensity: 29.0633506775
---
header: 
  seq: 1549451
  stamp: 
    secs: 1561683698
    nsecs:   3656016
  frame_id: "ti_mmwave"
point_id: 20
x: 1.203125
y: 0.357421875
z: 0.185546875
range: 1.35088610649
velocity: 0.0
doppler_bin: 8
bearing: 16.5455226898
intensity: 19.0848503113
---
header: 
  seq: 1549452
  stamp: 
    secs: 1561683698
    nsecs:   3833288
  frame_id: "ti_mmwave"
point_id: 21
x: 0.265625
y: 0.630859375
z: 1.39453125
range: 1.65592491627
velocity: 0.0
doppler_bin: 8
bearing: 67.166343689
intensity: 24.8429985046
---
header: 
  seq: 1549453
  stamp: 
    secs: 1561683698
    nsecs:   3853369
  frame_id: "ti_mmwave"
point_id: 22
x: 2.892578125
y: -1.861328125
z: -3.02734375
range: 4.88062095642
velocity: 0.0
doppler_bin: 8
bearing: -32.760635376
intensity: 27.8318862915
---
header: 
  seq: 1549454
  stamp: 
    secs: 1561683698
    nsecs:   3865319
  frame_id: "ti_mmwave"
point_id: 23
x: 2.884765625
y: -2.021484375
z: -2.994140625
range: 4.9241976738
velocity: 0.0
doppler_bin: 8
bearing: -35.0206489563
intensity: 27.3957233429
---
header: 
  seq: 1549455
  stamp: 
    secs: 1561683698
    nsecs:   4881456
  frame_id: "ti_mmwave"
point_id: 0
x: 0.01171875
y: -0.0390625
z: -0.0078125
range: 0.0435769706964
velocity: 0.0
doppler_bin: 8
bearing: -73.3007583618
intensity: 30.7591171265
---
header: 
  seq: 1549456
  stamp: 
    secs: 1561683698
    nsecs:   4948309
  frame_id: "ti_mmwave"
point_id: 1
x: 0.017578125
y: -0.080078125
z: -0.0078125
range: 0.0871539413929
velocity: 0.0
doppler_bin: 8
bearing: -77.6192398071
intensity: 32.0030326843
---
header: 
  seq: 1549457
  stamp: 
    secs: 1561683698
    nsecs:   4968223
  frame_id: "ti_mmwave"
point_id: 2
x: 0.041015625
y: -0.115234375
z: -0.0078125
range: 0.130730912089
velocity: 0.0
doppler_bin: 8
bearing: -70.4077224731
intensity: 30.2448558807
---
header: 
  seq: 1549458
  stamp: 
    secs: 1561683698
    nsecs:   4980490
  frame_id: "ti_mmwave"
point_id: 3
x: 0.056640625
y: -0.154296875
z: 0.005859375
range: 0.174307882786
velocity: 0.0
doppler_bin: 8
bearing: -69.8423843384
intensity: 25.5266819
---
header: 
  seq: 1549459
  stamp: 
    secs: 1561683698
    nsecs:   4992282
  frame_id: "ti_mmwave"
point_id: 4
x: 0.36328125
y: -0.080078125
z: -1.212890625
range: 1.35088610649
velocity: 0.0
doppler_bin: 8
bearing: -12.4309225082
intensity: 21.9865703583
---
header: 
  seq: 1549460
  stamp: 
    secs: 1561683698
    nsecs:   5004094
  frame_id: "ti_mmwave"
point_id: 5
x: 0.275390625
y: -0.041015625
z: 1.279296875
range: 1.39446306229
velocity: 0.0
doppler_bin: 8
bearing: -8.47114467621
intensity: 23.3041381836
---
header: 
  seq: 1549461
  stamp: 
    secs: 1561683698
    nsecs:   5017054
  frame_id: "ti_mmwave"
point_id: 6
x: 0.357421875
y: -0.0
z: 1.302734375
range: 1.43804001808
velocity: 0.0
doppler_bin: 8
bearing: -0.0
intensity: 21.9033164978
---
header: 
  seq: 1549462
  stamp: 
    secs: 1561683698
    nsecs:   5039005
  frame_id: "ti_mmwave"
point_id: 7
x: 1.513671875
y: -0.0
z: 0.0078125
range: 1.61234796047
velocity: 0.0
doppler_bin: 8
bearing: -0.0
intensity: 25.7170886993
---
header: 
  seq: 1549463
  stamp: 
    secs: 1561683698
    nsecs:   5125402
  frame_id: "ti_mmwave"
point_id: 8
x: 1.5546875
y: -0.0
z: -0.0390625
range: 1.65592491627
velocity: 0.0
doppler_bin: 8
bearing: -0.0
intensity: 29.1960105896
---
header: 
  seq: 1549464
  stamp: 
    secs: 1561683698
    nsecs:   5141172
  frame_id: "ti_mmwave"
point_id: 9
x: 1.59375
y: -0.0
z: -0.0859375
range: 1.69950187206
velocity: 0.0
doppler_bin: 8
bearing: -0.0
intensity: 29.0254669189
---
header: 
  seq: 1549465
  stamp: 
    secs: 1561683698
    nsecs:   5152634
  frame_id: "ti_mmwave"
point_id: 10
x: 1.736328125
y: 0.109375
z: -0.259765625
range: 1.87380969524
velocity: 0.0
doppler_bin: 8
bearing: 3.60442066193
intensity: 27.8604125977
---
header: 
  seq: 1549466
  stamp: 
    secs: 1561683698
    nsecs:   5163551
  frame_id: "ti_mmwave"
point_id: 11
x: 1.779296875
y: 0.056640625
z: -0.263671875
range: 1.91738677025
velocity: 0.0
doppler_bin: 8
bearing: 1.82328927517
intensity: 27.0415058136
---
header: 
  seq: 1549467
  stamp: 
    secs: 1561683698
    nsecs:   5174130
  frame_id: "ti_mmwave"
point_id: 12
x: 2.55859375
y: -0.263671875
z: 1.162109375
range: 3.00681090355
velocity: 0.0
doppler_bin: 8
bearing: -5.88375711441
intensity: 29.4743366241
---
header: 
  seq: 1549468
  stamp: 
    secs: 1561683698
    nsecs:   5188151
  frame_id: "ti_mmwave"
point_id: 13
x: 2.611328125
y: -0.267578125
z: 1.14453125
range: 3.05038785934
velocity: 0.0
doppler_bin: 8
bearing: -5.85057687759
intensity: 32.8148803711
---
header: 
  seq: 1549469
  stamp: 
    secs: 1561683698
    nsecs:   5199884
  frame_id: "ti_mmwave"
point_id: 14
x: 2.66796875
y: -0.271484375
z: 1.11328125
range: 3.09396481514
velocity: 0.0
doppler_bin: 8
bearing: -5.81024503708
intensity: 32.0276069641
---
header: 
  seq: 1549470
  stamp: 
    secs: 1561683698
    nsecs:   5214490
  frame_id: "ti_mmwave"
point_id: 15
x: 4.408203125
y: -0.287109375
z: 1.21484375
range: 4.88062095642
velocity: 0.0
doppler_bin: 8
bearing: -3.72645139694
intensity: 30.7408466339
---
header: 
  seq: 1549471
  stamp: 
    secs: 1561683698
    nsecs:   5278240
  frame_id: "ti_mmwave"
point_id: 16
x: 4.45703125
y: -0.2890625
z: 1.189453125
range: 4.9241976738
velocity: 0.0
doppler_bin: 8
bearing: -3.71074318886
intensity: 30.0346050262
---
header: 
  seq: 1549472
  stamp: 
    secs: 1561683698
    nsecs:   5295285
  frame_id: "ti_mmwave"
point_id: 17
x: 4.740234375
y: -0.44921875
z: -0.490234375
range: 5.09850549698
velocity: 0.0
doppler_bin: 8
bearing: -5.41359329224
intensity: 30.4610481262
---
header: 
  seq: 1549473
  stamp: 
    secs: 1561683698
    nsecs:   5307523
  frame_id: "ti_mmwave"
point_id: 18
x: 4.779296875
y: -0.453125
z: -0.505859375
range: 5.14208269119
velocity: 0.0
doppler_bin: 8
bearing: -5.41602182388
intensity: 31.4019374847
---
header: 
  seq: 1549474
  stamp: 
    secs: 1561683698
    nsecs:   5318350
  frame_id: "ti_mmwave"
point_id: 19
x: 4.857421875
y: -0.46484375
z: 0.833984375
range: 5.27281332016
velocity: 0.0
doppler_bin: 8
bearing: -5.46642303467
intensity: 30.546131134
---
header: 
  seq: 1549475
  stamp: 
    secs: 1561683698
    nsecs:   5335134
  frame_id: "ti_mmwave"
point_id: 21
x: 0.041015625
y: -0.033203125
z: 0.0625
range: 0.0871539413929
velocity: 0.0
doppler_bin: 8
bearing: -38.9909973145
intensity: 30.1619739532
---
header: 
  seq: 1549476
  stamp: 
    secs: 1561683698
    nsecs:   5346961
  frame_id: "ti_mmwave"
point_id: 22
x: 0.044921875
y: -0.046875
z: 0.103515625
range: 0.130730912089
velocity: 0.0
doppler_bin: 8
bearing: -46.218875885
intensity: 29.0579586029
---
header: 
  seq: 1549477
  stamp: 
    secs: 1561683698
    nsecs:   5360865
  frame_id: "ti_mmwave"
point_id: 24
x: 0.119140625
y: 0.51953125
z: 1.416015625
range: 1.61234796047
velocity: 0.0
doppler_bin: 8
bearing: 77.0840682983
intensity: 23.9794006348
---
header: 
  seq: 1549478
  stamp: 
    secs: 1561683698
    nsecs:   5371802
  frame_id: "ti_mmwave"
point_id: 25
x: 0.27734375
y: 0.53515625
z: 1.43359375
range: 1.65592491627
velocity: 0.0
doppler_bin: 8
bearing: 62.6046333313
intensity: 26.2736587524
---
header: 
  seq: 1549479
  stamp: 
    secs: 1561683698
    nsecs:   5401297
  frame_id: "ti_mmwave"
point_id: 26
x: 2.919921875
y: -1.861328125
z: -3.0
range: 4.88062095642
velocity: 0.0
doppler_bin: 8
bearing: -32.5158081055
intensity: 27.7451705933
---
header: 
  seq: 1549480
  stamp: 
    secs: 1561683698
    nsecs:   5424189
  frame_id: "ti_mmwave"
point_id: 27
x: 2.94921875
y: -2.021484375
z: -2.9296875
range: 4.9241976738
velocity: 0.0
doppler_bin: 8
bearing: -34.4279289246
intensity: 27.2672729492
---
header: 
  seq: 1549481
  stamp: 
    secs: 1561683698
    nsecs:  63276439
  frame_id: "ti_mmwave"
point_id: 0
x: 0.01171875
y: -0.0390625
z: -0.0078125
range: 0.0435769706964
velocity: 0.0
doppler_bin: 8
bearing: -73.3007583618
intensity: 30.7664051056
---
header: 
  seq: 1549482
  stamp: 
    secs: 1561683698
    nsecs:  63353462
  frame_id: "ti_mmwave"
point_id: 1
x: 0.017578125
y: -0.080078125
z: -0.0078125
range: 0.0871539413929
velocity: 0.0
doppler_bin: 8
bearing: -77.6192398071
intensity: 32.0030326843
---
header: 
  seq: 1549483
  stamp: 
    secs: 1561683698
    nsecs:  63401368
  frame_id: "ti_mmwave"
point_id: 2
x: 0.029296875
y: -0.119140625
z: -0.005859375
range: 0.130730912089
velocity: 0.0
doppler_bin: 8
bearing: -76.1849746704
intensity: 30.248960495
---
header: 
  seq: 1549484
  stamp: 
    secs: 1561683698
    nsecs:  63411594
  frame_id: "ti_mmwave"
point_id: 3
x: 0.056640625
y: -0.154296875
z: 0.005859375
range: 0.174307882786
velocity: 0.0
doppler_bin: 8
bearing: -69.8423843384
intensity: 25.5266819
---
header: 
  seq: 1549485
  stamp: 
    secs: 1561683698
    nsecs:  63419807
  frame_id: "ti_mmwave"
point_id: 4
x: 0.349609375
y: -0.080078125
z: -1.216796875
range: 1.35088610649
velocity: 0.0
doppler_bin: 8
bearing: -12.9010734558
intensity: 21.9033164978
---
header: 
  seq: 1549486
  stamp: 
    secs: 1561683698
    nsecs:  63430092
  frame_id: "ti_mmwave"
point_id: 5
x: 0.29296875
y: -0.041015625
z: 1.275390625
range: 1.39446306229
velocity: 0.0
doppler_bin: 8
bearing: -7.96961069107
intensity: 23.2633590698
---
header: 
  seq: 1549487
  stamp: 
    secs: 1561683698
    nsecs:  63457482
  frame_id: "ti_mmwave"
point_id: 6
x: 0.462890625
y: -0.04296875
z: 1.267578125
range: 1.43804001808
velocity: 0.0
doppler_bin: 8
bearing: -5.30339765549
intensity: 21.9033164978
---
header: 
  seq: 1549488
  stamp: 
    secs: 1561683698
    nsecs:  63470643
  frame_id: "ti_mmwave"
point_id: 7
x: 1.5078125
y: -0.046875
z: -0.115234375
range: 1.61234796047
velocity: 0.0
doppler_bin: 8
bearing: -1.78064239025
intensity: 27.1264972687
---
header: 
  seq: 1549489
  stamp: 
    secs: 1561683698
    nsecs:  63479538
  frame_id: "ti_mmwave"
point_id: 8
x: 1.55078125
y: -0.048828125
z: -0.10546875
range: 1.65592491627
velocity: 0.0
doppler_bin: 8
bearing: -1.80342757702
intensity: 29.9956550598
---
header: 
  seq: 1549490
  stamp: 
    secs: 1561683698
    nsecs:  63488623
  frame_id: "ti_mmwave"
point_id: 9
x: 1.591796875
y: -0.05078125
z: -0.107421875
range: 1.69950187206
velocity: 0.0
doppler_bin: 8
bearing: -1.82722115517
intensity: 29.3348731995
---
header: 
  seq: 1549491
  stamp: 
    secs: 1561683698
    nsecs:  63497082
  frame_id: "ti_mmwave"
point_id: 10
x: 2.560546875
y: -0.263671875
z: 1.158203125
range: 3.00681090355
velocity: 0.0
doppler_bin: 8
bearing: -5.87930107117
intensity: 29.4939002991
---
header: 
  seq: 1549492
  stamp: 
    secs: 1561683698
    nsecs:  63519344
  frame_id: "ti_mmwave"
point_id: 11
x: 2.611328125
y: -0.267578125
z: 1.14453125
range: 3.05038785934
velocity: 0.0
doppler_bin: 8
bearing: -5.85057687759
intensity: 32.8284873962
---
header: 
  seq: 1549493
  stamp: 
    secs: 1561683698
    nsecs:  63534120
  frame_id: "ti_mmwave"
point_id: 12
x: 2.66796875
y: -0.271484375
z: 1.115234375
range: 3.09396481514
velocity: 0.0
doppler_bin: 8
bearing: -5.81024503708
intensity: 32.0520439148
---
header: 
  seq: 1549494
  stamp: 
    secs: 1561683698
    nsecs:  63549802
  frame_id: "ti_mmwave"
point_id: 13
x: 4.41015625
y: -0.287109375
z: 1.205078125
range: 4.88062095642
velocity: 0.0
doppler_bin: 8
bearing: -3.72480559349
intensity: 30.7554702759
---
header: 
  seq: 1549495
  stamp: 
    secs: 1561683698
    nsecs:  63565008
  frame_id: "ti_mmwave"
point_id: 14
x: 4.46484375
y: -0.2890625
z: 1.1640625
range: 4.9241976738
velocity: 0.0
doppler_bin: 8
bearing: -3.70426845551
intensity: 30.1029987335
---
header: 
  seq: 1549496
  stamp: 
    secs: 1561683698
    nsecs:  63572927
  frame_id: "ti_mmwave"
point_id: 15
x: 4.890625
y: -0.30859375
z: 0.697265625
range: 5.27281332016
velocity: 0.0
doppler_bin: 8
bearing: -3.61052203178
intensity: 30.700378418
---
header: 
  seq: 1549497
  stamp: 
    secs: 1561683698
    nsecs:  63678177
  frame_id: "ti_mmwave"
point_id: 17
x: 0.041015625
y: -0.033203125
z: 0.0625
range: 0.0871539413929
velocity: 0.0
doppler_bin: 8
bearing: -38.9909973145
intensity: 30.1661548615
---
header: 
  seq: 1549498
  stamp: 
    secs: 1561683698
    nsecs:  63695086
  frame_id: "ti_mmwave"
point_id: 18
x: 0.044921875
y: -0.046875
z: 0.103515625
range: 0.130730912089
velocity: 0.0
doppler_bin: 8
bearing: -46.218875885
intensity: 29.0579586029
---
header: 
  seq: 1549499
  stamp: 
    secs: 1561683698
    nsecs:  63736640
  frame_id: "ti_mmwave"
point_id: 20
x: 1.1171875
y: -0.515625
z: 0.3046875
range: 1.35088610649
velocity: 0.0
doppler_bin: 8
bearing: -24.7751407623
intensity: 19.0308990479
---
header: 
  seq: 1549500
  stamp: 
    secs: 1561683698
    nsecs:  63753361
  frame_id: "ti_mmwave"
point_id: 21
x: 2.96875
y: -2.021484375
z: -2.91015625
range: 4.9241976738
velocity: 0.0
doppler_bin: 8
bearing: -34.2517738342
intensity: 27.2427577972
---
header: 
  seq: 1549501
  stamp: 
    secs: 1561683698
    nsecs:  64759857
  frame_id: "ti_mmwave"
point_id: 0
x: 0.01171875
y: -0.0390625
z: -0.0078125
range: 0.0435769706964
velocity: 0.0
doppler_bin: 8
bearing: -73.3007583618
intensity: 30.7627620697
---
header: 
  seq: 1549502
  stamp: 
    secs: 1561683698
    nsecs:  64824735
  frame_id: "ti_mmwave"
point_id: 1
x: 0.017578125
y: -0.080078125
z: -0.0078125
range: 0.0871539413929
velocity: 0.0
doppler_bin: 8
bearing: -77.6192398071
intensity: 32.0030326843
---
header: 
  seq: 1549503
  stamp: 
    secs: 1561683698
    nsecs:  64844125
  frame_id: "ti_mmwave"
point_id: 2
x: 0.029296875
y: -0.119140625
z: -0.00390625
range: 0.130730912089
velocity: 0.0
doppler_bin: 8
bearing: -76.1849746704
intensity: 30.248960495
---
header: 
  seq: 1549504
  stamp: 
    secs: 1561683698
    nsecs:  64856933
  frame_id: "ti_mmwave"
point_id: 3
x: 0.056640625
y: -0.154296875
z: 0.005859375
range: 0.174307882786
velocity: 0.0
doppler_bin: 8
bearing: -69.8423843384
intensity: 25.5266819
---
header: 
  seq: 1549505
  stamp: 
    secs: 1561683698
    nsecs:  64919899
  frame_id: "ti_mmwave"
point_id: 4
x: 0.33203125
y: -0.080078125
z: -1.220703125
range: 1.35088610649
velocity: 0.0
doppler_bin: 8
bearing: -13.5594520569
intensity: 21.9589958191
---
header: 
  seq: 1549506
  stamp: 
    secs: 1561683698
    nsecs:  64930580
  frame_id: "ti_mmwave"
point_id: 5
x: 0.3125
y: -0.041015625
z: 1.271484375
range: 1.39446306229
velocity: 0.0
doppler_bin: 8
bearing: -7.47732973099
intensity: 23.2633590698
---
header: 
  seq: 1549507
  stamp: 
    secs: 1561683698
    nsecs:  64938325
  frame_id: "ti_mmwave"
point_id: 6
x: 0.5078125
y: -0.04296875
z: 1.25
range: 1.43804001808
velocity: 0.0
doppler_bin: 8
bearing: -4.83658361435
intensity: 21.9312458038
---
header: 
  seq: 1549508
  stamp: 
    secs: 1561683698
    nsecs:  64947538
  frame_id: "ti_mmwave"
point_id: 7
x: 1.513671875
y: -0.046875
z: 0.0
range: 1.61234796047
velocity: 0.0
doppler_bin: 8
bearing: -1.77375400066
intensity: 25.4282550812
---
header: 
  seq: 1549509
  stamp: 
    secs: 1561683698
    nsecs:  64955082
  frame_id: "ti_mmwave"
point_id: 8
x: 1.552734375
y: -0.0
z: -0.076171875
range: 1.65592491627
velocity: 0.0
doppler_bin: 8
bearing: -0.0
intensity: 27.1011734009
---
header: 
  seq: 1549510
  stamp: 
    secs: 1561683698
    nsecs:  64964985
  frame_id: "ti_mmwave"
point_id: 9
x: 2.5546875
y: -0.263671875
z: 1.171875
range: 3.00681090355
velocity: 0.0
doppler_bin: 8
bearing: -5.89269018173
intensity: 29.3901977539
---
header: 
  seq: 1549511
  stamp: 
    secs: 1561683698
    nsecs:  64973386
  frame_id: "ti_mmwave"
point_id: 10
x: 2.609375
y: -0.267578125
z: 1.150390625
range: 3.05038785934
velocity: 0.0
doppler_bin: 8
bearing: -5.85492515564
intensity: 32.7692108154
---
header: 
  seq: 1549512
  stamp: 
    secs: 1561683698
    nsecs:  64978257
  frame_id: "ti_mmwave"
point_id: 11
x: 2.666015625
y: -0.181640625
z: 1.13671875
range: 3.09396481514
velocity: 0.0
doppler_bin: 8
bearing: -3.89764523506
intensity: 31.9920654297
---
header: 
  seq: 1549513
  stamp: 
    secs: 1561683698
    nsecs:  64997761
  frame_id: "ti_mmwave"
point_id: 12
x: 4.416015625
y: -0.287109375
z: 1.185546875
range: 4.88062095642
velocity: 0.0
doppler_bin: 8
bearing: -3.71987724304
intensity: 30.8955192566
---
header: 
  seq: 1549514
  stamp: 
    secs: 1561683698
    nsecs:  65013669
  frame_id: "ti_mmwave"
point_id: 13
x: 4.474609375
y: -0.2890625
z: 1.125
range: 4.9241976738
velocity: 0.0
doppler_bin: 8
bearing: -3.69620633125
intensity: 30.2612457275
---
header: 
  seq: 1549515
  stamp: 
    secs: 1561683698
    nsecs:  65034973
  frame_id: "ti_mmwave"
point_id: 14
x: 4.8828125
y: -0.30859375
z: 0.744140625
range: 5.27281332016
velocity: 0.0
doppler_bin: 8
bearing: -3.61628341675
intensity: 30.6145248413
---
header: 
  seq: 1549516
  stamp: 
    secs: 1561683698
    nsecs:  65059112
  frame_id: "ti_mmwave"
point_id: 16
x: 0.041015625
y: -0.033203125
z: 0.0625
range: 0.0871539413929
velocity: 0.0
doppler_bin: 8
bearing: -38.9909973145
intensity: 30.1703338623
---
header: 
  seq: 1549517
  stamp: 
    secs: 1561683698
    nsecs:  65116866
  frame_id: "ti_mmwave"
point_id: 17
x: 0.044921875
y: -0.046875
z: 0.103515625
range: 0.130730912089
velocity: 0.0
doppler_bin: 8
bearing: -46.218875885
intensity: 29.0633506775
---
header: 
  seq: 1549518
  stamp: 
    secs: 1561683698
    nsecs:  65130094
  frame_id: "ti_mmwave"
point_id: 19
x: 1.12109375
y: -0.515625
z: 0.291015625
range: 1.35088610649
velocity: 0.0
doppler_bin: 8
bearing: -24.6991329193
intensity: 19.0848503113
---
header: 
  seq: 1549519
  stamp: 
    secs: 1561683698
    nsecs:  65138865
  frame_id: "ti_mmwave"
point_id: 20
x: 0.4375
y: 0.568359375
z: 1.333984375
range: 1.61234796047
velocity: 0.0
doppler_bin: 8
bearing: 52.4123840332
intensity: 23.5602588654
---
header: 
  seq: 1549520
  stamp: 
    secs: 1561683698
    nsecs:  65147391
  frame_id: "ti_mmwave"
point_id: 21
x: 0.494140625
y: 0.630859375
z: 1.33203125
range: 1.65592491627
velocity: 0.0
doppler_bin: 8
bearing: 51.9290504456
intensity: 25.6937389374
---
header: 
  seq: 1549521
  stamp: 
    secs: 1561683698
    nsecs:  65156844
  frame_id: "ti_mmwave"
point_id: 22
x: 2.828125
y: -2.021484375
z: -3.044921875
range: 4.9241976738
velocity: 0.0
doppler_bin: 8
bearing: -35.556388855
intensity: 27.3957233429
---
header: 
  seq: 1549522
  stamp: 
    secs: 1561683698
    nsecs: 123591308
  frame_id: "ti_mmwave"
point_id: 0
x: 0.01171875
y: -0.0390625
z: -0.0078125
range: 0.0435769706964
velocity: 0.0
doppler_bin: 8
bearing: -73.3007583618
intensity: 30.7627620697
---
header: 
  seq: 1549523
  stamp: 
    secs: 1561683698
    nsecs: 123664217
  frame_id: "ti_mmwave"
point_id: 1
x: 0.017578125
y: -0.080078125
z: -0.0078125
range: 0.0871539413929
velocity: 0.0
doppler_bin: 8
bearing: -77.6192398071
intensity: 32.0030326843
---
header: 
  seq: 1549524
  stamp: 
    secs: 1561683698
    nsecs: 123675039
  frame_id: "ti_mmwave"
point_id: 2
x: 0.029296875
y: -0.119140625
z: -0.005859375
range: 0.130730912089
velocity: 0.0
doppler_bin: 8
bearing: -76.1849746704
intensity: 30.248960495
---
header: 
  seq: 1549525
  stamp: 
    secs: 1561683698
    nsecs: 123683213
  frame_id: "ti_mmwave"
point_id: 3
x: 0.056640625
y: -0.154296875
z: 0.005859375
range: 0.174307882786
velocity: 0.0
doppler_bin: 8
bearing: -69.8423843384
intensity: 25.5266819
---
header: 
  seq: 1549526
  stamp: 
    secs: 1561683698
    nsecs: 123693517
  frame_id: "ti_mmwave"
point_id: 4
x: 0.3671875
y: -0.080078125
z: -1.2109375
range: 1.35088610649
velocity: 0.0
doppler_bin: 8
bearing: -12.3027267456
intensity: 21.9312458038
---
header: 
  seq: 1549527
  stamp: 
    secs: 1561683698
    nsecs: 123702029
  frame_id: "ti_mmwave"
point_id: 5
x: 0.291015625
y: -0.041015625
z: 1.275390625
range: 1.39446306229
velocity: 0.0
doppler_bin: 8
bearing: -8.02240371704
intensity: 23.2428245544
---
header: 
  seq: 1549528
  stamp: 
    secs: 1561683698
    nsecs: 123711467
  frame_id: "ti_mmwave"
point_id: 6
x: 0.48828125
y: -0.04296875
z: 1.2578125
range: 1.43804001808
velocity: 0.0
doppler_bin: 8
bearing: -5.02907323837
intensity: 21.875207901
---
header: 
  seq: 1549529
  stamp: 
    secs: 1561683698
    nsecs: 123719580
  frame_id: "ti_mmwave"
point_id: 7
x: 1.5
y: -0.046875
z: -0.197265625
range: 1.61234796047
velocity: 0.0
doppler_bin: 8
bearing: -1.7899106741
intensity: 24.7129173279
---
header: 
  seq: 1549530
  stamp: 
    secs: 1561683698
    nsecs: 123727585
  frame_id: "ti_mmwave"
point_id: 8
x: 1.52734375
y: -0.146484375
z: -0.25390625
range: 1.65592491627
velocity: 0.0
doppler_bin: 8
bearing: -5.47836303711
intensity: 26.4345264435
---
header: 
  seq: 1549531
  stamp: 
    secs: 1561683698
    nsecs: 123736300
  frame_id: "ti_mmwave"
point_id: 9
x: 2.552734375
y: -0.263671875
z: 1.173828125
range: 3.00681090355
velocity: 0.0
doppler_bin: 8
bearing: -5.89716720581
intensity: 29.4299964905
---
header: 
  seq: 1549532
  stamp: 
    secs: 1561683698
    nsecs: 123744493
  frame_id: "ti_mmwave"
point_id: 10
x: 2.60546875
y: -0.267578125
z: 1.15625
range: 3.05038785934
velocity: 0.0
doppler_bin: 8
bearing: -5.86364221573
intensity: 32.8080596924
---
header: 
  seq: 1549533
  stamp: 
    secs: 1561683698
    nsecs: 123752655
  frame_id: "ti_mmwave"
point_id: 11
x: 2.666015625
y: -0.271484375
z: 1.12109375
range: 3.09396481514
velocity: 0.0
doppler_bin: 8
bearing: -5.81447267532
intensity: 32.0330505371
---
header: 
  seq: 1549534
  stamp: 
    secs: 1561683698
    nsecs: 123762100
  frame_id: "ti_mmwave"
point_id: 12
x: 4.416015625
y: -0.287109375
z: 1.1875
range: 4.88062095642
velocity: 0.0
doppler_bin: 8
bearing: -3.71987724304
intensity: 30.8098697662
---
header: 
  seq: 1549535
  stamp: 
    secs: 1561683698
    nsecs: 123771539
  frame_id: "ti_mmwave"
point_id: 13
x: 4.46484375
y: -0.2890625
z: 1.16015625
range: 4.9241976738
velocity: 0.0
doppler_bin: 8
bearing: -3.70426845551
intensity: 30.0945091248
---
header: 
  seq: 1549536
  stamp: 
    secs: 1561683698
    nsecs: 123780084
  frame_id: "ti_mmwave"
point_id: 14
x: 4.884765625
y: -0.30859375
z: 0.740234375
range: 5.27281332016
velocity: 0.0
doppler_bin: 8
bearing: -3.6148416996
intensity: 30.5804615021
---
header: 
  seq: 1549537
  stamp: 
    secs: 1561683698
    nsecs: 123803663
  frame_id: "ti_mmwave"
point_id: 16
x: 0.041015625
y: -0.033203125
z: 0.0625
range: 0.0871539413929
velocity: 0.0
doppler_bin: 8
bearing: -38.9909973145
intensity: 30.1703338623
---
header: 
  seq: 1549538
  stamp: 
    secs: 1561683698
    nsecs: 123818479
  frame_id: "ti_mmwave"
point_id: 17
x: 0.044921875
y: -0.046875
z: 0.103515625
range: 0.130730912089
velocity: 0.0
doppler_bin: 8
bearing: -46.218875885
intensity: 29.0687351227
---
header: 
  seq: 1549539
  stamp: 
    secs: 1561683698
    nsecs: 123834584
  frame_id: "ti_mmwave"
point_id: 19
x: 1.1171875
y: -0.474609375
z: 0.3671875
range: 1.35088610649
velocity: 0.0
doppler_bin: 8
bearing: -23.0170059204
intensity: 19.0308990479
---
header: 
  seq: 1549540
  stamp: 
    secs: 1561683698
    nsecs: 124013868
  frame_id: "ti_mmwave"
point_id: 22
x: 2.841796875
y: -2.00390625
z: -2.982421875
range: 4.88062095642
velocity: 0.0
doppler_bin: 8
bearing: -35.1897544861
intensity: 27.8103694916
---
header: 
  seq: 1549541
  stamp: 
    secs: 1561683698
    nsecs: 124039829
  frame_id: "ti_mmwave"
point_id: 23
x: 2.88671875
y: -2.021484375
z: -2.9921875
range: 4.9241976738
velocity: 0.0
doppler_bin: 8
bearing: -35.0024261475
intensity: 27.3399925232
---
header: 
  seq: 1549542
  stamp: 
    secs: 1561683698
    nsecs: 125154473
  frame_id: "ti_mmwave"
point_id: 0
x: 0.01171875
y: -0.0390625
z: -0.0078125
range: 0.0435769706964
velocity: 0.0
doppler_bin: 8
bearing: -73.3007583618
intensity: 30.7591171265
---
header: 
  seq: 1549543
  stamp: 
    secs: 1561683698
    nsecs: 125206169
  frame_id: "ti_mmwave"
point_id: 1
x: 0.017578125
y: -0.080078125
z: -0.0078125
range: 0.0871539413929
velocity: 0.0
doppler_bin: 8
bearing: -77.6192398071
intensity: 32.0002937317
---
header: 
  seq: 1549544
  stamp: 
    secs: 1561683698
    nsecs: 125217089
  frame_id: "ti_mmwave"
point_id: 2
x: 0.04296875
y: -0.115234375
z: -0.0078125
range: 0.130730912089
velocity: 0.0
doppler_bin: 8
bearing: -69.550453186
intensity: 30.2407493591
---
header: 
  seq: 1549545
  stamp: 
    secs: 1561683698
    nsecs: 125225679
  frame_id: "ti_mmwave"
point_id: 3
x: 0.056640625
y: -0.154296875
z: 0.005859375
range: 0.174307882786
velocity: 0.0
doppler_bin: 8
bearing: -69.8423843384
intensity: 25.5266819
---
header: 
  seq: 1549546
  stamp: 
    secs: 1561683698
    nsecs: 125234100
  frame_id: "ti_mmwave"
point_id: 4
x: 0.3671875
y: -0.080078125
z: -1.2109375
range: 1.35088610649
velocity: 0.0
doppler_bin: 8
bearing: -12.3027267456
intensity: 21.9312458038
---
header: 
  seq: 1549547
  stamp: 
    secs: 1561683698
    nsecs: 125242315
  frame_id: "ti_mmwave"
point_id: 5
x: 0.208984375
y: -0.041015625
z: 1.291015625
range: 1.39446306229
velocity: 0.0
doppler_bin: 8
bearing: -11.1038331985
intensity: 23.2837963104
---
header: 
  seq: 1549548
  stamp: 
    secs: 1561683698
    nsecs: 125299793
  frame_id: "ti_mmwave"
point_id: 6
x: 0.306640625
y: -0.0
z: 1.314453125
range: 1.43804001808
velocity: 0.0
doppler_bin: 8
bearing: -0.0
intensity: 21.8469142914
---
header: 
  seq: 1549549
  stamp: 
    secs: 1561683698
    nsecs: 125310082
  frame_id: "ti_mmwave"
point_id: 7
x: 1.513671875
y: -0.0
z: -0.029296875
range: 1.61234796047
velocity: 0.0
doppler_bin: 8
bearing: -0.0
intensity: 24.9554424286
---
header: 
  seq: 1549550
  stamp: 
    secs: 1561683698
    nsecs: 125318838
  frame_id: "ti_mmwave"
point_id: 8
x: 1.548828125
y: -0.0
z: -0.125
range: 1.65592491627
velocity: 0.0
doppler_bin: 8
bearing: -0.0
intensity: 27.8958072662
---
header: 
  seq: 1549551
  stamp: 
    secs: 1561683698
    nsecs: 125326783
  frame_id: "ti_mmwave"
point_id: 9
x: 1.583984375
y: -0.0
z: -0.193359375
range: 1.69950187206
velocity: 0.0
doppler_bin: 8
bearing: -0.0
intensity: 27.3399925232
---
header: 
  seq: 1549552
  stamp: 
    secs: 1561683698
    nsecs: 125335010
  frame_id: "ti_mmwave"
point_id: 10
x: 1.693359375
y: 0.16015625
z: -0.23828125
range: 1.83023273945
velocity: 0.0
doppler_bin: 8
bearing: 5.40290641785
intensity: 26.4738292694
---
header: 
  seq: 1549553
  stamp: 
    secs: 1561683698
    nsecs: 125343080
  frame_id: "ti_mmwave"
point_id: 11
x: 1.732421875
y: 0.1640625
z: -0.25390625
range: 1.87380969524
velocity: 0.0
doppler_bin: 8
bearing: 5.40984725952
intensity: 29.0741138458
---
header: 
  seq: 1549554
  stamp: 
    secs: 1561683698
    nsecs: 125350633
  frame_id: "ti_mmwave"
point_id: 12
x: 1.76953125
y: 0.16796875
z: -0.283203125
range: 1.91738677025
velocity: 0.0
doppler_bin: 8
bearing: 5.42242527008
intensity: 28.4509811401
---
header: 
  seq: 1549555
  stamp: 
    secs: 1561683698
    nsecs: 125360107
  frame_id: "ti_mmwave"
point_id: 13
x: 2.552734375
y: -0.263671875
z: 1.17578125
range: 3.00681090355
velocity: 0.0
doppler_bin: 8
bearing: -5.89716720581
intensity: 29.4151134491
---
header: 
  seq: 1549556
  stamp: 
    secs: 1561683698
    nsecs: 125365612
  frame_id: "ti_mmwave"
point_id: 14
x: 2.60546875
y: -0.267578125
z: 1.15625
range: 3.05038785934
velocity: 0.0
doppler_bin: 8
bearing: -5.86364221573
intensity: 32.7921066284
---
header: 
  seq: 1549557
  stamp: 
    secs: 1561683698
    nsecs: 125381416
  frame_id: "ti_mmwave"
point_id: 15
x: 2.662109375
y: -0.271484375
z: 1.130859375
range: 3.09396481514
velocity: 0.0
doppler_bin: 8
bearing: -5.82294607162
intensity: 32.0002937317
---
header: 
  seq: 1549558
  stamp: 
    secs: 1561683698
    nsecs: 125395910
  frame_id: "ti_mmwave"
point_id: 16
x: 4.4140625
y: -0.287109375
z: 1.19140625
range: 4.88062095642
velocity: 0.0
doppler_bin: 8
bearing: -3.72151875496
intensity: 30.9272060394
---
header: 
  seq: 1549559
  stamp: 
    secs: 1561683698
    nsecs: 125408938
  frame_id: "ti_mmwave"
point_id: 17
x: 4.470703125
y: -0.2890625
z: 1.134765625
range: 4.9241976738
velocity: 0.0
doppler_bin: 8
bearing: -3.69942688942
intensity: 30.3140850067
---
header: 
  seq: 1549560
  stamp: 
    secs: 1561683698
    nsecs: 125422076
  frame_id: "ti_mmwave"
point_id: 18
