header: 
  seq: 1562098
  stamp: 
    secs: 1561683720
    nsecs:  83225828
  frame_id: "ti_mmwave"
point_id: 0
x: 0.01171875
y: -0.0390625
z: -0.0078125
range: 0.0435769706964
velocity: 0.0
doppler_bin: 8
bearing: -73.3007583618
intensity: 30.7627620697
---
header: 
  seq: 1562099
  stamp: 
    secs: 1561683720
    nsecs:  83302798
  frame_id: "ti_mmwave"
point_id: 1
x: 0.017578125
y: -0.080078125
z: -0.0078125
range: 0.0871539413929
velocity: 0.0
doppler_bin: 8
bearing: -77.6192398071
intensity: 32.0002937317
---
header: 
  seq: 1562100
  stamp: 
    secs: 1561683720
    nsecs:  83321369
  frame_id: "ti_mmwave"
point_id: 2
x: 0.029296875
y: -0.119140625
z: -0.005859375
range: 0.130730912089
velocity: 0.0
doppler_bin: 8
bearing: -76.1849746704
intensity: 30.248960495
---
header: 
  seq: 1562101
  stamp: 
    secs: 1561683720
    nsecs:  83334659
  frame_id: "ti_mmwave"
point_id: 3
x: 0.056640625
y: -0.154296875
z: 0.005859375
range: 0.174307882786
velocity: 0.0
doppler_bin: 8
bearing: -69.8423843384
intensity: 25.5266819
---
header: 
  seq: 1562102
  stamp: 
    secs: 1561683720
    nsecs:  83397653
  frame_id: "ti_mmwave"
point_id: 4
x: 0.34375
y: -0.080078125
z: -1.21875
range: 1.35088610649
velocity: 0.0
doppler_bin: 8
bearing: -13.1134386063
intensity: 21.9589958191
---
header: 
  seq: 1562103
  stamp: 
    secs: 1561683720
    nsecs:  83493409
  frame_id: "ti_mmwave"
point_id: 5
x: 0.28125
y: -0.041015625
z: 1.27734375
range: 1.39446306229
velocity: 0.0
doppler_bin: 8
bearing: -8.29714488983
intensity: 23.2633590698
---
header: 
  seq: 1562104
  stamp: 
    secs: 1561683720
    nsecs:  83513325
  frame_id: "ti_mmwave"
point_id: 6
x: 0.392578125
y: -0.0
z: 1.291015625
range: 1.43804001808
velocity: 0.0
doppler_bin: 8
bearing: -0.0
intensity: 21.8469142914
---
header: 
  seq: 1562105
  stamp: 
    secs: 1561683720
    nsecs:  83524950
  frame_id: "ti_mmwave"
point_id: 7
x: 1.67578125
y: -0.052734375
z: -0.005859375
range: 1.78665578365
velocity: 0.0
doppler_bin: 8
bearing: -1.80241930485
intensity: 30.8098697662
---
header: 
  seq: 1562106
  stamp: 
    secs: 1561683720
    nsecs:  83536116
  frame_id: "ti_mmwave"
point_id: 8
x: 1.71875
y: -0.0
z: 0.021484375
range: 1.83023273945
velocity: 0.0
doppler_bin: 8
bearing: -0.0
intensity: 32.5285301208
---
header: 
  seq: 1562107
  stamp: 
    secs: 1561683720
    nsecs:  83550398
  frame_id: "ti_mmwave"
point_id: 9
x: 1.7578125
y: 0.0546875
z: 0.046875
range: 1.87380969524
velocity: 0.0
doppler_bin: 8
bearing: 1.78196060658
intensity: 30.7445068359
---
header: 
  seq: 1562108
  stamp: 
    secs: 1561683720
    nsecs:  83566059
  frame_id: "ti_mmwave"
point_id: 10
x: 1.791015625
y: 0.16796875
z: -0.07421875
range: 1.91738677025
velocity: 0.0
doppler_bin: 8
bearing: 5.35776042938
intensity: 27.9309158325
---
header: 
  seq: 1562109
  stamp: 
    secs: 1561683720
    nsecs:  83582059
  frame_id: "ti_mmwave"
point_id: 11
x: 2.55859375
y: -0.263671875
z: 1.162109375
range: 3.00681090355
velocity: 0.0
doppler_bin: 8
bearing: -5.88375711441
intensity: 29.3701610565
---
header: 
  seq: 1562110
  stamp: 
    secs: 1561683720
    nsecs:  83598536
  frame_id: "ti_mmwave"
point_id: 12
x: 2.609375
y: -0.267578125
z: 1.146484375
range: 3.05038785934
velocity: 0.0
doppler_bin: 8
bearing: -5.85492515564
intensity: 32.8057823181
---
header: 
  seq: 1562111
  stamp: 
    secs: 1561683720
    nsecs:  83613965
  frame_id: "ti_mmwave"
point_id: 13
x: 2.666015625
y: -0.271484375
z: 1.119140625
range: 3.09396481514
velocity: 0.0
doppler_bin: 8
bearing: -5.81447267532
intensity: 32.0763435364
---
header: 
  seq: 1562112
  stamp: 
    secs: 1561683720
    nsecs:  83633607
  frame_id: "ti_mmwave"
point_id: 15
x: 0.041015625
y: -0.033203125
z: 0.0625
range: 0.0871539413929
velocity: 0.0
doppler_bin: 8
bearing: -38.9909973145
intensity: 30.1661548615
---
header: 
  seq: 1562113
  stamp: 
    secs: 1561683720
    nsecs:  83649736
  frame_id: "ti_mmwave"
point_id: 16
x: 0.044921875
y: -0.046875
z: 0.103515625
range: 0.130730912089
velocity: 0.0
doppler_bin: 8
bearing: -46.218875885
intensity: 29.0633506775
---
header: 
  seq: 1562114
  stamp: 
    secs: 1561683720
    nsecs:  83666441
  frame_id: "ti_mmwave"
point_id: 18
x: 1.1171875
y: -0.515625
z: 0.30859375
range: 1.35088610649
velocity: 0.0
doppler_bin: 8
bearing: -24.7751407623
intensity: 19.0308990479
---
header: 
  seq: 1562115
  stamp: 
    secs: 1561683720
    nsecs:  83682284
  frame_id: "ti_mmwave"
point_id: 19
x: 0.91015625
y: -0.44921875
z: -1.486328125
range: 1.91738677025
velocity: 0.0
doppler_bin: 8
bearing: -26.2692070007
intensity: 25.7054290771
---
header: 
  seq: 1562116
  stamp: 
    secs: 1561683720
    nsecs:  84479963
  frame_id: "ti_mmwave"
point_id: 0
x: 0.01171875
y: -0.0390625
z: -0.0078125
range: 0.0435769706964
velocity: 0.0
doppler_bin: 8
bearing: -73.3007583618
intensity: 30.7664051056
---
header: 
  seq: 1562117
  stamp: 
    secs: 1561683720
    nsecs:  84553737
  frame_id: "ti_mmwave"
point_id: 1
x: 0.017578125
y: -0.080078125
z: -0.0078125
range: 0.0871539413929
velocity: 0.0
doppler_bin: 8
bearing: -77.6192398071
intensity: 32.0002937317
---
header: 
  seq: 1562118
  stamp: 
    secs: 1561683720
    nsecs:  84573833
  frame_id: "ti_mmwave"
point_id: 2
x: 0.029296875
y: -0.119140625
z: -0.005859375
range: 0.130730912089
velocity: 0.0
doppler_bin: 8
bearing: -76.1849746704
intensity: 30.2448558807
---
header: 
  seq: 1562119
  stamp: 
    secs: 1561683720
    nsecs:  84648948
  frame_id: "ti_mmwave"
point_id: 3
x: 0.056640625
y: -0.154296875
z: 0.005859375
range: 0.174307882786
velocity: 0.0
doppler_bin: 8
bearing: -69.8423843384
intensity: 25.5266819
---
header: 
  seq: 1562120
  stamp: 
    secs: 1561683720
    nsecs:  84674597
  frame_id: "ti_mmwave"
point_id: 4
x: 0.359375
y: -0.080078125
z: -1.212890625
range: 1.35088610649
velocity: 0.0
doppler_bin: 8
bearing: -12.5617752075
intensity: 21.9865703583
---
header: 
  seq: 1562121
  stamp: 
    secs: 1561683720
    nsecs:  84689928
  frame_id: "ti_mmwave"
point_id: 5
x: 0.310546875
y: -0.041015625
z: 1.271484375
range: 1.39446306229
velocity: 0.0
doppler_bin: 8
bearing: -7.52382040024
intensity: 23.2428245544
---
header: 
  seq: 1562122
  stamp: 
    secs: 1561683720
    nsecs:  84700020
  frame_id: "ti_mmwave"
point_id: 6
x: 0.486328125
y: -0.04296875
z: 1.259765625
range: 1.43804001808
velocity: 0.0
doppler_bin: 8
bearing: -5.04916620255
intensity: 21.875207901
---
header: 
  seq: 1562123
  stamp: 
    secs: 1561683720
    nsecs:  84752857
  frame_id: "ti_mmwave"
point_id: 7
x: 1.716796875
y: 0.16796875
z: -0.51171875
range: 1.91738677025
velocity: 0.0
doppler_bin: 8
bearing: 5.58794593811
intensity: 29.0308990479
---
header: 
  seq: 1562124
  stamp: 
    secs: 1561683720
    nsecs:  84769165
  frame_id: "ti_mmwave"
point_id: 8
x: 1.76171875
y: 0.23046875
z: -0.484375
range: 1.96096372604
velocity: 0.0
doppler_bin: 8
bearing: 7.45313167572
intensity: 28.5369815826
---
header: 
  seq: 1562125
  stamp: 
    secs: 1561683720
    nsecs:  84784446
  frame_id: "ti_mmwave"
point_id: 9
x: 2.54296875
y: -0.263671875
z: 1.1953125
range: 3.00681090355
velocity: 0.0
doppler_bin: 8
bearing: -5.91965341568
intensity: 29.3701610565
---
header: 
  seq: 1562126
  stamp: 
    secs: 1561683720
    nsecs:  84793261
  frame_id: "ti_mmwave"
point_id: 10
x: 2.609375
y: -0.267578125
z: 1.150390625
range: 3.05038785934
velocity: 0.0
doppler_bin: 8
bearing: -5.85492515564
intensity: 32.7692108154
---
header: 
  seq: 1562127
  stamp: 
    secs: 1561683720
    nsecs:  84843060
  frame_id: "ti_mmwave"
point_id: 11
x: 2.671875
y: -0.271484375
z: 1.107421875
range: 3.09396481514
velocity: 0.0
doppler_bin: 8
bearing: -5.80180835724
intensity: 32.0085067749
---
header: 
  seq: 1562128
  stamp: 
    secs: 1561683720
    nsecs:  84857580
  frame_id: "ti_mmwave"
point_id: 12
x: 1.71484375
y: -0.0
z: 0.09375
range: 1.83023273945
velocity: 0.614668667316
doppler_bin: 9
bearing: -0.0
intensity: 26.4246444702
---
header: 
  seq: 1562129
  stamp: 
    secs: 1561683720
    nsecs:  84871748
  frame_id: "ti_mmwave"
point_id: 13
x: 1.75390625
y: 0.0546875
z: -0.12890625
range: 1.87380969524
velocity: 0.614668667316
doppler_bin: 9
bearing: 1.78592669964
intensity: 27.4272518158
---
header: 
  seq: 1562130
  stamp: 
    secs: 1561683720
    nsecs:  84895498
  frame_id: "ti_mmwave"
point_id: 15
x: 0.041015625
y: -0.033203125
z: 0.0625
range: 0.0871539413929
velocity: 0.0
doppler_bin: 8
bearing: -38.9909973145
intensity: 30.157787323
---
header: 
  seq: 1562131
  stamp: 
    secs: 1561683720
    nsecs:  84972114
  frame_id: "ti_mmwave"
point_id: 16
x: 0.044921875
y: -0.046875
z: 0.103515625
range: 0.130730912089
velocity: 0.0
doppler_bin: 8
bearing: -46.218875885
intensity: 29.0579586029
---
header: 
  seq: 1562132
  stamp: 
    secs: 1561683720
    nsecs:  84992828
  frame_id: "ti_mmwave"
point_id: 18
x: 1.119140625
y: -0.515625
z: 0.296875
range: 1.35088610649
velocity: 0.0
doppler_bin: 8
bearing: -24.7370834351
intensity: 19.0308990479
---
header: 
  seq: 1562133
  stamp: 
    secs: 1561683720
    nsecs: 143297851
  frame_id: "ti_mmwave"
point_id: 0
x: 0.01171875
y: -0.0390625
z: -0.0078125
range: 0.0435769706964
velocity: 0.0
doppler_bin: 8
bearing: -73.3007583618
intensity: 30.7554702759
---
header: 
  seq: 1562134
  stamp: 
    secs: 1561683720
    nsecs: 143417547
  frame_id: "ti_mmwave"
point_id: 1
x: 0.017578125
y: -0.080078125
z: -0.0078125
range: 0.0871539413929
velocity: 0.0
doppler_bin: 8
bearing: -77.6192398071
intensity: 31.9975509644
---
header: 
  seq: 1562135
  stamp: 
    secs: 1561683720
    nsecs: 143438024
  frame_id: "ti_mmwave"
point_id: 2
x: 0.029296875
y: -0.119140625
z: -0.005859375
range: 0.130730912089
velocity: 0.0
doppler_bin: 8
bearing: -76.1849746704
intensity: 30.2448558807
---
header: 
  seq: 1562136
  stamp: 
    secs: 1561683720
    nsecs: 143453238
  frame_id: "ti_mmwave"
point_id: 3
x: 0.056640625
y: -0.154296875
z: 0.005859375
range: 0.174307882786
velocity: 0.0
doppler_bin: 8
bearing: -69.8423843384
intensity: 25.5388298035
---
header: 
  seq: 1562137
  stamp: 
    secs: 1561683720
    nsecs: 143475410
  frame_id: "ti_mmwave"
point_id: 4
x: 0.3828125
y: -0.080078125
z: -1.20703125
range: 1.35088610649
velocity: 0.0
doppler_bin: 8
bearing: -11.8149757385
intensity: 21.9589958191
---
header: 
  seq: 1562138
  stamp: 
    secs: 1561683720
    nsecs: 143555221
  frame_id: "ti_mmwave"
point_id: 5
x: 0.26953125
y: -0.041015625
z: 1.28125
range: 1.39446306229
velocity: 0.0
doppler_bin: 8
bearing: -8.65254211426
intensity: 23.2428245544
---
header: 
  seq: 1562139
  stamp: 
    secs: 1561683720
    nsecs: 143572768
  frame_id: "ti_mmwave"
point_id: 6
x: 0.404296875
y: -0.0
z: 1.287109375
range: 1.43804001808
velocity: 0.0
doppler_bin: 8
bearing: -0.0
intensity: 21.875207901
---
header: 
  seq: 1562140
  stamp: 
    secs: 1561683720
    nsecs: 143586392
  frame_id: "ti_mmwave"
point_id: 7
x: 1.67578125
y: -0.052734375
z: -0.03125
range: 1.78665578365
velocity: 0.0
doppler_bin: 8
bearing: -1.80241930485
intensity: 28.1224460602
---
header: 
  seq: 1562141
  stamp: 
    secs: 1561683720
    nsecs: 143600794
  frame_id: "ti_mmwave"
point_id: 8
x: 1.712890625
y: -0.107421875
z: -0.078125
range: 1.83023273945
velocity: 0.0
doppler_bin: 8
bearing: -3.58853602409
intensity: 31.2613143921
---
header: 
  seq: 1562142
  stamp: 
    secs: 1561683720
    nsecs: 143615212
  frame_id: "ti_mmwave"
point_id: 9
x: 1.748046875
y: -0.109375
z: -0.166015625
range: 1.87380969524
velocity: 0.0
doppler_bin: 8
bearing: -3.58032011986
intensity: 31.3798675537
---
header: 
  seq: 1562143
  stamp: 
    secs: 1561683720
    nsecs: 143628471
  frame_id: "ti_mmwave"
point_id: 10
x: 1.77734375
y: -0.056640625
z: -0.283203125
range: 1.91738677025
velocity: 0.0
doppler_bin: 8
bearing: -1.82529187202
intensity: 29.127532959
---
header: 
  seq: 1562144
  stamp: 
    secs: 1561683720
    nsecs: 143662120
  frame_id: "ti_mmwave"
point_id: 11
x: 2.5546875
y: -0.263671875
z: 1.169921875
range: 3.00681090355
velocity: 0.0
doppler_bin: 8
bearing: -5.89269018173
intensity: 29.3298072815
---
header: 
  seq: 1562145
  stamp: 
    secs: 1561683720
    nsecs: 143685004
  frame_id: "ti_mmwave"
point_id: 12
x: 2.609375
y: -0.267578125
z: 1.150390625
range: 3.05038785934
velocity: 0.0
doppler_bin: 8
bearing: -5.85492515564
intensity: 32.7806739807
---
header: 
  seq: 1562146
  stamp: 
    secs: 1561683720
    nsecs: 143702304
  frame_id: "ti_mmwave"
point_id: 13
x: 2.666015625
y: -0.181640625
z: 1.138671875
range: 3.09396481514
velocity: 0.0
doppler_bin: 8
bearing: -3.89764523506
intensity: 32.0439147949
---
header: 
  seq: 1562147
  stamp: 
    secs: 1561683720
    nsecs: 143788417
  frame_id: "ti_mmwave"
point_id: 15
x: 0.041015625
y: -0.033203125
z: 0.0625
range: 0.0871539413929
velocity: 0.0
doppler_bin: 8
bearing: -38.9909973145
intensity: 30.1703338623
---
header: 
  seq: 1562148
  stamp: 
    secs: 1561683720
    nsecs: 143806160
  frame_id: "ti_mmwave"
point_id: 16
x: 0.044921875
y: -0.046875
z: 0.103515625
range: 0.130730912089
velocity: 0.0
doppler_bin: 8
bearing: -46.218875885
intensity: 29.0633506775
---
header: 
  seq: 1562149
  stamp: 
    secs: 1561683720
    nsecs: 143823103
  frame_id: "ti_mmwave"
point_id: 18
x: 1.20703125
y: 0.357421875
z: 0.150390625
range: 1.35088610649
velocity: 0.0
doppler_bin: 8
bearing: 16.4948921204
intensity: 19.0848503113
---
header: 
  seq: 1562150
  stamp: 
    secs: 1561683720
    nsecs: 203540799
  frame_id: "ti_mmwave"
point_id: 0
x: 0.01171875
y: -0.0390625
z: -0.0078125
range: 0.0435769706964
velocity: 0.0
doppler_bin: 8
bearing: -73.3007583618
intensity: 30.7554702759
---
header: 
  seq: 1562151
  stamp: 
    secs: 1561683720
    nsecs: 203614754
  frame_id: "ti_mmwave"
point_id: 1
x: 0.017578125
y: -0.080078125
z: -0.0078125
range: 0.0871539413929
velocity: 0.0
doppler_bin: 8
bearing: -77.6192398071
intensity: 31.994808197
---
header: 
  seq: 1562152
  stamp: 
    secs: 1561683720
    nsecs: 203625883
  frame_id: "ti_mmwave"
point_id: 2
x: 0.029296875
y: -0.119140625
z: -0.005859375
range: 0.130730912089
velocity: 0.0
doppler_bin: 8
bearing: -76.1849746704
intensity: 30.2407493591
---
header: 
  seq: 1562153
  stamp: 
    secs: 1561683720
    nsecs: 203636189
  frame_id: "ti_mmwave"
point_id: 3
x: 0.056640625
y: -0.154296875
z: 0.005859375
range: 0.174307882786
velocity: 0.0
doppler_bin: 8
bearing: -69.8423843384
intensity: 25.5266819
---
header: 
  seq: 1562154
  stamp: 
    secs: 1561683720
    nsecs: 203644727
  frame_id: "ti_mmwave"
point_id: 4
x: 0.37109375
y: -0.080078125
z: -1.2109375
range: 1.35088610649
velocity: 0.0
doppler_bin: 8
bearing: -12.177107811
intensity: 21.9033164978
---
header: 
  seq: 1562155
  stamp: 
    secs: 1561683720
    nsecs: 203652607
  frame_id: "ti_mmwave"
point_id: 5
x: 0.294921875
y: -0.041015625
z: 1.275390625
range: 1.39446306229
velocity: 0.0
doppler_bin: 8
bearing: -7.91750335693
intensity: 23.2633590698
---
header: 
  seq: 1562156
  stamp: 
    secs: 1561683720
    nsecs: 203660431
  frame_id: "ti_mmwave"
point_id: 6
x: 0.462890625
y: -0.04296875
z: 1.267578125
range: 1.43804001808
velocity: 0.0
doppler_bin: 8
bearing: -5.30339765549
intensity: 21.9312458038
---
header: 
  seq: 1562157
  stamp: 
    secs: 1561683720
    nsecs: 203670447
  frame_id: "ti_mmwave"
point_id: 7
x: 1.67578125
y: -0.052734375
z: 0.0234375
range: 1.78665578365
velocity: 0.0
doppler_bin: 8
bearing: -1.80241930485
intensity: 29.0902080536
---
header: 
  seq: 1562158
  stamp: 
    secs: 1561683720
    nsecs: 203678504
  frame_id: "ti_mmwave"
point_id: 8
x: 1.716796875
y: -0.052734375
z: -0.025390625
range: 1.83023273945
velocity: 0.0
doppler_bin: 8
bearing: -1.75938534737
intensity: 31.2287101746
---
header: 
  seq: 1562159
  stamp: 
    secs: 1561683720
    nsecs: 203686446
  frame_id: "ti_mmwave"
point_id: 9
x: 1.748046875
y: -0.109375
z: -0.171875
range: 1.87380969524
velocity: 0.0
doppler_bin: 8
bearing: -3.58032011986
intensity: 30.2571544647
---
header: 
  seq: 1562160
  stamp: 
    secs: 1561683720
    nsecs: 203694141
  frame_id: "ti_mmwave"
point_id: 10
x: 1.763671875
y: -0.11328125
z: -0.34375
range: 1.91738677025
velocity: 0.0
doppler_bin: 8
bearing: -3.6750793457
intensity: 26.3748970032
---
header: 
  seq: 1562161
  stamp: 
    secs: 1561683720
    nsecs: 203702701
  frame_id: "ti_mmwave"
point_id: 11
x: 2.55078125
y: -0.263671875
z: 1.177734375
range: 3.00681090355
velocity: 0.0
doppler_bin: 8
bearing: -5.90165042877
intensity: 29.5133743286
---
header: 
  seq: 1562162
  stamp: 
    secs: 1561683720
    nsecs: 203711656
  frame_id: "ti_mmwave"
point_id: 12
x: 2.60546875
y: -0.267578125
z: 1.158203125
range: 3.05038785934
velocity: 0.0
doppler_bin: 8
bearing: -5.86364221573
intensity: 32.7346420288
---
header: 
  seq: 1562163
  stamp: 
    secs: 1561683720
    nsecs: 203720410
  frame_id: "ti_mmwave"
point_id: 13
x: 2.6640625
y: -0.271484375
z: 1.125
range: 3.09396481514
velocity: 0.0
doppler_bin: 8
bearing: -5.81870603561
intensity: 31.8269996643
---
header: 
  seq: 1562164
  stamp: 
    secs: 1561683720
    nsecs: 203732865
  frame_id: "ti_mmwave"
point_id: 15
x: 0.041015625
y: -0.033203125
z: 0.0625
range: 0.0871539413929
velocity: 0.0
doppler_bin: 8
bearing: -38.9909973145
intensity: 30.1619739532
---
header: 
  seq: 1562165
  stamp: 
    secs: 1561683720
    nsecs: 203742322
  frame_id: "ti_mmwave"
point_id: 16
x: 0.044921875
y: -0.046875
z: 0.103515625
range: 0.130730912089
velocity: 0.0
doppler_bin: 8
bearing: -46.218875885
intensity: 29.0525608063
---
header: 
  seq: 1562166
  stamp: 
    secs: 1561683720
    nsecs: 203753518
  frame_id: "ti_mmwave"
point_id: 18
x: 1.12109375
y: -0.474609375
z: 0.353515625
range: 1.35088610649
velocity: 0.0
doppler_bin: 8
bearing: -22.9451236725
intensity: 19.0848503113
---
header: 
  seq: 1562167
  stamp: 
    secs: 1561683720
    nsecs: 204777956
  frame_id: "ti_mmwave"
point_id: 0
x: 0.01171875
y: -0.0390625
z: -0.0078125
range: 0.0435769706964
velocity: 0.0
doppler_bin: 8
bearing: -73.3007583618
intensity: 30.7627620697
---
header: 
  seq: 1562168
  stamp: 
    secs: 1561683720
    nsecs: 204852174
  frame_id: "ti_mmwave"
point_id: 1
x: 0.017578125
y: -0.080078125
z: -0.0078125
range: 0.0871539413929
velocity: 0.0
doppler_bin: 8
bearing: -77.6192398071
intensity: 32.0002937317
---
header: 
  seq: 1562169
  stamp: 
    secs: 1561683720
    nsecs: 204870889
  frame_id: "ti_mmwave"
point_id: 2
x: 0.041015625
y: -0.115234375
z: -0.0078125
range: 0.130730912089
velocity: 0.0
doppler_bin: 8
bearing: -70.4077224731
intensity: 30.2448558807
---
header: 
  seq: 1562170
  stamp: 
    secs: 1561683720
    nsecs: 204885326
  frame_id: "ti_mmwave"
point_id: 3
x: 0.056640625
y: -0.154296875
z: 0.005859375
range: 0.174307882786
velocity: 0.0
doppler_bin: 8
bearing: -69.8423843384
intensity: 25.5388298035
---
header: 
  seq: 1562171
  stamp: 
    secs: 1561683720
    nsecs: 204898677
  frame_id: "ti_mmwave"
point_id: 4
x: 0.37890625
y: -0.080078125
z: -1.20703125
range: 1.35088610649
velocity: 0.0
doppler_bin: 8
bearing: -11.933303833
intensity: 21.9033164978
---
header: 
  seq: 1562172
  stamp: 
    secs: 1561683720
    nsecs: 204978006
  frame_id: "ti_mmwave"
point_id: 5
x: 0.25390625
y: -0.041015625
z: 1.283203125
range: 1.39446306229
velocity: 0.0
doppler_bin: 8
bearing: -9.17620372772
intensity: 23.2221927643
---
header: 
  seq: 1562173
  stamp: 
    secs: 1561683720
    nsecs: 204994837
  frame_id: "ti_mmwave"
point_id: 6
x: 0.388671875
y: -0.0
z: 1.29296875
range: 1.43804001808
velocity: 0.0
doppler_bin: 8
bearing: -0.0
intensity: 21.8469142914
---
header: 
  seq: 1562174
  stamp: 
    secs: 1561683720
    nsecs: 205008665
  frame_id: "ti_mmwave"
point_id: 7
x: 1.67578125
y: -0.052734375
z: 0.072265625
range: 1.78665578365
velocity: 0.0
doppler_bin: 8
bearing: -1.80241930485
intensity: 28.2216815948
---
header: 
  seq: 1562175
  stamp: 
    secs: 1561683720
    nsecs: 205023549
  frame_id: "ti_mmwave"
point_id: 8
x: 1.71875
y: -0.0
z: 0.017578125
range: 1.83023273945
velocity: 0.0
doppler_bin: 8
bearing: -0.0
intensity: 31.8723869324
---
header: 
  seq: 1562176
  stamp: 
    secs: 1561683720
    nsecs: 205038495
  frame_id: "ti_mmwave"
point_id: 9
x: 1.759765625
y: -0.0
z: -0.013671875
range: 1.87380969524
velocity: 0.0
doppler_bin: 8
bearing: -0.0
intensity: 31.9672870636
---
header: 
  seq: 1562177
  stamp: 
    secs: 1561683720
    nsecs: 205049685
  frame_id: "ti_mmwave"
point_id: 10
x: 1.798828125
y: -0.0
z: 0.0234375
range: 1.91738677025
velocity: 0.0
doppler_bin: 8
bearing: -0.0
intensity: 28.8195495605
---
header: 
  seq: 1562178
  stamp: 
    secs: 1561683720
    nsecs: 205063347
  frame_id: "ti_mmwave"
point_id: 11
x: 2.544921875
y: -0.263671875
z: 1.189453125
range: 3.00681090355
velocity: 0.0
doppler_bin: 8
bearing: -5.91514253616
intensity: 29.380191803
---
header: 
  seq: 1562179
  stamp: 
    secs: 1561683720
    nsecs: 205076482
  frame_id: "ti_mmwave"
point_id: 12
x: 2.6015625
y: -0.267578125
z: 1.1640625
range: 3.05038785934
velocity: 0.0
doppler_bin: 8
bearing: -5.87238502502
intensity: 32.716091156
---
header: 
  seq: 1562180
  stamp: 
    secs: 1561683720
    nsecs: 205163836
  frame_id: "ti_mmwave"
point_id: 13
x: 2.65234375
y: -0.271484375
z: 1.15234375
range: 3.09396481514
velocity: 0.0
doppler_bin: 8
bearing: -5.84423685074
intensity: 31.7522182465
---
header: 
  seq: 1562181
  stamp: 
    secs: 1561683720
    nsecs: 205185510
  frame_id: "ti_mmwave"
point_id: 15
x: 0.041015625
y: -0.033203125
z: 0.0625
range: 0.0871539413929
velocity: 0.0
doppler_bin: 8
bearing: -38.9909973145
intensity: 30.1619739532
---
header: 
  seq: 1562182
  stamp: 
    secs: 1561683720
    nsecs: 205201899
  frame_id: "ti_mmwave"
point_id: 16
x: 0.044921875
y: -0.046875
z: 0.103515625
range: 0.130730912089
velocity: 0.0
doppler_bin: 8
bearing: -46.218875885
intensity: 29.0579586029
---
header: 
  seq: 1562183
  stamp: 
    secs: 1561683720
    nsecs: 205217751
  frame_id: "ti_mmwave"
point_id: 18
x: 1.115234375
y: -0.515625
z: 0.31640625
range: 1.35088610649
velocity: 0.0
doppler_bin: 8
bearing: -24.8133087158
intensity: 19.0308990479
---
header: 
  seq: 1562184
  stamp: 
    secs: 1561683720
    nsecs: 263482541
  frame_id: "ti_mmwave"
point_id: 0
x: 0.01171875
y: -0.0390625
z: -0.0078125
range: 0.0435769706964
velocity: 0.0
doppler_bin: 8
bearing: -73.3007583618
intensity: 30.7591171265
---
header: 
  seq: 1562185
  stamp: 
    secs: 1561683720
    nsecs: 263562653
  frame_id: "ti_mmwave"
point_id: 1
x: 0.017578125
y: -0.080078125
z: -0.0078125
range: 0.0871539413929
velocity: 0.0
doppler_bin: 8
bearing: -77.6192398071
intensity: 31.9975509644
---
header: 
  seq: 1562186
  stamp: 
    secs: 1561683720
    nsecs: 263574982
  frame_id: "ti_mmwave"
point_id: 2
x: 0.029296875
y: -0.119140625
z: -0.005859375
range: 0.130730912089
velocity: 0.0
doppler_bin: 8
bearing: -76.1849746704
intensity: 30.2407493591
---
header: 
  seq: 1562187
  stamp: 
    secs: 1561683720
    nsecs: 263583099
  frame_id: "ti_mmwave"
point_id: 3
x: 0.056640625
y: -0.154296875
z: 0.005859375
range: 0.174307882786
velocity: 0.0
doppler_bin: 8
bearing: -69.8423843384
intensity: 25.5266819
---
header: 
  seq: 1562188
  stamp: 
    secs: 1561683720
    nsecs: 263593732
  frame_id: "ti_mmwave"
point_id: 4
x: 0.3359375
y: -0.080078125
z: -1.220703125
range: 1.35088610649
velocity: 0.0
doppler_bin: 8
bearing: -13.4075088501
intensity: 22.0139713287
---
header: 
  seq: 1562189
  stamp: 
    secs: 1561683720
    nsecs: 263602191
  frame_id: "ti_mmwave"
point_id: 5
x: 0.318359375
y: -0.041015625
z: 1.26953125
range: 1.39446306229
velocity: 0.0
doppler_bin: 8
bearing: -7.34122562408
intensity: 23.2837963104
---
header: 
  seq: 1562190
  stamp: 
    secs: 1561683720
    nsecs: 263610637
  frame_id: "ti_mmwave"
point_id: 6
x: 0.48046875
y: -0.04296875
z: 1.26171875
range: 1.43804001808
velocity: 0.0
doppler_bin: 8
bearing: -5.11041736603
intensity: 21.9033164978
---
header: 
  seq: 1562191
  stamp: 
    secs: 1561683720
    nsecs: 263618732
  frame_id: "ti_mmwave"
point_id: 7
x: 1.71484375
y: -0.107421875
z: 0.03515625
range: 1.83023273945
velocity: 0.0
doppler_bin: 8
bearing: -3.58445930481
intensity: 28.5247993469
---
header: 
  seq: 1562192
  stamp: 
    secs: 1561683720
    nsecs: 263627962
  frame_id: "ti_mmwave"
point_id: 8
x: 1.755859375
y: -0.109375
z: 0.0
range: 1.87380969524
velocity: 0.0
doppler_bin: 8
bearing: -3.56443095207
intensity: 28.9209461212
---
header: 
  seq: 1562193
  stamp: 
    secs: 1561683720
    nsecs: 263636028
  frame_id: "ti_mmwave"
point_id: 9
x: 1.794921875
y: -0.056640625
z: -0.11328125
range: 1.91738677025
velocity: 0.0
doppler_bin: 8
bearing: -1.80742812157
intensity: 27.7085208893
---
header: 
  seq: 1562194
  stamp: 
    secs: 1561683720
    nsecs: 263644291
  frame_id: "ti_mmwave"
point_id: 10
x: 2.560546875
y: -0.263671875
z: 1.158203125
range: 3.00681090355
velocity: 0.0
doppler_bin: 8
bearing: -5.87930107117
intensity: 29.4448261261
---
header: 
  seq: 1562195
  stamp: 
    secs: 1561683720
    nsecs: 263653717
  frame_id: "ti_mmwave"
point_id: 11
x: 2.60546875
y: -0.267578125
z: 1.158203125
range: 3.05038785934
velocity: 0.0
doppler_bin: 8
bearing: -5.86364221573
intensity: 32.6834373474
---
header: 
  seq: 1562196
  stamp: 
    secs: 1561683720
    nsecs: 263661595
  frame_id: "ti_mmwave"
point_id: 12
x: 2.658203125
y: -0.271484375
z: 1.138671875
range: 3.09396481514
velocity: 0.0
doppler_bin: 8
bearing: -5.83144378662
intensity: 31.7347755432
---
header: 
  seq: 1562197
  stamp: 
    secs: 1561683720
    nsecs: 263672691
  frame_id: "ti_mmwave"
point_id: 14
x: 0.041015625
y: -0.033203125
z: 0.0625
range: 0.0871539413929
velocity: 0.0
doppler_bin: 8
bearing: -38.9909973145
intensity: 30.157787323
---
header: 
  seq: 1562198
  stamp: 
    secs: 1561683720
    nsecs: 263681084
  frame_id: "ti_mmwave"
point_id: 15
x: 0.044921875
y: -0.046875
z: 0.103515625
range: 0.130730912089
velocity: 0.0
doppler_bin: 8
bearing: -46.218875885
intensity: 29.0525608063
---
header: 
  seq: 1562199
  stamp: 
    secs: 1561683720
    nsecs: 263851725
  frame_id: "ti_mmwave"
point_id: 17
x: 1.205078125
y: 0.357421875
z: 0.173828125
range: 1.35088610649
velocity: 0.0
doppler_bin: 8
bearing: 16.5201683044
intensity: 19.1381378174
---
header: 
  seq: 1562200
  stamp: 
    secs: 1561683720
    nsecs: 264774850
  frame_id: "ti_mmwave"
point_id: 0
x: 0.01171875
y: -0.0390625
z: -0.0078125
range: 0.0435769706964
velocity: 0.0
doppler_bin: 8
bearing: -73.3007583618
intensity: 30.7591171265
---
header: 
  seq: 1562201
  stamp: 
    secs: 1561683720
    nsecs: 264842725
  frame_id: "ti_mmwave"
point_id: 1
x: 0.017578125
y: -0.080078125
z: -0.0078125
range: 0.0871539413929
velocity: 0.0
doppler_bin: 8
bearing: -77.6192398071
intensity: 31.994808197
---
header: 
  seq: 1562202
  stamp: 
    secs: 1561683720
    nsecs: 264863119
  frame_id: "ti_mmwave"
point_id: 2
x: 0.029296875
y: -0.119140625
z: -0.005859375
range: 0.130730912089
velocity: 0.0
doppler_bin: 8
bearing: -76.1849746704
intensity: 30.2407493591
---
header: 
  seq: 1562203
  stamp: 
    secs: 1561683720
    nsecs: 264876035
  frame_id: "ti_mmwave"
point_id: 3
x: 0.056640625
y: -0.154296875
z: 0.0078125
range: 0.174307882786
velocity: 0.0
doppler_bin: 8
bearing: -69.8423843384
intensity: 25.5266819
---
header: 
  seq: 1562204
  stamp: 
    secs: 1561683720
    nsecs: 265046421
  frame_id: "ti_mmwave"
point_id: 4
x: 0.361328125
y: -0.080078125
z: -1.212890625
range: 1.35088610649
velocity: 0.0
doppler_bin: 8
bearing: -12.4960107803
intensity: 21.9033164978
---
header: 
  seq: 1562205
  stamp: 
    secs: 1561683720
    nsecs: 265102021
  frame_id: "ti_mmwave"
point_id: 5
x: 0.27734375
y: -0.041015625
z: 1.279296875
range: 1.39446306229
velocity: 0.0
doppler_bin: 8
bearing: -8.41234493256
intensity: 23.2633590698
---
header: 
  seq: 1562206
  stamp: 
    secs: 1561683720
    nsecs: 265115571
  frame_id: "ti_mmwave"
point_id: 6
x: 0.453125
y: -0.04296875
z: 1.271484375
range: 1.43804001808
velocity: 0.0
doppler_bin: 8
bearing: -5.41702222824
intensity: 21.9312458038
---
header: 
  seq: 1562207
  stamp: 
    secs: 1561683720
    nsecs: 265128500
  frame_id: "ti_mmwave"
point_id: 7
x: 1.751953125
y: -0.109375
z: -0.111328125
range: 1.87380969524
velocity: 0.0
doppler_bin: 8
bearing: -3.57235765457
intensity: 28.2801513672
---
header: 
  seq: 1562208
  stamp: 
    secs: 1561683720
    nsecs: 265139420
  frame_id: "ti_mmwave"
point_id: 8
x: 1.796875
y: -0.11328125
z: -0.029296875
range: 1.91738677025
velocity: 0.0
doppler_bin: 8
bearing: -3.60735106468
intensity: 28.1888542175
---
header: 
  seq: 1562209
  stamp: 
    secs: 1561683720
    nsecs: 265171073
  frame_id: "ti_mmwave"
point_id: 9
x: 1.83203125
y: -0.056640625
z: -0.177734375
range: 1.96096372604
velocity: 0.0
doppler_bin: 8
bearing: -1.77084064484
intensity: 27.4973640442
---
header: 
  seq: 1562210
  stamp: 
    secs: 1561683720
    nsecs: 265198393
  frame_id: "ti_mmwave"
point_id: 10
x: 2.53125
y: -0.263671875
z: 1.220703125
range: 3.00681090355
velocity: 0.0
doppler_bin: 8
bearing: -5.94686317444
intensity: 29.5182304382
---
header: 
  seq: 1562211
  stamp: 
    secs: 1561683720
    nsecs: 265221983
  frame_id: "ti_mmwave"
point_id: 11
x: 2.6015625
y: -0.267578125
z: 1.166015625
range: 3.05038785934
velocity: 0.0
doppler_bin: 8
bearing: -5.87238502502
intensity: 32.7600212097
---
header: 
  seq: 1562212
  stamp: 
    secs: 1561683720
    nsecs: 265296270
  frame_id: "ti_mmwave"
point_id: 12
x: 2.6640625
y: -0.271484375
z: 1.126953125
range: 3.09396481514
velocity: 0.0
doppler_bin: 8
bearing: -5.81870603561
intensity: 31.8977088928
---
header: 
  seq: 1562213
  stamp: 
    secs: 1561683720
    nsecs: 265317005
  frame_id: "ti_mmwave"
point_id: 14
x: 0.041015625
y: -0.033203125
z: 0.0625
range: 0.0871539413929
velocity: 0.0
doppler_bin: 8
bearing: -38.9909973145
intensity: 30.157787323
---
header: 
  seq: 1562214
  stamp: 
    secs: 1561683720
    nsecs: 265328160
  frame_id: "ti_mmwave"
point_id: 15
x: 0.044921875
y: -0.046875
z: 0.103515625
range: 0.130730912089
velocity: 0.0
doppler_bin: 8
bearing: -46.218875885
intensity: 29.0525608063
---
header: 
  seq: 1562215
  stamp: 
    secs: 1561683720
    nsecs: 265344316
  frame_id: "ti_mmwave"
point_id: 17
x: 1.205078125
y: 0.357421875
z: 0.162109375
range: 1.35088610649
velocity: 0.0
doppler_bin: 8
bearing: 16.5201683044
intensity: 19.0308990479
---
header: 
  seq: 1562216
  stamp: 
    secs: 1561683720
    nsecs: 323292917
  frame_id: "ti_mmwave"
point_id: 0
x: 0.01171875
y: -0.0390625
z: -0.0078125
range: 0.0435769706964
velocity: 0.0
doppler_bin: 8
bearing: -73.3007583618
intensity: 30.7664051056
---
header: 
  seq: 1562217
  stamp: 
    secs: 1561683720
    nsecs: 323401488
  frame_id: "ti_mmwave"
point_id: 1
x: 0.017578125
y: -0.080078125
z: -0.0078125
range: 0.0871539413929
velocity: 0.0
doppler_bin: 8
bearing: -77.6192398071
intensity: 32.0030326843
---
header: 
  seq: 1562218
  stamp: 
    secs: 1561683720
    nsecs: 323417723
  frame_id: "ti_mmwave"
point_id: 2
x: 0.029296875
y: -0.119140625
z: -0.00390625
range: 0.130730912089
velocity: 0.0
doppler_bin: 8
bearing: -76.1849746704
intensity: 30.2448558807
---
header: 
  seq: 1562219
  stamp: 
    secs: 1561683720
    nsecs: 323437567
  frame_id: "ti_mmwave"
point_id: 3
x: 0.056640625
y: -0.154296875
z: 0.005859375
range: 0.174307882786
velocity: 0.0
doppler_bin: 8
bearing: -69.8423843384
intensity: 25.5144996643
---
header: 
  seq: 1562220
  stamp: 
    secs: 1561683720
    nsecs: 323446556
  frame_id: "ti_mmwave"
point_id: 4
x: 0.388671875
y: -0.080078125
z: -1.205078125
range: 1.35088610649
velocity: 0.0
doppler_bin: 8
bearing: -11.6417570114
intensity: 21.9589958191
---
header: 
  seq: 1562221
  stamp: 
    secs: 1561683720
    nsecs: 323621505
  frame_id: "ti_mmwave"
point_id: 5
x: 0.25390625
y: -0.041015625
z: 1.283203125
range: 1.39446306229
velocity: 0.0
doppler_bin: 8
bearing: -9.17620372772
intensity: 23.2428245544
---
header: 
  seq: 1562222
  stamp: 
    secs: 1561683720
    nsecs: 323645242
  frame_id: "ti_mmwave"
point_id: 6
x: 0.396484375
y: -0.0
z: 1.291015625
range: 1.43804001808
velocity: 0.0
doppler_bin: 8
bearing: -0.0
intensity: 21.875207901
---
header: 
  seq: 1562223
  stamp: 
    secs: 1561683720
    nsecs: 323655094
  frame_id: "ti_mmwave"
point_id: 7
x: 1.66015625
y: -0.052734375
z: -0.236328125
range: 1.78665578365
velocity: 0.0
doppler_bin: 8
bearing: -1.8193718195
intensity: 28.0618000031
---
header: 
  seq: 1562224
  stamp: 
    secs: 1561683720
    nsecs: 323677849
  frame_id: "ti_mmwave"
point_id: 8
x: 1.697265625
y: -0.052734375
z: -0.2578125
range: 1.83023273945
velocity: 0.0
doppler_bin: 8
bearing: -1.77961862087
intensity: 30.9829750061
---
header: 
  seq: 1562225
  stamp: 
    secs: 1561683720
    nsecs: 323692909
  frame_id: "ti_mmwave"
point_id: 9
x: 1.736328125
y: -0.0
z: -0.28125
range: 1.87380969524
velocity: 0.0
doppler_bin: 8
bearing: -0.0
intensity: 30.2325248718
---
header: 
  seq: 1562226
  stamp: 
    secs: 1561683720
    nsecs: 323706606
  frame_id: "ti_mmwave"
point_id: 10
x: 2.560546875
y: -0.263671875
z: 1.16015625
range: 3.00681090355
velocity: 0.0
doppler_bin: 8
bearing: -5.87930107117
intensity: 29.5375976562
---
header: 
  seq: 1562227
  stamp: 
    secs: 1561683720
    nsecs: 323714857
  frame_id: "ti_mmwave"
point_id: 11
x: 2.603515625
y: -0.267578125
z: 1.162109375
range: 3.05038785934
velocity: 0.0
doppler_bin: 8
bearing: -5.8680100441
intensity: 32.8012275696
---
header: 
  seq: 1562228
  stamp: 
    secs: 1561683720
    nsecs: 323790401
  frame_id: "ti_mmwave"
point_id: 12
x: 2.65625
y: -0.181640625
z: 1.16015625
range: 3.09396481514
velocity: 0.0
doppler_bin: 8
bearing: -3.91193032265
intensity: 31.9534606934
---
header: 
  seq: 1562229
  stamp: 
    secs: 1561683720
    nsecs: 323803037
  frame_id: "ti_mmwave"
point_id: 14
x: 0.041015625
y: -0.033203125
z: 0.0625
range: 0.0871539413929
velocity: 0.0
doppler_bin: 8
bearing: -38.9909973145
intensity: 30.1619739532
---
header: 
  seq: 1562230
  stamp: 
    secs: 1561683720
    nsecs: 323812634
  frame_id: "ti_mmwave"
point_id: 15
x: 0.044921875
y: -0.046875
z: 0.103515625
range: 0.130730912089
velocity: 0.0
doppler_bin: 8
bearing: -46.218875885
intensity: 29.0525608063
---
header: 
  seq: 1562231
  stamp: 
    secs: 1561683720
    nsecs: 323822460
  frame_id: "ti_mmwave"
point_id: 17
x: 1.205078125
y: 0.357421875
z: 0.169921875
range: 1.35088610649
velocity: 0.0
doppler_bin: 8
bearing: 16.5201683044
intensity: 19.0848503113
---
header: 
  seq: 1562232
  stamp: 
    secs: 1561683720
    nsecs: 324428655
  frame_id: "ti_mmwave"
point_id: 0
x: 0.01171875
y: -0.0390625
z: -0.0078125
range: 0.0435769706964
velocity: 0.0
doppler_bin: 8
bearing: -73.3007583618
intensity: 30.7591171265
---
header: 
  seq: 1562233
  stamp: 
    secs: 1561683720
    nsecs: 324472514
  frame_id: "ti_mmwave"
point_id: 1
x: 0.017578125
y: -0.080078125
z: -0.0078125
range: 0.0871539413929
velocity: 0.0
doppler_bin: 8
bearing: -77.6192398071
intensity: 31.9975509644
---
header: 
  seq: 1562234
  stamp: 
    secs: 1561683720
    nsecs: 324493353
  frame_id: "ti_mmwave"
point_id: 2
x: 0.041015625
y: -0.115234375
z: -0.0078125
range: 0.130730912089
velocity: 0.0
doppler_bin: 8
bearing: -70.4077224731
intensity: 30.2407493591
---
header: 
  seq: 1562235
  stamp: 
    secs: 1561683720
    nsecs: 324517682
  frame_id: "ti_mmwave"
point_id: 3
x: 0.056640625
y: -0.154296875
z: 0.005859375
range: 0.174307882786
velocity: 0.0
doppler_bin: 8
bearing: -69.8423843384
intensity: 25.5266819
---
header: 
  seq: 1562236
  stamp: 
    secs: 1561683720
    nsecs: 324696201
  frame_id: "ti_mmwave"
point_id: 4
x: 0.390625
y: -0.080078125
z: -1.203125
range: 1.35088610649
velocity: 0.0
doppler_bin: 8
bearing: -11.5851259232
intensity: 21.9312458038
---
header: 
  seq: 1562237
  stamp: 
    secs: 1561683720
    nsecs: 324722572
  frame_id: "ti_mmwave"
point_id: 5
x: 0.25390625
y: -0.041015625
z: 1.283203125
range: 1.39446306229
velocity: 0.0
doppler_bin: 8
bearing: -9.17620372772
intensity: 23.2428245544
---
header: 
  seq: 1562238
  stamp: 
    secs: 1561683720
    nsecs: 324731120
  frame_id: "ti_mmwave"
point_id: 6
x: 0.39453125
y: -0.0
z: 1.291015625
range: 1.43804001808
velocity: 0.0
doppler_bin: 8
bearing: -0.0
intensity: 21.875207901
---
header: 
  seq: 1562239
  stamp: 
    secs: 1561683720
    nsecs: 324778787
  frame_id: "ti_mmwave"
point_id: 7
x: 1.658203125
y: -0.052734375
z: -0.2421875
range: 1.78665578365
velocity: 0.0
doppler_bin: 8
bearing: -1.82151353359
intensity: 29.9211139679
---
header: 
  seq: 1562240
  stamp: 
    secs: 1561683720
    nsecs: 324788280
  frame_id: "ti_mmwave"
point_id: 8
x: 1.697265625
y: -0.052734375
z: -0.26171875
range: 1.83023273945
velocity: 0.0
doppler_bin: 8
bearing: -1.77961862087
intensity: 32.3299598694
---
header: 
  seq: 1562241
  stamp: 
    secs: 1561683720
    nsecs: 324802872
  frame_id: "ti_mmwave"
point_id: 9
x: 1.736328125
y: -0.0546875
z: -0.271484375
range: 1.87380969524
velocity: 0.0
doppler_bin: 8
bearing: -1.80399513245
intensity: 31.3987903595
---
header: 
  seq: 1562242
  stamp: 
    secs: 1561683720
    nsecs: 324837738
  frame_id: "ti_mmwave"
point_id: 10
x: 1.787109375
y: -0.11328125
z: -0.185546875
range: 1.91738677025
velocity: 0.0
doppler_bin: 8
bearing: -3.62701106071
intensity: 28.5369815826
---
header: 
  seq: 1562243
  stamp: 
    secs: 1561683720
    nsecs: 324847004
  frame_id: "ti_mmwave"
point_id: 11
x: 2.55078125
y: -0.263671875
z: 1.1796875
range: 3.00681090355
velocity: 0.0
doppler_bin: 8
bearing: -5.90165042877
intensity: 29.5230808258
---
header: 
  seq: 1562244
  stamp: 
    secs: 1561683720
    nsecs: 324854047
  frame_id: "ti_mmwave"
point_id: 12
x: 2.60546875
y: -0.267578125
z: 1.15625
range: 3.05038785934
velocity: 0.0
doppler_bin: 8
bearing: -5.86364221573
intensity: 32.8352737427
---
header: 
  seq: 1562245
  stamp: 
    secs: 1561683720
    nsecs: 324901583
  frame_id: "ti_mmwave"
point_id: 13
x: 2.66796875
y: -0.271484375
z: 1.1171875
range: 3.09396481514
velocity: 0.0
doppler_bin: 8
bearing: -5.81024503708
intensity: 32.0439147949
---
header: 
  seq: 1562246
  stamp: 
    secs: 1561683720
    nsecs: 324919813
  frame_id: "ti_mmwave"
point_id: 15
x: 0.041015625
y: -0.033203125
z: 0.0625
range: 0.0871539413929
velocity: 0.0
doppler_bin: 8
bearing: -38.9909973145
intensity: 30.1619739532
---
header: 
  seq: 1562247
  stamp: 
    secs: 1561683720
    nsecs: 324931980
  frame_id: "ti_mmwave"
point_id: 16
x: 0.044921875
y: -0.046875
z: 0.103515625
range: 0.130730912089
velocity: 0.0
doppler_bin: 8
bearing: -46.218875885
intensity: 29.0579586029
---
header: 
  seq: 1562248
  stamp: 
    secs: 1561683720
    nsecs: 324948974
  frame_id: "ti_mmwave"
point_id: 18
x: 1.115234375
y: -0.474609375
z: 0.369140625
range: 1.35088610649
velocity: 0.0
doppler_bin: 8
bearing: -23.0531082153
intensity: 19.0848503113
---
header: 
  seq: 1562249
  stamp: 
    secs: 1561683720
    nsecs: 383201498
  frame_id: "ti_mmwave"
point_id: 0
x: 0.01171875
y: -0.0390625
z: -0.0078125
range: 0.0435769706964
velocity: 0.0
doppler_bin: 8
bearing: -73.3007583618
intensity: 30.7627620697
---
header: 
  seq: 1562250
  stamp: 
    secs: 1561683720
    nsecs: 383271994
  frame_id: "ti_mmwave"
point_id: 1
x: 0.017578125
y: -0.080078125
z: -0.0078125
range: 0.0871539413929
velocity: 0.0
doppler_bin: 8
bearing: -77.6192398071
intensity: 32.0002937317
---
header: 
  seq: 1562251
  stamp: 
    secs: 1561683720
    nsecs: 383282286
  frame_id: "ti_mmwave"
point_id: 2
x: 0.029296875
y: -0.119140625
z: -0.005859375
range: 0.130730912089
velocity: 0.0
doppler_bin: 8
bearing: -76.1849746704
intensity: 30.2448558807
---
header: 
  seq: 1562252
  stamp: 
    secs: 1561683720
    nsecs: 383290506
  frame_id: "ti_mmwave"
point_id: 3
x: 0.056640625
y: -0.154296875
z: 0.005859375
range: 0.174307882786
velocity: 0.0
doppler_bin: 8
bearing: -69.8423843384
intensity: 25.5388298035
---
header: 
  seq: 1562253
  stamp: 
    secs: 1561683720
    nsecs: 383298774
  frame_id: "ti_mmwave"
point_id: 4
x: 0.3671875
y: -0.080078125
z: -1.2109375
range: 1.35088610649
velocity: 0.0
doppler_bin: 8
bearing: -12.3027267456
intensity: 21.9589958191
---
header: 
  seq: 1562254
  stamp: 
    secs: 1561683720
    nsecs: 383310126
  frame_id: "ti_mmwave"
point_id: 5
x: 0.27734375
y: -0.041015625
z: 1.279296875
range: 1.39446306229
velocity: 0.0
doppler_bin: 8
bearing: -8.41234493256
intensity: 23.2837963104
---
header: 
  seq: 1562255
  stamp: 
    secs: 1561683720
    nsecs: 383318098
  frame_id: "ti_mmwave"
point_id: 6
x: 0.466796875
y: -0.04296875
z: 1.265625
range: 1.43804001808
velocity: 0.0
doppler_bin: 8
bearing: -5.25926733017
intensity: 21.9312458038
---
header: 
  seq: 1562256
  stamp: 
    secs: 1561683720
    nsecs: 383326256
  frame_id: "ti_mmwave"
point_id: 7
x: 1.650390625
y: -0.10546875
z: -0.28125
range: 1.78665578365
velocity: 0.0
doppler_bin: 8
bearing: -3.65653324127
intensity: 30.3782482147
---
header: 
  seq: 1562257
  stamp: 
    secs: 1561683720
    nsecs: 383334666
  frame_id: "ti_mmwave"
point_id: 8
x: 1.703125
y: -0.052734375
z: -0.2265625
range: 1.83023273945
velocity: 0.0
doppler_bin: 8
bearing: -1.77350008488
intensity: 33.0492134094
---
header: 
  seq: 1562258
  stamp: 
    secs: 1561683720
    nsecs: 383342317
  frame_id: "ti_mmwave"
point_id: 9
x: 1.751953125
y: -0.0546875
z: -0.140625
range: 1.87380969524
velocity: 0.0
doppler_bin: 8
bearing: -1.78791642189
intensity: 32.7783851624
---
header: 
  seq: 1562259
  stamp: 
    secs: 1561683720
    nsecs: 383350457
  frame_id: "ti_mmwave"
point_id: 10
x: 1.798828125
y: -0.056640625
z: -0.048828125
range: 1.91738677025
velocity: 0.0
doppler_bin: 8
bearing: -1.8035056591
intensity: 29.8452739716
---
header: 
  seq: 1562260
  stamp: 
    secs: 1561683720
    nsecs: 383391844
  frame_id: "ti_mmwave"
point_id: 11
x: 2.564453125
y: -0.263671875
z: 1.146484375
range: 3.00681090355
velocity: 0.0
doppler_bin: 8
bearing: -5.87040758133
intensity: 29.6425971985
---
header: 
  seq: 1562261
  stamp: 
    secs: 1561683720
    nsecs: 383408736
  frame_id: "ti_mmwave"
point_id: 12
x: 2.607421875
y: -0.267578125
z: 1.150390625
range: 3.05038785934
velocity: 0.0
doppler_bin: 8
bearing: -5.85928010941
intensity: 32.8780174255
---
header: 
  seq: 1562262
  stamp: 
    secs: 1561683720
    nsecs: 383418731
  frame_id: "ti_mmwave"
point_id: 13
x: 2.65625
y: -0.271484375
z: 1.140625
range: 3.09396481514
velocity: 0.0
doppler_bin: 8
bearing: -5.83570146561
intensity: 32.0439147949
---
header: 
  seq: 1562263
  stamp: 
    secs: 1561683720
    nsecs: 383539938
  frame_id: "ti_mmwave"
point_id: 15
x: 0.041015625
y: -0.033203125
z: 0.0625
range: 0.0871539413929
velocity: 0.0
doppler_bin: 8
bearing: -38.9909973145
intensity: 30.1661548615
---
header: 
  seq: 1562264
  stamp: 
    secs: 1561683720
    nsecs: 383549748
  frame_id: "ti_mmwave"
point_id: 16
x: 0.044921875
y: -0.046875
z: 0.103515625
range: 0.130730912089
velocity: 0.0
doppler_bin: 8
bearing: -46.218875885
intensity: 29.0579586029
---
header: 
  seq: 1562265
  stamp: 
    secs: 1561683720
    nsecs: 383559907
  frame_id: "ti_mmwave"
point_id: 18
x: 1.1171875
y: -0.515625
z: 0.306640625
range: 1.35088610649
velocity: 0.0
doppler_bin: 8
bearing: -24.7751407623
intensity: 19.0848503113
---
header: 
  seq: 1562266
  stamp: 
    secs: 1561683720
    nsecs: 384531161
  frame_id: "ti_mmwave"
point_id: 0
x: 0.01171875
y: -0.0390625
z: -0.0078125
range: 0.0435769706964
velocity: 0.0
doppler_bin: 8
bearing: -73.3007583618
intensity: 30.7664051056
---
header: 
  seq: 1562267
  stamp: 
    secs: 1561683720
    nsecs: 384571541
  frame_id: "ti_mmwave"
point_id: 1
x: 0.017578125
y: -0.080078125
z: -0.0078125
range: 0.0871539413929
velocity: 0.0
doppler_bin: 8
bearing: -77.6192398071
intensity: 32.0002937317
---
header: 
  seq: 1562268
  stamp: 
    secs: 1561683720
    nsecs: 384581386
  frame_id: "ti_mmwave"
point_id: 2
x: 0.041015625
y: -0.115234375
z: -0.0078125
range: 0.130730912089
velocity: 0.0
doppler_bin: 8
bearing: -70.4077224731
intensity: 30.2448558807
---
header: 
  seq: 1562269
  stamp: 
    secs: 1561683720
    nsecs: 384590096
  frame_id: "ti_mmwave"
point_id: 3
x: 0.056640625
y: -0.154296875
z: 0.005859375
range: 0.174307882786
velocity: 0.0
doppler_bin: 8
bearing: -69.8423843384
intensity: 25.5266819
---
header: 
  seq: 1562270
  stamp: 
    secs: 1561683720
    nsecs: 384599136
  frame_id: "ti_mmwave"
point_id: 4
x: 0.380859375
y: -0.080078125
z: -1.20703125
range: 1.35088610649
velocity: 0.0
doppler_bin: 8
bearing: -11.8738489151
intensity: 21.9589958191
---
header: 
  seq: 1562271
  stamp: 
    secs: 1561683720
    nsecs: 384607308
  frame_id: "ti_mmwave"
point_id: 5
x: 0.26953125
y: -0.041015625
z: 1.28125
range: 1.39446306229
velocity: 0.0
doppler_bin: 8
bearing: -8.65254211426
intensity: 23.2633590698
---
header: 
  seq: 1562272
  stamp: 
    secs: 1561683720
    nsecs: 384615983
  frame_id: "ti_mmwave"
point_id: 6
x: 0.5
y: -0.04296875
z: 1.25390625
range: 1.43804001808
velocity: 0.0
doppler_bin: 8
bearing: -4.91178798676
intensity: 21.9033164978
---
header: 
  seq: 1562273
  stamp: 
    secs: 1561683720
    nsecs: 384625706
  frame_id: "ti_mmwave"
point_id: 7
x: 1.662109375
y: -0.052734375
z: -0.22265625
range: 1.78665578365
velocity: 0.0
doppler_bin: 8
bearing: -1.81723546982
intensity: 29.6520175934
---
header: 
  seq: 1562274
  stamp: 
    secs: 1561683720
    nsecs: 384635775
  frame_id: "ti_mmwave"
point_id: 8
x: 1.697265625
y: -0.052734375
z: -0.267578125
range: 1.83023273945
velocity: 0.0
doppler_bin: 8
bearing: -1.77961862087
intensity: 31.7114124298
---
header: 
  seq: 1562275
  stamp: 
    secs: 1561683720
    nsecs: 384745812
  frame_id: "ti_mmwave"
point_id: 9
x: 1.7265625
y: -0.0546875
z: -0.33203125
range: 1.87380969524
velocity: 0.0
doppler_bin: 8
bearing: -1.81419193745
intensity: 29.7127590179
---
header: 
  seq: 1562276
  stamp: 
    secs: 1561683720
    nsecs: 384755202
  frame_id: "ti_mmwave"
point_id: 10
x: 2.55078125
y: -0.263671875
z: 1.177734375
range: 3.00681090355
velocity: 0.0
doppler_bin: 8
bearing: -5.90165042877
intensity: 29.5712814331
---
header: 
  seq: 1562277
  stamp: 
    secs: 1561683720
    nsecs: 384762878
  frame_id: "ti_mmwave"
point_id: 11
x: 2.607421875
y: -0.267578125
z: 1.15234375
range: 3.05038785934
velocity: 0.0
doppler_bin: 8
bearing: -5.85928010941
intensity: 32.8420524597
---
header: 
  seq: 1562278
  stamp: 
    secs: 1561683720
    nsecs: 384770506
  frame_id: "ti_mmwave"
point_id: 12
x: 2.66796875
y: -0.271484375
z: 1.11328125
range: 3.09396481514
velocity: 0.0
doppler_bin: 8
bearing: -5.81024503708
intensity: 32.0384864807
---
header: 
  seq: 1562279
  stamp: 
    secs: 1561683720
    nsecs: 384780173
  frame_id: "ti_mmwave"
point_id: 14
x: 0.041015625
y: -0.033203125
z: 0.0625
range: 0.0871539413929
velocity: 0.0
doppler_bin: 8
bearing: -38.9909973145
intensity: 30.1619739532
---
header: 
  seq: 1562280
  stamp: 
    secs: 1561683720
    nsecs: 384788016
  frame_id: "ti_mmwave"
point_id: 15
x: 0.044921875
y: -0.046875
z: 0.103515625
range: 0.130730912089
velocity: 0.0
doppler_bin: 8
bearing: -46.218875885
intensity: 29.0525608063
---
header: 
  seq: 1562281
  stamp: 
    secs: 1561683720
    nsecs: 384798850
  frame_id: "ti_mmwave"
point_id: 17
x: 1.205078125
y: 0.357421875
z: 0.1640625
range: 1.35088610649
velocity: 0.0
doppler_bin: 8
bearing: 16.5201683044
intensity: 19.0308990479
---
header: 
  seq: 1562282
  stamp: 
    secs: 1561683720
    nsecs: 443215386
  frame_id: "ti_mmwave"
point_id: 0
x: 0.01171875
y: -0.0390625
z: -0.0078125
range: 0.0435769706964
velocity: 0.0
doppler_bin: 8
bearing: -73.3007583618
intensity: 30.7627620697
---
header: 
  seq: 1562283
  stamp: 
    secs: 1561683720
    nsecs: 443287804
  frame_id: "ti_mmwave"
point_id: 1
x: 0.017578125
y: -0.080078125
z: -0.0078125
range: 0.0871539413929
velocity: 0.0
doppler_bin: 8
bearing: -77.6192398071
intensity: 32.0002937317
---
header: 
  seq: 1562284
  stamp: 
    secs: 1561683720
    nsecs: 443298404
  frame_id: "ti_mmwave"
point_id: 2
x: 0.029296875
y: -0.119140625
z: -0.005859375
range: 0.130730912089
velocity: 0.0
doppler_bin: 8
bearing: -76.1849746704
intensity: 30.2448558807
---
header: 
  seq: 1562285
  stamp: 
    secs: 1561683720
    nsecs: 443306632
  frame_id: "ti_mmwave"
point_id: 3
x: 0.056640625
y: -0.154296875
z: 0.005859375
range: 0.174307882786
velocity: 0.0
doppler_bin: 8
bearing: -69.8423843384
intensity: 25.5266819
---
header: 
  seq: 1562286
  stamp: 
    secs: 1561683720
    nsecs: 443317261
  frame_id: "ti_mmwave"
point_id: 4
x: 0.38671875
y: -0.080078125
z: -1.205078125
range: 1.35088610649
velocity: 0.0
doppler_bin: 8
bearing: -11.6989374161
intensity: 21.875207901
---
header: 
  seq: 1562287
  stamp: 
    secs: 1561683720
    nsecs: 443325217
  frame_id: "ti_mmwave"
point_id: 5
x: 0.27734375
y: -0.041015625
z: 1.279296875
range: 1.39446306229
velocity: 0.0
doppler_bin: 8
bearing: -8.41234493256
intensity: 23.2221927643
---
header: 
  seq: 1562288
  stamp: 
    secs: 1561683720
    nsecs: 443332886
  frame_id: "ti_mmwave"
point_id: 6
x: 0.466796875
y: -0.04296875
z: 1.265625
range: 1.43804001808
velocity: 0.0
doppler_bin: 8
bearing: -5.25926733017
intensity: 21.8469142914
---
header: 
  seq: 1562289
  stamp: 
    secs: 1561683720
    nsecs: 443340859
  frame_id: "ti_mmwave"
point_id: 7
x: 1.7578125
y: -0.0546875
z: 0.05078125
range: 1.87380969524
velocity: 0.0
doppler_bin: 8
bearing: -1.78196060658
intensity: 29.0036716461
---
header: 
  seq: 1562290
  stamp: 
    secs: 1561683720
    nsecs: 443348420
  frame_id: "ti_mmwave"
point_id: 8
x: 1.798828125
y: -0.056640625
z: -0.01953125
range: 1.91738677025
velocity: 0.0
doppler_bin: 8
bearing: -1.8035056591
intensity: 28.4633712769
---
header: 
  seq: 1562291
  stamp: 
    secs: 1561683720
    nsecs: 443393130
  frame_id: "ti_mmwave"
point_id: 9
x: 2.5390625
y: -0.263671875
z: 1.205078125
range: 3.00681090355
velocity: 0.0
doppler_bin: 8
bearing: -5.92869567871
intensity: 29.5664863586
---
header: 
  seq: 1562292
  stamp: 
    secs: 1561683720
    nsecs: 443409568
  frame_id: "ti_mmwave"
point_id: 10
x: 2.6015625
y: -0.267578125
z: 1.166015625
range: 3.05038785934
velocity: 0.0
doppler_bin: 8
bearing: -5.87238502502
intensity: 32.8352737427
---
header: 
  seq: 1562293
  stamp: 
    secs: 1561683720
    nsecs: 443426842
  frame_id: "ti_mmwave"
point_id: 11
x: 2.6640625
y: -0.271484375
z: 1.125
range: 3.09396481514
velocity: 0.0
doppler_bin: 8
bearing: -5.81870603561
intensity: 32.0139694214
---
header: 
  seq: 1562294
  stamp: 
    secs: 1561683720
    nsecs: 443443750
  frame_id: "ti_mmwave"
point_id: 13
x: 0.041015625
y: -0.033203125
z: 0.0625
range: 0.0871539413929
velocity: 0.0
doppler_bin: 8
bearing: -38.9909973145
intensity: 30.1619739532
---
header: 
  seq: 1562295
  stamp: 
    secs: 1561683720
    nsecs: 443452785
  frame_id: "ti_mmwave"
point_id: 14
x: 0.044921875
y: -0.046875
z: 0.103515625
range: 0.130730912089
velocity: 0.0
doppler_bin: 8
bearing: -46.218875885
intensity: 29.0633506775
---
header: 
  seq: 1562296
  stamp: 
    secs: 1561683720
    nsecs: 443463068
  frame_id: "ti_mmwave"
point_id: 16
x: 1.203125
y: 0.357421875
z: 0.177734375
range: 1.35088610649
velocity: 0.0
doppler_bin: 8
bearing: 16.5455226898
intensity: 19.1381378174
---
header: 
  seq: 1562297
  stamp: 
    secs: 1561683720
    nsecs: 503253980
  frame_id: "ti_mmwave"
point_id: 0
x: 0.01171875
y: -0.0390625
z: -0.0078125
range: 0.0435769706964
velocity: 0.0
doppler_bin: 8
bearing: -73.3007583618
intensity: 30.7591171265
---
header: 
  seq: 1562298
  stamp: 
    secs: 1561683720
    nsecs: 503329748
  frame_id: "ti_mmwave"
point_id: 1
x: 0.017578125
y: -0.080078125
z: -0.0078125
range: 0.0871539413929
velocity: 0.0
doppler_bin: 8
bearing: -77.6192398071
intensity: 31.9975509644
---
header: 
  seq: 1562299
  stamp: 
    secs: 1561683720
    nsecs: 503349874
  frame_id: "ti_mmwave"
point_id: 2
x: 0.041015625
y: -0.115234375
z: -0.0078125
range: 0.130730912089
velocity: 0.0
doppler_bin: 8
bearing: -70.4077224731
intensity: 30.2407493591
---
header: 
  seq: 1562300
  stamp: 
    secs: 1561683720
    nsecs: 503396539
  frame_id: "ti_mmwave"
point_id: 3
x: 0.056640625
y: -0.154296875
z: 0.005859375
range: 0.174307882786
velocity: 0.0
doppler_bin: 8
bearing: -69.8423843384
intensity: 25.5266819
---
header: 
  seq: 1562301
  stamp: 
    secs: 1561683720
    nsecs: 503410422
  frame_id: "ti_mmwave"
point_id: 4
x: 0.369140625
y: -0.080078125
z: -1.2109375
range: 1.35088610649
velocity: 0.0
doppler_bin: 8
bearing: -12.2396001816
intensity: 21.9312458038
---
header: 
  seq: 1562302
  stamp: 
    secs: 1561683720
    nsecs: 503492350
  frame_id: "ti_mmwave"
point_id: 5
x: 0.2734375
y: -0.041015625
z: 1.279296875
range: 1.39446306229
velocity: 0.0
doppler_bin: 8
bearing: -8.53076648712
intensity: 23.2428245544
---
header: 
  seq: 1562303
  stamp: 
    secs: 1561683720
    nsecs: 503505643
  frame_id: "ti_mmwave"
point_id: 6
x: 0.490234375
y: -0.04296875
z: 1.2578125
range: 1.43804001808
velocity: 0.0
doppler_bin: 8
bearing: -5.00914001465
intensity: 21.9033164978
---
header: 
  seq: 1562304
  stamp: 
    secs: 1561683720
    nsecs: 503517594
  frame_id: "ti_mmwave"
point_id: 7
x: 1.6640625
y: -0.052734375
z: -0.20703125
range: 1.78665578365
velocity: 0.0
doppler_bin: 8
bearing: -1.8151037693
intensity: 27.6715583801
---
header: 
  seq: 1562305
  stamp: 
    secs: 1561683720
    nsecs: 503528365
  frame_id: "ti_mmwave"
point_id: 8
x: 1.705078125
y: -0.0
z: -0.212890625
range: 1.83023273945
velocity: 0.0
doppler_bin: 8
bearing: -0.0
intensity: 30.4414768219
---
header: 
  seq: 1562306
  stamp: 
    secs: 1561683720
    nsecs: 503541339
  frame_id: "ti_mmwave"
point_id: 9
x: 1.73828125
y: 0.0546875
z: -0.263671875
range: 1.87380969524
velocity: 0.0
doppler_bin: 8
bearing: 1.80196928978
intensity: 29.8000335693
---
header: 
  seq: 1562307
  stamp: 
    secs: 1561683720
    nsecs: 503553744
  frame_id: "ti_mmwave"
point_id: 10
x: 0.4609375
y: 0.16796875
z: -1.732421875
range: 1.91738677025
velocity: 0.0
doppler_bin: 8
bearing: 20.0220851898
intensity: 26.9897003174
---
header: 
  seq: 1562308
  stamp: 
    secs: 1561683720
    nsecs: 503565622
  frame_id: "ti_mmwave"
point_id: 11
x: 2.5625
y: -0.263671875
z: 1.154296875
range: 3.00681090355
velocity: 0.0
doppler_bin: 8
bearing: -5.87485074997
intensity: 29.3951931
---
header: 
  seq: 1562309
  stamp: 
    secs: 1561683720
    nsecs: 503577315
  frame_id: "ti_mmwave"
point_id: 12
x: 2.60546875
y: -0.267578125
z: 1.154296875
range: 3.05038785934
velocity: 0.0
doppler_bin: 8
bearing: -5.86364221573
intensity: 32.8012275696
---
header: 
  seq: 1562310
  stamp: 
    secs: 1561683720
    nsecs: 503590490
  frame_id: "ti_mmwave"
point_id: 13
x: 2.666015625
y: -0.181640625
z: 1.138671875
range: 3.09396481514
velocity: 0.0
doppler_bin: 8
bearing: -3.89764523506
intensity: 32.0030326843
---
header: 
  seq: 1562311
  stamp: 
    secs: 1561683720
    nsecs: 503605652
  frame_id: "ti_mmwave"
point_id: 15
x: 0.041015625
y: -0.033203125
z: 0.0625
range: 0.0871539413929
velocity: 0.0
doppler_bin: 8
bearing: -38.9909973145
intensity: 30.1619739532
---
header: 
  seq: 1562312
  stamp: 
    secs: 1561683720
    nsecs: 503648773
  frame_id: "ti_mmwave"
point_id: 16
x: 0.044921875
y: -0.046875
z: 0.103515625
range: 0.130730912089
velocity: 0.0
doppler_bin: 8
bearing: -46.218875885
intensity: 29.0579586029
---
header: 
  seq: 1562313
  stamp: 
    secs: 1561683720
    nsecs: 503669907
  frame_id: "ti_mmwave"
point_id: 18
x: 1.20703125
y: 0.357421875
z: 0.15625
range: 1.35088610649
velocity: 0.0
doppler_bin: 8
bearing: 16.4948921204
intensity: 19.0848503113
---
header: 
  seq: 1562314
  stamp: 
    secs: 1561683720
    nsecs: 503681718
  frame_id: "ti_mmwave"
point_id: 19
x: 1.716796875
y: -0.505859375
z: -0.185546875
range: 1.91738677025
velocity: 0.0
doppler_bin: 8
bearing: -16.4177684784
intensity: 26.2736587524
---
header: 
  seq: 1562315
  stamp: 
    secs: 1561683720
    nsecs: 504595497
  frame_id: "ti_mmwave"
point_id: 0
x: 0.01171875
y: -0.0390625
z: -0.0078125
range: 0.0435769706964
velocity: 0.0
doppler_bin: 8
bearing: -73.3007583618
intensity: 30.7627620697
---
header: 
  seq: 1562316
  stamp: 
    secs: 1561683720
    nsecs: 504645731
  frame_id: "ti_mmwave"
point_id: 1
x: 0.017578125
y: -0.080078125
z: -0.0078125
range: 0.0871539413929
velocity: 0.0
doppler_bin: 8
bearing: -77.6192398071
intensity: 31.9975509644
---
header: 
  seq: 1562317
  stamp: 
    secs: 1561683720
    nsecs: 504662618
  frame_id: "ti_mmwave"
point_id: 2
x: 0.029296875
y: -0.119140625
z: -0.00390625
range: 0.130730912089
velocity: 0.0
doppler_bin: 8
bearing: -76.1849746704
intensity: 30.2407493591
---
header: 
  seq: 1562318
  stamp: 
    secs: 1561683720
    nsecs: 504678368
  frame_id: "ti_mmwave"
point_id: 3
x: 0.056640625
y: -0.154296875
z: 0.005859375
range: 0.174307882786
velocity: 0.0
doppler_bin: 8
bearing: -69.8423843384
intensity: 25.5266819
---
header: 
  seq: 1562319
  stamp: 
    secs: 1561683720
    nsecs: 504695236
  frame_id: "ti_mmwave"
point_id: 4
x: 0.34765625
y: -0.080078125
z: -1.216796875
range: 1.35088610649
velocity: 0.0
doppler_bin: 8
bearing: -12.9711065292
intensity: 21.9312458038
---
header: 
  seq: 1562320
  stamp: 
    secs: 1561683720
    nsecs: 504767386
  frame_id: "ti_mmwave"
point_id: 5
x: 0.27734375
y: -0.041015625
z: 1.279296875
range: 1.39446306229
velocity: 0.0
doppler_bin: 8
bearing: -8.41234493256
intensity: 23.2633590698
---
header: 
  seq: 1562321
  stamp: 
    secs: 1561683720
    nsecs: 504785368
  frame_id: "ti_mmwave"
point_id: 6
x: 0.39453125
y: -0.0
z: 1.291015625
range: 1.43804001808
velocity: 0.0
doppler_bin: 8
bearing: -0.0
intensity: 21.875207901
---
header: 
  seq: 1562322
  stamp: 
    secs: 1561683720
    nsecs: 504799082
  frame_id: "ti_mmwave"
point_id: 7
x: 1.666015625
y: -0.052734375
z: -0.189453125
range: 1.78665578365
velocity: 0.0
doppler_bin: 8
bearing: -1.8129774332
intensity: 28.8309345245
---
header: 
  seq: 1562323
  stamp: 
    secs: 1561683720
    nsecs: 504811933
  frame_id: "ti_mmwave"
point_id: 8
x: 1.708984375
y: -0.052734375
z: -0.166015625
range: 1.83023273945
velocity: 0.0
doppler_bin: 8
bearing: -1.76742315292
intensity: 31.2742881775
---
header: 
  seq: 1562324
  stamp: 
    secs: 1561683720
    nsecs: 504826051
  frame_id: "ti_mmwave"
point_id: 9
x: 1.755859375
y: -0.0546875
z: -0.0859375
range: 1.87380969524
velocity: 0.0
doppler_bin: 8
bearing: -1.78394150734
intensity: 30.6744289398
---
header: 
  seq: 1562325
  stamp: 
    secs: 1561683720
    nsecs: 504838586
  frame_id: "ti_mmwave"
point_id: 10
x: 1.791015625
y: -0.11328125
z: 0.130859375
range: 1.91738677025
velocity: 0.0
doppler_bin: 8
bearing: -3.61912178993
intensity: 28.1690387726
---
header: 
  seq: 1562326
  stamp: 
    secs: 1561683720
    nsecs: 504855198
  frame_id: "ti_mmwave"
point_id: 11
x: 2.54296875
y: -0.263671875
z: 1.197265625
range: 3.00681090355
velocity: 0.0
doppler_bin: 8
bearing: -5.91965341568
intensity: 29.6425971985
---
header: 
  seq: 1562327
  stamp: 
    secs: 1561683720
    nsecs: 504913142
  frame_id: "ti_mmwave"
point_id: 12
x: 2.599609375
y: -0.267578125
z: 1.169921875
range: 3.05038785934
velocity: 0.0
doppler_bin: 8
bearing: -5.87676620483
intensity: 32.8284873962
---
header: 
  seq: 1562328
  stamp: 
    secs: 1561683720
    nsecs: 504929458
  frame_id: "ti_mmwave"
point_id: 13
x: 2.658203125
y: -0.181640625
z: 1.15625
range: 3.09396481514
velocity: 0.0
doppler_bin: 8
bearing: -3.90906453133
intensity: 31.9340286255
---
header: 
  seq: 1562329
  stamp: 
    secs: 1561683720
    nsecs: 504947144
  frame_id: "ti_mmwave"
point_id: 15
x: 0.041015625
y: -0.033203125
z: 0.0625
range: 0.0871539413929
velocity: 0.0
doppler_bin: 8
bearing: -38.9909973145
intensity: 30.1619739532
---
header: 
  seq: 1562330
