header: 
  seq: 1589103
  stamp: 
    secs: 1561683767
    nsecs: 783237230
  frame_id: "ti_mmwave"
point_id: 0
x: 0.01171875
y: -0.0390625
z: -0.0078125
range: 0.0435769706964
velocity: 0.0
doppler_bin: 8
bearing: -73.3007583618
intensity: 30.7518177032
---
header: 
  seq: 1589104
  stamp: 
    secs: 1561683767
    nsecs: 783312572
  frame_id: "ti_mmwave"
point_id: 1
x: 0.017578125
y: -0.080078125
z: -0.0078125
range: 0.0871539413929
velocity: 0.0
doppler_bin: 8
bearing: -77.6192398071
intensity: 31.9865703583
---
header: 
  seq: 1589105
  stamp: 
    secs: 1561683767
    nsecs: 783323577
  frame_id: "ti_mmwave"
point_id: 2
x: 0.029296875
y: -0.119140625
z: -0.005859375
range: 0.130730912089
velocity: 0.0
doppler_bin: 8
bearing: -76.1849746704
intensity: 30.2325248718
---
header: 
  seq: 1589106
  stamp: 
    secs: 1561683767
    nsecs: 783337390
  frame_id: "ti_mmwave"
point_id: 3
x: 0.056640625
y: -0.154296875
z: 0.005859375
range: 0.174307882786
velocity: 0.0
doppler_bin: 8
bearing: -69.8423843384
intensity: 25.5144996643
---
header: 
  seq: 1589107
  stamp: 
    secs: 1561683767
    nsecs: 783348023
  frame_id: "ti_mmwave"
point_id: 4
x: 0.3828125
y: -0.080078125
z: -1.20703125
range: 1.35088610649
velocity: 0.0
doppler_bin: 8
bearing: -11.8149757385
intensity: 21.9312458038
---
header: 
  seq: 1589108
  stamp: 
    secs: 1561683767
    nsecs: 783393834
  frame_id: "ti_mmwave"
point_id: 5
x: 0.263671875
y: -0.041015625
z: 1.28125
range: 1.39446306229
velocity: 0.0
doppler_bin: 8
bearing: -8.84181499481
intensity: 23.2428245544
---
header: 
  seq: 1589109
  stamp: 
    secs: 1561683767
    nsecs: 783410696
  frame_id: "ti_mmwave"
point_id: 6
x: 0.380859375
y: -0.0
z: 1.294921875
range: 1.43804001808
velocity: 0.0
doppler_bin: 8
bearing: -0.0
intensity: 21.9312458038
---
header: 
  seq: 1589110
  stamp: 
    secs: 1561683767
    nsecs: 783580795
  frame_id: "ti_mmwave"
point_id: 7
x: 1.6640625
y: -0.0
z: -0.21484375
range: 1.78665578365
velocity: 0.0
doppler_bin: 8
bearing: -0.0
intensity: 27.8318862915
---
header: 
  seq: 1589111
  stamp: 
    secs: 1561683767
    nsecs: 783602393
  frame_id: "ti_mmwave"
point_id: 8
x: 1.71484375
y: -0.052734375
z: -0.103515625
range: 1.83023273945
velocity: 0.0
doppler_bin: 8
bearing: -1.76138806343
intensity: 30.7335166931
---
header: 
  seq: 1589112
  stamp: 
    secs: 1561683767
    nsecs: 783611753
  frame_id: "ti_mmwave"
point_id: 9
x: 1.755859375
y: -0.0546875
z: 0.068359375
range: 1.87380969524
velocity: 0.0
doppler_bin: 8
bearing: -1.78394150734
intensity: 30.8350257874
---
header: 
  seq: 1589113
  stamp: 
    secs: 1561683767
    nsecs: 783620290
  frame_id: "ti_mmwave"
point_id: 10
x: 1.775390625
y: -0.224609375
z: -0.185546875
range: 1.91738677025
velocity: 0.0
doppler_bin: 8
bearing: -7.21033525467
intensity: 29.1115760803
---
header: 
  seq: 1589114
  stamp: 
    secs: 1561683767
    nsecs: 783632280
  frame_id: "ti_mmwave"
point_id: 11
x: 1.755859375
y: -0.345703125
z: -0.431640625
range: 1.96096372604
velocity: 0.0
doppler_bin: 8
bearing: -11.1382417679
intensity: 27.2997436523
---
header: 
  seq: 1589115
  stamp: 
    secs: 1561683767
    nsecs: 783640873
  frame_id: "ti_mmwave"
point_id: 12
x: 2.533203125
y: -0.263671875
z: 1.21484375
range: 3.00681090355
velocity: 0.0
doppler_bin: 8
bearing: -5.94231081009
intensity: 29.2737045288
---
header: 
  seq: 1589116
  stamp: 
    secs: 1561683767
    nsecs: 783649285
  frame_id: "ti_mmwave"
point_id: 13
x: 2.6015625
y: -0.267578125
z: 1.16796875
range: 3.05038785934
velocity: 0.0
doppler_bin: 8
bearing: -5.87238502502
intensity: 32.716091156
---
header: 
  seq: 1589117
  stamp: 
    secs: 1561683767
    nsecs: 783657451
  frame_id: "ti_mmwave"
point_id: 14
x: 2.662109375
y: -0.181640625
z: 1.14453125
range: 3.09396481514
velocity: 0.0
doppler_bin: 8
bearing: -3.90334677696
intensity: 31.9423675537
---
header: 
  seq: 1589118
  stamp: 
    secs: 1561683767
    nsecs: 783667738
  frame_id: "ti_mmwave"
point_id: 16
x: 0.041015625
y: -0.033203125
z: 0.0625
range: 0.0871539413929
velocity: 0.0
doppler_bin: 8
bearing: -38.9909973145
intensity: 30.1535968781
---
header: 
  seq: 1589119
  stamp: 
    secs: 1561683767
    nsecs: 783694709
  frame_id: "ti_mmwave"
point_id: 17
x: 0.044921875
y: -0.046875
z: 0.103515625
range: 0.130730912089
velocity: 0.0
doppler_bin: 8
bearing: -46.218875885
intensity: 29.0471553802
---
header: 
  seq: 1589120
  stamp: 
    secs: 1561683767
    nsecs: 783705670
  frame_id: "ti_mmwave"
point_id: 19
x: 1.111328125
y: -0.515625
z: 0.328125
range: 1.35088610649
velocity: 0.0
doppler_bin: 8
bearing: -24.8899745941
intensity: 19.0308990479
---
header: 
  seq: 1589121
  stamp: 
    secs: 1561683767
    nsecs: 783789154
  frame_id: "ti_mmwave"
point_id: 20
x: 1.529296875
y: 0.345703125
z: 0.96484375
range: 1.96096372604
velocity: 0.0
doppler_bin: 8
bearing: 12.7378311157
intensity: 25.1321754456
---
header: 
  seq: 1589122
  stamp: 
    secs: 1561683767
    nsecs: 784601112
  frame_id: "ti_mmwave"
point_id: 0
x: 0.01171875
y: -0.0390625
z: -0.0078125
range: 0.0435769706964
velocity: 0.0
doppler_bin: 8
bearing: -73.3007583618
intensity: 30.7481651306
---
header: 
  seq: 1589123
  stamp: 
    secs: 1561683767
    nsecs: 784673856
  frame_id: "ti_mmwave"
point_id: 1
x: 0.017578125
y: -0.080078125
z: -0.0078125
range: 0.0871539413929
velocity: 0.0
doppler_bin: 8
bearing: -77.6192398071
intensity: 31.9865703583
---
header: 
  seq: 1589124
  stamp: 
    secs: 1561683767
    nsecs: 784693790
  frame_id: "ti_mmwave"
point_id: 2
x: 0.029296875
y: -0.119140625
z: -0.00390625
range: 0.130730912089
velocity: 0.0
doppler_bin: 8
bearing: -76.1849746704
intensity: 30.2325248718
---
header: 
  seq: 1589125
  stamp: 
    secs: 1561683767
    nsecs: 784707101
  frame_id: "ti_mmwave"
point_id: 3
x: 0.056640625
y: -0.154296875
z: 0.005859375
range: 0.174307882786
velocity: 0.0
doppler_bin: 8
bearing: -69.8423843384
intensity: 25.5144996643
---
header: 
  seq: 1589126
  stamp: 
    secs: 1561683767
    nsecs: 784731154
  frame_id: "ti_mmwave"
point_id: 4
x: 0.359375
y: -0.080078125
z: -1.212890625
range: 1.35088610649
velocity: 0.0
doppler_bin: 8
bearing: -12.5617752075
intensity: 21.9312458038
---
header: 
  seq: 1589127
  stamp: 
    secs: 1561683767
    nsecs: 784743868
  frame_id: "ti_mmwave"
point_id: 5
x: 0.27734375
y: -0.041015625
z: 1.279296875
range: 1.39446306229
velocity: 0.0
doppler_bin: 8
bearing: -8.41234493256
intensity: 23.2633590698
---
header: 
  seq: 1589128
  stamp: 
    secs: 1561683767
    nsecs: 784755701
  frame_id: "ti_mmwave"
point_id: 6
x: 0.365234375
y: -0.0
z: 1.298828125
range: 1.43804001808
velocity: 0.0
doppler_bin: 8
bearing: -0.0
intensity: 21.9033164978
---
header: 
  seq: 1589129
  stamp: 
    secs: 1561683767
    nsecs: 784767822
  frame_id: "ti_mmwave"
point_id: 7
x: 1.623046875
y: -0.10546875
z: -0.408203125
range: 1.78665578365
velocity: 0.0
doppler_bin: 8
bearing: -3.71796441078
intensity: 27.7887439728
---
header: 
  seq: 1589130
  stamp: 
    secs: 1561683767
    nsecs: 784780310
  frame_id: "ti_mmwave"
point_id: 8
x: 1.66796875
y: -0.107421875
z: -0.400390625
range: 1.83023273945
velocity: 0.0
doppler_bin: 8
bearing: -3.68492031097
intensity: 29.7863693237
---
header: 
  seq: 1589131
  stamp: 
    secs: 1561683767
    nsecs: 784791737
  frame_id: "ti_mmwave"
point_id: 9
x: 1.71875
y: -0.109375
z: -0.359375
range: 1.87380969524
velocity: 0.0
doppler_bin: 8
bearing: -3.64118528366
intensity: 27.8675136566
---
header: 
  seq: 1589132
  stamp: 
    secs: 1561683767
    nsecs: 784823294
  frame_id: "ti_mmwave"
point_id: 10
x: 2.548828125
y: -0.263671875
z: 1.181640625
range: 3.00681090355
velocity: 0.0
doppler_bin: 8
bearing: -5.90614128113
intensity: 29.31457901
---
header: 
  seq: 1589133
  stamp: 
    secs: 1561683767
    nsecs: 784843101
  frame_id: "ti_mmwave"
point_id: 11
x: 2.6015625
y: -0.267578125
z: 1.1640625
range: 3.05038785934
velocity: 0.0
doppler_bin: 8
bearing: -5.87238502502
intensity: 32.7323265076
---
header: 
  seq: 1589134
  stamp: 
    secs: 1561683767
    nsecs: 784867139
  frame_id: "ti_mmwave"
point_id: 12
x: 2.662109375
y: -0.181640625
z: 1.1484375
range: 3.09396481514
velocity: 0.0
doppler_bin: 8
bearing: -3.90334677696
intensity: 31.9256744385
---
header: 
  seq: 1589135
  stamp: 
    secs: 1561683767
    nsecs: 785031672
  frame_id: "ti_mmwave"
point_id: 14
x: 0.041015625
y: -0.033203125
z: 0.0625
range: 0.0871539413929
velocity: 0.0
doppler_bin: 8
bearing: -38.9909973145
intensity: 30.1535968781
---
header: 
  seq: 1589136
  stamp: 
    secs: 1561683767
    nsecs: 785050202
  frame_id: "ti_mmwave"
point_id: 15
x: 0.044921875
y: -0.046875
z: 0.103515625
range: 0.130730912089
velocity: 0.0
doppler_bin: 8
bearing: -46.218875885
intensity: 29.0417442322
---
header: 
  seq: 1589137
  stamp: 
    secs: 1561683767
    nsecs: 785060939
  frame_id: "ti_mmwave"
point_id: 17
x: 1.20703125
y: 0.357421875
z: 0.158203125
range: 1.35088610649
velocity: 0.0
doppler_bin: 8
bearing: 16.4948921204
intensity: 19.0308990479
---
header: 
  seq: 1589138
  stamp: 
    secs: 1561683767
    nsecs: 843289644
  frame_id: "ti_mmwave"
point_id: 0
x: 0.01171875
y: -0.0390625
z: -0.0078125
range: 0.0435769706964
velocity: 0.0
doppler_bin: 8
bearing: -73.3007583618
intensity: 30.7408466339
---
header: 
  seq: 1589139
  stamp: 
    secs: 1561683767
    nsecs: 843396831
  frame_id: "ti_mmwave"
point_id: 1
x: 0.017578125
y: -0.080078125
z: -0.0078125
range: 0.0871539413929
velocity: 0.0
doppler_bin: 8
bearing: -77.6192398071
intensity: 31.9838218689
---
header: 
  seq: 1589140
  stamp: 
    secs: 1561683767
    nsecs: 843412170
  frame_id: "ti_mmwave"
point_id: 2
x: 0.041015625
y: -0.115234375
z: -0.0078125
range: 0.130730912089
velocity: 0.0
doppler_bin: 8
bearing: -70.4077224731
intensity: 30.2284069061
---
header: 
  seq: 1589141
  stamp: 
    secs: 1561683767
    nsecs: 843421800
  frame_id: "ti_mmwave"
point_id: 3
x: 0.056640625
y: -0.154296875
z: 0.005859375
range: 0.174307882786
velocity: 0.0
doppler_bin: 8
bearing: -69.8423843384
intensity: 25.5022830963
---
header: 
  seq: 1589142
  stamp: 
    secs: 1561683767
    nsecs: 843430274
  frame_id: "ti_mmwave"
point_id: 4
x: 0.341796875
y: -0.080078125
z: -1.21875
range: 1.35088610649
velocity: 0.0
doppler_bin: 8
bearing: -13.1857614517
intensity: 21.9033164978
---
header: 
  seq: 1589143
  stamp: 
    secs: 1561683767
    nsecs: 843447675
  frame_id: "ti_mmwave"
point_id: 5
x: 0.283203125
y: -0.041015625
z: 1.27734375
range: 1.39446306229
velocity: 0.0
doppler_bin: 8
bearing: -8.24071216583
intensity: 23.2633590698
---
header: 
  seq: 1589144
  stamp: 
    secs: 1561683767
    nsecs: 843461107
  frame_id: "ti_mmwave"
point_id: 6
x: 0.388671875
y: -0.0
z: 1.29296875
range: 1.43804001808
velocity: 0.0
doppler_bin: 8
bearing: -0.0
intensity: 21.9033164978
---
header: 
  seq: 1589145
  stamp: 
    secs: 1561683767
    nsecs: 843469879
  frame_id: "ti_mmwave"
point_id: 7
x: 1.650390625
y: -0.052734375
z: -0.294921875
range: 1.78665578365
velocity: 0.0
doppler_bin: 8
bearing: -1.83013021946
intensity: 28.1224460602
---
header: 
  seq: 1589146
  stamp: 
    secs: 1561683767
    nsecs: 843632347
  frame_id: "ti_mmwave"
point_id: 8
x: 1.705078125
y: -0.052734375
z: -0.208984375
range: 1.83023273945
velocity: 0.0
doppler_bin: 8
bearing: -1.77146971226
intensity: 31.2710475922
---
header: 
  seq: 1589147
  stamp: 
    secs: 1561683767
    nsecs: 843655701
  frame_id: "ti_mmwave"
point_id: 9
x: 1.75390625
y: -0.109375
z: -0.072265625
range: 1.87380969524
velocity: 0.0
doppler_bin: 8
bearing: -3.56838989258
intensity: 31.4983463287
---
header: 
  seq: 1589148
  stamp: 
    secs: 1561683767
    nsecs: 843665107
  frame_id: "ti_mmwave"
point_id: 10
x: 1.791015625
y: -0.16796875
z: 0.048828125
range: 1.91738677025
velocity: 0.0
doppler_bin: 8
bearing: -5.35776042938
intensity: 29.31457901
---
header: 
  seq: 1589149
  stamp: 
    secs: 1561683767
    nsecs: 843676083
  frame_id: "ti_mmwave"
point_id: 11
x: 2.525390625
y: -0.263671875
z: 1.232421875
range: 3.00681090355
velocity: 0.0
doppler_bin: 8
bearing: -5.96056175232
intensity: 29.3043956757
---
header: 
  seq: 1589150
  stamp: 
    secs: 1561683767
    nsecs: 843712328
  frame_id: "ti_mmwave"
point_id: 12
x: 2.599609375
y: -0.267578125
z: 1.169921875
range: 3.05038785934
velocity: 0.0
doppler_bin: 8
bearing: -5.87676620483
intensity: 32.7646179199
---
header: 
  seq: 1589151
  stamp: 
    secs: 1561683767
    nsecs: 843721383
  frame_id: "ti_mmwave"
point_id: 13
x: 2.662109375
y: -0.271484375
z: 1.130859375
range: 3.09396481514
velocity: 0.0
doppler_bin: 8
bearing: -5.82294607162
intensity: 32.0167007446
---
header: 
  seq: 1589152
  stamp: 
    secs: 1561683767
    nsecs: 843732236
  frame_id: "ti_mmwave"
point_id: 15
x: 0.041015625
y: -0.033203125
z: 0.0625
range: 0.0871539413929
velocity: 0.0
doppler_bin: 8
bearing: -38.9909973145
intensity: 30.1494026184
---
header: 
  seq: 1589153
  stamp: 
    secs: 1561683767
    nsecs: 843740236
  frame_id: "ti_mmwave"
point_id: 16
x: 0.044921875
y: -0.046875
z: 0.103515625
range: 0.130730912089
velocity: 0.0
doppler_bin: 8
bearing: -46.218875885
intensity: 29.0363254547
---
header: 
  seq: 1589154
  stamp: 
    secs: 1561683767
    nsecs: 843751165
  frame_id: "ti_mmwave"
point_id: 18
x: 1.11328125
y: -0.515625
z: 0.3203125
range: 1.35088610649
velocity: 0.0
doppler_bin: 8
bearing: -24.8515853882
intensity: 19.0848503113
---
header: 
  seq: 1589155
  stamp: 
    secs: 1561683767
    nsecs: 903446922
  frame_id: "ti_mmwave"
point_id: 0
x: 0.01171875
y: -0.0390625
z: -0.0078125
range: 0.0435769706964
velocity: 0.0
doppler_bin: 8
bearing: -73.3007583618
intensity: 30.7481651306
---
header: 
  seq: 1589156
  stamp: 
    secs: 1561683767
    nsecs: 903534625
  frame_id: "ti_mmwave"
point_id: 1
x: 0.017578125
y: -0.080078125
z: -0.0078125
range: 0.0871539413929
velocity: 0.0
doppler_bin: 8
bearing: -77.6192398071
intensity: 31.9893188477
---
header: 
  seq: 1589157
  stamp: 
    secs: 1561683767
    nsecs: 903546338
  frame_id: "ti_mmwave"
point_id: 2
x: 0.029296875
y: -0.119140625
z: -0.005859375
range: 0.130730912089
velocity: 0.0
doppler_bin: 8
bearing: -76.1849746704
intensity: 30.2284069061
---
header: 
  seq: 1589158
  stamp: 
    secs: 1561683767
    nsecs: 903555481
  frame_id: "ti_mmwave"
point_id: 3
x: 0.056640625
y: -0.154296875
z: 0.005859375
range: 0.174307882786
velocity: 0.0
doppler_bin: 8
bearing: -69.8423843384
intensity: 25.5022830963
---
header: 
  seq: 1589159
  stamp: 
    secs: 1561683767
    nsecs: 903563696
  frame_id: "ti_mmwave"
point_id: 4
x: 0.384765625
y: -0.080078125
z: -1.205078125
range: 1.35088610649
velocity: 0.0
doppler_bin: 8
bearing: -11.7566738129
intensity: 21.9312458038
---
header: 
  seq: 1589160
  stamp: 
    secs: 1561683767
    nsecs: 903573875
  frame_id: "ti_mmwave"
point_id: 5
x: 0.248046875
y: -0.041015625
z: 1.28515625
range: 1.39446306229
velocity: 0.0
doppler_bin: 8
bearing: -9.38914775848
intensity: 23.2837963104
---
header: 
  seq: 1589161
  stamp: 
    secs: 1561683767
    nsecs: 903581723
  frame_id: "ti_mmwave"
point_id: 6
x: 0.4375
y: -0.04296875
z: 1.27734375
range: 1.43804001808
velocity: 0.0
doppler_bin: 8
bearing: -5.60927438736
intensity: 21.9589958191
---
header: 
  seq: 1589162
  stamp: 
    secs: 1561683767
    nsecs: 903590975
  frame_id: "ti_mmwave"
point_id: 7
x: 1.6953125
y: -0.052734375
z: -0.2734375
range: 1.83023273945
velocity: 0.0
doppler_bin: 8
bearing: -1.78166759014
intensity: 27.1516742706
---
header: 
  seq: 1589163
  stamp: 
    secs: 1561683767
    nsecs: 903599325
  frame_id: "ti_mmwave"
point_id: 8
x: 1.724609375
y: -0.28125
z: -0.4296875
range: 1.91738677025
velocity: 0.0
doppler_bin: 8
bearing: -9.2622833252
intensity: 27.7597427368
---
header: 
  seq: 1589164
  stamp: 
    secs: 1561683767
    nsecs: 903607231
  frame_id: "ti_mmwave"
point_id: 9
x: 1.720703125
y: -0.23046875
z: -0.611328125
range: 1.96096372604
velocity: 0.0
doppler_bin: 8
bearing: -7.62871932983
intensity: 26.981004715
---
header: 
  seq: 1589165
  stamp: 
    secs: 1561683767
    nsecs: 903614700
  frame_id: "ti_mmwave"
point_id: 10
x: 2.544921875
y: -0.263671875
z: 1.19140625
range: 3.00681090355
velocity: 0.0
doppler_bin: 8
bearing: -5.91514253616
intensity: 29.5999488831
---
header: 
  seq: 1589166
  stamp: 
    secs: 1561683767
    nsecs: 903625546
  frame_id: "ti_mmwave"
point_id: 11
x: 2.603515625
y: -0.267578125
z: 1.162109375
range: 3.05038785934
velocity: 0.0
doppler_bin: 8
bearing: -5.8680100441
intensity: 32.8443069458
---
header: 
  seq: 1589167
  stamp: 
    secs: 1561683767
    nsecs: 903635200
  frame_id: "ti_mmwave"
point_id: 12
x: 2.662109375
y: -0.271484375
z: 1.12890625
range: 3.09396481514
velocity: 0.0
doppler_bin: 8
bearing: -5.82294607162
intensity: 32.0330505371
---
header: 
  seq: 1589168
  stamp: 
    secs: 1561683767
    nsecs: 903645521
  frame_id: "ti_mmwave"
point_id: 14
x: 0.041015625
y: -0.033203125
z: 0.0625
range: 0.0871539413929
velocity: 0.0
doppler_bin: 8
bearing: -38.9909973145
intensity: 30.1535968781
---
header: 
  seq: 1589169
  stamp: 
    secs: 1561683767
    nsecs: 903653655
  frame_id: "ti_mmwave"
point_id: 15
x: 0.046875
y: -0.046875
z: 0.103515625
range: 0.130730912089
velocity: 0.0
doppler_bin: 8
bearing: -45.0
intensity: 29.0471553802
---
header: 
  seq: 1589170
  stamp: 
    secs: 1561683767
    nsecs: 903664589
  frame_id: "ti_mmwave"
point_id: 17
x: 1.208984375
y: 0.357421875
z: 0.134765625
range: 1.35088610649
velocity: 0.0
doppler_bin: 8
bearing: 16.4696884155
intensity: 19.1381378174
---
header: 
  seq: 1589171
  stamp: 
    secs: 1561683767
    nsecs: 903673256
  frame_id: "ti_mmwave"
point_id: 18
x: 1.78515625
y: 0.287109375
z: 0.345703125
range: 1.96096372604
velocity: 0.0
doppler_bin: 8
bearing: 9.13672351837
intensity: 24.563659668
---
header: 
  seq: 1589172
  stamp: 
    secs: 1561683767
    nsecs: 905372052
  frame_id: "ti_mmwave"
point_id: 0
x: 0.01171875
y: -0.0390625
z: -0.0078125
range: 0.0435769706964
velocity: 0.0
doppler_bin: 8
bearing: -73.3007583618
intensity: 30.7445068359
---
header: 
  seq: 1589173
  stamp: 
    secs: 1561683767
    nsecs: 905419701
  frame_id: "ti_mmwave"
point_id: 1
x: 0.017578125
y: -0.080078125
z: -0.0078125
range: 0.0871539413929
velocity: 0.0
doppler_bin: 8
bearing: -77.6192398071
intensity: 31.9838218689
---
header: 
  seq: 1589174
  stamp: 
    secs: 1561683767
    nsecs: 905430606
  frame_id: "ti_mmwave"
point_id: 2
x: 0.041015625
y: -0.115234375
z: -0.0078125
range: 0.130730912089
velocity: 0.0
doppler_bin: 8
bearing: -70.4077224731
intensity: 30.2284069061
---
header: 
  seq: 1589175
  stamp: 
    secs: 1561683767
    nsecs: 905438957
  frame_id: "ti_mmwave"
point_id: 3
x: 0.056640625
y: -0.154296875
z: 0.005859375
range: 0.174307882786
velocity: 0.0
doppler_bin: 8
bearing: -69.8423843384
intensity: 25.5144996643
---
header: 
  seq: 1589176
  stamp: 
    secs: 1561683767
    nsecs: 905446850
  frame_id: "ti_mmwave"
point_id: 4
x: 0.357421875
y: -0.080078125
z: -1.21484375
range: 1.35088610649
velocity: 0.0
doppler_bin: 8
bearing: -12.6282215118
intensity: 21.9033164978
---
header: 
  seq: 1589177
  stamp: 
    secs: 1561683767
    nsecs: 905455275
  frame_id: "ti_mmwave"
point_id: 5
x: 0.283203125
y: -0.041015625
z: 1.27734375
range: 1.39446306229
velocity: 0.0
doppler_bin: 8
bearing: -8.24071216583
intensity: 23.2221927643
---
header: 
  seq: 1589178
  stamp: 
    secs: 1561683767
    nsecs: 905464810
  frame_id: "ti_mmwave"
point_id: 6
x: 0.40234375
y: -0.0
z: 1.2890625
range: 1.43804001808
velocity: 0.0
doppler_bin: 8
bearing: -0.0
intensity: 21.875207901
---
header: 
  seq: 1589179
  stamp: 
    secs: 1561683767
    nsecs: 905473037
  frame_id: "ti_mmwave"
point_id: 7
x: 1.65234375
y: -0.052734375
z: -0.283203125
range: 1.78665578365
velocity: 0.0
doppler_bin: 8
bearing: -1.82796823978
intensity: 27.3479976654
---
header: 
  seq: 1589180
  stamp: 
    secs: 1561683767
    nsecs: 905482285
  frame_id: "ti_mmwave"
point_id: 8
x: 1.693359375
y: -0.0
z: -0.28515625
range: 1.83023273945
velocity: 0.0
doppler_bin: 8
bearing: -0.0
intensity: 29.5951843262
---
header: 
  seq: 1589181
  stamp: 
    secs: 1561683767
    nsecs: 905491030
  frame_id: "ti_mmwave"
point_id: 9
x: 1.69921875
y: 0.109375
z: -0.443359375
range: 1.87380969524
velocity: 0.0
doppler_bin: 8
bearing: 3.68292331696
intensity: 26.9372692108
---
header: 
  seq: 1589182
  stamp: 
    secs: 1561683767
    nsecs: 905499063
  frame_id: "ti_mmwave"
point_id: 10
x: 1.751953125
y: -0.28125
z: 0.306640625
range: 1.91738677025
velocity: 0.0
doppler_bin: 8
bearing: -9.12016868591
intensity: 26.875289917
---
header: 
  seq: 1589183
  stamp: 
    secs: 1561683767
    nsecs: 905507563
  frame_id: "ti_mmwave"
point_id: 11
x: 2.52734375
y: -0.263671875
z: 1.2265625
range: 3.00681090355
velocity: 0.0
doppler_bin: 8
bearing: -5.9559879303
intensity: 29.3951931
---
header: 
  seq: 1589184
  stamp: 
    secs: 1561683767
    nsecs: 905515861
  frame_id: "ti_mmwave"
point_id: 12
x: 2.599609375
y: -0.267578125
z: 1.169921875
range: 3.05038785934
velocity: 0.0
doppler_bin: 8
bearing: -5.87676620483
intensity: 32.7783851624
---
header: 
  seq: 1589185
  stamp: 
    secs: 1561683767
    nsecs: 905535223
  frame_id: "ti_mmwave"
point_id: 13
x: 2.6640625
y: -0.271484375
z: 1.123046875
range: 3.09396481514
velocity: 0.0
doppler_bin: 8
bearing: -5.81870603561
intensity: 32.0030326843
---
header: 
  seq: 1589186
  stamp: 
    secs: 1561683767
    nsecs: 905548297
  frame_id: "ti_mmwave"
point_id: 15
x: 0.041015625
y: -0.033203125
z: 0.0625
range: 0.0871539413929
velocity: 0.0
doppler_bin: 8
bearing: -38.9909973145
intensity: 30.1494026184
---
header: 
  seq: 1589187
  stamp: 
    secs: 1561683767
    nsecs: 905633723
  frame_id: "ti_mmwave"
point_id: 16
x: 0.044921875
y: -0.046875
z: 0.103515625
range: 0.130730912089
velocity: 0.0
doppler_bin: 8
bearing: -46.218875885
intensity: 29.0471553802
---
header: 
  seq: 1589188
  stamp: 
    secs: 1561683767
    nsecs: 905647634
  frame_id: "ti_mmwave"
point_id: 18
x: 1.11328125
y: -0.515625
z: 0.322265625
range: 1.35088610649
velocity: 0.0
doppler_bin: 8
bearing: -24.8515853882
intensity: 18.9762706757
---
header: 
  seq: 1589189
  stamp: 
    secs: 1561683767
    nsecs: 905655301
  frame_id: "ti_mmwave"
point_id: 19
x: 1.27734375
y: -0.548828125
z: 1.076171875
range: 1.87380969524
velocity: 0.0
doppler_bin: 8
bearing: -23.2514362335
intensity: 25.6229286194
---
header: 
  seq: 1589190
  stamp: 
    secs: 1561683767
    nsecs: 963326011
  frame_id: "ti_mmwave"
point_id: 0
x: 0.01171875
y: -0.0390625
z: -0.0078125
range: 0.0435769706964
velocity: 0.0
doppler_bin: 8
bearing: -73.3007583618
intensity: 30.7445068359
---
header: 
  seq: 1589191
  stamp: 
    secs: 1561683767
    nsecs: 963441114
  frame_id: "ti_mmwave"
point_id: 1
x: 0.017578125
y: -0.080078125
z: -0.0078125
range: 0.0871539413929
velocity: 0.0
doppler_bin: 8
bearing: -77.6192398071
intensity: 31.9838218689
---
header: 
  seq: 1589192
  stamp: 
    secs: 1561683767
    nsecs: 963463421
  frame_id: "ti_mmwave"
point_id: 2
x: 0.029296875
y: -0.119140625
z: -0.005859375
range: 0.130730912089
velocity: 0.0
doppler_bin: 8
bearing: -76.1849746704
intensity: 30.2325248718
---
header: 
  seq: 1589193
  stamp: 
    secs: 1561683767
    nsecs: 963490005
  frame_id: "ti_mmwave"
point_id: 3
x: 0.056640625
y: -0.154296875
z: 0.005859375
range: 0.174307882786
velocity: 0.0
doppler_bin: 8
bearing: -69.8423843384
intensity: 25.5266819
---
header: 
  seq: 1589194
  stamp: 
    secs: 1561683767
    nsecs: 963514436
  frame_id: "ti_mmwave"
point_id: 4
x: 0.353515625
y: -0.080078125
z: -1.21484375
range: 1.35088610649
velocity: 0.0
doppler_bin: 8
bearing: -12.7632131577
intensity: 21.9589958191
---
header: 
  seq: 1589195
  stamp: 
    secs: 1561683767
    nsecs: 963529039
  frame_id: "ti_mmwave"
point_id: 5
x: 0.296875
y: -0.041015625
z: 1.2734375
range: 1.39446306229
velocity: 0.0
doppler_bin: 8
bearing: -7.86606836319
intensity: 23.2837963104
---
header: 
  seq: 1589196
  stamp: 
    secs: 1561683767
    nsecs: 963618624
  frame_id: "ti_mmwave"
point_id: 6
x: 0.494140625
y: -0.04296875
z: 1.255859375
range: 1.43804001808
velocity: 0.0
doppler_bin: 8
bearing: -4.96974086761
intensity: 21.9589958191
---
header: 
  seq: 1589197
  stamp: 
    secs: 1561683767
    nsecs: 963636343
  frame_id: "ti_mmwave"
point_id: 7
x: 1.666015625
y: -0.052734375
z: -0.1875
range: 1.78665578365
velocity: 0.0
doppler_bin: 8
bearing: -1.8129774332
intensity: 30.3140850067
---
header: 
  seq: 1589198
  stamp: 
    secs: 1561683767
    nsecs: 963648546
  frame_id: "ti_mmwave"
point_id: 8
x: 1.708984375
y: -0.052734375
z: -0.1640625
range: 1.83023273945
velocity: 0.0
doppler_bin: 8
bearing: -1.76742315292
intensity: 33.5812530518
---
header: 
  seq: 1589199
  stamp: 
    secs: 1561683767
    nsecs: 963659381
  frame_id: "ti_mmwave"
point_id: 9
x: 1.751953125
y: -0.0546875
z: -0.138671875
range: 1.87380969524
velocity: 0.0
doppler_bin: 8
bearing: -1.78791642189
intensity: 33.6248245239
---
header: 
  seq: 1589200
  stamp: 
    secs: 1561683767
    nsecs: 963672248
  frame_id: "ti_mmwave"
point_id: 10
x: 1.79296875
y: -0.11328125
z: -0.1015625
range: 1.91738677025
velocity: 0.0
doppler_bin: 8
bearing: -3.61518931389
intensity: 31.1958580017
---
header: 
  seq: 1589201
  stamp: 
    secs: 1561683767
    nsecs: 963683598
  frame_id: "ti_mmwave"
point_id: 11
x: 1.826171875
y: -0.23046875
z: -0.03125
range: 1.96096372604
velocity: 0.0
doppler_bin: 8
bearing: -7.19288396835
intensity: 27.2181053162
---
header: 
  seq: 1589202
  stamp: 
    secs: 1561683767
    nsecs: 963708895
  frame_id: "ti_mmwave"
point_id: 12
x: 2.55859375
y: -0.263671875
z: 1.16015625
range: 3.00681090355
velocity: 0.0
doppler_bin: 8
bearing: -5.88375711441
intensity: 29.4051647186
---
header: 
  seq: 1589203
  stamp: 
    secs: 1561683767
    nsecs: 963730132
  frame_id: "ti_mmwave"
point_id: 13
x: 2.607421875
y: -0.267578125
z: 1.15234375
range: 3.05038785934
velocity: 0.0
doppler_bin: 8
bearing: -5.85928010941
intensity: 32.7760925293
---
header: 
  seq: 1589204
  stamp: 
    secs: 1561683767
    nsecs: 963792985
  frame_id: "ti_mmwave"
point_id: 14
x: 2.6640625
y: -0.181640625
z: 1.140625
range: 3.09396481514
velocity: 0.0
doppler_bin: 8
bearing: -3.90049386024
intensity: 31.9645252228
---
header: 
  seq: 1589205
  stamp: 
    secs: 1561683767
    nsecs: 963810590
  frame_id: "ti_mmwave"
point_id: 16
x: 0.041015625
y: -0.033203125
z: 0.0625
range: 0.0871539413929
velocity: 0.0
doppler_bin: 8
bearing: -38.9909973145
intensity: 30.1494026184
---
header: 
  seq: 1589206
  stamp: 
    secs: 1561683767
    nsecs: 963822373
  frame_id: "ti_mmwave"
point_id: 17
x: 0.044921875
y: -0.046875
z: 0.103515625
range: 0.130730912089
velocity: 0.0
doppler_bin: 8
bearing: -46.218875885
intensity: 29.0363254547
---
header: 
  seq: 1589207
  stamp: 
    secs: 1561683767
    nsecs: 963838952
  frame_id: "ti_mmwave"
point_id: 19
x: 1.111328125
y: -0.515625
z: 0.328125
range: 1.35088610649
velocity: 0.0
doppler_bin: 8
bearing: -24.8899745941
intensity: 19.0308990479
---
header: 
  seq: 1589208
  stamp: 
    secs: 1561683767
    nsecs: 964823320
  frame_id: "ti_mmwave"
point_id: 0
x: 0.01171875
y: -0.0390625
z: -0.0078125
range: 0.0435769706964
velocity: 0.0
doppler_bin: 8
bearing: -73.3007583618
intensity: 30.7518177032
---
header: 
  seq: 1589209
  stamp: 
    secs: 1561683767
    nsecs: 964872081
  frame_id: "ti_mmwave"
point_id: 1
x: 0.017578125
y: -0.080078125
z: -0.0078125
range: 0.0871539413929
velocity: 0.0
doppler_bin: 8
bearing: -77.6192398071
intensity: 31.9893188477
---
header: 
  seq: 1589210
  stamp: 
    secs: 1561683767
    nsecs: 964883878
  frame_id: "ti_mmwave"
point_id: 2
x: 0.029296875
y: -0.119140625
z: -0.00390625
range: 0.130730912089
velocity: 0.0
doppler_bin: 8
bearing: -76.1849746704
intensity: 30.2284069061
---
header: 
  seq: 1589211
  stamp: 
    secs: 1561683767
    nsecs: 964892886
  frame_id: "ti_mmwave"
point_id: 3
x: 0.056640625
y: -0.154296875
z: 0.005859375
range: 0.174307882786
velocity: 0.0
doppler_bin: 8
bearing: -69.8423843384
intensity: 25.5144996643
---
header: 
  seq: 1589212
  stamp: 
    secs: 1561683767
    nsecs: 964934896
  frame_id: "ti_mmwave"
point_id: 4
x: 0.3046875
y: -0.080078125
z: -1.228515625
range: 1.35088610649
velocity: 0.0
doppler_bin: 8
bearing: -14.7254829407
intensity: 21.9312458038
---
header: 
  seq: 1589213
  stamp: 
    secs: 1561683767
    nsecs: 964945470
  frame_id: "ti_mmwave"
point_id: 5
x: 0.30859375
y: -0.041015625
z: 1.271484375
range: 1.39446306229
velocity: 0.0
doppler_bin: 8
bearing: -7.57088899612
intensity: 23.2633590698
---
header: 
  seq: 1589214
  stamp: 
    secs: 1561683767
    nsecs: 964953265
  frame_id: "ti_mmwave"
point_id: 6
x: 0.41796875
y: -0.0
z: 1.283203125
range: 1.43804001808
velocity: 0.0
doppler_bin: 8
bearing: -0.0
intensity: 21.9033164978
---
header: 
  seq: 1589215
  stamp: 
    secs: 1561683767
    nsecs: 964960619
  frame_id: "ti_mmwave"
point_id: 7
x: 1.65625
y: -0.052734375
z: -0.255859375
range: 1.78665578365
velocity: 0.0
doppler_bin: 8
bearing: -1.82366013527
intensity: 31.4983463287
---
header: 
  seq: 1589216
  stamp: 
    secs: 1561683767
    nsecs: 964968404
  frame_id: "ti_mmwave"
point_id: 8
x: 1.69921875
y: -0.052734375
z: -0.25390625
range: 1.83023273945
velocity: 0.0
doppler_bin: 8
bearing: -1.77757430077
intensity: 34.3536643982
---
header: 
  seq: 1589217
  stamp: 
    secs: 1561683767
    nsecs: 964975994
  frame_id: "ti_mmwave"
point_id: 9
x: 1.73828125
y: -0.0
z: -0.26953125
range: 1.87380969524
velocity: 0.0
doppler_bin: 8
bearing: -0.0
intensity: 33.0081291199
---
header: 
  seq: 1589218
  stamp: 
    secs: 1561683767
    nsecs: 964982978
  frame_id: "ti_mmwave"
point_id: 10
x: 1.755859375
y: -0.39453125
z: -0.033203125
range: 1.91738677025
velocity: 0.0
doppler_bin: 8
bearing: -12.6637001038
intensity: 28.2412586212
---
header: 
  seq: 1589219
  stamp: 
    secs: 1561683767
    nsecs: 965019598
  frame_id: "ti_mmwave"
point_id: 11
x: 1.818359375
y: -0.287109375
z: -0.0078125
range: 1.96096372604
velocity: 0.0
doppler_bin: 8
bearing: -8.9726266861
intensity: 28.034570694
---
header: 
  seq: 1589220
  stamp: 
    secs: 1561683767
    nsecs: 965031881
  frame_id: "ti_mmwave"
point_id: 12
x: 2.564453125
y: -0.263671875
z: 1.1484375
range: 3.00681090355
velocity: 0.0
doppler_bin: 8
bearing: -5.87040758133
intensity: 29.3851966858
---
header: 
  seq: 1589221
  stamp: 
    secs: 1561683767
    nsecs: 965040209
  frame_id: "ti_mmwave"
point_id: 13
x: 2.609375
y: -0.267578125
z: 1.1484375
range: 3.05038785934
velocity: 0.0
doppler_bin: 8
bearing: -5.85492515564
intensity: 32.7346420288
---
header: 
  seq: 1589222
  stamp: 
    secs: 1561683767
    nsecs: 965047827
  frame_id: "ti_mmwave"
point_id: 14
x: 2.662109375
y: -0.271484375
z: 1.126953125
range: 3.09396481514
velocity: 0.0
doppler_bin: 8
bearing: -5.82294607162
intensity: 31.9534606934
---
header: 
  seq: 1589223
  stamp: 
    secs: 1561683767
    nsecs: 965057660
  frame_id: "ti_mmwave"
point_id: 16
x: 0.041015625
y: -0.033203125
z: 0.0625
range: 0.0871539413929
velocity: 0.0
doppler_bin: 8
bearing: -38.9909973145
intensity: 30.1535968781
---
header: 
  seq: 1589224
  stamp: 
    secs: 1561683767
    nsecs: 965065608
  frame_id: "ti_mmwave"
point_id: 17
x: 0.044921875
y: -0.046875
z: 0.103515625
range: 0.130730912089
velocity: 0.0
doppler_bin: 8
bearing: -46.218875885
intensity: 29.0417442322
---
header: 
  seq: 1589225
  stamp: 
    secs: 1561683767
    nsecs: 965074910
  frame_id: "ti_mmwave"
point_id: 19
x: 1.208984375
y: 0.357421875
z: 0.13671875
range: 1.35088610649
velocity: 0.0
doppler_bin: 8
bearing: 16.4696884155
intensity: 19.0848503113
---
header: 
  seq: 1589226
  stamp: 
    secs: 1561683767
    nsecs: 965083808
  frame_id: "ti_mmwave"
point_id: 20
x: 1.783203125
y: 0.224609375
z: -0.091796875
range: 1.91738677025
velocity: 0.0
doppler_bin: 8
bearing: 7.17907619476
intensity: 27.2427577972
---
header: 
  seq: 1589227
  stamp: 
    secs: 1561683768
    nsecs:  23281720
  frame_id: "ti_mmwave"
point_id: 0
x: 0.01171875
y: -0.0390625
z: -0.0078125
range: 0.0435769706964
velocity: 0.0
doppler_bin: 8
bearing: -73.3007583618
intensity: 30.7445068359
---
header: 
  seq: 1589228
  stamp: 
    secs: 1561683768
    nsecs:  23344628
  frame_id: "ti_mmwave"
point_id: 1
x: 0.017578125
y: -0.080078125
z: -0.0078125
range: 0.0871539413929
velocity: 0.0
doppler_bin: 8
bearing: -77.6192398071
intensity: 31.9865703583
---
header: 
  seq: 1589229
  stamp: 
    secs: 1561683768
    nsecs:  23355641
  frame_id: "ti_mmwave"
point_id: 2
x: 0.029296875
y: -0.119140625
z: -0.00390625
range: 0.130730912089
velocity: 0.0
doppler_bin: 8
bearing: -76.1849746704
intensity: 30.2284069061
---
header: 
  seq: 1589230
  stamp: 
    secs: 1561683768
    nsecs:  23401969
  frame_id: "ti_mmwave"
point_id: 3
x: 0.056640625
y: -0.154296875
z: 0.005859375
range: 0.174307882786
velocity: 0.0
doppler_bin: 8
bearing: -69.8423843384
intensity: 25.5144996643
---
header: 
  seq: 1589231
  stamp: 
    secs: 1561683768
    nsecs:  23414234
  frame_id: "ti_mmwave"
point_id: 4
x: 0.34765625
y: -0.080078125
z: -1.216796875
range: 1.35088610649
velocity: 0.0
doppler_bin: 8
bearing: -12.9711065292
intensity: 21.9589958191
---
header: 
  seq: 1589232
  stamp: 
    secs: 1561683768
    nsecs:  23482406
  frame_id: "ti_mmwave"
point_id: 5
x: 0.306640625
y: -0.041015625
z: 1.271484375
range: 1.39446306229
velocity: 0.0
doppler_bin: 8
bearing: -7.6185464859
intensity: 23.2837963104
---
header: 
  seq: 1589233
  stamp: 
    secs: 1561683768
    nsecs:  23492796
  frame_id: "ti_mmwave"
point_id: 6
x: 0.408203125
y: -0.0
z: 1.287109375
range: 1.43804001808
velocity: 0.0
doppler_bin: 8
bearing: -0.0
intensity: 21.9589958191
---
header: 
  seq: 1589234
  stamp: 
    secs: 1561683768
    nsecs:  23501741
  frame_id: "ti_mmwave"
point_id: 7
x: 1.64453125
y: -0.052734375
z: -0.32421875
range: 1.78665578365
velocity: 0.0
doppler_bin: 8
bearing: -1.83664619923
intensity: 28.9265098572
---
header: 
  seq: 1589235
  stamp: 
    secs: 1561683768
    nsecs:  23509651
  frame_id: "ti_mmwave"
point_id: 8
x: 1.6796875
y: -0.052734375
z: -0.361328125
range: 1.83023273945
velocity: 0.0
doppler_bin: 8
bearing: -1.79823040962
intensity: 30.5384635925
---
header: 
  seq: 1589236
  stamp: 
    secs: 1561683768
    nsecs:  23517164
  frame_id: "ti_mmwave"
point_id: 9
x: 1.21484375
y: -0.330078125
z: -1.228515625
range: 1.87380969524
velocity: 0.0
doppler_bin: 8
bearing: -15.2005434036
intensity: 27.3878059387
---
header: 
  seq: 1589237
  stamp: 
    secs: 1561683768
    nsecs:  23524735
  frame_id: "ti_mmwave"
point_id: 10
x: 1.71484375
y: -0.337890625
z: -0.427734375
range: 1.91738677025
velocity: 0.0
doppler_bin: 8
bearing: -11.1466970444
intensity: 28.6510391235
---
header: 
  seq: 1589238
  stamp: 
    secs: 1561683768
    nsecs:  23532262
  frame_id: "ti_mmwave"
point_id: 11
x: 1.771484375
y: -0.171875
z: -0.466796875
range: 1.96096372604
velocity: 0.0
doppler_bin: 8
bearing: -5.54167175293
intensity: 27.7378635406
---
header: 
  seq: 1589239
  stamp: 
    secs: 1561683768
    nsecs:  23540416
  frame_id: "ti_mmwave"
point_id: 12
x: 1.837890625
y: -0.0
z: -0.404296875
range: 2.00454068184
velocity: 0.0
doppler_bin: 8
bearing: -0.0
intensity: 27.9518451691
---
header: 
  seq: 1589240
  stamp: 
    secs: 1561683768
    nsecs:  23612131
  frame_id: "ti_mmwave"
point_id: 13
x: 2.56640625
y: -0.263671875
z: 1.14453125
range: 3.00681090355
velocity: 0.0
doppler_bin: 8
bearing: -5.86597156525
intensity: 29.3951931
---
header: 
  seq: 1589241
  stamp: 
    secs: 1561683768
    nsecs:  23620489
  frame_id: "ti_mmwave"
point_id: 14
x: 2.607421875
y: -0.267578125
z: 1.154296875
range: 3.05038785934
velocity: 0.0
doppler_bin: 8
bearing: -5.85928010941
intensity: 32.7554168701
---
header: 
  seq: 1589242
  stamp: 
    secs: 1561683768
    nsecs:  23629753
  frame_id: "ti_mmwave"
point_id: 15
x: 2.662109375
y: -0.271484375
z: 1.126953125
range: 3.09396481514
velocity: 0.0
doppler_bin: 8
bearing: -5.82294607162
intensity: 31.9562301636
---
header: 
  seq: 1589243
  stamp: 
    secs: 1561683768
    nsecs:  23640558
  frame_id: "ti_mmwave"
point_id: 17
x: 0.041015625
y: -0.033203125
z: 0.0625
range: 0.0871539413929
velocity: 0.0
doppler_bin: 8
bearing: -38.9909973145
intensity: 30.1494026184
---
header: 
  seq: 1589244
  stamp: 
    secs: 1561683768
    nsecs:  23649083
  frame_id: "ti_mmwave"
point_id: 18
x: 0.044921875
y: -0.046875
z: 0.103515625
range: 0.130730912089
velocity: 0.0
doppler_bin: 8
bearing: -46.218875885
intensity: 29.0417442322
---
header: 
  seq: 1589245
  stamp: 
    secs: 1561683768
    nsecs:  23659296
  frame_id: "ti_mmwave"
point_id: 20
x: 1.728515625
y: 0.0546875
z: -0.32421875
range: 1.87380969524
velocity: 0.0
doppler_bin: 8
bearing: 1.81214332581
intensity: 27.0671787262
---
header: 
  seq: 1589246
  stamp: 
    secs: 1561683768
    nsecs:  24589039
  frame_id: "ti_mmwave"
point_id: 0
x: 0.01171875
y: -0.0390625
z: -0.0078125
range: 0.0435769706964
velocity: 0.0
doppler_bin: 8
bearing: -73.3007583618
intensity: 30.7481651306
---
header: 
  seq: 1589247
  stamp: 
    secs: 1561683768
    nsecs:  24620212
  frame_id: "ti_mmwave"
point_id: 1
x: 0.017578125
y: -0.080078125
z: -0.0078125
range: 0.0871539413929
velocity: 0.0
doppler_bin: 8
bearing: -77.6192398071
intensity: 31.9893188477
---
header: 
  seq: 1589248
  stamp: 
    secs: 1561683768
    nsecs:  24629480
  frame_id: "ti_mmwave"
point_id: 2
x: 0.029296875
y: -0.119140625
z: -0.005859375
range: 0.130730912089
velocity: 0.0
doppler_bin: 8
bearing: -76.1849746704
intensity: 30.2366390228
---
header: 
  seq: 1589249
  stamp: 
    secs: 1561683768
    nsecs:  24637146
  frame_id: "ti_mmwave"
point_id: 3
x: 0.056640625
y: -0.154296875
z: 0.005859375
range: 0.174307882786
velocity: 0.0
doppler_bin: 8
bearing: -69.8423843384
intensity: 25.5266819
---
header: 
  seq: 1589250
  stamp: 
    secs: 1561683768
    nsecs:  24648504
  frame_id: "ti_mmwave"
point_id: 4
x: 0.326171875
y: -0.080078125
z: -1.22265625
range: 1.35088610649
velocity: 0.0
doppler_bin: 8
bearing: -13.7938089371
intensity: 21.9033164978
---
header: 
  seq: 1589251
  stamp: 
    secs: 1561683768
    nsecs:  24656980
  frame_id: "ti_mmwave"
point_id: 5
x: 0.287109375
y: -0.041015625
z: 1.27734375
range: 1.39446306229
velocity: 0.0
doppler_bin: 8
bearing: -8.13010311127
intensity: 23.2428245544
---
header: 
  seq: 1589252
  stamp: 
    secs: 1561683768
    nsecs:  24672090
  frame_id: "ti_mmwave"
point_id: 6
x: 0.39453125
y: -0.0
z: 1.291015625
range: 1.43804001808
velocity: 0.0
doppler_bin: 8
bearing: -0.0
intensity: 21.875207901
---
header: 
  seq: 1589253
  stamp: 
    secs: 1561683768
    nsecs:  24686245
  frame_id: "ti_mmwave"
point_id: 7
x: 1.650390625
y: -0.158203125
z: -0.251953125
range: 1.78665578365
velocity: 0.0
doppler_bin: 8
bearing: -5.47552776337
intensity: 27.6192779541
---
header: 
  seq: 1589254
  stamp: 
    secs: 1561683768
    nsecs:  24699458
  frame_id: "ti_mmwave"
point_id: 8
x: 1.69921875
y: -0.16015625
z: -0.193359375
range: 1.83023273945
velocity: 0.0
doppler_bin: 8
bearing: -5.38438558578
intensity: 31.2742881775
---
header: 
  seq: 1589255
  stamp: 
    secs: 1561683768
    nsecs:  24714401
  frame_id: "ti_mmwave"
point_id: 9
x: 1.74609375
y: -0.1640625
z: -0.125
range: 1.87380969524
velocity: 0.0
doppler_bin: 8
bearing: -5.36773681641
intensity: 31.8412342072
---
header: 
  seq: 1589256
  stamp: 
    secs: 1561683768
    nsecs:  24729022
  frame_id: "ti_mmwave"
point_id: 10
x: 1.77734375
y: -0.28125
z: -0.025390625
range: 1.91738677025
velocity: 0.0
doppler_bin: 8
bearing: -8.99202537537
intensity: 30.1661548615
---
header: 
  seq: 1589257
  stamp: 
    secs: 1561683768
    nsecs:  24742241
  frame_id: "ti_mmwave"
point_id: 11
x: 2.55078125
y: -0.263671875
z: 1.1796875
range: 3.00681090355
velocity: 0.0
doppler_bin: 8
bearing: -5.90165042877
intensity: 29.2376194
---
header: 
  seq: 1589258
  stamp: 
    secs: 1561683768
    nsecs:  24756558
  frame_id: "ti_mmwave"
point_id: 12
x: 2.607421875
y: -0.267578125
z: 1.154296875
range: 3.05038785934
velocity: 0.0
doppler_bin: 8
bearing: -5.85928010941
intensity: 32.7623214722
---
header: 
  seq: 1589259
  stamp: 
    secs: 1561683768
    nsecs:  24769504
  frame_id: "ti_mmwave"
point_id: 13
x: 2.66796875
y: -0.271484375
z: 1.1171875
range: 3.09396481514
velocity: 0.0
doppler_bin: 8
bearing: -5.81024503708
intensity: 32.0248832703
---
header: 
  seq: 1589260
  stamp: 
    secs: 1561683768
    nsecs:  24785776
  frame_id: "ti_mmwave"
point_id: 15
x: 0.041015625
y: -0.033203125
z: 0.0625
range: 0.0871539413929
velocity: 0.0
doppler_bin: 8
bearing: -38.9909973145
intensity: 30.1494026184
---
header: 
  seq: 1589261
  stamp: 
    secs: 1561683768
    nsecs:  24851750
  frame_id: "ti_mmwave"
point_id: 16
x: 0.044921875
y: -0.046875
z: 0.103515625
range: 0.130730912089
velocity: 0.0
doppler_bin: 8
bearing: -46.218875885
intensity: 29.0417442322
---
header: 
  seq: 1589262
  stamp: 
    secs: 1561683768
    nsecs:  24861996
  frame_id: "ti_mmwave"
point_id: 18
x: 1.208984375
y: 0.357421875
z: 0.140625
range: 1.35088610649
velocity: 0.0
doppler_bin: 8
bearing: 16.4696884155
intensity: 19.1381378174
---
header: 
  seq: 1589263
  stamp: 
    secs: 1561683768
    nsecs:  83208634
  frame_id: "ti_mmwave"
point_id: 0
x: 0.01171875
y: -0.0390625
z: -0.0078125
range: 0.0435769706964
velocity: 0.0
doppler_bin: 8
bearing: -73.3007583618
intensity: 30.7481651306
---
header: 
  seq: 1589264
  stamp: 
    secs: 1561683768
    nsecs:  83303990
  frame_id: "ti_mmwave"
point_id: 1
x: 0.017578125
y: -0.080078125
z: -0.0078125
range: 0.0871539413929
velocity: 0.0
doppler_bin: 8
bearing: -77.6192398071
intensity: 31.9865703583
---
header: 
  seq: 1589265
  stamp: 
    secs: 1561683768
    nsecs:  83323189
  frame_id: "ti_mmwave"
point_id: 2
x: 0.029296875
y: -0.119140625
z: -0.00390625
range: 0.130730912089
velocity: 0.0
doppler_bin: 8
bearing: -76.1849746704
intensity: 30.2325248718
---
header: 
  seq: 1589266
  stamp: 
    secs: 1561683768
    nsecs:  83347593
  frame_id: "ti_mmwave"
point_id: 3
x: 0.056640625
y: -0.154296875
z: 0.005859375
range: 0.174307882786
velocity: 0.0
doppler_bin: 8
bearing: -69.8423843384
intensity: 25.5144996643
---
header: 
  seq: 1589267
  stamp: 
    secs: 1561683768
    nsecs:  83475901
  frame_id: "ti_mmwave"
point_id: 4
x: 0.35546875
y: -0.080078125
z: -1.21484375
range: 1.35088610649
velocity: 0.0
doppler_bin: 8
bearing: -12.6953649521
intensity: 21.9312458038
---
header: 
  seq: 1589268
  stamp: 
    secs: 1561683768
    nsecs:  83499498
  frame_id: "ti_mmwave"
point_id: 5
x: 0.287109375
y: -0.041015625
z: 1.27734375
range: 1.39446306229
velocity: 0.0
doppler_bin: 8
bearing: -8.13010311127
intensity: 23.2428245544
---
header: 
  seq: 1589269
  stamp: 
    secs: 1561683768
    nsecs:  83517363
  frame_id: "ti_mmwave"
point_id: 6
x: 0.392578125
y: -0.0
z: 1.291015625
range: 1.43804001808
velocity: 0.0
doppler_bin: 8
bearing: -0.0
intensity: 21.875207901
---
header: 
  seq: 1589270
  stamp: 
    secs: 1561683768
    nsecs:  83529589
  frame_id: "ti_mmwave"
point_id: 7
x: 1.6640625
y: -0.052734375
z: -0.1953125
range: 1.78665578365
velocity: 0.0
doppler_bin: 8
bearing: -1.8151037693
intensity: 31.2710475922
---
header: 
  seq: 1589271
  stamp: 
    secs: 1561683768
    nsecs:  83558797
  frame_id: "ti_mmwave"
point_id: 8
x: 1.705078125
y: -0.052734375
z: -0.201171875
range: 1.83023273945
velocity: 0.0
doppler_bin: 8
bearing: -1.77146971226
intensity: 34.1995582581
---
header: 
  seq: 1589272
  stamp: 
    secs: 1561683768
    nsecs:  83586306
  frame_id: "ti_mmwave"
point_id: 9
x: 1.74609375
y: -0.0
z: -0.21484375
range: 1.87380969524
velocity: 0.0
doppler_bin: 8
bearing: -0.0
intensity: 33.3785858154
---
header: 
  seq: 1589273
  stamp: 
    secs: 1561683768
    nsecs:  83606522
  frame_id: "ti_mmwave"
point_id: 10
x: 1.77734375
y: 0.11328125
z: -0.2578125
range: 1.91738677025
velocity: 0.0
doppler_bin: 8
bearing: 3.64688611031
intensity: 29.2737045288
---
header: 
  seq: 1589274
  stamp: 
    secs: 1561683768
    nsecs:  83682865
  frame_id: "ti_mmwave"
point_id: 11
x: 2.560546875
y: -0.263671875
z: 1.158203125
range: 3.00681090355
velocity: 0.0
doppler_bin: 8
bearing: -5.87930107117
intensity: 29.5375976562
---
header: 
  seq: 1589275
  stamp: 
    secs: 1561683768
    nsecs:  83712357
  frame_id: "ti_mmwave"
point_id: 12
x: 2.60546875
y: -0.267578125
z: 1.158203125
range: 3.05038785934
velocity: 0.0
doppler_bin: 8
bearing: -5.86364221573
intensity: 32.8194198608
---
header: 
  seq: 1589276
  stamp: 
    secs: 1561683768
    nsecs:  83735725
  frame_id: "ti_mmwave"
point_id: 13
x: 2.6640625
y: -0.181640625
z: 1.142578125
range: 3.09396481514
velocity: 0.0
doppler_bin: 8
bearing: -3.90049386024
intensity: 32.0628585815
---
header: 
  seq: 1589277
  stamp: 
    secs: 1561683768
    nsecs:  83762127
  frame_id: "ti_mmwave"
point_id: 15
x: 0.041015625
y: -0.033203125
z: 0.0625
range: 0.0871539413929
velocity: 0.0
doppler_bin: 8
bearing: -38.9909973145
intensity: 30.157787323
---
header: 
  seq: 1589278
  stamp: 
    secs: 1561683768
    nsecs:  83781725
  frame_id: "ti_mmwave"
point_id: 16
x: 0.044921875
y: -0.046875
z: 0.103515625
range: 0.130730912089
velocity: 0.0
doppler_bin: 8
bearing: -46.218875885
intensity: 29.0471553802
---
header: 
  seq: 1589279
  stamp: 
    secs: 1561683768
    nsecs:  83799456
  frame_id: "ti_mmwave"
point_id: 18
x: 1.20703125
y: 0.357421875
z: 0.1484375
range: 1.35088610649
velocity: 0.0
doppler_bin: 8
bearing: 16.4948921204
intensity: 19.1381378174
---
header: 
  seq: 1589280
  stamp: 
    secs: 1561683768
    nsecs:  84531031
  frame_id: "ti_mmwave"
point_id: 0
x: 0.01171875
y: -0.0390625
z: -0.0078125
range: 0.0435769706964
velocity: 0.0
doppler_bin: 8
bearing: -73.3007583618
intensity: 30.7445068359
---
header: 
  seq: 1589281
  stamp: 
    secs: 1561683768
    nsecs:  84568253
  frame_id: "ti_mmwave"
point_id: 1
x: 0.017578125
y: -0.080078125
z: -0.0078125
range: 0.0871539413929
velocity: 0.0
doppler_bin: 8
bearing: -77.6192398071
intensity: 31.9838218689
---
header: 
  seq: 1589282
  stamp: 
    secs: 1561683768
    nsecs:  84585927
  frame_id: "ti_mmwave"
point_id: 2
x: 0.029296875
y: -0.119140625
z: -0.00390625
range: 0.130730912089
velocity: 0.0
doppler_bin: 8
bearing: -76.1849746704
intensity: 30.2284069061
---
header: 
  seq: 1589283
  stamp: 
    secs: 1561683768
    nsecs:  84600766
  frame_id: "ti_mmwave"
point_id: 3
x: 0.056640625
y: -0.154296875
z: 0.005859375
range: 0.174307882786
velocity: 0.0
doppler_bin: 8
bearing: -69.8423843384
intensity: 25.5022830963
---
header: 
  seq: 1589284
  stamp: 
    secs: 1561683768
    nsecs:  84658884
  frame_id: "ti_mmwave"
point_id: 4
x: 0.37890625
y: -0.080078125
z: -1.20703125
range: 1.35088610649
velocity: 0.0
doppler_bin: 8
bearing: -11.933303833
intensity: 21.875207901
---
header: 
  seq: 1589285
  stamp: 
    secs: 1561683768
    nsecs:  84674255
  frame_id: "ti_mmwave"
point_id: 5
x: 0.27734375
y: -0.041015625
z: 1.279296875
range: 1.39446306229
velocity: 0.0
doppler_bin: 8
bearing: -8.41234493256
intensity: 23.2014636993
---
header: 
  seq: 1589286
  stamp: 
    secs: 1561683768
    nsecs:  84688569
  frame_id: "ti_mmwave"
point_id: 6
x: 0.3984375
y: -0.0
z: 1.2890625
range: 1.43804001808
velocity: 0.0
doppler_bin: 8
bearing: -0.0
intensity: 21.8469142914
---
header: 
  seq: 1589287
  stamp: 
    secs: 1561683768
    nsecs:  84701721
  frame_id: "ti_mmwave"
point_id: 7
x: 1.673828125
y: -0.052734375
z: -0.107421875
range: 1.78665578365
velocity: 0.0
doppler_bin: 8
bearing: -1.80452108383
intensity: 31.1494445801
---
header: 
  seq: 1589288
  stamp: 
    secs: 1561683768
    nsecs:  84714552
  frame_id: "ti_mmwave"
point_id: 8
x: 1.712890625
y: -0.052734375
z: -0.123046875
range: 1.83023273945
velocity: 0.0
doppler_bin: 8
bearing: -1.76339519024
intensity: 33.8381538391
---
header: 
  seq: 1589289
  stamp: 
    secs: 1561683768
    nsecs:  84728318
  frame_id: "ti_mmwave"
point_id: 9
x: 1.751953125
y: -0.0546875
z: -0.134765625
range: 1.87380969524
velocity: 0.0
doppler_bin: 8
bearing: -1.78791642189
intensity: 32.8623199463
---
header: 
  seq: 1589290
  stamp: 
    secs: 1561683768
    nsecs:  84754482
  frame_id: "ti_mmwave"
point_id: 10
x: 1.76171875
y: -0.16796875
z: -0.328125
range: 1.91738677025
velocity: 0.0
doppler_bin: 8
bearing: -5.44632720947
intensity: 27.8604125977
---
header: 
  seq: 1589291
  stamp: 
    secs: 1561683768
    nsecs:  84768214
  frame_id: "ti_mmwave"
point_id: 11
x: 1.80078125
y: -0.23046875
z: -0.306640625
range: 1.96096372604
velocity: 0.0
doppler_bin: 8
bearing: -7.29321813583
intensity: 27.3798732758
---
header: 
  seq: 1589292
  stamp: 
    secs: 1561683768
    nsecs:  84782010
  frame_id: "ti_mmwave"
point_id: 12
x: 2.552734375
y: -0.263671875
z: 1.177734375
range: 3.00681090355
velocity: 0.0
doppler_bin: 8
bearing: -5.89716720581
intensity: 29.4743366241
---
header: 
  seq: 1589293
  stamp: 
    secs: 1561683768
    nsecs:  84796982
  frame_id: "ti_mmwave"
point_id: 13
x: 2.60546875
y: -0.267578125
z: 1.15625
range: 3.05038785934
velocity: 0.0
doppler_bin: 8
bearing: -5.86364221573
intensity: 32.7669143677
---
header: 
  seq: 1589294
  stamp: 
    secs: 1561683768
    nsecs:  84810413
  frame_id: "ti_mmwave"
point_id: 14
x: 2.662109375
y: -0.181640625
z: 1.1484375
range: 3.09396481514
velocity: 0.0
doppler_bin: 8
bearing: -3.90334677696
intensity: 31.9783172607
---
header: 
  seq: 1589295
  stamp: 
    secs: 1561683768
    nsecs:  84835714
  frame_id: "ti_mmwave"
point_id: 16
x: 0.041015625
y: -0.033203125
z: 0.0625
range: 0.0871539413929
velocity: 0.0
doppler_bin: 8
bearing: -38.9909973145
intensity: 30.1535968781
---
header: 
  seq: 1589296
  stamp: 
    secs: 1561683768
    nsecs:  84855893
  frame_id: "ti_mmwave"
point_id: 17
x: 0.044921875
y: -0.046875
z: 0.103515625
range: 0.130730912089
velocity: 0.0
doppler_bin: 8
bearing: -46.218875885
intensity: 29.0471553802
---
header: 
  seq: 1589297
  stamp: 
    secs: 1561683768
    nsecs:  84934639
  frame_id: "ti_mmwave"
point_id: 19
x: 1.208984375
y: 0.357421875
z: 0.138671875
range: 1.35088610649
velocity: 0.0
doppler_bin: 8
bearing: 16.4696884155
intensity: 19.1381378174
---
header: 
  seq: 1589298
  stamp: 
    secs: 1561683768
    nsecs: 143553365
  frame_id: "ti_mmwave"
point_id: 0
x: 0.01171875
y: -0.0390625
z: -0.0078125
range: 0.0435769706964
velocity: 0.0
doppler_bin: 8
bearing: -73.3007583618
intensity: 30.7445068359
---
header: 
  seq: 1589299
  stamp: 
    secs: 1561683768
    nsecs: 143649270
  frame_id: "ti_mmwave"
point_id: 1
x: 0.017578125
y: -0.080078125
z: -0.0078125
range: 0.0871539413929
velocity: 0.0
doppler_bin: 8
bearing: -77.6192398071
intensity: 31.9838218689
---
header: 
  seq: 1589300
  stamp: 
    secs: 1561683768
    nsecs: 143668098
  frame_id: "ti_mmwave"
point_id: 2
x: 0.041015625
y: -0.115234375
z: -0.0078125
range: 0.130730912089
velocity: 0.0
doppler_bin: 8
bearing: -70.4077224731
intensity: 30.2284069061
---
header: 
  seq: 1589301
  stamp: 
    secs: 1561683768
    nsecs: 143682480
  frame_id: "ti_mmwave"
point_id: 3
x: 0.056640625
y: -0.154296875
z: 0.005859375
range: 0.174307882786
velocity: 0.0
doppler_bin: 8
bearing: -69.8423843384
intensity: 25.5144996643
---
header: 
  seq: 1589302
  stamp: 
    secs: 1561683768
    nsecs: 143698325
  frame_id: "ti_mmwave"
point_id: 4
x: 0.359375
y: -0.080078125
z: -1.212890625
range: 1.35088610649
velocity: 0.0
doppler_bin: 8
bearing: -12.5617752075
intensity: 21.9033164978
---
header: 
  seq: 1589303
  stamp: 
    secs: 1561683768
    nsecs: 143712599
  frame_id: "ti_mmwave"
point_id: 5
x: 0.279296875
y: -0.041015625
z: 1.27734375
range: 1.39446306229
velocity: 0.0
doppler_bin: 8
bearing: -8.3543510437
intensity: 23.2428245544
---
header: 
  seq: 1589304
  stamp: 
    secs: 1561683768
    nsecs: 143727814
  frame_id: "ti_mmwave"
point_id: 6
x: 0.447265625
y: -0.04296875
z: 1.2734375
range: 1.43804001808
velocity: 0.0
doppler_bin: 8
bearing: -5.48755693436
intensity: 21.9033164978
---
header: 
  seq: 1589305
  stamp: 
    secs: 1561683768
    nsecs: 143744435
  frame_id: "ti_mmwave"
point_id: 7
x: 1.70703125
y: -0.107421875
z: -0.15234375
range: 1.83023273945
velocity: 0.0
doppler_bin: 8
bearing: -3.60082149506
intensity: 28.55519104
---
header: 
  seq: 1589306
  stamp: 
    secs: 1561683768
    nsecs: 143761320
  frame_id: "ti_mmwave"
point_id: 8
x: 1.7421875
y: -0.109375
z: -0.22265625
range: 1.87380969524
velocity: 0.0
doppler_bin: 8
bearing: -3.59232997894
intensity: 28.5369815826
---
header: 
  seq: 1589307
  stamp: 
    secs: 1561683768
    nsecs: 143844824
  frame_id: "ti_mmwave"
point_id: 9
x: 2.54296875
y: -0.263671875
z: 1.193359375
range: 3.00681090355
velocity: 0.0
doppler_bin: 8
bearing: -5.91965341568
intensity: 29.5375976562
---
header: 
  seq: 1589308
  stamp: 
    secs: 1561683768
    nsecs: 143864632
  frame_id: "ti_mmwave"
point_id: 10
x: 2.6015625
y: -0.267578125
z: 1.166015625
range: 3.05038785934
velocity: 0.0
doppler_bin: 8
bearing: -5.87238502502
intensity: 32.7898216248
---
header: 
  seq: 1589309
  stamp: 
    secs: 1561683768
    nsecs: 143878338
  frame_id: "ti_mmwave"
point_id: 11
x: 2.65625
y: -0.181640625
z: 1.158203125
range: 3.09396481514
velocity: 0.0
doppler_bin: 8
bearing: -3.91193032265
intensity: 31.9562301636
---
header: 
  seq: 1589310
  stamp: 
    secs: 1561683768
    nsecs: 143896207
  frame_id: "ti_mmwave"
point_id: 13
x: 0.041015625
y: -0.033203125
z: 0.0625
range: 0.0871539413929
velocity: 0.0
doppler_bin: 8
bearing: -38.9909973145
intensity: 30.157787323
---
header: 
  seq: 1589311
  stamp: 
    secs: 1561683768
    nsecs: 143910022
  frame_id: "ti_mmwave"
point_id: 14
x: 0.044921875
y: -0.046875
z: 0.103515625
range: 0.130730912089
velocity: 0.0
doppler_bin: 8
bearing: -46.218875885
intensity: 29.0471553802
---
header: 
  seq: 1589312
  stamp: 
    secs: 1561683768
    nsecs: 143928162
  frame_id: "ti_mmwave"
point_id: 16
x: 1.2109375
y: 0.357421875
z: 0.125
range: 1.35088610649
velocity: 0.0
doppler_bin: 8
bearing: 16.4445590973
intensity: 19.1381378174
---
header: 
  seq: 1589313
  stamp: 
    secs: 1561683768
    nsecs: 203510751
  frame_id: "ti_mmwave"
point_id: 0
x: 0.01171875
y: -0.0390625
z: -0.0078125
range: 0.0435769706964
velocity: 0.0
doppler_bin: 8
bearing: -73.3007583618
intensity: 30.7445068359
---
header: 
  seq: 1589314
  stamp: 
    secs: 1561683768
    nsecs: 203724030
  frame_id: "ti_mmwave"
point_id: 1
x: 0.017578125
y: -0.080078125
z: -0.0078125
range: 0.0871539413929
velocity: 0.0
doppler_bin: 8
bearing: -77.6192398071
intensity: 31.9838218689
---
header: 
  seq: 1589315
  stamp: 
    secs: 1561683768
    nsecs: 203745797
  frame_id: "ti_mmwave"
point_id: 2
x: 0.041015625
y: -0.115234375
z: -0.0078125
range: 0.130730912089
velocity: 0.0
doppler_bin: 8
bearing: -70.4077224731
intensity: 30.2242832184
---
header: 
  seq: 1589316
  stamp: 
    secs: 1561683768
    nsecs: 203761009
  frame_id: "ti_mmwave"
point_id: 3
x: 0.056640625
y: -0.154296875
z: 0.005859375
range: 0.174307882786
velocity: 0.0
doppler_bin: 8
bearing: -69.8423843384
intensity: 25.490032196
---
header: 
  seq: 1589317
  stamp: 
    secs: 1561683768
    nsecs: 203847755
  frame_id: "ti_mmwave"
point_id: 4
x: 0.330078125
y: -0.080078125
z: -1.22265625
range: 1.35088610649
velocity: 0.0
doppler_bin: 8
bearing: -13.6366977692
intensity: 21.9033164978
---
header: 
  seq: 1589318
  stamp: 
    secs: 1561683768
    nsecs: 203867058
  frame_id: "ti_mmwave"
point_id: 5
x: 0.302734375
y: -0.041015625
z: 1.2734375
range: 1.39446306229
velocity: 0.0
doppler_bin: 8
bearing: -7.71567344666
intensity: 23.2221927643
---
header: 
  seq: 1589319
  stamp: 
    secs: 1561683768
    nsecs: 203885729
  frame_id: "ti_mmwave"
point_id: 6
x: 0.47265625
y: -0.04296875
z: 1.263671875
range: 1.43804001808
velocity: 0.0
doppler_bin: 8
bearing: -5.19442892075
intensity: 21.9312458038
---
header: 
  seq: 1589320
  stamp: 
    secs: 1561683768
    nsecs: 203906392
  frame_id: "ti_mmwave"
point_id: 7
x: 1.693359375
y: -0.052734375
z: -0.279296875
range: 1.83023273945
velocity: 0.0
doppler_bin: 8
bearing: -1.78372108936
intensity: 30.5804615021
---
header: 
  seq: 1589321
  stamp: 
    secs: 1561683768
    nsecs: 203919622
  frame_id: "ti_mmwave"
point_id: 8
x: 1.728515625
y: -0.0546875
z: -0.31640625
range: 1.87380969524
velocity: 0.0
doppler_bin: 8
bearing: -1.81214332581
intensity: 30.7736797333
---
header: 
  seq: 1589322
  stamp: 
    secs: 1561683768
    nsecs: 203952504
  frame_id: "ti_mmwave"
point_id: 9
x: 1.77734375
y: 0.056640625
z: -0.27734375
range: 1.91738677025
velocity: 0.0
doppler_bin: 8
bearing: 1.82529187202
intensity: 29.4398880005
---
header: 
  seq: 1589323
  stamp: 
    secs: 1561683768
    nsecs: 203981410
  frame_id: "ti_mmwave"
point_id: 10
x: 1.8125
y: 0.056640625
z: -0.322265625
range: 1.96096372604
velocity: 0.0
doppler_bin: 8
bearing: 1.7899106741
intensity: 29.2220630646
---
header: 
  seq: 1589324
  stamp: 
    secs: 1561683768
    nsecs: 204008688
  frame_id: "ti_mmwave"
point_id: 11
x: 1.84765625
y: 0.05859375
z: -0.34765625
range: 2.00454068184
velocity: 0.0
doppler_bin: 8
bearing: 1.81638205051
intensity: 29.0145835876
---
header: 
  seq: 1589325
  stamp: 
    secs: 1561683768
    nsecs: 204137414
  frame_id: "ti_mmwave"
point_id: 12
x: 2.529296875
y: -0.263671875
z: 1.224609375
range: 3.00681090355
velocity: 0.0
doppler_bin: 8
bearing: -5.95142221451
intensity: 29.339931488
---
header: 
  seq: 1589326
  stamp: 
    secs: 1561683768
    nsecs: 204172611
  frame_id: "ti_mmwave"
point_id: 13
x: 2.60546875
y: -0.267578125
z: 1.15625
range: 3.05038785934
velocity: 0.0
doppler_bin: 8
bearing: -5.86364221573
intensity: 32.6974639893
---
header: 
  seq: 1589327
  stamp: 
    secs: 1561683768
    nsecs: 204186458
  frame_id: "ti_mmwave"
point_id: 14
x: 2.666015625
y: -0.271484375
z: 1.1171875
range: 3.09396481514
velocity: 0.0
doppler_bin: 8
bearing: -5.81447267532
intensity: 31.9061183929
---
header: 
  seq: 1589328
  stamp: 
    secs: 1561683768
    nsecs: 204203596
  frame_id: "ti_mmwave"
point_id: 16
x: 0.041015625
y: -0.033203125
z: 0.0625
range: 0.0871539413929
velocity: 0.0
doppler_bin: 8
bearing: -38.9909973145
intensity: 30.1494026184
---
header: 
  seq: 1589329
  stamp: 
    secs: 1561683768
    nsecs: 204221622
  frame_id: "ti_mmwave"
point_id: 17
x: 0.044921875
y: -0.046875
z: 0.103515625
range: 0.130730912089
velocity: 0.0
doppler_bin: 8
bearing: -46.218875885
intensity: 29.0363254547
---
header: 
  seq: 1589330
  stamp: 
    secs: 1561683768
    nsecs: 204285594
  frame_id: "ti_mmwave"
point_id: 19
x: 1.208984375
y: 0.357421875
z: 0.130859375
range: 1.35088610649
velocity: 0.0
doppler_bin: 8
bearing: 16.4696884155
intensity: 19.0848503113
---
header: 
  seq: 1589331
  stamp: 
    secs: 1561683768
    nsecs: 204908086
  frame_id: "ti_mmwave"
point_id: 0
x: 0.01171875
y: -0.0390625
z: -0.0078125
range: 0.0435769706964
velocity: 0.0
doppler_bin: 8
bearing: -73.3007583618
intensity: 30.7554702759
---
header: 
  seq: 1589332
  stamp: 
    secs: 1561683768
    nsecs: 204960446
  frame_id: "ti_mmwave"
point_id: 1
x: 0.017578125
y: -0.080078125
z: -0.0078125
range: 0.0871539413929
velocity: 0.0
doppler_bin: 8
bearing: -77.6192398071
intensity: 31.9893188477
---
header: 
  seq: 1589333
  stamp: 
    secs: 1561683768
    nsecs: 204976605
  frame_id: "ti_mmwave"
point_id: 2
x: 0.029296875
y: -0.119140625
z: -0.005859375
range: 0.130730912089
velocity: 0.0
doppler_bin: 8
bearing: -76.1849746704
intensity: 30.2366390228
---
header: 
  seq: 1589334
  stamp: 
    secs: 1561683768
    nsecs: 204991138
  frame_id: "ti_mmwave"
point_id: 3
x: 0.056640625
y: -0.154296875
z: 0.005859375
range: 0.174307882786
velocity: 0.0
doppler_bin: 8
bearing: -69.8423843384
intensity: 25.5144996643
---
