header: 
  seq: 1576393
  stamp: 
    secs: 1561683745
    nsecs: 343301273
  frame_id: "ti_mmwave"
point_id: 0
x: 0.01171875
y: -0.0390625
z: -0.0078125
range: 0.0435769706964
velocity: 0.0
doppler_bin: 8
bearing: -73.3007583618
intensity: 30.7554702759
---
header: 
  seq: 1576394
  stamp: 
    secs: 1561683745
    nsecs: 343401052
  frame_id: "ti_mmwave"
point_id: 1
x: 0.017578125
y: -0.080078125
z: -0.0078125
range: 0.0871539413929
velocity: 0.0
doppler_bin: 8
bearing: -77.6192398071
intensity: 31.994808197
---
header: 
  seq: 1576395
  stamp: 
    secs: 1561683745
    nsecs: 343413670
  frame_id: "ti_mmwave"
point_id: 2
x: 0.029296875
y: -0.119140625
z: -0.005859375
range: 0.130730912089
velocity: 0.0
doppler_bin: 8
bearing: -76.1849746704
intensity: 30.2366390228
---
header: 
  seq: 1576396
  stamp: 
    secs: 1561683745
    nsecs: 343422504
  frame_id: "ti_mmwave"
point_id: 3
x: 0.056640625
y: -0.154296875
z: 0.005859375
range: 0.174307882786
velocity: 0.0
doppler_bin: 8
bearing: -69.8423843384
intensity: 25.5144996643
---
header: 
  seq: 1576397
  stamp: 
    secs: 1561683745
    nsecs: 343432909
  frame_id: "ti_mmwave"
point_id: 4
x: 0.361328125
y: -0.080078125
z: -1.212890625
range: 1.35088610649
velocity: 0.0
doppler_bin: 8
bearing: -12.4960107803
intensity: 21.9312458038
---
header: 
  seq: 1576398
  stamp: 
    secs: 1561683745
    nsecs: 343441172
  frame_id: "ti_mmwave"
point_id: 5
x: 0.2890625
y: -0.041015625
z: 1.275390625
range: 1.39446306229
velocity: 0.0
doppler_bin: 8
bearing: -8.0758972168
intensity: 23.2633590698
---
header: 
  seq: 1576399
  stamp: 
    secs: 1561683745
    nsecs: 343448998
  frame_id: "ti_mmwave"
point_id: 6
x: 0.455078125
y: -0.04296875
z: 1.26953125
range: 1.43804001808
velocity: 0.0
doppler_bin: 8
bearing: -5.39391040802
intensity: 21.9312458038
---
header: 
  seq: 1576400
  stamp: 
    secs: 1561683745
    nsecs: 343458181
  frame_id: "ti_mmwave"
point_id: 7
x: 1.67578125
y: -0.052734375
z: 0.05859375
range: 1.78665578365
velocity: 0.0
doppler_bin: 8
bearing: -1.80241930485
intensity: 27.466342926
---
header: 
  seq: 1576401
  stamp: 
    secs: 1561683745
    nsecs: 343466719
  frame_id: "ti_mmwave"
point_id: 8
x: 1.716796875
y: -0.052734375
z: -0.015625
range: 1.83023273945
velocity: 0.0
doppler_bin: 8
bearing: -1.75938534737
intensity: 31.1427726746
---
header: 
  seq: 1576402
  stamp: 
    secs: 1561683745
    nsecs: 343474866
  frame_id: "ti_mmwave"
point_id: 9
x: 1.755859375
y: -0.0
z: -0.095703125
range: 1.87380969524
velocity: 0.0
doppler_bin: 8
bearing: -0.0
intensity: 31.6196670532
---
header: 
  seq: 1576403
  stamp: 
    secs: 1561683745
    nsecs: 343482837
  frame_id: "ti_mmwave"
point_id: 10
x: 1.78125
y: -0.11328125
z: -0.234375
range: 1.91738677025
velocity: 0.0
doppler_bin: 8
bearing: -3.63891005516
intensity: 29.484128952
---
header: 
  seq: 1576404
  stamp: 
    secs: 1561683745
    nsecs: 343493339
  frame_id: "ti_mmwave"
point_id: 11
x: 2.541015625
y: -0.263671875
z: 1.19921875
range: 3.00681090355
velocity: 0.0
doppler_bin: 8
bearing: -5.92417097092
intensity: 29.4398880005
---
header: 
  seq: 1576405
  stamp: 
    secs: 1561683745
    nsecs: 343501273
  frame_id: "ti_mmwave"
point_id: 12
x: 2.60546875
y: -0.267578125
z: 1.15625
range: 3.05038785934
velocity: 0.0
doppler_bin: 8
bearing: -5.86364221573
intensity: 32.8194198608
---
header: 
  seq: 1576406
  stamp: 
    secs: 1561683745
    nsecs: 343509831
  frame_id: "ti_mmwave"
point_id: 13
x: 2.669921875
y: -0.181640625
z: 1.130859375
range: 3.09396481514
velocity: 0.0
doppler_bin: 8
bearing: -3.89196038246
intensity: 32.0736503601
---
header: 
  seq: 1576407
  stamp: 
    secs: 1561683745
    nsecs: 343520057
  frame_id: "ti_mmwave"
point_id: 15
x: 0.041015625
y: -0.033203125
z: 0.0625
range: 0.0871539413929
velocity: 0.0
doppler_bin: 8
bearing: -38.9909973145
intensity: 30.157787323
---
header: 
  seq: 1576408
  stamp: 
    secs: 1561683745
    nsecs: 343529129
  frame_id: "ti_mmwave"
point_id: 16
x: 0.044921875
y: -0.046875
z: 0.103515625
range: 0.130730912089
velocity: 0.0
doppler_bin: 8
bearing: -46.218875885
intensity: 29.0579586029
---
header: 
  seq: 1576409
  stamp: 
    secs: 1561683745
    nsecs: 343539499
  frame_id: "ti_mmwave"
point_id: 18
x: 1.1171875
y: -0.515625
z: 0.310546875
range: 1.35088610649
velocity: 0.0
doppler_bin: 8
bearing: -24.7751407623
intensity: 19.1381378174
---
header: 
  seq: 1576410
  stamp: 
    secs: 1561683745
    nsecs: 343547357
  frame_id: "ti_mmwave"
point_id: 19
x: 1.7890625
y: -0.0
z: -0.1953125
range: 1.91738677025
velocity: 0.0
doppler_bin: 8
bearing: -0.0
intensity: 29.4694328308
---
header: 
  seq: 1576411
  stamp: 
    secs: 1561683745
    nsecs: 403332639
  frame_id: "ti_mmwave"
point_id: 0
x: 0.01171875
y: -0.0390625
z: -0.0078125
range: 0.0435769706964
velocity: 0.0
doppler_bin: 8
bearing: -73.3007583618
intensity: 30.7518177032
---
header: 
  seq: 1576412
  stamp: 
    secs: 1561683745
    nsecs: 403458687
  frame_id: "ti_mmwave"
point_id: 1
x: 0.017578125
y: -0.080078125
z: -0.0078125
range: 0.0871539413929
velocity: 0.0
doppler_bin: 8
bearing: -77.6192398071
intensity: 31.9893188477
---
header: 
  seq: 1576413
  stamp: 
    secs: 1561683745
    nsecs: 403478046
  frame_id: "ti_mmwave"
point_id: 2
x: 0.029296875
y: -0.119140625
z: -0.00390625
range: 0.130730912089
velocity: 0.0
doppler_bin: 8
bearing: -76.1849746704
intensity: 30.2366390228
---
header: 
  seq: 1576414
  stamp: 
    secs: 1561683745
    nsecs: 403490343
  frame_id: "ti_mmwave"
point_id: 3
x: 0.056640625
y: -0.154296875
z: 0.005859375
range: 0.174307882786
velocity: 0.0
doppler_bin: 8
bearing: -69.8423843384
intensity: 25.5266819
---
header: 
  seq: 1576415
  stamp: 
    secs: 1561683745
    nsecs: 403505097
  frame_id: "ti_mmwave"
point_id: 4
x: 0.349609375
y: -0.080078125
z: -1.216796875
range: 1.35088610649
velocity: 0.0
doppler_bin: 8
bearing: -12.9010734558
intensity: 21.875207901
---
header: 
  seq: 1576416
  stamp: 
    secs: 1561683745
    nsecs: 403535296
  frame_id: "ti_mmwave"
point_id: 5
x: 0.3203125
y: -0.041015625
z: 1.267578125
range: 1.39446306229
velocity: 0.0
doppler_bin: 8
bearing: -7.29694652557
intensity: 23.2221927643
---
header: 
  seq: 1576417
  stamp: 
    secs: 1561683745
    nsecs: 403626975
  frame_id: "ti_mmwave"
point_id: 6
x: 0.484375
y: -0.04296875
z: 1.259765625
range: 1.43804001808
velocity: 0.0
doppler_bin: 8
bearing: -5.06942033768
intensity: 21.9033164978
---
header: 
  seq: 1576418
  stamp: 
    secs: 1561683745
    nsecs: 403644151
  frame_id: "ti_mmwave"
point_id: 7
x: 1.669921875
y: -0.052734375
z: -0.142578125
range: 1.78665578365
velocity: 0.0
doppler_bin: 8
bearing: -1.80873930454
intensity: 30.2036132812
---
header: 
  seq: 1576419
  stamp: 
    secs: 1561683745
    nsecs: 403657748
  frame_id: "ti_mmwave"
point_id: 8
x: 1.708984375
y: -0.052734375
z: -0.166015625
range: 1.83023273945
velocity: 0.0
doppler_bin: 8
bearing: -1.76742315292
intensity: 33.9967384338
---
header: 
  seq: 1576420
  stamp: 
    secs: 1561683745
    nsecs: 403670973
  frame_id: "ti_mmwave"
point_id: 9
x: 1.748046875
y: -0.0546875
z: -0.189453125
range: 1.87380969524
velocity: 0.0
doppler_bin: 8
bearing: -1.79190933704
intensity: 34.1497344971
---
header: 
  seq: 1576421
  stamp: 
    secs: 1561683745
    nsecs: 403683951
  frame_id: "ti_mmwave"
point_id: 10
x: 1.787109375
y: -0.11328125
z: -0.1875
range: 1.91738677025
velocity: 0.0
doppler_bin: 8
bearing: -3.62701106071
intensity: 31.1793384552
---
header: 
  seq: 1576422
  stamp: 
    secs: 1561683745
    nsecs: 403697379
  frame_id: "ti_mmwave"
point_id: 11
x: 2.564453125
y: -0.263671875
z: 1.150390625
range: 3.00681090355
velocity: 0.0
doppler_bin: 8
bearing: -5.87040758133
intensity: 29.5133743286
---
header: 
  seq: 1576423
  stamp: 
    secs: 1561683745
    nsecs: 403711041
  frame_id: "ti_mmwave"
point_id: 12
x: 2.61328125
y: -0.267578125
z: 1.13671875
range: 3.05038785934
velocity: 0.0
doppler_bin: 8
bearing: -5.84623432159
intensity: 32.848815918
---
header: 
  seq: 1576424
  stamp: 
    secs: 1561683745
    nsecs: 403728558
  frame_id: "ti_mmwave"
point_id: 13
x: 2.66796875
y: -0.271484375
z: 1.115234375
range: 3.09396481514
velocity: 0.0
doppler_bin: 8
bearing: -5.81024503708
intensity: 32.0655593872
---
header: 
  seq: 1576425
  stamp: 
    secs: 1561683745
    nsecs: 403742312
  frame_id: "ti_mmwave"
point_id: 15
x: 0.041015625
y: -0.033203125
z: 0.0625
range: 0.0871539413929
velocity: 0.0
doppler_bin: 8
bearing: -38.9909973145
intensity: 30.157787323
---
header: 
  seq: 1576426
  stamp: 
    secs: 1561683745
    nsecs: 403802005
  frame_id: "ti_mmwave"
point_id: 16
x: 0.044921875
y: -0.046875
z: 0.103515625
range: 0.130730912089
velocity: 0.0
doppler_bin: 8
bearing: -46.218875885
intensity: 29.0471553802
---
header: 
  seq: 1576427
  stamp: 
    secs: 1561683745
    nsecs: 403821272
  frame_id: "ti_mmwave"
point_id: 18
x: 1.12109375
y: -0.474609375
z: 0.35546875
range: 1.35088610649
velocity: 0.0
doppler_bin: 8
bearing: -22.9451236725
intensity: 18.9762706757
---
header: 
  seq: 1576428
  stamp: 
    secs: 1561683745
    nsecs: 404666075
  frame_id: "ti_mmwave"
point_id: 0
x: 0.01171875
y: -0.0390625
z: -0.0078125
range: 0.0435769706964
velocity: 0.0
doppler_bin: 8
bearing: -73.3007583618
intensity: 30.7554702759
---
header: 
  seq: 1576429
  stamp: 
    secs: 1561683745
    nsecs: 404719394
  frame_id: "ti_mmwave"
point_id: 1
x: 0.017578125
y: -0.080078125
z: -0.0078125
range: 0.0871539413929
velocity: 0.0
doppler_bin: 8
bearing: -77.6192398071
intensity: 31.994808197
---
header: 
  seq: 1576430
  stamp: 
    secs: 1561683745
    nsecs: 404737312
  frame_id: "ti_mmwave"
point_id: 2
x: 0.029296875
y: -0.119140625
z: -0.005859375
range: 0.130730912089
velocity: 0.0
doppler_bin: 8
bearing: -76.1849746704
intensity: 30.2407493591
---
header: 
  seq: 1576431
  stamp: 
    secs: 1561683745
    nsecs: 404751321
  frame_id: "ti_mmwave"
point_id: 3
x: 0.056640625
y: -0.154296875
z: 0.005859375
range: 0.174307882786
velocity: 0.0
doppler_bin: 8
bearing: -69.8423843384
intensity: 25.5266819
---
header: 
  seq: 1576432
  stamp: 
    secs: 1561683745
    nsecs: 404832837
  frame_id: "ti_mmwave"
point_id: 4
x: 0.361328125
y: -0.080078125
z: -1.212890625
range: 1.35088610649
velocity: 0.0
doppler_bin: 8
bearing: -12.4960107803
intensity: 21.9589958191
---
header: 
  seq: 1576433
  stamp: 
    secs: 1561683745
    nsecs: 404847718
  frame_id: "ti_mmwave"
point_id: 5
x: 0.251953125
y: -0.041015625
z: 1.283203125
range: 1.39446306229
velocity: 0.0
doppler_bin: 8
bearing: -9.24611377716
intensity: 23.2428245544
---
header: 
  seq: 1576434
  stamp: 
    secs: 1561683745
    nsecs: 404860964
  frame_id: "ti_mmwave"
point_id: 6
x: 0.365234375
y: -0.0
z: 1.298828125
range: 1.43804001808
velocity: 0.0
doppler_bin: 8
bearing: -0.0
intensity: 21.875207901
---
header: 
  seq: 1576435
  stamp: 
    secs: 1561683745
    nsecs: 404874404
  frame_id: "ti_mmwave"
point_id: 7
x: 1.650390625
y: -0.10546875
z: -0.27734375
range: 1.78665578365
velocity: 0.0
doppler_bin: 8
bearing: -3.65653324127
intensity: 28.1888542175
---
header: 
  seq: 1576436
  stamp: 
    secs: 1561683745
    nsecs: 404887838
  frame_id: "ti_mmwave"
point_id: 8
x: 1.6953125
y: -0.107421875
z: -0.26171875
range: 1.83023273945
velocity: 0.0
doppler_bin: 8
bearing: -3.62564587593
intensity: 32.3678894043
---
header: 
  seq: 1576437
  stamp: 
    secs: 1561683745
    nsecs: 404899514
  frame_id: "ti_mmwave"
point_id: 9
x: 1.740234375
y: -0.109375
z: -0.23828125
range: 1.87380969524
velocity: 0.0
doppler_bin: 8
bearing: -3.5963511467
intensity: 33.0792388916
---
header: 
  seq: 1576438
  stamp: 
    secs: 1561683745
    nsecs: 404930897
  frame_id: "ti_mmwave"
point_id: 10
x: 1.783203125
y: -0.11328125
z: -0.2109375
range: 1.91738677025
velocity: 0.0
doppler_bin: 8
bearing: -3.63493490219
intensity: 30.9131507874
---
header: 
  seq: 1576439
  stamp: 
    secs: 1561683745
    nsecs: 404948200
  frame_id: "ti_mmwave"
point_id: 11
x: 1.830078125
y: -0.0
z: -0.203125
range: 1.96096372604
velocity: 0.0
doppler_bin: 8
bearing: -0.0
intensity: 27.2345561981
---
header: 
  seq: 1576440
  stamp: 
    secs: 1561683745
    nsecs: 405030788
  frame_id: "ti_mmwave"
point_id: 12
x: 2.53515625
y: -0.263671875
z: 1.2109375
range: 3.00681090355
velocity: 0.0
doppler_bin: 8
bearing: -5.9377655983
intensity: 29.247959137
---
header: 
  seq: 1576441
  stamp: 
    secs: 1561683745
    nsecs: 405045999
  frame_id: "ti_mmwave"
point_id: 13
x: 2.603515625
y: -0.267578125
z: 1.162109375
range: 3.05038785934
velocity: 0.0
doppler_bin: 8
bearing: -5.8680100441
intensity: 32.6434555054
---
header: 
  seq: 1576442
  stamp: 
    secs: 1561683745
    nsecs: 405059908
  frame_id: "ti_mmwave"
point_id: 14
x: 2.669921875
y: -0.181640625
z: 1.130859375
range: 3.09396481514
velocity: 0.0
doppler_bin: 8
bearing: -3.89196038246
intensity: 31.8412342072
---
header: 
  seq: 1576443
  stamp: 
    secs: 1561683745
    nsecs: 405096703
  frame_id: "ti_mmwave"
point_id: 16
x: 0.041015625
y: -0.033203125
z: 0.0625
range: 0.0871539413929
velocity: 0.0
doppler_bin: 8
bearing: -38.9909973145
intensity: 30.157787323
---
header: 
  seq: 1576444
  stamp: 
    secs: 1561683745
    nsecs: 405111985
  frame_id: "ti_mmwave"
point_id: 17
x: 0.044921875
y: -0.046875
z: 0.103515625
range: 0.130730912089
velocity: 0.0
doppler_bin: 8
bearing: -46.218875885
intensity: 29.0525608063
---
header: 
  seq: 1576445
  stamp: 
    secs: 1561683745
    nsecs: 405128208
  frame_id: "ti_mmwave"
point_id: 19
x: 1.1171875
y: -0.515625
z: 0.3046875
range: 1.35088610649
velocity: 0.0
doppler_bin: 8
bearing: -24.7751407623
intensity: 19.0848503113
---
header: 
  seq: 1576446
  stamp: 
    secs: 1561683745
    nsecs: 463292230
  frame_id: "ti_mmwave"
point_id: 0
x: 0.01171875
y: -0.0390625
z: -0.0078125
range: 0.0435769706964
velocity: 0.0
doppler_bin: 8
bearing: -73.3007583618
intensity: 30.7518177032
---
header: 
  seq: 1576447
  stamp: 
    secs: 1561683745
    nsecs: 463400806
  frame_id: "ti_mmwave"
point_id: 1
x: 0.017578125
y: -0.080078125
z: -0.0078125
range: 0.0871539413929
velocity: 0.0
doppler_bin: 8
bearing: -77.6192398071
intensity: 31.9920654297
---
header: 
  seq: 1576448
  stamp: 
    secs: 1561683745
    nsecs: 463428432
  frame_id: "ti_mmwave"
point_id: 2
x: 0.041015625
y: -0.115234375
z: -0.0078125
range: 0.130730912089
velocity: 0.0
doppler_bin: 8
bearing: -70.4077224731
intensity: 30.2325248718
---
header: 
  seq: 1576449
  stamp: 
    secs: 1561683745
    nsecs: 463442475
  frame_id: "ti_mmwave"
point_id: 3
x: 0.056640625
y: -0.154296875
z: 0.005859375
range: 0.174307882786
velocity: 0.0
doppler_bin: 8
bearing: -69.8423843384
intensity: 25.5144996643
---
header: 
  seq: 1576450
  stamp: 
    secs: 1561683745
    nsecs: 463467087
  frame_id: "ti_mmwave"
point_id: 4
x: 0.3359375
y: -0.080078125
z: -1.220703125
range: 1.35088610649
velocity: 0.0
doppler_bin: 8
bearing: -13.4075088501
intensity: 21.9312458038
---
header: 
  seq: 1576451
  stamp: 
    secs: 1561683745
    nsecs: 463482478
  frame_id: "ti_mmwave"
point_id: 5
x: 0.302734375
y: -0.041015625
z: 1.2734375
range: 1.39446306229
velocity: 0.0
doppler_bin: 8
bearing: -7.71567344666
intensity: 23.2428245544
---
header: 
  seq: 1576452
  stamp: 
    secs: 1561683745
    nsecs: 463495937
  frame_id: "ti_mmwave"
point_id: 6
x: 0.490234375
y: -0.04296875
z: 1.255859375
range: 1.43804001808
velocity: 0.0
doppler_bin: 8
bearing: -5.00914001465
intensity: 21.9589958191
---
header: 
  seq: 1576453
  stamp: 
    secs: 1561683745
    nsecs: 463509698
  frame_id: "ti_mmwave"
point_id: 7
x: 1.712890625
y: -0.107421875
z: -0.08203125
range: 1.83023273945
velocity: 0.0
doppler_bin: 8
bearing: -3.58853602409
intensity: 29.7127590179
---
header: 
  seq: 1576454
  stamp: 
    secs: 1561683745
    nsecs: 463523747
  frame_id: "ti_mmwave"
point_id: 8
x: 1.75390625
y: -0.109375
z: -0.083984375
range: 1.87380969524
velocity: 0.0
doppler_bin: 8
bearing: -3.56838989258
intensity: 30.3302135468
---
header: 
  seq: 1576455
  stamp: 
    secs: 1561683745
    nsecs: 463537607
  frame_id: "ti_mmwave"
point_id: 9
x: 1.794921875
y: -0.056640625
z: -0.1171875
range: 1.91738677025
velocity: 0.0
doppler_bin: 8
bearing: -1.80742812157
intensity: 28.6981811523
---
header: 
  seq: 1576456
  stamp: 
    secs: 1561683745
    nsecs: 463552044
  frame_id: "ti_mmwave"
point_id: 10
x: 1.830078125
y: -0.0
z: -0.19140625
range: 1.96096372604
velocity: 0.0
doppler_bin: 8
bearing: -0.0
intensity: 27.8958072662
---
header: 
  seq: 1576457
  stamp: 
    secs: 1561683745
    nsecs: 463567581
  frame_id: "ti_mmwave"
point_id: 11
x: 1.865234375
y: -0.05859375
z: -0.24609375
range: 2.00454068184
velocity: 0.0
doppler_bin: 8
bearing: -1.79927563667
intensity: 26.5224628448
---
header: 
  seq: 1576458
  stamp: 
    secs: 1561683745
    nsecs: 463580785
  frame_id: "ti_mmwave"
point_id: 12
x: 2.560546875
y: -0.263671875
z: 1.158203125
range: 3.00681090355
velocity: 0.0
doppler_bin: 8
bearing: -5.87930107117
intensity: 29.4987773895
---
header: 
  seq: 1576459
  stamp: 
    secs: 1561683745
    nsecs: 463593701
  frame_id: "ti_mmwave"
point_id: 13
x: 2.60546875
y: -0.267578125
z: 1.15625
range: 3.05038785934
velocity: 0.0
doppler_bin: 8
bearing: -5.86364221573
intensity: 32.8533210754
---
header: 
  seq: 1576460
  stamp: 
    secs: 1561683745
    nsecs: 463606998
  frame_id: "ti_mmwave"
point_id: 14
x: 2.66015625
y: -0.271484375
z: 1.130859375
range: 3.09396481514
velocity: 0.0
doppler_bin: 8
bearing: -5.82719182968
intensity: 32.0574569702
---
header: 
  seq: 1576461
  stamp: 
    secs: 1561683745
    nsecs: 463624103
  frame_id: "ti_mmwave"
point_id: 16
x: 0.041015625
y: -0.033203125
z: 0.0625
range: 0.0871539413929
velocity: 0.0
doppler_bin: 8
bearing: -38.9909973145
intensity: 30.157787323
---
header: 
  seq: 1576462
  stamp: 
    secs: 1561683745
    nsecs: 463807811
  frame_id: "ti_mmwave"
point_id: 17
x: 0.052734375
y: -0.04296875
z: 0.1015625
range: 0.130730912089
velocity: 0.0
doppler_bin: 8
bearing: -39.1736602783
intensity: 29.0471553802
---
header: 
  seq: 1576463
  stamp: 
    secs: 1561683745
    nsecs: 463828520
  frame_id: "ti_mmwave"
point_id: 19
x: 1.11328125
y: -0.515625
z: 0.318359375
range: 1.35088610649
velocity: 0.0
doppler_bin: 8
bearing: -24.8515853882
intensity: 19.0848503113
---
header: 
  seq: 1576464
  stamp: 
    secs: 1561683745
    nsecs: 464400193
  frame_id: "ti_mmwave"
point_id: 0
x: 0.01171875
y: -0.0390625
z: -0.0078125
range: 0.0435769706964
velocity: 0.0
doppler_bin: 8
bearing: -73.3007583618
intensity: 30.7554702759
---
header: 
  seq: 1576465
  stamp: 
    secs: 1561683745
    nsecs: 464447265
  frame_id: "ti_mmwave"
point_id: 1
x: 0.017578125
y: -0.080078125
z: -0.0078125
range: 0.0871539413929
velocity: 0.0
doppler_bin: 8
bearing: -77.6192398071
intensity: 31.9920654297
---
header: 
  seq: 1576466
  stamp: 
    secs: 1561683745
    nsecs: 464463274
  frame_id: "ti_mmwave"
point_id: 2
x: 0.029296875
y: -0.119140625
z: -0.00390625
range: 0.130730912089
velocity: 0.0
doppler_bin: 8
bearing: -76.1849746704
intensity: 30.2325248718
---
header: 
  seq: 1576467
  stamp: 
    secs: 1561683745
    nsecs: 464477937
  frame_id: "ti_mmwave"
point_id: 3
x: 0.056640625
y: -0.154296875
z: 0.005859375
range: 0.174307882786
velocity: 0.0
doppler_bin: 8
bearing: -69.8423843384
intensity: 25.5144996643
---
header: 
  seq: 1576468
  stamp: 
    secs: 1561683745
    nsecs: 464490811
  frame_id: "ti_mmwave"
point_id: 4
x: 0.361328125
y: -0.080078125
z: -1.212890625
range: 1.35088610649
velocity: 0.0
doppler_bin: 8
bearing: -12.4960107803
intensity: 21.9033164978
---
header: 
  seq: 1576469
  stamp: 
    secs: 1561683745
    nsecs: 464582724
  frame_id: "ti_mmwave"
point_id: 5
x: 0.2890625
y: -0.041015625
z: 1.275390625
range: 1.39446306229
velocity: 0.0
doppler_bin: 8
bearing: -8.0758972168
intensity: 23.2428245544
---
header: 
  seq: 1576470
  stamp: 
    secs: 1561683745
    nsecs: 464614635
  frame_id: "ti_mmwave"
point_id: 6
x: 0.4765625
y: -0.04296875
z: 1.26171875
range: 1.43804001808
velocity: 0.0
doppler_bin: 8
bearing: -5.15208148956
intensity: 21.9589958191
---
header: 
  seq: 1576471
  stamp: 
    secs: 1561683745
    nsecs: 464629103
  frame_id: "ti_mmwave"
point_id: 7
x: 1.712890625
y: -0.0
z: -0.1328125
range: 1.83023273945
velocity: 0.0
doppler_bin: 8
bearing: -0.0
intensity: 28.5853729248
---
header: 
  seq: 1576472
  stamp: 
    secs: 1561683745
    nsecs: 464677243
  frame_id: "ti_mmwave"
point_id: 8
x: 1.74609375
y: -0.0
z: -0.220703125
range: 1.87380969524
velocity: 0.0
doppler_bin: 8
bearing: -0.0
intensity: 29.6331558228
---
header: 
  seq: 1576473
  stamp: 
    secs: 1561683745
    nsecs: 464692487
  frame_id: "ti_mmwave"
point_id: 9
x: 1.7734375
y: -0.11328125
z: -0.28515625
range: 1.91738677025
velocity: 0.0
doppler_bin: 8
bearing: -3.65489697456
intensity: 28.2736930847
---
header: 
  seq: 1576474
  stamp: 
    secs: 1561683745
    nsecs: 464709106
  frame_id: "ti_mmwave"
point_id: 10
x: 1.78125
y: -0.171875
z: -0.43359375
range: 1.96096372604
velocity: 0.0
doppler_bin: 8
bearing: -5.5114774704
intensity: 26.7577838898
---
header: 
  seq: 1576475
  stamp: 
    secs: 1561683745
    nsecs: 464762236
  frame_id: "ti_mmwave"
point_id: 11
x: 2.55859375
y: -0.263671875
z: 1.1640625
range: 3.00681090355
velocity: 0.0
doppler_bin: 8
bearing: -5.88375711441
intensity: 29.5712814331
---
header: 
  seq: 1576476
  stamp: 
    secs: 1561683745
    nsecs: 464776474
  frame_id: "ti_mmwave"
point_id: 12
x: 2.607421875
y: -0.267578125
z: 1.150390625
range: 3.05038785934
velocity: 0.0
doppler_bin: 8
bearing: -5.85928010941
intensity: 32.8420524597
---
header: 
  seq: 1576477
  stamp: 
    secs: 1561683745
    nsecs: 464843481
  frame_id: "ti_mmwave"
point_id: 13
x: 2.662109375
y: -0.271484375
z: 1.126953125
range: 3.09396481514
velocity: 0.0
doppler_bin: 8
bearing: -5.82294607162
intensity: 32.0112380981
---
header: 
  seq: 1576478
  stamp: 
    secs: 1561683745
    nsecs: 464863798
  frame_id: "ti_mmwave"
point_id: 15
x: 0.041015625
y: -0.033203125
z: 0.0625
range: 0.0871539413929
velocity: 0.0
doppler_bin: 8
bearing: -38.9909973145
intensity: 30.157787323
---
header: 
  seq: 1576479
  stamp: 
    secs: 1561683745
    nsecs: 464905481
  frame_id: "ti_mmwave"
point_id: 16
x: 0.052734375
y: -0.04296875
z: 0.1015625
range: 0.130730912089
velocity: 0.0
doppler_bin: 8
bearing: -39.1736602783
intensity: 29.0525608063
---
header: 
  seq: 1576480
  stamp: 
    secs: 1561683745
    nsecs: 464924469
  frame_id: "ti_mmwave"
point_id: 18
x: 1.115234375
y: -0.515625
z: 0.3125
range: 1.35088610649
velocity: 0.0
doppler_bin: 8
bearing: -24.8133087158
intensity: 19.1381378174
---
header: 
  seq: 1576481
  stamp: 
    secs: 1561683745
    nsecs: 523398103
  frame_id: "ti_mmwave"
point_id: 0
x: 0.01171875
y: -0.0390625
z: -0.0078125
range: 0.0435769706964
velocity: 0.0
doppler_bin: 8
bearing: -73.3007583618
intensity: 30.7481651306
---
header: 
  seq: 1576482
  stamp: 
    secs: 1561683745
    nsecs: 523481563
  frame_id: "ti_mmwave"
point_id: 1
x: 0.017578125
y: -0.080078125
z: -0.0078125
range: 0.0871539413929
velocity: 0.0
doppler_bin: 8
bearing: -77.6192398071
intensity: 31.9893188477
---
header: 
  seq: 1576483
  stamp: 
    secs: 1561683745
    nsecs: 523501004
  frame_id: "ti_mmwave"
point_id: 2
x: 0.029296875
y: -0.119140625
z: -0.00390625
range: 0.130730912089
velocity: 0.0
doppler_bin: 8
bearing: -76.1849746704
intensity: 30.2366390228
---
header: 
  seq: 1576484
  stamp: 
    secs: 1561683745
    nsecs: 523512690
  frame_id: "ti_mmwave"
point_id: 3
x: 0.056640625
y: -0.154296875
z: 0.005859375
range: 0.174307882786
velocity: 0.0
doppler_bin: 8
bearing: -69.8423843384
intensity: 25.5266819
---
header: 
  seq: 1576485
  stamp: 
    secs: 1561683745
    nsecs: 523589595
  frame_id: "ti_mmwave"
point_id: 4
x: 0.337890625
y: -0.080078125
z: -1.21875
range: 1.35088610649
velocity: 0.0
doppler_bin: 8
bearing: -13.332783699
intensity: 21.875207901
---
header: 
  seq: 1576486
  stamp: 
    secs: 1561683745
    nsecs: 523603849
  frame_id: "ti_mmwave"
point_id: 5
x: 0.279296875
y: -0.041015625
z: 1.27734375
range: 1.39446306229
velocity: 0.0
doppler_bin: 8
bearing: -8.3543510437
intensity: 23.2014636993
---
header: 
  seq: 1576487
  stamp: 
    secs: 1561683745
    nsecs: 523614528
  frame_id: "ti_mmwave"
point_id: 6
x: 0.443359375
y: -0.04296875
z: 1.2734375
range: 1.43804001808
velocity: 0.0
doppler_bin: 8
bearing: -5.53560686111
intensity: 21.875207901
---
header: 
  seq: 1576488
  stamp: 
    secs: 1561683745
    nsecs: 523626146
  frame_id: "ti_mmwave"
point_id: 7
x: 1.748046875
y: -0.109375
z: 0.166015625
range: 1.87380969524
velocity: 0.0
doppler_bin: 8
bearing: -3.58032011986
intensity: 28.4880466461
---
header: 
  seq: 1576489
  stamp: 
    secs: 1561683745
    nsecs: 523636586
  frame_id: "ti_mmwave"
point_id: 8
x: 1.787109375
y: -0.16796875
z: 0.12109375
range: 1.91738677025
velocity: 0.0
doppler_bin: 8
bearing: -5.36940336227
intensity: 27.2427577972
---
header: 
  seq: 1576490
  stamp: 
    secs: 1561683745
    nsecs: 523649260
  frame_id: "ti_mmwave"
point_id: 9
x: 2.54296875
y: -0.263671875
z: 1.193359375
range: 3.00681090355
velocity: 0.0
doppler_bin: 8
bearing: -5.91965341568
intensity: 29.5472488403
---
header: 
  seq: 1576491
  stamp: 
    secs: 1561683745
    nsecs: 523659753
  frame_id: "ti_mmwave"
point_id: 10
x: 2.6015625
y: -0.267578125
z: 1.166015625
range: 3.05038785934
velocity: 0.0
doppler_bin: 8
bearing: -5.87238502502
intensity: 32.8824920654
---
header: 
  seq: 1576492
  stamp: 
    secs: 1561683745
    nsecs: 523671229
  frame_id: "ti_mmwave"
point_id: 11
x: 2.66015625
y: -0.271484375
z: 1.134765625
range: 3.09396481514
velocity: 0.0
doppler_bin: 8
bearing: -5.82719182968
intensity: 32.1984634399
---
header: 
  seq: 1576493
  stamp: 
    secs: 1561683745
    nsecs: 523686228
  frame_id: "ti_mmwave"
point_id: 13
x: 0.041015625
y: -0.033203125
z: 0.0625
range: 0.0871539413929
velocity: 0.0
doppler_bin: 8
bearing: -38.9909973145
intensity: 30.1535968781
---
header: 
  seq: 1576494
  stamp: 
    secs: 1561683745
    nsecs: 523699696
  frame_id: "ti_mmwave"
point_id: 14
x: 0.044921875
y: -0.046875
z: 0.103515625
range: 0.130730912089
velocity: 0.0
doppler_bin: 8
bearing: -46.218875885
intensity: 29.0525608063
---
header: 
  seq: 1576495
  stamp: 
    secs: 1561683745
    nsecs: 523728619
  frame_id: "ti_mmwave"
point_id: 16
x: 1.115234375
y: -0.515625
z: 0.314453125
range: 1.35088610649
velocity: 0.0
doppler_bin: 8
bearing: -24.8133087158
intensity: 19.0848503113
---
header: 
  seq: 1576496
  stamp: 
    secs: 1561683745
    nsecs: 524499791
  frame_id: "ti_mmwave"
point_id: 0
x: 0.01171875
y: -0.0390625
z: -0.0078125
range: 0.0435769706964
velocity: 0.0
doppler_bin: 8
bearing: -73.3007583618
intensity: 30.7554702759
---
header: 
  seq: 1576497
  stamp: 
    secs: 1561683745
    nsecs: 524537318
  frame_id: "ti_mmwave"
point_id: 1
x: 0.017578125
y: -0.080078125
z: -0.0078125
range: 0.0871539413929
velocity: 0.0
doppler_bin: 8
bearing: -77.6192398071
intensity: 31.9920654297
---
header: 
  seq: 1576498
  stamp: 
    secs: 1561683745
    nsecs: 524551582
  frame_id: "ti_mmwave"
point_id: 2
x: 0.029296875
y: -0.119140625
z: -0.00390625
range: 0.130730912089
velocity: 0.0
doppler_bin: 8
bearing: -76.1849746704
intensity: 30.2366390228
---
header: 
  seq: 1576499
  stamp: 
    secs: 1561683745
    nsecs: 524564111
  frame_id: "ti_mmwave"
point_id: 3
x: 0.056640625
y: -0.154296875
z: 0.005859375
range: 0.174307882786
velocity: 0.0
doppler_bin: 8
bearing: -69.8423843384
intensity: 25.5266819
---
header: 
  seq: 1576500
  stamp: 
    secs: 1561683745
    nsecs: 524612166
  frame_id: "ti_mmwave"
point_id: 4
x: 0.353515625
y: -0.080078125
z: -1.21484375
range: 1.35088610649
velocity: 0.0
doppler_bin: 8
bearing: -12.7632131577
intensity: 21.9312458038
---
header: 
  seq: 1576501
  stamp: 
    secs: 1561683745
    nsecs: 524624407
  frame_id: "ti_mmwave"
point_id: 5
x: 0.283203125
y: -0.041015625
z: 1.27734375
range: 1.39446306229
velocity: 0.0
doppler_bin: 8
bearing: -8.24071216583
intensity: 23.2428245544
---
header: 
  seq: 1576502
  stamp: 
    secs: 1561683745
    nsecs: 524635063
  frame_id: "ti_mmwave"
point_id: 6
x: 0.490234375
y: -0.04296875
z: 1.255859375
range: 1.43804001808
velocity: 0.0
doppler_bin: 8
bearing: -5.00914001465
intensity: 21.8469142914
---
header: 
  seq: 1576503
  stamp: 
    secs: 1561683745
    nsecs: 524647820
  frame_id: "ti_mmwave"
point_id: 7
x: 2.58203125
y: -0.263671875
z: 1.109375
range: 3.00681090355
velocity: 0.0
doppler_bin: 8
bearing: -5.8307185173
intensity: 29.4596061707
---
header: 
  seq: 1576504
  stamp: 
    secs: 1561683745
    nsecs: 524662166
  frame_id: "ti_mmwave"
point_id: 8
x: 2.611328125
y: -0.267578125
z: 1.142578125
range: 3.05038785934
velocity: 0.0
doppler_bin: 8
bearing: -5.85057687759
intensity: 32.7577171326
---
header: 
  seq: 1576505
  stamp: 
    secs: 1561683745
    nsecs: 524674858
  frame_id: "ti_mmwave"
point_id: 9
x: 2.662109375
y: -0.271484375
z: 1.12890625
range: 3.09396481514
velocity: 0.0
doppler_bin: 8
bearing: -5.82294607162
intensity: 31.8920955658
---
header: 
  seq: 1576506
  stamp: 
    secs: 1561683745
    nsecs: 524690550
  frame_id: "ti_mmwave"
point_id: 11
x: 0.041015625
y: -0.033203125
z: 0.0625
range: 0.0871539413929
velocity: 0.0
doppler_bin: 8
bearing: -38.9909973145
intensity: 30.1535968781
---
header: 
  seq: 1576507
  stamp: 
    secs: 1561683745
    nsecs: 524711582
  frame_id: "ti_mmwave"
point_id: 12
x: 0.044921875
y: -0.046875
z: 0.103515625
range: 0.130730912089
velocity: 0.0
doppler_bin: 8
bearing: -46.218875885
intensity: 29.0525608063
---
header: 
  seq: 1576508
  stamp: 
    secs: 1561683745
    nsecs: 524812642
  frame_id: "ti_mmwave"
point_id: 14
x: 1.1171875
y: -0.515625
z: 0.30859375
range: 1.35088610649
velocity: 0.0
doppler_bin: 8
bearing: -24.7751407623
intensity: 19.0848503113
---
header: 
  seq: 1576509
  stamp: 
    secs: 1561683745
    nsecs: 583316463
  frame_id: "ti_mmwave"
point_id: 0
x: 0.01171875
y: -0.0390625
z: -0.0078125
range: 0.0435769706964
velocity: 0.0
doppler_bin: 8
bearing: -73.3007583618
intensity: 30.7481651306
---
header: 
  seq: 1576510
  stamp: 
    secs: 1561683745
    nsecs: 583428183
  frame_id: "ti_mmwave"
point_id: 1
x: 0.017578125
y: -0.080078125
z: -0.0078125
range: 0.0871539413929
velocity: 0.0
doppler_bin: 8
bearing: -77.6192398071
intensity: 31.994808197
---
header: 
  seq: 1576511
  stamp: 
    secs: 1561683745
    nsecs: 583446480
  frame_id: "ti_mmwave"
point_id: 2
x: 0.029296875
y: -0.119140625
z: -0.005859375
range: 0.130730912089
velocity: 0.0
doppler_bin: 8
bearing: -76.1849746704
intensity: 30.2407493591
---
header: 
  seq: 1576512
  stamp: 
    secs: 1561683745
    nsecs: 583459318
  frame_id: "ti_mmwave"
point_id: 3
x: 0.056640625
y: -0.154296875
z: 0.005859375
range: 0.174307882786
velocity: 0.0
doppler_bin: 8
bearing: -69.8423843384
intensity: 25.5266819
---
header: 
  seq: 1576513
  stamp: 
    secs: 1561683745
    nsecs: 583467989
  frame_id: "ti_mmwave"
point_id: 4
x: 0.33984375
y: -0.080078125
z: -1.21875
range: 1.35088610649
velocity: 0.0
doppler_bin: 8
bearing: -13.2588720322
intensity: 21.9033164978
---
header: 
  seq: 1576514
  stamp: 
    secs: 1561683745
    nsecs: 583476974
  frame_id: "ti_mmwave"
point_id: 5
x: 0.294921875
y: -0.041015625
z: 1.275390625
range: 1.39446306229
velocity: 0.0
doppler_bin: 8
bearing: -7.91750335693
intensity: 23.2428245544
---
header: 
  seq: 1576515
  stamp: 
    secs: 1561683745
    nsecs: 583496843
  frame_id: "ti_mmwave"
point_id: 6
x: 0.3984375
y: -0.0
z: 1.2890625
range: 1.43804001808
velocity: 0.0
doppler_bin: 8
bearing: -0.0
intensity: 21.9033164978
---
header: 
  seq: 1576516
  stamp: 
    secs: 1561683745
    nsecs: 583669544
  frame_id: "ti_mmwave"
point_id: 7
x: 1.697265625
y: -0.107421875
z: -0.248046875
range: 1.83023273945
velocity: 0.0
doppler_bin: 8
bearing: -3.62148451805
intensity: 28.4695529938
---
header: 
  seq: 1576517
  stamp: 
    secs: 1561683745
    nsecs: 583692292
  frame_id: "ti_mmwave"
point_id: 8
x: 1.73828125
y: -0.109375
z: -0.248046875
range: 1.87380969524
velocity: 0.0
doppler_bin: 8
bearing: -3.60038089752
intensity: 30.3941402435
---
header: 
  seq: 1576518
  stamp: 
    secs: 1561683745
    nsecs: 583702259
  frame_id: "ti_mmwave"
point_id: 9
x: 1.775390625
y: -0.16796875
z: -0.236328125
range: 1.91738677025
velocity: 0.0
doppler_bin: 8
bearing: -5.40463542938
intensity: 29.8944988251
---
header: 
  seq: 1576519
  stamp: 
    secs: 1561683745
    nsecs: 583713426
  frame_id: "ti_mmwave"
point_id: 10
x: 1.798828125
y: -0.23046875
z: -0.3203125
range: 1.96096372604
velocity: 0.0
doppler_bin: 8
bearing: -7.30105113983
intensity: 26.9548168182
---
header: 
  seq: 1576520
  stamp: 
    secs: 1561683745
    nsecs: 583754517
  frame_id: "ti_mmwave"
point_id: 11
x: 2.548828125
y: -0.263671875
z: 1.18359375
range: 3.00681090355
velocity: 0.0
doppler_bin: 8
bearing: -5.90614128113
intensity: 29.3851966858
---
header: 
  seq: 1576521
  stamp: 
    secs: 1561683745
    nsecs: 583763897
  frame_id: "ti_mmwave"
point_id: 12
x: 2.60546875
y: -0.267578125
z: 1.15625
range: 3.05038785934
velocity: 0.0
doppler_bin: 8
bearing: -5.86364221573
intensity: 32.6951293945
---
header: 
  seq: 1576522
  stamp: 
    secs: 1561683745
    nsecs: 583771789
  frame_id: "ti_mmwave"
point_id: 13
x: 2.65625
y: -0.271484375
z: 1.142578125
range: 3.09396481514
velocity: 0.0
doppler_bin: 8
bearing: -5.83570146561
intensity: 31.7897701263
---
header: 
  seq: 1576523
  stamp: 
    secs: 1561683745
    nsecs: 583783505
  frame_id: "ti_mmwave"
point_id: 15
x: 0.041015625
y: -0.033203125
z: 0.0625
range: 0.0871539413929
velocity: 0.0
doppler_bin: 8
bearing: -38.9909973145
intensity: 30.1494026184
---
header: 
  seq: 1576524
  stamp: 
    secs: 1561683745
    nsecs: 583789338
  frame_id: "ti_mmwave"
point_id: 16
x: 0.044921875
y: -0.046875
z: 0.103515625
range: 0.130730912089
velocity: 0.0
doppler_bin: 8
bearing: -46.218875885
intensity: 29.0471553802
---
header: 
  seq: 1576525
  stamp: 
    secs: 1561683745
    nsecs: 583813375
  frame_id: "ti_mmwave"
point_id: 18
x: 1.20703125
y: 0.357421875
z: 0.154296875
range: 1.35088610649
velocity: 0.0
doppler_bin: 8
bearing: 16.4948921204
intensity: 19.1381378174
---
header: 
  seq: 1576526
  stamp: 
    secs: 1561683745
    nsecs: 584559762
  frame_id: "ti_mmwave"
point_id: 0
x: 0.01171875
y: -0.0390625
z: -0.0078125
range: 0.0435769706964
velocity: 0.0
doppler_bin: 8
bearing: -73.3007583618
intensity: 30.7554702759
---
header: 
  seq: 1576527
  stamp: 
    secs: 1561683745
    nsecs: 584615452
  frame_id: "ti_mmwave"
point_id: 1
x: 0.017578125
y: -0.080078125
z: -0.0078125
range: 0.0871539413929
velocity: 0.0
doppler_bin: 8
bearing: -77.6192398071
intensity: 31.9920654297
---
header: 
  seq: 1576528
  stamp: 
    secs: 1561683745
    nsecs: 584632630
  frame_id: "ti_mmwave"
point_id: 2
x: 0.029296875
y: -0.119140625
z: -0.00390625
range: 0.130730912089
velocity: 0.0
doppler_bin: 8
bearing: -76.1849746704
intensity: 30.2366390228
---
header: 
  seq: 1576529
  stamp: 
    secs: 1561683745
    nsecs: 584647244
  frame_id: "ti_mmwave"
point_id: 3
x: 0.056640625
y: -0.154296875
z: 0.005859375
range: 0.174307882786
velocity: 0.0
doppler_bin: 8
bearing: -69.8423843384
intensity: 25.5266819
---
header: 
  seq: 1576530
  stamp: 
    secs: 1561683745
    nsecs: 584701842
  frame_id: "ti_mmwave"
point_id: 4
x: 0.365234375
y: -0.080078125
z: -1.212890625
range: 1.35088610649
velocity: 0.0
doppler_bin: 8
bearing: -12.3664970398
intensity: 21.9589958191
---
header: 
  seq: 1576531
  stamp: 
    secs: 1561683745
    nsecs: 584711159
  frame_id: "ti_mmwave"
point_id: 5
x: 0.287109375
y: -0.041015625
z: 1.27734375
range: 1.39446306229
velocity: 0.0
doppler_bin: 8
bearing: -8.13010311127
intensity: 23.2837963104
---
header: 
  seq: 1576532
  stamp: 
    secs: 1561683745
    nsecs: 584718630
  frame_id: "ti_mmwave"
point_id: 6
x: 0.43359375
y: -0.0
z: 1.279296875
range: 1.43804001808
velocity: 0.0
doppler_bin: 8
bearing: -0.0
intensity: 21.9312458038
---
header: 
  seq: 1576533
  stamp: 
    secs: 1561683745
    nsecs: 584726671
  frame_id: "ti_mmwave"
point_id: 7
x: 1.7421875
y: -0.109375
z: -0.22265625
range: 1.87380969524
velocity: 0.0
doppler_bin: 8
bearing: -3.59232997894
intensity: 27.5511226654
---
header: 
  seq: 1576534
  stamp: 
    secs: 1561683745
    nsecs: 584734421
  frame_id: "ti_mmwave"
point_id: 8
x: 1.7734375
y: -0.224609375
z: -0.2109375
range: 1.91738677025
velocity: 0.0
doppler_bin: 8
bearing: -7.21819353104
intensity: 28.5733242035
---
header: 
  seq: 1576535
  stamp: 
    secs: 1561683745
    nsecs: 584742105
  frame_id: "ti_mmwave"
point_id: 9
x: 1.818359375
y: -0.23046875
z: -0.169921875
range: 1.96096372604
velocity: 0.0
doppler_bin: 8
bearing: -7.2234621048
intensity: 28.2085800171
---
header: 
  seq: 1576536
  stamp: 
    secs: 1561683745
    nsecs: 584752584
  frame_id: "ti_mmwave"
point_id: 10
x: 2.552734375
y: -0.263671875
z: 1.17578125
range: 3.00681090355
velocity: 0.0
doppler_bin: 8
bearing: -5.89716720581
intensity: 29.350030899
---
header: 
  seq: 1576537
  stamp: 
    secs: 1561683745
    nsecs: 584760323
  frame_id: "ti_mmwave"
point_id: 11
x: 2.607421875
y: -0.267578125
z: 1.150390625
range: 3.05038785934
velocity: 0.0
doppler_bin: 8
bearing: -5.85928010941
intensity: 32.7137680054
---
header: 
  seq: 1576538
  stamp: 
    secs: 1561683745
    nsecs: 584768724
  frame_id: "ti_mmwave"
point_id: 12
x: 2.6640625
y: -0.271484375
z: 1.125
range: 3.09396481514
velocity: 0.0
doppler_bin: 8
bearing: -5.81870603561
intensity: 31.8780269623
---
header: 
  seq: 1576539
  stamp: 
    secs: 1561683745
    nsecs: 584776505
  frame_id: "ti_mmwave"
point_id: 14
x: 0.041015625
y: -0.033203125
z: 0.0625
range: 0.0871539413929
velocity: 0.0
doppler_bin: 8
bearing: -38.9909973145
intensity: 30.1494026184
---
header: 
  seq: 1576540
  stamp: 
    secs: 1561683745
    nsecs: 584814921
  frame_id: "ti_mmwave"
point_id: 15
x: 0.044921875
y: -0.046875
z: 0.103515625
range: 0.130730912089
velocity: 0.0
doppler_bin: 8
bearing: -46.218875885
intensity: 29.0471553802
---
header: 
  seq: 1576541
  stamp: 
    secs: 1561683745
    nsecs: 584825246
  frame_id: "ti_mmwave"
point_id: 17
x: 1.1171875
y: -0.515625
z: 0.310546875
range: 1.35088610649
velocity: 0.0
doppler_bin: 8
bearing: -24.7751407623
intensity: 19.1381378174
---
header: 
  seq: 1576542
  stamp: 
    secs: 1561683745
    nsecs: 643462969
  frame_id: "ti_mmwave"
point_id: 0
x: 0.01171875
y: -0.0390625
z: -0.0078125
range: 0.0435769706964
velocity: 0.0
doppler_bin: 8
bearing: -73.3007583618
intensity: 30.7518177032
---
header: 
  seq: 1576543
  stamp: 
    secs: 1561683745
    nsecs: 643537273
  frame_id: "ti_mmwave"
point_id: 1
x: 0.017578125
y: -0.080078125
z: -0.0078125
range: 0.0871539413929
velocity: 0.0
doppler_bin: 8
bearing: -77.6192398071
intensity: 31.9920654297
---
header: 
  seq: 1576544
  stamp: 
    secs: 1561683745
    nsecs: 643549753
  frame_id: "ti_mmwave"
point_id: 2
x: 0.029296875
y: -0.119140625
z: -0.00390625
range: 0.130730912089
velocity: 0.0
doppler_bin: 8
bearing: -76.1849746704
intensity: 30.2366390228
---
header: 
  seq: 1576545
  stamp: 
    secs: 1561683745
    nsecs: 643558586
  frame_id: "ti_mmwave"
point_id: 3
x: 0.056640625
y: -0.154296875
z: 0.005859375
range: 0.174307882786
velocity: 0.0
doppler_bin: 8
bearing: -69.8423843384
intensity: 25.5266819
---
header: 
  seq: 1576546
  stamp: 
    secs: 1561683745
    nsecs: 643566535
  frame_id: "ti_mmwave"
point_id: 4
x: 0.361328125
y: -0.080078125
z: -1.212890625
range: 1.35088610649
velocity: 0.0
doppler_bin: 8
bearing: -12.4960107803
intensity: 21.9312458038
---
header: 
  seq: 1576547
  stamp: 
    secs: 1561683745
    nsecs: 643574677
  frame_id: "ti_mmwave"
point_id: 5
x: 0.3046875
y: -0.041015625
z: 1.271484375
range: 1.39446306229
velocity: 0.0
doppler_bin: 8
bearing: -7.66680431366
intensity: 23.2221927643
---
header: 
  seq: 1576548
  stamp: 
    secs: 1561683745
    nsecs: 643582616
  frame_id: "ti_mmwave"
point_id: 6
x: 0.484375
y: -0.04296875
z: 1.259765625
range: 1.43804001808
velocity: 0.0
doppler_bin: 8
bearing: -5.06942033768
intensity: 21.875207901
---
header: 
  seq: 1576549
  stamp: 
    secs: 1561683745
    nsecs: 643592385
  frame_id: "ti_mmwave"
point_id: 7
x: 1.791015625
y: -0.16796875
z: 0.005859375
range: 1.91738677025
velocity: 0.0
doppler_bin: 8
bearing: -5.35776042938
intensity: 29.0579586029
---
header: 
  seq: 1576550
  stamp: 
    secs: 1561683745
    nsecs: 643601085
  frame_id: "ti_mmwave"
point_id: 8
x: 1.83203125
y: -0.171875
z: -0.044921875
range: 1.96096372604
velocity: 0.0
doppler_bin: 8
bearing: -5.35960912704
intensity: 27.5966777802
---
header: 
  seq: 1576551
  stamp: 
    secs: 1561683745
    nsecs: 643609527
  frame_id: "ti_mmwave"
point_id: 9
x: 2.55859375
y: -0.263671875
z: 1.162109375
range: 3.00681090355
velocity: 0.0
doppler_bin: 8
bearing: -5.88375711441
intensity: 29.4743366241
---
header: 
  seq: 1576552
  stamp: 
    secs: 1561683745
    nsecs: 643618601
  frame_id: "ti_mmwave"
point_id: 10
x: 2.60546875
y: -0.267578125
z: 1.158203125
range: 3.05038785934
velocity: 0.0
doppler_bin: 8
bearing: -5.86364221573
intensity: 32.7392692566
---
header: 
  seq: 1576553
  stamp: 
    secs: 1561683745
    nsecs: 643626889
  frame_id: "ti_mmwave"
point_id: 11
x: 2.65625
y: -0.181640625
z: 1.158203125
range: 3.09396481514
velocity: 0.0
doppler_bin: 8
bearing: -3.91193032265
intensity: 31.9562301636
---
header: 
  seq: 1576554
  stamp: 
    secs: 1561683745
    nsecs: 643638028
  frame_id: "ti_mmwave"
point_id: 13
x: 0.041015625
y: -0.033203125
z: 0.0625
range: 0.0871539413929
velocity: 0.0
doppler_bin: 8
bearing: -38.9909973145
intensity: 30.157787323
---
header: 
  seq: 1576555
  stamp: 
    secs: 1561683745
    nsecs: 643646070
  frame_id: "ti_mmwave"
point_id: 14
x: 0.044921875
y: -0.046875
z: 0.103515625
range: 0.130730912089
velocity: 0.0
doppler_bin: 8
bearing: -46.218875885
intensity: 29.0525608063
---
header: 
  seq: 1576556
  stamp: 
    secs: 1561683745
    nsecs: 643657620
  frame_id: "ti_mmwave"
point_id: 16
x: 1.111328125
y: -0.515625
z: 0.328125
range: 1.35088610649
velocity: 0.0
doppler_bin: 8
bearing: -24.8899745941
intensity: 19.0848503113
---
header: 
  seq: 1576557
  stamp: 
    secs: 1561683745
    nsecs: 703270587
  frame_id: "ti_mmwave"
point_id: 0
x: 0.01171875
y: -0.0390625
z: -0.0078125
range: 0.0435769706964
velocity: 0.0
doppler_bin: 8
bearing: -73.3007583618
intensity: 30.7591171265
---
header: 
  seq: 1576558
  stamp: 
    secs: 1561683745
    nsecs: 703342949
  frame_id: "ti_mmwave"
point_id: 1
x: 0.017578125
y: -0.080078125
z: -0.0078125
range: 0.0871539413929
velocity: 0.0
doppler_bin: 8
bearing: -77.6192398071
intensity: 31.994808197
---
header: 
  seq: 1576559
  stamp: 
    secs: 1561683745
    nsecs: 703353670
  frame_id: "ti_mmwave"
point_id: 2
x: 0.029296875
y: -0.119140625
z: -0.005859375
range: 0.130730912089
velocity: 0.0
doppler_bin: 8
bearing: -76.1849746704
intensity: 30.2366390228
---
header: 
  seq: 1576560
  stamp: 
    secs: 1561683745
    nsecs: 703405997
  frame_id: "ti_mmwave"
point_id: 3
x: 0.056640625
y: -0.154296875
z: 0.005859375
range: 0.174307882786
velocity: 0.0
doppler_bin: 8
bearing: -69.8423843384
intensity: 25.5144996643
---
header: 
  seq: 1576561
  stamp: 
    secs: 1561683745
    nsecs: 703418861
  frame_id: "ti_mmwave"
point_id: 4
x: 0.365234375
y: -0.080078125
z: -1.2109375
range: 1.35088610649
velocity: 0.0
doppler_bin: 8
bearing: -12.3664970398
intensity: 21.9312458038
---
header: 
  seq: 1576562
  stamp: 
    secs: 1561683745
    nsecs: 703429687
  frame_id: "ti_mmwave"
point_id: 5
x: 0.283203125
y: -0.041015625
z: 1.27734375
range: 1.39446306229
velocity: 0.0
doppler_bin: 8
bearing: -8.24071216583
intensity: 23.2428245544
---
header: 
  seq: 1576563
  stamp: 
    secs: 1561683745
    nsecs: 703437850
  frame_id: "ti_mmwave"
point_id: 6
x: 0.419921875
y: -0.0
z: 1.283203125
range: 1.43804001808
velocity: 0.0
doppler_bin: 8
bearing: -0.0
intensity: 21.875207901
---
header: 
  seq: 1576564
  stamp: 
    secs: 1561683745
    nsecs: 703445722
  frame_id: "ti_mmwave"
point_id: 7
x: 1.75390625
y: -0.109375
z: 0.052734375
range: 1.87380969524
velocity: 0.0
doppler_bin: 8
bearing: -3.56838989258
intensity: 27.4896278381
---
header: 
  seq: 1576565
  stamp: 
    secs: 1561683745
    nsecs: 703453277
  frame_id: "ti_mmwave"
point_id: 8
x: 1.78515625
y: -0.224609375
z: -0.041015625
range: 1.91738677025
velocity: 0.0
doppler_bin: 8
bearing: -7.17130327225
intensity: 28.1756534576
---
header: 
  seq: 1576566
  stamp: 
    secs: 1561683745
    nsecs: 703461542
  frame_id: "ti_mmwave"
point_id: 9
x: 1.81640625
y: -0.287109375
z: -0.068359375
range: 1.96096372604
velocity: 0.0
doppler_bin: 8
bearing: -8.98211669922
intensity: 27.1432971954
---
header: 
  seq: 1576567
  stamp: 
    secs: 1561683745
    nsecs: 703469455
  frame_id: "ti_mmwave"
point_id: 10
x: 0.6171875
y: 2.41796875
z: -0.03515625
range: 2.65819525719
velocity: 0.0
doppler_bin: 8
bearing: 75.6809844971
intensity: 26.2324924469
---
header: 
  seq: 1576568
  stamp: 
    secs: 1561683745
    nsecs: 703479627
  frame_id: "ti_mmwave"
point_id: 11
x: 0.626953125
y: 2.45703125
z: -0.05078125
range: 2.70177221298
velocity: 0.0
doppler_bin: 8
bearing: 75.6854705811
intensity: 26.3447723389
---
header: 
  seq: 1576569
  stamp: 
    secs: 1561683745
    nsecs: 703488464
  frame_id: "ti_mmwave"
point_id: 12
x: 2.55859375
y: -0.263671875
z: 1.16015625
range: 3.00681090355
velocity: 0.0
doppler_bin: 8
bearing: -5.88375711441
intensity: 29.4939002991
---
header: 
  seq: 1576570
  stamp: 
    secs: 1561683745
    nsecs: 703496563
  frame_id: "ti_mmwave"
point_id: 13
x: 2.609375
y: -0.267578125
z: 1.1484375
range: 3.05038785934
velocity: 0.0
doppler_bin: 8
bearing: -5.85492515564
intensity: 32.8194198608
---
header: 
  seq: 1576571
  stamp: 
    secs: 1561683745
    nsecs: 703516528
  frame_id: "ti_mmwave"
point_id: 14
x: 2.662109375
y: -0.271484375
z: 1.12890625
range: 3.09396481514
velocity: 0.0
doppler_bin: 8
bearing: -5.82294607162
intensity: 32.0655593872
---
header: 
  seq: 1576572
  stamp: 
    secs: 1561683745
    nsecs: 703669367
  frame_id: "ti_mmwave"
point_id: 16
x: 0.041015625
y: -0.033203125
z: 0.0625
range: 0.0871539413929
velocity: 0.0
doppler_bin: 8
bearing: -38.9909973145
intensity: 30.1619739532
---
header: 
  seq: 1576573
  stamp: 
    secs: 1561683745
    nsecs: 703688319
  frame_id: "ti_mmwave"
point_id: 17
x: 0.044921875
y: -0.046875
z: 0.103515625
range: 0.130730912089
velocity: 0.0
doppler_bin: 8
bearing: -46.218875885
intensity: 29.0525608063
---
header: 
  seq: 1576574
  stamp: 
    secs: 1561683745
    nsecs: 703698437
  frame_id: "ti_mmwave"
point_id: 19
x: 1.208984375
y: 0.357421875
z: 0.1328125
range: 1.35088610649
velocity: 0.0
doppler_bin: 8
bearing: 16.4696884155
intensity: 19.1381378174
---
header: 
  seq: 1576575
  stamp: 
    secs: 1561683745
    nsecs: 704499634
  frame_id: "ti_mmwave"
point_id: 0
x: 0.01171875
y: -0.0390625
z: -0.0078125
range: 0.0435769706964
velocity: 0.0
doppler_bin: 8
bearing: -73.3007583618
intensity: 30.7554702759
---
header: 
  seq: 1576576
  stamp: 
    secs: 1561683745
    nsecs: 704602264
  frame_id: "ti_mmwave"
point_id: 1
x: 0.017578125
y: -0.080078125
z: -0.0078125
range: 0.0871539413929
velocity: 0.0
doppler_bin: 8
bearing: -77.6192398071
intensity: 31.994808197
---
header: 
  seq: 1576577
  stamp: 
    secs: 1561683745
    nsecs: 704619937
  frame_id: "ti_mmwave"
point_id: 2
x: 0.041015625
y: -0.115234375
z: -0.0078125
range: 0.130730912089
velocity: 0.0
doppler_bin: 8
bearing: -70.4077224731
intensity: 30.2366390228
---
header: 
  seq: 1576578
  stamp: 
    secs: 1561683745
    nsecs: 704633138
  frame_id: "ti_mmwave"
point_id: 3
x: 0.056640625
y: -0.154296875
z: 0.005859375
range: 0.174307882786
velocity: 0.0
doppler_bin: 8
bearing: -69.8423843384
intensity: 25.5144996643
---
header: 
  seq: 1576579
  stamp: 
    secs: 1561683745
    nsecs: 704645574
  frame_id: "ti_mmwave"
point_id: 4
x: 0.361328125
y: -0.080078125
z: -1.212890625
range: 1.35088610649
velocity: 0.0
doppler_bin: 8
bearing: -12.4960107803
intensity: 21.9589958191
---
header: 
  seq: 1576580
  stamp: 
    secs: 1561683745
    nsecs: 704715808
  frame_id: "ti_mmwave"
point_id: 5
x: 0.30078125
y: -0.041015625
z: 1.2734375
range: 1.39446306229
velocity: 0.0
doppler_bin: 8
bearing: -7.76516628265
intensity: 23.2837963104
---
header: 
  seq: 1576581
  stamp: 
    secs: 1561683745
    nsecs: 704732049
  frame_id: "ti_mmwave"
point_id: 6
x: 0.474609375
y: -0.04296875
z: 1.263671875
range: 1.43804001808
velocity: 0.0
doppler_bin: 8
bearing: -5.17316865921
intensity: 21.9589958191
---
header: 
  seq: 1576582
  stamp: 
    secs: 1561683745
    nsecs: 704745626
  frame_id: "ti_mmwave"
point_id: 7
x: 2.556640625
y: -0.263671875
z: 1.166015625
range: 3.00681090355
velocity: 0.0
doppler_bin: 8
bearing: -5.88822031021
intensity: 29.3901977539
---
header: 
  seq: 1576583
  stamp: 
    secs: 1561683745
    nsecs: 704755433
  frame_id: "ti_mmwave"
point_id: 8
x: 2.611328125
y: -0.267578125
z: 1.14453125
range: 3.05038785934
velocity: 0.0
doppler_bin: 8
bearing: -5.85057687759
intensity: 32.8216896057
---
header: 
  seq: 1576584
  stamp: 
    secs: 1561683745
    nsecs: 704825183
  frame_id: "ti_mmwave"
point_id: 9
x: 2.671875
y: -0.271484375
z: 1.10546875
range: 3.09396481514
velocity: 0.0
doppler_bin: 8
bearing: -5.80180835724
intensity: 32.1005096436
---
header: 
  seq: 1576585
  stamp: 
    secs: 1561683745
    nsecs: 704908188
  frame_id: "ti_mmwave"
point_id: 11
x: 0.041015625
y: -0.033203125
z: 0.0625
range: 0.0871539413929
velocity: 0.0
doppler_bin: 8
bearing: -38.9909973145
intensity: 30.157787323
---
header: 
  seq: 1576586
  stamp: 
    secs: 1561683745
    nsecs: 704922945
  frame_id: "ti_mmwave"
point_id: 12
x: 0.044921875
y: -0.046875
z: 0.103515625
range: 0.130730912089
velocity: 0.0
doppler_bin: 8
bearing: -46.218875885
intensity: 29.0525608063
---
header: 
  seq: 1576587
  stamp: 
    secs: 1561683745
    nsecs: 704937533
  frame_id: "ti_mmwave"
point_id: 14
x: 1.115234375
y: -0.515625
z: 0.314453125
range: 1.35088610649
velocity: 0.0
doppler_bin: 8
bearing: -24.8133087158
intensity: 19.0308990479
---
header: 
  seq: 1576588
  stamp: 
    secs: 1561683745
    nsecs: 763512752
  frame_id: "ti_mmwave"
point_id: 0
x: 0.01171875
y: -0.0390625
z: -0.0078125
range: 0.0435769706964
velocity: 0.0
doppler_bin: 8
bearing: -73.3007583618
intensity: 30.7554702759
---
header: 
  seq: 1576589
  stamp: 
    secs: 1561683745
    nsecs: 763589382
  frame_id: "ti_mmwave"
point_id: 1
x: 0.017578125
y: -0.080078125
z: -0.0078125
range: 0.0871539413929
velocity: 0.0
doppler_bin: 8
bearing: -77.6192398071
intensity: 31.9920654297
---
header: 
  seq: 1576590
  stamp: 
    secs: 1561683745
    nsecs: 763605283
  frame_id: "ti_mmwave"
point_id: 2
x: 0.029296875
y: -0.119140625
z: -0.005859375
range: 0.130730912089
velocity: 0.0
doppler_bin: 8
bearing: -76.1849746704
intensity: 30.2325248718
---
header: 
  seq: 1576591
  stamp: 
    secs: 1561683745
    nsecs: 763619406
  frame_id: "ti_mmwave"
point_id: 3
x: 0.056640625
y: -0.154296875
z: 0.005859375
range: 0.174307882786
velocity: 0.0
doppler_bin: 8
bearing: -69.8423843384
intensity: 25.5144996643
---
header: 
  seq: 1576592
  stamp: 
    secs: 1561683745
    nsecs: 763633215
  frame_id: "ti_mmwave"
point_id: 4
x: 0.37109375
y: -0.080078125
z: -1.208984375
range: 1.35088610649
velocity: 0.0
doppler_bin: 8
bearing: -12.177107811
intensity: 21.9033164978
---
header: 
  seq: 1576593
  stamp: 
    secs: 1561683745
    nsecs: 763709097
  frame_id: "ti_mmwave"
point_id: 5
x: 0.283203125
y: -0.041015625
z: 1.27734375
range: 1.39446306229
velocity: 0.0
doppler_bin: 8
bearing: -8.24071216583
intensity: 23.2221927643
---
header: 
  seq: 1576594
  stamp: 
    secs: 1561683745
    nsecs: 763722506
  frame_id: "ti_mmwave"
point_id: 6
x: 0.46484375
y: -0.04296875
z: 1.267578125
range: 1.43804001808
velocity: 0.0
doppler_bin: 8
bearing: -5.28124046326
intensity: 21.9033164978
---
header: 
  seq: 1576595
  stamp: 
    secs: 1561683745
    nsecs: 763735110
  frame_id: "ti_mmwave"
point_id: 7
x: 1.71875
y: -0.0
z: 0.01171875
range: 1.83023273945
velocity: 0.0
doppler_bin: 8
bearing: -0.0
intensity: 29.6142101288
---
header: 
  seq: 1576596
  stamp: 
    secs: 1561683745
    nsecs: 763747605
  frame_id: "ti_mmwave"
point_id: 8
x: 1.7578125
y: -0.0
z: 0.080078125
range: 1.87380969524
velocity: 0.0
doppler_bin: 8
bearing: -0.0
intensity: 30.2160263062
---
header: 
  seq: 1576597
  stamp: 
    secs: 1561683745
    nsecs: 763758906
  frame_id: "ti_mmwave"
point_id: 9
x: 2.548828125
y: -0.263671875
z: 1.18359375
range: 3.00681090355
velocity: 0.0
doppler_bin: 8
bearing: -5.90614128113
intensity: 29.3951931
---
header: 
  seq: 1576598
  stamp: 
    secs: 1561683745
    nsecs: 763769924
  frame_id: "ti_mmwave"
point_id: 10
x: 2.603515625
y: -0.267578125
z: 1.16015625
range: 3.05038785934
velocity: 0.0
doppler_bin: 8
bearing: -5.8680100441
intensity: 32.7966690063
---
header: 
  seq: 1576599
  stamp: 
    secs: 1561683745
    nsecs: 763780997
  frame_id: "ti_mmwave"
point_id: 11
x: 2.6640625
y: -0.181640625
z: 1.14453125
range: 3.09396481514
velocity: 0.0
doppler_bin: 8
bearing: -3.90049386024
intensity: 32.0682601929
---
header: 
  seq: 1576600
  stamp: 
    secs: 1561683745
    nsecs: 763797326
  frame_id: "ti_mmwave"
point_id: 13
x: 0.041015625
y: -0.033203125
z: 0.0625
range: 0.0871539413929
velocity: 0.0
doppler_bin: 8
bearing: -38.9909973145
intensity: 30.157787323
---
header: 
  seq: 1576601
  stamp: 
    secs: 1561683745
    nsecs: 763810772
  frame_id: "ti_mmwave"
point_id: 14
x: 0.044921875
y: -0.046875
z: 0.103515625
range: 0.130730912089
velocity: 0.0
doppler_bin: 8
bearing: -46.218875885
intensity: 29.0471553802
---
header: 
  seq: 1576602
  stamp: 
    secs: 1561683745
    nsecs: 763827904
  frame_id: "ti_mmwave"
point_id: 16
x: 1.111328125
y: -0.515625
z: 0.330078125
range: 1.35088610649
velocity: 0.0
doppler_bin: 8
bearing: -24.8899745941
intensity: 19.0848503113
---
header: 
  seq: 1576603
  stamp: 
    secs: 1561683745
    nsecs: 764636835
  frame_id: "ti_mmwave"
point_id: 0
x: 0.01171875
y: -0.0390625
z: -0.0078125
range: 0.0435769706964
velocity: 0.0
doppler_bin: 8
bearing: -73.3007583618
intensity: 30.7554702759
---
header: 
  seq: 1576604
  stamp: 
    secs: 1561683745
    nsecs: 764705055
  frame_id: "ti_mmwave"
point_id: 1
x: 0.017578125
y: -0.080078125
z: -0.0078125
range: 0.0871539413929
velocity: 0.0
doppler_bin: 8
bearing: -77.6192398071
intensity: 31.994808197
---
header: 
  seq: 1576605
  stamp: 
    secs: 1561683745
    nsecs: 764720819
  frame_id: "ti_mmwave"
point_id: 2
x: 0.029296875
y: -0.119140625
z: -0.005859375
range: 0.130730912089
velocity: 0.0
doppler_bin: 8
bearing: -76.1849746704
intensity: 30.2366390228
---
header: 
  seq: 1576606
  stamp: 
    secs: 1561683745
    nsecs: 764733993
  frame_id: "ti_mmwave"
point_id: 3
x: 0.056640625
y: -0.154296875
z: 0.005859375
range: 0.174307882786
velocity: 0.0
doppler_bin: 8
bearing: -69.8423843384
intensity: 25.5144996643
---
header: 
  seq: 1576607
  stamp: 
    secs: 1561683745
    nsecs: 764742735
  frame_id: "ti_mmwave"
point_id: 4
x: 0.35546875
y: -0.080078125
z: -1.21484375
range: 1.35088610649
velocity: 0.0
doppler_bin: 8
bearing: -12.6953649521
intensity: 21.9312458038
---
header: 
  seq: 1576608
  stamp: 
    secs: 1561683745
    nsecs: 764754669
  frame_id: "ti_mmwave"
point_id: 5
x: 0.271484375
y: -0.041015625
z: 1.279296875
range: 1.39446306229
velocity: 0.0
doppler_bin: 8
bearing: -8.59122562408
intensity: 23.2221927643
---
header: 
  seq: 1576609
  stamp: 
    secs: 1561683745
    nsecs: 764763446
  frame_id: "ti_mmwave"
point_id: 6
x: 0.46875
y: -0.04296875
z: 1.265625
range: 1.43804001808
velocity: 0.0
doppler_bin: 8
bearing: -5.23747634888
intensity: 21.9033164978
---
header: 
  seq: 1576610
  stamp: 
    secs: 1561683745
    nsecs: 764772706
  frame_id: "ti_mmwave"
point_id: 7
x: 1.859375
y: -0.0
z: -0.2890625
range: 2.00454068184
velocity: 0.0
doppler_bin: 8
bearing: -0.0
intensity: 26.5991611481
---
header: 
  seq: 1576611
  stamp: 
    secs: 1561683745
    nsecs: 764781710
  frame_id: "ti_mmwave"
point_id: 8
x: 2.52734375
y: -0.263671875
z: 1.228515625
range: 3.00681090355
velocity: 0.0
doppler_bin: 8
bearing: -5.9559879303
intensity: 29.3449840546
---
header: 
  seq: 1576612
  stamp: 
    secs: 1561683745
    nsecs: 764803973
  frame_id: "ti_mmwave"
point_id: 9
x: 2.59765625
y: -0.267578125
z: 1.173828125
range: 3.05038785934
velocity: 0.0
doppler_bin: 8
bearing: -5.88115358353
intensity: 32.716091156
---
header: 
  seq: 1576613
  stamp: 
    secs: 1561683745
    nsecs: 764816382
  frame_id: "ti_mmwave"
point_id: 10
x: 2.650390625
y: -0.181640625
z: 1.171875
range: 3.09396481514
velocity: 0.0
doppler_bin: 8
bearing: -3.92055153847
intensity: 31.9200954437
---
header: 
  seq: 1576614
  stamp: 
    secs: 1561683745
    nsecs: 764832002
  frame_id: "ti_mmwave"
point_id: 12
x: 0.041015625
y: -0.033203125
z: 0.0625
range: 0.0871539413929
velocity: 0.0
doppler_bin: 8
bearing: -38.9909973145
intensity: 30.1619739532
---
header: 
  seq: 1576615
  stamp: 
    secs: 1561683745
    nsecs: 764845997
  frame_id: "ti_mmwave"
point_id: 13
x: 0.044921875
y: -0.046875
z: 0.103515625
range: 0.130730912089
velocity: 0.0
doppler_bin: 8
bearing: -46.218875885
intensity: 29.0525608063
---
header: 
  seq: 1576616
  stamp: 
    secs: 1561683745
    nsecs: 764861314
  frame_id: "ti_mmwave"
point_id: 15
x: 1.20703125
y: 0.357421875
z: 0.150390625
range: 1.35088610649
velocity: 0.0
doppler_bin: 8
bearing: 16.4948921204
intensity: 19.0308990479
---
header: 
  seq: 1576617
  stamp: 
    secs: 1561683745
    nsecs: 823325475
  frame_id: "ti_mmwave"
point_id: 0
x: 0.01171875
y: -0.0390625
z: -0.0078125
range: 0.0435769706964
velocity: 0.0
doppler_bin: 8
bearing: -73.3007583618
intensity: 30.7554702759
---
header: 
  seq: 1576618
  stamp: 
    secs: 1561683745
    nsecs: 823425769
  frame_id: "ti_mmwave"
point_id: 1
x: 0.017578125
y: -0.080078125
z: -0.0078125
range: 0.0871539413929
velocity: 0.0
doppler_bin: 8
bearing: -77.6192398071
intensity: 31.9920654297
---
header: 
  seq: 1576619
  stamp: 
    secs: 1561683745
    nsecs: 823437170
  frame_id: "ti_mmwave"
point_id: 2
x: 0.029296875
y: -0.119140625
z: -0.005859375
range: 0.130730912089
velocity: 0.0
doppler_bin: 8
bearing: -76.1849746704
intensity: 30.2366390228
---
header: 
  seq: 1576620
  stamp: 
    secs: 1561683745
    nsecs: 823445562
  frame_id: "ti_mmwave"
point_id: 3
x: 0.056640625
y: -0.154296875
z: 0.005859375
range: 0.174307882786
velocity: 0.0
doppler_bin: 8
bearing: -69.8423843384
intensity: 25.5266819
---
header: 
  seq: 1576621
  stamp: 
    secs: 1561683745
    nsecs: 823456269
  frame_id: "ti_mmwave"
point_id: 4
x: 0.396484375
y: -0.080078125
z: -1.201171875
range: 1.35088610649
velocity: 0.0
doppler_bin: 8
bearing: -11.4184474945
intensity: 21.9312458038
---
header: 
  seq: 1576622
  stamp: 
    secs: 1561683745
    nsecs: 823464604
  frame_id: "ti_mmwave"
point_id: 5
x: 0.265625
y: -0.041015625
z: 1.28125
range: 1.39446306229
velocity: 0.0
doppler_bin: 8
bearing: -8.77781772614
intensity: 23.2428245544
---
header: 
  seq: 1576623
  stamp: 
    secs: 1561683745
    nsecs: 823472175
  frame_id: "ti_mmwave"
point_id: 6
x: 0.46875
y: -0.04296875
z: 1.265625
range: 1.43804001808
velocity: 0.0
doppler_bin: 8
bearing: -5.23747634888
intensity: 21.9033164978
---
header: 
  seq: 1576624
  stamp: 
    secs: 1561683745
    nsecs: 823482645
  frame_id: "ti_mmwave"
point_id: 7
x: 1.701171875
y: -0.052734375
z: -0.234375
range: 1.83023273945
velocity: 0.0
doppler_bin: 8
bearing: -1.77553474903
intensity: 28.7563991547
---
header: 
  seq: 1576625
