header: 
  seq: 654208
  stamp: 
    secs: 1561682300
    nsecs: 184344204
  frame_id: "ti_mmwave"
point_id: 0
x: 0.01171875
y: -0.0390625
z: -0.0078125
range: 0.0435769706964
velocity: 0.0
doppler_bin: 8
bearing: -73.3007583618
intensity: 30.6855697632
---
header: 
  seq: 654209
  stamp: 
    secs: 1561682300
    nsecs: 184431289
  frame_id: "ti_mmwave"
point_id: 1
x: 0.017578125
y: -0.080078125
z: -0.0078125
range: 0.0871539413929
velocity: 0.0
doppler_bin: 8
bearing: -77.6192398071
intensity: 31.9284610748
---
header: 
  seq: 654210
  stamp: 
    secs: 1561682300
    nsecs: 184447476
  frame_id: "ti_mmwave"
point_id: 2
x: 0.029296875
y: -0.119140625
z: -0.005859375
range: 0.130730912089
velocity: 0.0
doppler_bin: 8
bearing: -76.1849746704
intensity: 30.1911621094
---
header: 
  seq: 654211
  stamp: 
    secs: 1561682300
    nsecs: 184462199
  frame_id: "ti_mmwave"
point_id: 3
x: 0.056640625
y: -0.154296875
z: 0.005859375
range: 0.174307882786
velocity: 0.0
doppler_bin: 8
bearing: -69.8423843384
intensity: 25.4654273987
---
header: 
  seq: 654212
  stamp: 
    secs: 1561682300
    nsecs: 184476211
  frame_id: "ti_mmwave"
point_id: 4
x: 0.94140625
y: -0.080078125
z: -0.845703125
range: 1.35088610649
velocity: 0.0
doppler_bin: 8
bearing: -4.86200380325
intensity: 24.7712116241
---
header: 
  seq: 654213
  stamp: 
    secs: 1561682300
    nsecs: 184561503
  frame_id: "ti_mmwave"
point_id: 5
x: 1.2109375
y: -0.08203125
z: -0.48828125
range: 1.39446306229
velocity: 0.0
doppler_bin: 8
bearing: -3.87540626526
intensity: 26.5991611481
---
header: 
  seq: 654214
  stamp: 
    secs: 1561682300
    nsecs: 184577657
  frame_id: "ti_mmwave"
point_id: 6
x: 1.25
y: -0.083984375
z: -0.50390625
range: 1.43804001808
velocity: 0.0
doppler_bin: 8
bearing: -3.8437833786
intensity: 25.3147888184
---
header: 
  seq: 654215
  stamp: 
    secs: 1561682300
    nsecs: 184588907
  frame_id: "ti_mmwave"
point_id: 7
x: 1.15625
y: -0.04296875
z: -0.7734375
range: 1.48161697388
velocity: 0.0
doppler_bin: 8
bearing: -2.12825584412
intensity: 23.5410842896
---
header: 
  seq: 654216
  stamp: 
    secs: 1561682300
    nsecs: 184598419
  frame_id: "ti_mmwave"
point_id: 8
x: 1.3515625
y: -0.044921875
z: -0.46875
range: 1.52519392967
velocity: 0.0
doppler_bin: 8
bearing: -1.90363883972
intensity: 23.8916606903
---
header: 
  seq: 654217
  stamp: 
    secs: 1561682300
    nsecs: 184609066
  frame_id: "ti_mmwave"
point_id: 9
x: 2.5546875
y: -0.263671875
z: 1.171875
range: 3.00681090355
velocity: 0.0
doppler_bin: 8
bearing: -5.89269018173
intensity: 29.3247375488
---
header: 
  seq: 654218
  stamp: 
    secs: 1561682300
    nsecs: 184619522
  frame_id: "ti_mmwave"
point_id: 10
x: 2.60546875
y: -0.267578125
z: 1.15625
range: 3.05038785934
velocity: 0.0
doppler_bin: 8
bearing: -5.86364221573
intensity: 32.702129364
---
header: 
  seq: 654219
  stamp: 
    secs: 1561682300
    nsecs: 184630013
  frame_id: "ti_mmwave"
point_id: 11
x: 2.6640625
y: -0.181640625
z: 1.140625
range: 3.09396481514
velocity: 0.0
doppler_bin: 8
bearing: -3.90049386024
intensity: 31.9256744385
---
header: 
  seq: 654220
  stamp: 
    secs: 1561682300
    nsecs: 184642211
  frame_id: "ti_mmwave"
point_id: 12
x: 4.421875
y: -0.287109375
z: 1.162109375
range: 4.88062095642
velocity: 0.0
doppler_bin: 8
bearing: -3.7149617672
intensity: 30.7990455627
---
header: 
  seq: 654221
  stamp: 
    secs: 1561682300
    nsecs: 184655324
  frame_id: "ti_mmwave"
point_id: 13
x: 4.48046875
y: -0.2890625
z: 1.095703125
range: 4.9241976738
velocity: 0.0
doppler_bin: 8
bearing: -3.69138598442
intensity: 30.3981056213
---
header: 
  seq: 654222
  stamp: 
    secs: 1561682300
    nsecs: 184665759
  frame_id: "ti_mmwave"
point_id: 14
x: 4.740234375
y: -0.44921875
z: -0.494140625
range: 5.09850549698
velocity: 0.0
doppler_bin: 8
bearing: -5.41359329224
intensity: 33.0427513123
---
header: 
  seq: 654223
  stamp: 
    secs: 1561682300
    nsecs: 184676721
  frame_id: "ti_mmwave"
point_id: 15
x: 4.78125
y: -0.453125
z: -0.494140625
range: 5.14208269119
velocity: 0.0
doppler_bin: 8
bearing: -5.41382265091
intensity: 33.8165664673
---
header: 
  seq: 654224
  stamp: 
    secs: 1561682300
    nsecs: 184686733
  frame_id: "ti_mmwave"
point_id: 16
x: 4.81640625
y: -0.45703125
z: -0.537109375
range: 5.18565940857
velocity: 0.0
doppler_bin: 8
bearing: -5.42059516907
intensity: 30.4999294281
---
header: 
  seq: 654225
  stamp: 
    secs: 1561682300
    nsecs: 184697429
  frame_id: "ti_mmwave"
point_id: 17
x: 4.873046875
y: -0.30859375
z: 0.81640625
range: 5.27281332016
velocity: 0.0
doppler_bin: 8
bearing: -3.62351131439
intensity: 30.4453983307
---
header: 
  seq: 654226
  stamp: 
    secs: 1561682300
    nsecs: 184711976
  frame_id: "ti_mmwave"
point_id: 19
x: 0.041015625
y: -0.033203125
z: 0.0625
range: 0.0871539413929
velocity: 0.0
doppler_bin: 8
bearing: -38.9909973145
intensity: 30.0732097626
---
header: 
  seq: 654227
  stamp: 
    secs: 1561682300
    nsecs: 184723675
  frame_id: "ti_mmwave"
point_id: 20
x: 0.052734375
y: -0.04296875
z: 0.1015625
range: 0.130730912089
velocity: 0.0
doppler_bin: 8
bearing: -39.1736602783
intensity: 28.9597473145
---
header: 
  seq: 654228
  stamp: 
    secs: 1561682300
    nsecs: 186286059
  frame_id: "ti_mmwave"
point_id: 0
x: 0.01171875
y: -0.0390625
z: -0.0078125
range: 0.0435769706964
velocity: 0.0
doppler_bin: 8
bearing: -73.3007583618
intensity: 30.6929798126
---
header: 
  seq: 654229
  stamp: 
    secs: 1561682300
    nsecs: 186354596
  frame_id: "ti_mmwave"
point_id: 1
x: 0.017578125
y: -0.080078125
z: -0.0078125
range: 0.0871539413929
velocity: 0.0
doppler_bin: 8
bearing: -77.6192398071
intensity: 31.9312458038
---
header: 
  seq: 654230
  stamp: 
    secs: 1561682300
    nsecs: 186371591
  frame_id: "ti_mmwave"
point_id: 2
x: 0.029296875
y: -0.119140625
z: -0.005859375
range: 0.130730912089
velocity: 0.0
doppler_bin: 8
bearing: -76.1849746704
intensity: 30.1911621094
---
header: 
  seq: 654231
  stamp: 
    secs: 1561682300
    nsecs: 186380877
  frame_id: "ti_mmwave"
point_id: 3
x: 0.056640625
y: -0.154296875
z: 0.005859375
range: 0.174307882786
velocity: 0.0
doppler_bin: 8
bearing: -69.8423843384
intensity: 25.4777469635
---
header: 
  seq: 654232
  stamp: 
    secs: 1561682300
    nsecs: 186425532
  frame_id: "ti_mmwave"
point_id: 4
x: 0.990234375
y: -0.158203125
z: 0.775390625
range: 1.35088610649
velocity: 0.0
doppler_bin: 8
bearing: -9.07705307007
intensity: 23.9794006348
---
header: 
  seq: 654233
  stamp: 
    secs: 1561682300
    nsecs: 186434793
  frame_id: "ti_mmwave"
point_id: 5
x: 1.244140625
y: -0.123046875
z: 0.390625
range: 1.39446306229
velocity: 0.0
doppler_bin: 8
bearing: -5.64824771881
intensity: 26.170003891
---
header: 
  seq: 654234
  stamp: 
    secs: 1561682300
    nsecs: 186447317
  frame_id: "ti_mmwave"
point_id: 6
x: 1.33203125
y: -0.083984375
z: -0.203125
range: 1.43804001808
velocity: 0.0
doppler_bin: 8
bearing: -3.60771489143
intensity: 25.6937389374
---
header: 
  seq: 654235
  stamp: 
    secs: 1561682300
    nsecs: 186454935
  frame_id: "ti_mmwave"
point_id: 7
x: 1.15625
y: -0.087890625
z: -0.76953125
range: 1.48161697388
velocity: 0.0
doppler_bin: 8
bearing: -4.34689426422
intensity: 23.9093513489
---
header: 
  seq: 654236
  stamp: 
    secs: 1561682300
    nsecs: 186462670
  frame_id: "ti_mmwave"
point_id: 8
x: 2.546875
y: -0.263671875
z: 1.1875
range: 3.00681090355
velocity: 0.0
doppler_bin: 8
bearing: -5.91063833237
intensity: 29.4200801849
---
header: 
  seq: 654237
  stamp: 
    secs: 1561682300
    nsecs: 186470120
  frame_id: "ti_mmwave"
point_id: 9
x: 2.603515625
y: -0.267578125
z: 1.16015625
range: 3.05038785934
velocity: 0.0
doppler_bin: 8
bearing: -5.8680100441
intensity: 32.7276954651
---
header: 
  seq: 654238
  stamp: 
    secs: 1561682300
    nsecs: 186477366
  frame_id: "ti_mmwave"
point_id: 10
x: 2.662109375
y: -0.181640625
z: 1.146484375
range: 3.09396481514
velocity: 0.0
doppler_bin: 8
bearing: -3.90334677696
intensity: 31.9534606934
---
header: 
  seq: 654239
  stamp: 
    secs: 1561682300
    nsecs: 186485174
  frame_id: "ti_mmwave"
point_id: 11
x: 4.42578125
y: -0.287109375
z: 1.1484375
range: 4.88062095642
velocity: 0.0
doppler_bin: 8
bearing: -3.7116920948
intensity: 30.8386077881
---
header: 
  seq: 654240
  stamp: 
    secs: 1561682300
    nsecs: 186490085
  frame_id: "ti_mmwave"
point_id: 12
x: 4.4921875
y: -0.2890625
z: 1.05078125
range: 4.9241976738
velocity: 0.0
doppler_bin: 8
bearing: -3.68178272247
intensity: 30.5269393921
---
header: 
  seq: 654241
  stamp: 
    secs: 1561682300
    nsecs: 186524127
  frame_id: "ti_mmwave"
point_id: 13
x: 4.68359375
y: -0.4453125
z: -0.619140625
range: 5.0549287796
velocity: 0.0
doppler_bin: 8
bearing: -5.43131160736
intensity: 29.9078273773
---
header: 
  seq: 654242
  stamp: 
    secs: 1561682300
    nsecs: 186548087
  frame_id: "ti_mmwave"
point_id: 14
x: 4.734375
y: -0.44921875
z: -0.541015625
range: 5.09850549698
velocity: 0.0
doppler_bin: 8
bearing: -5.42025327682
intensity: 34.0157279968
---
header: 
  seq: 654243
  stamp: 
    secs: 1561682300
    nsecs: 186577123
  frame_id: "ti_mmwave"
point_id: 15
x: 4.779296875
y: -0.453125
z: -0.5078125
range: 5.14208269119
velocity: 0.0
doppler_bin: 8
bearing: -5.41602182388
intensity: 34.8273086548
---
header: 
  seq: 654244
  stamp: 
    secs: 1561682300
    nsecs: 186651799
  frame_id: "ti_mmwave"
point_id: 16
x: 4.82421875
y: -0.45703125
z: -0.458984375
range: 5.18565940857
velocity: 0.0
doppler_bin: 8
bearing: -5.41186904907
intensity: 31.8723869324
---
header: 
  seq: 654245
  stamp: 
    secs: 1561682300
    nsecs: 186667438
  frame_id: "ti_mmwave"
point_id: 17
x: 4.880859375
y: -0.30859375
z: 0.7578125
range: 5.27281332016
velocity: 0.0
doppler_bin: 8
bearing: -3.61772704124
intensity: 30.546131134
---
header: 
  seq: 654246
  stamp: 
    secs: 1561682300
    nsecs: 186683583
  frame_id: "ti_mmwave"
point_id: 19
x: 0.041015625
y: -0.033203125
z: 0.0625
range: 0.0871539413929
velocity: 0.0
doppler_bin: 8
bearing: -38.9909973145
intensity: 30.0774784088
---
header: 
  seq: 654247
  stamp: 
    secs: 1561682300
    nsecs: 186694991
  frame_id: "ti_mmwave"
point_id: 20
x: 0.052734375
y: -0.04296875
z: 0.1015625
range: 0.130730912089
velocity: 0.0
doppler_bin: 8
bearing: -39.1736602783
intensity: 28.9652614594
---
header: 
  seq: 654248
  stamp: 
    secs: 1561682300
    nsecs: 186713370
  frame_id: "ti_mmwave"
point_id: 22
x: 2.765625
y: -2.00390625
z: -3.052734375
range: 4.88062095642
velocity: 0.0
doppler_bin: 8
bearing: -35.9261932373
intensity: 27.8461723328
---
header: 
  seq: 654249
  stamp: 
    secs: 1561682300
    nsecs: 244225378
  frame_id: "ti_mmwave"
point_id: 0
x: 0.01171875
y: -0.0390625
z: -0.0078125
range: 0.0435769706964
velocity: 0.0
doppler_bin: 8
bearing: -73.3007583618
intensity: 30.6929798126
---
header: 
  seq: 654250
  stamp: 
    secs: 1561682300
    nsecs: 244298460
  frame_id: "ti_mmwave"
point_id: 1
x: 0.017578125
y: -0.080078125
z: -0.0078125
range: 0.0871539413929
velocity: 0.0
doppler_bin: 8
bearing: -77.6192398071
intensity: 31.9312458038
---
header: 
  seq: 654251
  stamp: 
    secs: 1561682300
    nsecs: 244314619
  frame_id: "ti_mmwave"
point_id: 2
x: 0.029296875
y: -0.119140625
z: -0.005859375
range: 0.130730912089
velocity: 0.0
doppler_bin: 8
bearing: -76.1849746704
intensity: 30.1911621094
---
header: 
  seq: 654252
  stamp: 
    secs: 1561682300
    nsecs: 244329388
  frame_id: "ti_mmwave"
point_id: 3
x: 0.056640625
y: -0.154296875
z: 0.005859375
range: 0.174307882786
velocity: 0.0
doppler_bin: 8
bearing: -69.8423843384
intensity: 25.4654273987
---
header: 
  seq: 654253
  stamp: 
    secs: 1561682300
    nsecs: 244340071
  frame_id: "ti_mmwave"
point_id: 4
x: 0.7734375
y: -0.080078125
z: -1.001953125
range: 1.35088610649
velocity: 0.0
doppler_bin: 8
bearing: -5.91107749939
intensity: 23.0102996826
---
header: 
  seq: 654254
  stamp: 
    secs: 1561682300
    nsecs: 244415174
  frame_id: "ti_mmwave"
point_id: 5
x: 0.798828125
y: -0.041015625
z: -1.037109375
range: 1.39446306229
velocity: 0.0
doppler_bin: 8
bearing: -2.93925595284
intensity: 24.5331840515
---
header: 
  seq: 654255
  stamp: 
    secs: 1561682300
    nsecs: 244430038
  frame_id: "ti_mmwave"
point_id: 6
x: 0.93359375
y: -0.04296875
z: -0.974609375
range: 1.43804001808
velocity: 0.0
doppler_bin: 8
bearing: -2.63518452644
intensity: 23.2014636993
---
header: 
  seq: 654256
  stamp: 
    secs: 1561682300
    nsecs: 244441805
  frame_id: "ti_mmwave"
point_id: 7
x: 0.9296875
y: 0.04296875
z: -1.03515625
range: 1.48161697388
velocity: 0.0
doppler_bin: 8
bearing: 2.64624118805
intensity: 20.4139270782
---
header: 
  seq: 654257
  stamp: 
    secs: 1561682300
    nsecs: 244453023
  frame_id: "ti_mmwave"
point_id: 8
x: 2.548828125
y: -0.263671875
z: 1.185546875
range: 3.00681090355
velocity: 0.0
doppler_bin: 8
bearing: -5.90614128113
intensity: 29.3651371002
---
header: 
  seq: 654258
  stamp: 
    secs: 1561682300
    nsecs: 244465959
  frame_id: "ti_mmwave"
point_id: 9
x: 2.603515625
y: -0.267578125
z: 1.1640625
range: 3.05038785934
velocity: 0.0
doppler_bin: 8
bearing: -5.8680100441
intensity: 32.7114448547
---
header: 
  seq: 654259
  stamp: 
    secs: 1561682300
    nsecs: 244477592
  frame_id: "ti_mmwave"
point_id: 10
x: 2.66015625
y: -0.181640625
z: 1.150390625
range: 3.09396481514
velocity: 0.0
doppler_bin: 8
bearing: -3.90620398521
intensity: 31.9395904541
---
header: 
  seq: 654260
  stamp: 
    secs: 1561682300
    nsecs: 244489705
  frame_id: "ti_mmwave"
point_id: 11
x: 4.419921875
y: -0.287109375
z: 1.169921875
range: 4.88062095642
velocity: 0.0
doppler_bin: 8
bearing: -3.71659874916
intensity: 30.8421859741
---
header: 
  seq: 654261
  stamp: 
    secs: 1561682300
    nsecs: 244504043
  frame_id: "ti_mmwave"
point_id: 12
x: 4.462890625
y: -0.2890625
z: 1.171875
range: 4.9241976738
velocity: 0.0
doppler_bin: 8
bearing: -3.70588517189
intensity: 30.4296913147
---
header: 
  seq: 654262
  stamp: 
    secs: 1561682300
    nsecs: 244516757
  frame_id: "ti_mmwave"
point_id: 13
x: 4.73828125
y: -0.44921875
z: -0.50390625
range: 5.09850549698
velocity: 0.0
doppler_bin: 8
bearing: -5.4158115387
intensity: 32.8958892822
---
header: 
  seq: 654263
  stamp: 
    secs: 1561682300
    nsecs: 244562060
  frame_id: "ti_mmwave"
point_id: 14
x: 4.78515625
y: -0.453125
z: -0.44921875
range: 5.14208269119
velocity: 0.0
doppler_bin: 8
bearing: -5.40942907333
intensity: 33.651134491
---
header: 
  seq: 654264
  stamp: 
    secs: 1561682300
    nsecs: 244577968
  frame_id: "ti_mmwave"
point_id: 15
x: 4.8359375
y: -0.45703125
z: -0.330078125
range: 5.18565940857
velocity: 0.0
doppler_bin: 8
bearing: -5.39883232117
intensity: 30.6182937622
---
header: 
  seq: 654265
  stamp: 
    secs: 1561682300
    nsecs: 244591501
  frame_id: "ti_mmwave"
point_id: 16
x: 4.87890625
y: -0.30859375
z: 0.775390625
range: 5.27281332016
velocity: 0.0
doppler_bin: 8
bearing: -3.61917114258
intensity: 30.6069774628
---
header: 
  seq: 654266
  stamp: 
    secs: 1561682300
    nsecs: 244608795
  frame_id: "ti_mmwave"
point_id: 18
x: 0.041015625
y: -0.033203125
z: 0.0625
range: 0.0871539413929
velocity: 0.0
doppler_bin: 8
bearing: -38.9909973145
intensity: 30.0774784088
---
header: 
  seq: 654267
  stamp: 
    secs: 1561682300
    nsecs: 244621314
  frame_id: "ti_mmwave"
point_id: 19
x: 0.052734375
y: -0.04296875
z: 0.1015625
range: 0.130730912089
velocity: 0.0
doppler_bin: 8
bearing: -39.1736602783
intensity: 28.9597473145
---
header: 
  seq: 654268
  stamp: 
    secs: 1561682300
    nsecs: 244639012
  frame_id: "ti_mmwave"
point_id: 21
x: 2.775390625
y: -2.00390625
z: -3.044921875
range: 4.88062095642
velocity: 0.0
doppler_bin: 8
bearing: -35.830291748
intensity: 27.8816833496
---
header: 
  seq: 654269
  stamp: 
    secs: 1561682300
    nsecs: 245553674
  frame_id: "ti_mmwave"
point_id: 0
x: 0.01171875
y: -0.0390625
z: -0.0078125
range: 0.0435769706964
velocity: 0.0
doppler_bin: 8
bearing: -73.3007583618
intensity: 30.6892757416
---
header: 
  seq: 654270
  stamp: 
    secs: 1561682300
    nsecs: 245601988
  frame_id: "ti_mmwave"
point_id: 1
x: 0.017578125
y: -0.080078125
z: -0.0078125
range: 0.0871539413929
velocity: 0.0
doppler_bin: 8
bearing: -77.6192398071
intensity: 31.9312458038
---
header: 
  seq: 654271
  stamp: 
    secs: 1561682300
    nsecs: 245613876
  frame_id: "ti_mmwave"
point_id: 2
x: 0.029296875
y: -0.119140625
z: -0.005859375
range: 0.130730912089
velocity: 0.0
doppler_bin: 8
bearing: -76.1849746704
intensity: 30.1911621094
---
header: 
  seq: 654272
  stamp: 
    secs: 1561682300
    nsecs: 245622027
  frame_id: "ti_mmwave"
point_id: 3
x: 0.056640625
y: -0.154296875
z: 0.005859375
range: 0.174307882786
velocity: 0.0
doppler_bin: 8
bearing: -69.8423843384
intensity: 25.4654273987
---
header: 
  seq: 654273
  stamp: 
    secs: 1561682300
    nsecs: 245630231
  frame_id: "ti_mmwave"
point_id: 4
x: 0.822265625
y: -0.119140625
z: 0.958984375
range: 1.35088610649
velocity: 0.0
doppler_bin: 8
bearing: -8.244389534
intensity: 22.0412006378
---
header: 
  seq: 654274
  stamp: 
    secs: 1561682300
    nsecs: 245640764
  frame_id: "ti_mmwave"
point_id: 5
x: 1.05078125
y: -0.08203125
z: 0.775390625
range: 1.39446306229
velocity: 0.0
doppler_bin: 8
bearing: -4.46385145187
intensity: 23.0749607086
---
header: 
  seq: 654275
  stamp: 
    secs: 1561682300
    nsecs: 245658151
  frame_id: "ti_mmwave"
point_id: 6
x: 1.236328125
y: -0.083984375
z: 0.537109375
range: 1.43804001808
velocity: 0.0
doppler_bin: 8
bearing: -3.88615989685
intensity: 21.2385158539
---
header: 
  seq: 654276
  stamp: 
    secs: 1561682300
    nsecs: 245671918
  frame_id: "ti_mmwave"
point_id: 7
x: 2.556640625
y: -0.263671875
z: 1.166015625
range: 3.00681090355
velocity: 0.0
doppler_bin: 8
bearing: -5.88822031021
intensity: 29.4051647186
---
header: 
  seq: 654277
  stamp: 
    secs: 1561682300
    nsecs: 245684996
  frame_id: "ti_mmwave"
point_id: 8
x: 2.607421875
y: -0.267578125
z: 1.15234375
range: 3.05038785934
velocity: 0.0
doppler_bin: 8
bearing: -5.85928010941
intensity: 32.7300109863
---
header: 
  seq: 654278
  stamp: 
    secs: 1561682300
    nsecs: 245698113
  frame_id: "ti_mmwave"
point_id: 9
x: 2.6640625
y: -0.181640625
z: 1.142578125
range: 3.09396481514
velocity: 0.0
doppler_bin: 8
bearing: -3.90049386024
intensity: 31.945142746
---
header: 
  seq: 654279
  stamp: 
    secs: 1561682300
    nsecs: 245710822
  frame_id: "ti_mmwave"
point_id: 10
x: 4.41796875
y: -0.287109375
z: 1.181640625
range: 4.88062095642
velocity: 0.0
doppler_bin: 8
bearing: -3.71823716164
intensity: 30.8421859741
---
header: 
  seq: 654280
  stamp: 
    secs: 1561682300
    nsecs: 245724955
  frame_id: "ti_mmwave"
point_id: 11
x: 4.451171875
y: -0.2890625
z: 1.212890625
range: 4.9241976738
velocity: 0.0
doppler_bin: 8
bearing: -3.71561431885
intensity: 30.3502922058
---
header: 
  seq: 654281
  stamp: 
    secs: 1561682300
    nsecs: 245739716
  frame_id: "ti_mmwave"
point_id: 12
x: 4.73828125
y: -0.44921875
z: -0.498046875
range: 5.09850549698
velocity: 0.0
doppler_bin: 8
bearing: -5.4158115387
intensity: 33.0663948059
---
header: 
  seq: 654282
  stamp: 
    secs: 1561682300
    nsecs: 245753902
  frame_id: "ti_mmwave"
point_id: 13
x: 4.783203125
y: -0.453125
z: -0.462890625
range: 5.14208269119
velocity: 0.0
doppler_bin: 8
bearing: -5.41162490845
intensity: 33.7309608459
---
header: 
  seq: 654283
  stamp: 
    secs: 1561682300
    nsecs: 245767312
  frame_id: "ti_mmwave"
point_id: 14
x: 4.830078125
y: -0.45703125
z: -0.392578125
range: 5.18565940857
velocity: 0.0
doppler_bin: 8
bearing: -5.40534305573
intensity: 30.5804615021
---
header: 
  seq: 654284
  stamp: 
    secs: 1561682300
    nsecs: 245780596
  frame_id: "ti_mmwave"
point_id: 15
x: 4.880859375
y: -0.30859375
z: 0.7578125
range: 5.27281332016
velocity: 0.0
doppler_bin: 8
bearing: -3.61772704124
intensity: 30.6032009125
---
header: 
  seq: 654285
  stamp: 
    secs: 1561682300
    nsecs: 245796159
  frame_id: "ti_mmwave"
point_id: 17
x: 0.041015625
y: -0.033203125
z: 0.0625
range: 0.0871539413929
velocity: 0.0
doppler_bin: 8
bearing: -38.9909973145
intensity: 30.0774784088
---
header: 
  seq: 654286
  stamp: 
    secs: 1561682300
    nsecs: 245810031
  frame_id: "ti_mmwave"
point_id: 18
x: 0.052734375
y: -0.04296875
z: 0.1015625
range: 0.130730912089
velocity: 0.0
doppler_bin: 8
bearing: -39.1736602783
intensity: 28.9597473145
---
header: 
  seq: 654287
  stamp: 
    secs: 1561682300
    nsecs: 245826947
  frame_id: "ti_mmwave"
point_id: 20
x: 2.75
y: -2.00390625
z: -3.06640625
range: 4.88062095642
velocity: 0.0
doppler_bin: 8
bearing: -36.0805702209
intensity: 27.8604125977
---
header: 
  seq: 654288
  stamp: 
    secs: 1561682300
    nsecs: 305149930
  frame_id: "ti_mmwave"
point_id: 0
x: 0.01171875
y: -0.0390625
z: -0.0078125
range: 0.0435769706964
velocity: 0.0
doppler_bin: 8
bearing: -73.3007583618
intensity: 30.6892757416
---
header: 
  seq: 654289
  stamp: 
    secs: 1561682300
    nsecs: 305216781
  frame_id: "ti_mmwave"
point_id: 1
x: 0.017578125
y: -0.080078125
z: -0.0078125
range: 0.0871539413929
velocity: 0.0
doppler_bin: 8
bearing: -77.6192398071
intensity: 31.9284610748
---
header: 
  seq: 654290
  stamp: 
    secs: 1561682300
    nsecs: 305229173
  frame_id: "ti_mmwave"
point_id: 2
x: 0.029296875
y: -0.119140625
z: -0.005859375
range: 0.130730912089
velocity: 0.0
doppler_bin: 8
bearing: -76.1849746704
intensity: 30.1870040894
---
header: 
  seq: 654291
  stamp: 
    secs: 1561682300
    nsecs: 305237950
  frame_id: "ti_mmwave"
point_id: 3
x: 0.056640625
y: -0.154296875
z: 0.005859375
range: 0.174307882786
velocity: 0.0
doppler_bin: 8
bearing: -69.8423843384
intensity: 25.4654273987
---
header: 
  seq: 654292
  stamp: 
    secs: 1561682300
    nsecs: 305245759
  frame_id: "ti_mmwave"
point_id: 4
x: 1.068359375
y: -0.23828125
z: 0.640625
range: 1.35088610649
velocity: 0.0
doppler_bin: 8
bearing: -12.5731630325
intensity: 19.5424251556
---
header: 
  seq: 654293
  stamp: 
    secs: 1561682300
    nsecs: 305253870
  frame_id: "ti_mmwave"
point_id: 5
x: 1.150390625
y: -0.123046875
z: 0.611328125
range: 1.39446306229
velocity: 0.0
doppler_bin: 8
bearing: -6.10519933701
intensity: 21.5228843689
---
header: 
  seq: 654294
  stamp: 
    secs: 1561682300
    nsecs: 305264311
  frame_id: "ti_mmwave"
point_id: 6
x: 1.279296875
y: -0.126953125
z: 0.4140625
range: 1.43804001808
velocity: 0.0
doppler_bin: 8
bearing: -5.66728591919
intensity: 21.3987903595
---
header: 
  seq: 654295
  stamp: 
    secs: 1561682300
    nsecs: 305275216
  frame_id: "ti_mmwave"
point_id: 7
x: 2.552734375
y: -0.263671875
z: 1.177734375
range: 3.00681090355
velocity: 0.0
doppler_bin: 8
bearing: -5.89716720581
intensity: 29.4051647186
---
header: 
  seq: 654296
  stamp: 
    secs: 1561682300
    nsecs: 305283643
  frame_id: "ti_mmwave"
point_id: 8
x: 2.60546875
y: -0.267578125
z: 1.154296875
range: 3.05038785934
velocity: 0.0
doppler_bin: 8
bearing: -5.86364221573
intensity: 32.7276954651
---
header: 
  seq: 654297
  stamp: 
    secs: 1561682300
    nsecs: 305291690
  frame_id: "ti_mmwave"
point_id: 9
x: 2.6640625
y: -0.181640625
z: 1.140625
range: 3.09396481514
velocity: 0.0
doppler_bin: 8
bearing: -3.90049386024
intensity: 31.945142746
---
header: 
  seq: 654298
  stamp: 
    secs: 1561682300
    nsecs: 305304268
  frame_id: "ti_mmwave"
point_id: 10
x: 4.419921875
y: -0.287109375
z: 1.173828125
range: 4.88062095642
velocity: 0.0
doppler_bin: 8
bearing: -3.71659874916
intensity: 30.824262619
---
header: 
  seq: 654299
  stamp: 
    secs: 1561682300
    nsecs: 305385386
  frame_id: "ti_mmwave"
point_id: 11
x: 4.462890625
y: -0.2890625
z: 1.166015625
range: 4.9241976738
velocity: 0.0
doppler_bin: 8
bearing: -3.70588517189
intensity: 30.382226944
---
header: 
  seq: 654300
  stamp: 
    secs: 1561682300
    nsecs: 305394328
  frame_id: "ti_mmwave"
point_id: 12
x: 4.73828125
y: -0.44921875
z: -0.5078125
range: 5.09850549698
velocity: 0.0
doppler_bin: 8
bearing: -5.4158115387
intensity: 33.390537262
---
header: 
  seq: 654301
  stamp: 
    secs: 1561682300
    nsecs: 305404498
  frame_id: "ti_mmwave"
point_id: 13
x: 4.78125
y: -0.453125
z: -0.474609375
range: 5.14208269119
velocity: 0.0
doppler_bin: 8
bearing: -5.41382265091
intensity: 34.0807037354
---
header: 
  seq: 654302
  stamp: 
    secs: 1561682300
    nsecs: 305412627
  frame_id: "ti_mmwave"
point_id: 14
x: 4.828125
y: -0.45703125
z: -0.412109375
range: 5.18565940857
velocity: 0.0
doppler_bin: 8
bearing: -5.40751647949
intensity: 30.9447116852
---
header: 
  seq: 654303
  stamp: 
    secs: 1561682300
    nsecs: 305420336
  frame_id: "ti_mmwave"
point_id: 15
x: 4.880859375
y: -0.30859375
z: 0.763671875
range: 5.27281332016
velocity: 0.0
doppler_bin: 8
bearing: -3.61772704124
intensity: 30.588054657
---
header: 
  seq: 654304
  stamp: 
    secs: 1561682300
    nsecs: 305429810
  frame_id: "ti_mmwave"
point_id: 17
x: 0.041015625
y: -0.033203125
z: 0.0625
range: 0.0871539413929
velocity: 0.0
doppler_bin: 8
bearing: -38.9909973145
intensity: 30.0732097626
---
header: 
  seq: 654305
  stamp: 
    secs: 1561682300
    nsecs: 305437269
  frame_id: "ti_mmwave"
point_id: 18
x: 0.052734375
y: -0.04296875
z: 0.1015625
range: 0.130730912089
velocity: 0.0
doppler_bin: 8
bearing: -39.1736602783
intensity: 28.9597473145
---
header: 
  seq: 654306
  stamp: 
    secs: 1561682300
    nsecs: 305447768
  frame_id: "ti_mmwave"
point_id: 20
x: 1.203125
y: 0.396484375
z: 0.076171875
range: 1.35088610649
velocity: 0.0
doppler_bin: 8
bearing: 18.239402771
intensity: 17.4036273956
---
header: 
  seq: 654307
  stamp: 
    secs: 1561682300
    nsecs: 305455235
  frame_id: "ti_mmwave"
point_id: 21
x: 2.755859375
y: -2.00390625
z: -3.0625
range: 4.88062095642
velocity: 0.0
doppler_bin: 8
bearing: -36.0225448608
intensity: 27.8675136566
---
header: 
  seq: 654308
  stamp: 
    secs: 1561682300
    nsecs: 364289262
  frame_id: "ti_mmwave"
point_id: 0
x: 0.01171875
y: -0.0390625
z: -0.0078125
range: 0.0435769706964
velocity: 0.0
doppler_bin: 8
bearing: -73.3007583618
intensity: 30.6892757416
---
header: 
  seq: 654309
  stamp: 
    secs: 1561682300
    nsecs: 364362946
  frame_id: "ti_mmwave"
point_id: 1
x: 0.017578125
y: -0.080078125
z: -0.0078125
range: 0.0871539413929
velocity: 0.0
doppler_bin: 8
bearing: -77.6192398071
intensity: 31.9340286255
---
header: 
  seq: 654310
  stamp: 
    secs: 1561682300
    nsecs: 364374210
  frame_id: "ti_mmwave"
point_id: 2
x: 0.029296875
y: -0.119140625
z: -0.005859375
range: 0.130730912089
velocity: 0.0
doppler_bin: 8
bearing: -76.1849746704
intensity: 30.1953163147
---
header: 
  seq: 654311
  stamp: 
    secs: 1561682300
    nsecs: 364382751
  frame_id: "ti_mmwave"
point_id: 3
x: 0.056640625
y: -0.154296875
z: 0.005859375
range: 0.174307882786
velocity: 0.0
doppler_bin: 8
bearing: -69.8423843384
intensity: 25.4654273987
---
header: 
  seq: 654312
  stamp: 
    secs: 1561682300
    nsecs: 364391417
  frame_id: "ti_mmwave"
point_id: 4
x: 0.791015625
y: -0.0390625
z: -0.990234375
range: 1.35088610649
velocity: 0.0
doppler_bin: 8
bearing: -2.82712459564
intensity: 20.4532299042
---
header: 
  seq: 654313
  stamp: 
    secs: 1561682300
    nsecs: 364402077
  frame_id: "ti_mmwave"
point_id: 5
x: 0.654296875
y: 0.041015625
z: -1.1328125
range: 1.39446306229
velocity: 0.0
doppler_bin: 8
bearing: 3.58698225021
intensity: 20.8990516663
---
header: 
  seq: 654314
  stamp: 
    secs: 1561682300
    nsecs: 364411839
  frame_id: "ti_mmwave"
point_id: 6
x: 2.544921875
y: -0.263671875
z: 1.19140625
range: 3.00681090355
velocity: 0.0
doppler_bin: 8
bearing: -5.91514253616
intensity: 29.4051647186
---
header: 
  seq: 654315
  stamp: 
    secs: 1561682300
    nsecs: 364420352
  frame_id: "ti_mmwave"
point_id: 7
x: 2.6015625
y: -0.267578125
z: 1.1640625
range: 3.05038785934
velocity: 0.0
doppler_bin: 8
bearing: -5.87238502502
intensity: 32.7114448547
---
header: 
  seq: 654316
  stamp: 
    secs: 1561682300
    nsecs: 364428417
  frame_id: "ti_mmwave"
point_id: 8
x: 2.662109375
y: -0.181640625
z: 1.1484375
range: 3.09396481514
velocity: 0.0
doppler_bin: 8
bearing: -3.90334677696
intensity: 31.9423675537
---
header: 
  seq: 654317
  stamp: 
    secs: 1561682300
    nsecs: 364436812
  frame_id: "ti_mmwave"
point_id: 9
x: 4.419921875
y: -0.287109375
z: 1.169921875
range: 4.88062095642
velocity: 0.0
doppler_bin: 8
bearing: -3.71659874916
intensity: 30.824262619
---
header: 
  seq: 654318
  stamp: 
    secs: 1561682300
    nsecs: 364445289
  frame_id: "ti_mmwave"
point_id: 10
x: 4.466796875
y: -0.2890625
z: 1.15625
range: 4.9241976738
velocity: 0.0
doppler_bin: 8
bearing: -3.70265316963
intensity: 30.3901729584
---
header: 
  seq: 654319
  stamp: 
    secs: 1561682300
    nsecs: 364454197
  frame_id: "ti_mmwave"
point_id: 11
x: 4.736328125
y: -0.44921875
z: -0.517578125
range: 5.09850549698
velocity: 0.0
doppler_bin: 8
bearing: -5.41803121567
intensity: 33.4399909973
---
header: 
  seq: 654320
  stamp: 
    secs: 1561682300
    nsecs: 364462992
  frame_id: "ti_mmwave"
point_id: 12
x: 4.78125
y: -0.453125
z: -0.482421875
range: 5.14208269119
velocity: 0.0
doppler_bin: 8
bearing: -5.41382265091
intensity: 34.1463928223
---
header: 
  seq: 654321
  stamp: 
    secs: 1561682300
    nsecs: 364473441
  frame_id: "ti_mmwave"
point_id: 13
x: 4.828125
y: -0.45703125
z: -0.42578125
range: 5.18565940857
velocity: 0.0
doppler_bin: 8
bearing: -5.40751647949
intensity: 31.0448703766
---
header: 
  seq: 654322
  stamp: 
    secs: 1561682300
    nsecs: 364481990
  frame_id: "ti_mmwave"
point_id: 14
x: 4.8828125
y: -0.30859375
z: 0.75390625
range: 5.27281332016
velocity: 0.0
doppler_bin: 8
bearing: -3.61628341675
intensity: 30.5842609406
---
header: 
  seq: 654323
  stamp: 
    secs: 1561682300
    nsecs: 364506124
  frame_id: "ti_mmwave"
point_id: 16
x: 0.041015625
y: -0.033203125
z: 0.0625
range: 0.0871539413929
velocity: 0.0
doppler_bin: 8
bearing: -38.9909973145
intensity: 30.0774784088
---
header: 
  seq: 654324
  stamp: 
    secs: 1561682300
    nsecs: 364521042
  frame_id: "ti_mmwave"
point_id: 17
x: 0.052734375
y: -0.04296875
z: 0.1015625
range: 0.130730912089
velocity: 0.0
doppler_bin: 8
bearing: -39.1736602783
intensity: 28.9652614594
---
header: 
  seq: 654325
  stamp: 
    secs: 1561682300
    nsecs: 364531228
  frame_id: "ti_mmwave"
point_id: 19
x: 1.111328125
y: -0.474609375
z: 0.380859375
range: 1.35088610649
velocity: 0.0
doppler_bin: 8
bearing: -23.1256332397
intensity: 19.0848503113
---
header: 
  seq: 654326
  stamp: 
    secs: 1561682300
    nsecs: 364691524
  frame_id: "ti_mmwave"
point_id: 20
x: 1.228515625
y: -0.44921875
z: 0.05078125
range: 1.39446306229
velocity: 0.0
doppler_bin: 8
bearing: -20.08543396
intensity: 19.4448261261
---
header: 
  seq: 654327
  stamp: 
    secs: 1561682300
    nsecs: 364711811
  frame_id: "ti_mmwave"
point_id: 21
x: 2.75390625
y: -2.00390625
z: -3.064453125
range: 4.88062095642
velocity: 0.0
doppler_bin: 8
bearing: -36.0418663025
intensity: 27.8461723328
---
header: 
  seq: 654328
  stamp: 
    secs: 1561682300
    nsecs: 365629894
  frame_id: "ti_mmwave"
point_id: 0
x: 0.01171875
y: -0.0390625
z: -0.0078125
range: 0.0435769706964
velocity: 0.0
doppler_bin: 8
bearing: -73.3007583618
intensity: 30.6855697632
---
header: 
  seq: 654329
  stamp: 
    secs: 1561682300
    nsecs: 365686358
  frame_id: "ti_mmwave"
point_id: 1
x: 0.017578125
y: -0.080078125
z: -0.0078125
range: 0.0871539413929
velocity: 0.0
doppler_bin: 8
bearing: -77.6192398071
intensity: 31.9284610748
---
header: 
  seq: 654330
  stamp: 
    secs: 1561682300
    nsecs: 365704159
  frame_id: "ti_mmwave"
point_id: 2
x: 0.029296875
y: -0.119140625
z: -0.005859375
range: 0.130730912089
velocity: 0.0
doppler_bin: 8
bearing: -76.1849746704
intensity: 30.1911621094
---
header: 
  seq: 654331
  stamp: 
    secs: 1561682300
    nsecs: 365717233
  frame_id: "ti_mmwave"
point_id: 3
x: 0.056640625
y: -0.154296875
z: 0.005859375
range: 0.174307882786
velocity: 0.0
doppler_bin: 8
bearing: -69.8423843384
intensity: 25.4777469635
---
header: 
  seq: 654332
  stamp: 
    secs: 1561682300
    nsecs: 365729103
  frame_id: "ti_mmwave"
point_id: 4
x: 0.7421875
y: -0.080078125
z: -1.025390625
range: 1.35088610649
velocity: 0.0
doppler_bin: 8
bearing: -6.15809059143
intensity: 23.2428245544
---
header: 
  seq: 654333
  stamp: 
    secs: 1561682300
    nsecs: 365738633
  frame_id: "ti_mmwave"
point_id: 5
x: 0.765625
y: -0.08203125
z: -1.05859375
range: 1.39446306229
velocity: 0.0
doppler_bin: 8
bearing: -6.11550378799
intensity: 24.8855075836
---
header: 
  seq: 654334
  stamp: 
    secs: 1561682300
    nsecs: 365749089
  frame_id: "ti_mmwave"
point_id: 6
x: 0.923828125
y: -0.04296875
z: -0.982421875
range: 1.43804001808
velocity: 0.0
doppler_bin: 8
bearing: -2.66300058365
intensity: 23.7657699585
---
header: 
  seq: 654335
  stamp: 
    secs: 1561682300
    nsecs: 365757258
  frame_id: "ti_mmwave"
point_id: 7
x: 0.833984375
y: -0.0
z: -1.11328125
range: 1.48161697388
velocity: 0.0
doppler_bin: 8
bearing: -0.0
intensity: 21.7026176453
---
header: 
  seq: 654336
  stamp: 
    secs: 1561682300
    nsecs: 365766067
  frame_id: "ti_mmwave"
point_id: 8
x: 2.546875
y: -0.263671875
z: 1.189453125
range: 3.00681090355
velocity: 0.0
doppler_bin: 8
bearing: -5.91063833237
intensity: 29.4448261261
---
header: 
  seq: 654337
  stamp: 
    secs: 1561682300
    nsecs: 365775059
  frame_id: "ti_mmwave"
point_id: 9
x: 2.60546875
y: -0.267578125
z: 1.158203125
range: 3.05038785934
velocity: 0.0
doppler_bin: 8
bearing: -5.86364221573
intensity: 32.7300109863
---
header: 
  seq: 654338
  stamp: 
    secs: 1561682300
    nsecs: 365782952
  frame_id: "ti_mmwave"
point_id: 10
x: 2.6640625
y: -0.181640625
z: 1.142578125
range: 3.09396481514
velocity: 0.0
doppler_bin: 8
bearing: -3.90049386024
intensity: 31.9423675537
---
header: 
  seq: 654339
  stamp: 
    secs: 1561682300
    nsecs: 365791686
  frame_id: "ti_mmwave"
point_id: 11
x: 4.419921875
y: -0.287109375
z: 1.173828125
range: 4.88062095642
velocity: 0.0
doppler_bin: 8
bearing: -3.71659874916
intensity: 30.824262619
---
header: 
  seq: 654340
  stamp: 
    secs: 1561682300
    nsecs: 365799973
  frame_id: "ti_mmwave"
point_id: 12
x: 4.462890625
y: -0.2890625
z: 1.171875
range: 4.9241976738
velocity: 0.0
doppler_bin: 8
bearing: -3.70588517189
intensity: 30.4218158722
---
header: 
  seq: 654341
  stamp: 
    secs: 1561682300
    nsecs: 365818618
  frame_id: "ti_mmwave"
point_id: 13
x: 4.73828125
y: -0.44921875
z: -0.5
range: 5.09850549698
velocity: 0.0
doppler_bin: 8
bearing: -5.4158115387
intensity: 33.2387046814
---
header: 
  seq: 654342
  stamp: 
    secs: 1561682300
    nsecs: 365835164
  frame_id: "ti_mmwave"
point_id: 14
x: 4.783203125
y: -0.453125
z: -0.46484375
range: 5.14208269119
velocity: 0.0
doppler_bin: 8
bearing: -5.41162490845
intensity: 33.8898887634
---
header: 
  seq: 654343
  stamp: 
    secs: 1561682300
    nsecs: 365848184
  frame_id: "ti_mmwave"
point_id: 15
x: 4.830078125
y: -0.45703125
z: -0.40234375
range: 5.18565940857
velocity: 0.0
doppler_bin: 8
bearing: -5.40534305573
intensity: 30.7408466339
---
header: 
  seq: 654344
  stamp: 
    secs: 1561682300
    nsecs: 365855890
  frame_id: "ti_mmwave"
point_id: 16
x: 4.87890625
y: -0.30859375
z: 0.76953125
range: 5.27281332016
velocity: 0.0
doppler_bin: 8
bearing: -3.61917114258
intensity: 30.5842609406
---
header: 
  seq: 654345
  stamp: 
    secs: 1561682300
    nsecs: 365873482
  frame_id: "ti_mmwave"
point_id: 18
x: 0.041015625
y: -0.033203125
z: 0.0625
range: 0.0871539413929
velocity: 0.0
doppler_bin: 8
bearing: -38.9909973145
intensity: 30.0774784088
---
header: 
  seq: 654346
  stamp: 
    secs: 1561682300
    nsecs: 365881659
  frame_id: "ti_mmwave"
point_id: 19
x: 0.052734375
y: -0.04296875
z: 0.1015625
range: 0.130730912089
velocity: 0.0
doppler_bin: 8
bearing: -39.1736602783
intensity: 28.9652614594
---
header: 
  seq: 654347
  stamp: 
    secs: 1561682300
    nsecs: 365891098
  frame_id: "ti_mmwave"
point_id: 21
x: 2.759765625
y: -2.00390625
z: -3.05859375
range: 4.88062095642
velocity: 0.0
doppler_bin: 8
bearing: -35.9839515686
intensity: 27.8675136566
---
header: 
  seq: 654348
  stamp: 
    secs: 1561682300
    nsecs: 424248275
  frame_id: "ti_mmwave"
point_id: 0
x: 0.01171875
y: -0.0390625
z: -0.0078125
range: 0.0435769706964
velocity: 0.0
doppler_bin: 8
bearing: -73.3007583618
intensity: 30.6892757416
---
header: 
  seq: 654349
  stamp: 
    secs: 1561682300
    nsecs: 424335047
  frame_id: "ti_mmwave"
point_id: 1
x: 0.017578125
y: -0.080078125
z: -0.0078125
range: 0.0871539413929
velocity: 0.0
doppler_bin: 8
bearing: -77.6192398071
intensity: 31.9312458038
---
header: 
  seq: 654350
  stamp: 
    secs: 1561682300
    nsecs: 424354173
  frame_id: "ti_mmwave"
point_id: 2
x: 0.029296875
y: -0.119140625
z: -0.005859375
range: 0.130730912089
velocity: 0.0
doppler_bin: 8
bearing: -76.1849746704
intensity: 30.1911621094
---
header: 
  seq: 654351
  stamp: 
    secs: 1561682300
    nsecs: 424368113
  frame_id: "ti_mmwave"
point_id: 3
x: 0.056640625
y: -0.154296875
z: 0.005859375
range: 0.174307882786
velocity: 0.0
doppler_bin: 8
bearing: -69.8423843384
intensity: 25.4654273987
---
header: 
  seq: 654352
  stamp: 
    secs: 1561682300
    nsecs: 424394476
  frame_id: "ti_mmwave"
point_id: 4
x: 0.572265625
y: -0.080078125
z: 1.12890625
range: 1.35088610649
velocity: 0.0
doppler_bin: 8
bearing: -7.96577453613
intensity: 21.5533599854
---
header: 
  seq: 654353
  stamp: 
    secs: 1561682300
    nsecs: 424493026
  frame_id: "ti_mmwave"
point_id: 5
x: 0.794921875
y: -0.041015625
z: 1.0390625
range: 1.39446306229
velocity: 0.0
doppler_bin: 8
bearing: -2.95367383957
intensity: 22.9446620941
---
header: 
  seq: 654354
  stamp: 
    secs: 1561682300
    nsecs: 424515680
  frame_id: "ti_mmwave"
point_id: 6
x: 0.78125
y: -0.04296875
z: 1.099609375
range: 1.43804001808
velocity: 0.0
doppler_bin: 8
bearing: -3.14809608459
intensity: 22.1218757629
---
header: 
  seq: 654355
  stamp: 
    secs: 1561682300
    nsecs: 424528290
  frame_id: "ti_mmwave"
point_id: 7
x: 0.501953125
y: -0.0
z: -1.296875
range: 1.48161697388
velocity: 0.0
doppler_bin: 8
bearing: -0.0
intensity: 21.5836257935
---
header: 
  seq: 654356
  stamp: 
    secs: 1561682300
    nsecs: 424539368
  frame_id: "ti_mmwave"
point_id: 8
x: 2.556640625
y: -0.263671875
z: 1.1640625
range: 3.00681090355
velocity: 0.0
doppler_bin: 8
bearing: -5.88822031021
intensity: 29.5133743286
---
header: 
  seq: 654357
  stamp: 
    secs: 1561682300
    nsecs: 424548318
  frame_id: "ti_mmwave"
point_id: 9
x: 2.60546875
y: -0.267578125
z: 1.15625
range: 3.05038785934
velocity: 0.0
doppler_bin: 8
bearing: -5.86364221573
intensity: 32.7485046387
---
header: 
  seq: 654358
  stamp: 
    secs: 1561682300
    nsecs: 424583047
  frame_id: "ti_mmwave"
point_id: 10
x: 2.662109375
y: -0.181640625
z: 1.146484375
range: 3.09396481514
velocity: 0.0
doppler_bin: 8
bearing: -3.90334677696
intensity: 31.9395904541
---
header: 
  seq: 654359
  stamp: 
    secs: 1561682300
    nsecs: 424620655
  frame_id: "ti_mmwave"
point_id: 11
x: 4.419921875
y: -0.287109375
z: 1.173828125
range: 4.88062095642
velocity: 0.0
doppler_bin: 8
bearing: -3.71659874916
intensity: 30.8206691742
---
header: 
  seq: 654360
  stamp: 
    secs: 1561682300
    nsecs: 424715393
  frame_id: "ti_mmwave"
point_id: 12
x: 4.453125
y: -0.2890625
z: 1.205078125
range: 4.9241976738
velocity: 0.0
doppler_bin: 8
bearing: -3.71398925781
intensity: 30.358297348
---
header: 
  seq: 654361
  stamp: 
    secs: 1561682300
    nsecs: 424734562
  frame_id: "ti_mmwave"
point_id: 13
x: 4.73828125
y: -0.44921875
z: -0.49609375
range: 5.09850549698
velocity: 0.0
doppler_bin: 8
bearing: -5.4158115387
intensity: 32.8194198608
---
header: 
  seq: 654362
  stamp: 
    secs: 1561682300
    nsecs: 424747947
  frame_id: "ti_mmwave"
point_id: 14
x: 4.78515625
y: -0.453125
z: -0.451171875
range: 5.14208269119
velocity: 0.0
doppler_bin: 8
bearing: -5.40942907333
intensity: 33.5044174194
---
header: 
  seq: 654363
  stamp: 
    secs: 1561682300
    nsecs: 424759775
  frame_id: "ti_mmwave"
point_id: 15
x: 4.833984375
y: -0.45703125
z: -0.35546875
range: 5.18565940857
velocity: 0.0
doppler_bin: 8
bearing: -5.40100049973
intensity: 30.3261871338
---
header: 
  seq: 654364
  stamp: 
    secs: 1561682300
    nsecs: 424772264
  frame_id: "ti_mmwave"
point_id: 16
x: 4.880859375
y: -0.30859375
z: 0.767578125
range: 5.27281332016
velocity: 0.0
doppler_bin: 8
bearing: -3.61772704124
intensity: 30.6182937622
---
header: 
  seq: 654365
  stamp: 
    secs: 1561682300
    nsecs: 424789566
  frame_id: "ti_mmwave"
point_id: 18
x: 0.041015625
y: -0.033203125
z: 0.0625
range: 0.0871539413929
velocity: 0.0
doppler_bin: 8
bearing: -38.9909973145
intensity: 30.0774784088
---
header: 
  seq: 654366
  stamp: 
    secs: 1561682300
    nsecs: 424803753
  frame_id: "ti_mmwave"
point_id: 19
x: 0.052734375
y: -0.04296875
z: 0.1015625
range: 0.130730912089
velocity: 0.0
doppler_bin: 8
bearing: -39.1736602783
intensity: 28.9652614594
---
header: 
  seq: 654367
  stamp: 
    secs: 1561682300
    nsecs: 425838305
  frame_id: "ti_mmwave"
point_id: 0
x: 0.01171875
y: -0.0390625
z: -0.0078125
range: 0.0435769706964
velocity: 0.0
doppler_bin: 8
bearing: -73.3007583618
intensity: 30.696680069
---
header: 
  seq: 654368
  stamp: 
    secs: 1561682300
    nsecs: 425869226
  frame_id: "ti_mmwave"
point_id: 1
x: 0.017578125
y: -0.080078125
z: -0.0078125
range: 0.0871539413929
velocity: 0.0
doppler_bin: 8
bearing: -77.6192398071
intensity: 31.9340286255
---
header: 
  seq: 654369
  stamp: 
    secs: 1561682300
    nsecs: 425880319
  frame_id: "ti_mmwave"
point_id: 2
x: 0.029296875
y: -0.119140625
z: -0.005859375
range: 0.130730912089
velocity: 0.0
doppler_bin: 8
bearing: -76.1849746704
intensity: 30.1911621094
---
header: 
  seq: 654370
  stamp: 
    secs: 1561682300
    nsecs: 425888957
  frame_id: "ti_mmwave"
point_id: 3
x: 0.056640625
y: -0.154296875
z: 0.005859375
range: 0.174307882786
velocity: 0.0
doppler_bin: 8
bearing: -69.8423843384
intensity: 25.4654273987
---
header: 
  seq: 654371
  stamp: 
    secs: 1561682300
    nsecs: 425896852
  frame_id: "ti_mmwave"
point_id: 4
x: 0.8046875
y: -0.0390625
z: -0.978515625
range: 1.35088610649
velocity: 0.0
doppler_bin: 8
bearing: -2.77916693687
intensity: 21.6435279846
---
header: 
  seq: 654372
  stamp: 
    secs: 1561682300
    nsecs: 425904430
  frame_id: "ti_mmwave"
point_id: 5
x: 0.572265625
y: -0.0
z: -1.177734375
range: 1.39446306229
velocity: 0.0
doppler_bin: 8
bearing: -0.0
intensity: 22.3804607391
---
header: 
  seq: 654373
  stamp: 
    secs: 1561682300
    nsecs: 425912488
  frame_id: "ti_mmwave"
point_id: 6
x: 1.28515625
y: -0.37890625
z: -0.169921875
range: 1.43804001808
velocity: 0.0
doppler_bin: 8
bearing: -16.4272460938
intensity: 20.0432128906
---
header: 
  seq: 654374
  stamp: 
    secs: 1561682300
    nsecs: 425921631
  frame_id: "ti_mmwave"
point_id: 7
x: 2.54296875
y: -0.263671875
z: 1.1953125
range: 3.00681090355
velocity: 0.0
doppler_bin: 8
bearing: -5.91965341568
intensity: 29.3449840546
---
header: 
  seq: 654375
  stamp: 
    secs: 1561682300
    nsecs: 425929613
  frame_id: "ti_mmwave"
point_id: 8
x: 2.603515625
y: -0.267578125
z: 1.162109375
range: 3.05038785934
velocity: 0.0
doppler_bin: 8
bearing: -5.8680100441
intensity: 32.704460144
---
header: 
  seq: 654376
  stamp: 
    secs: 1561682300
    nsecs: 425936957
  frame_id: "ti_mmwave"
point_id: 9
x: 2.6640625
y: -0.181640625
z: 1.14453125
range: 3.09396481514
velocity: 0.0
doppler_bin: 8
bearing: -3.90049386024
intensity: 31.945142746
---
header: 
  seq: 654377
  stamp: 
    secs: 1561682300
    nsecs: 425946083
  frame_id: "ti_mmwave"
point_id: 10
x: 4.419921875
y: -0.287109375
z: 1.173828125
range: 4.88062095642
velocity: 0.0
doppler_bin: 8
bearing: -3.71659874916
intensity: 30.8278541565
---
header: 
  seq: 654378
  stamp: 
    secs: 1561682300
    nsecs: 425954965
  frame_id: "ti_mmwave"
point_id: 11
x: 4.4765625
y: -0.2890625
z: 1.115234375
range: 4.9241976738
velocity: 0.0
doppler_bin: 8
bearing: -3.69459795952
intensity: 30.4766426086
---
header: 
  seq: 654379
  stamp: 
    secs: 1561682300
    nsecs: 425963193
  frame_id: "ti_mmwave"
point_id: 12
x: 4.68359375
y: -0.4453125
z: -0.62109375
range: 5.0549287796
velocity: 0.0
doppler_bin: 8
bearing: -5.43131160736
intensity: 29.5616836548
---
header: 
  seq: 654380
  stamp: 
    secs: 1561682300
    nsecs: 425972161
  frame_id: "ti_mmwave"
point_id: 13
x: 4.736328125
y: -0.44921875
z: -0.52734375
range: 5.09850549698
velocity: 0.0
doppler_bin: 8
bearing: -5.41803121567
intensity: 33.4044418335
---
header: 
  seq: 654381
  stamp: 
    secs: 1561682300
    nsecs: 425981040
  frame_id: "ti_mmwave"
point_id: 14
x: 4.78125
y: -0.453125
z: -0.482421875
range: 5.14208269119
velocity: 0.0
doppler_bin: 8
bearing: -5.41382265091
intensity: 34.2959098816
---
header: 
  seq: 654382
  stamp: 
    secs: 1561682300
    nsecs: 425989416
  frame_id: "ti_mmwave"
point_id: 15
x: 4.830078125
y: -0.45703125
z: -0.39453125
range: 5.18565940857
velocity: 0.0
doppler_bin: 8
bearing: -5.40534305573
intensity: 31.5533599854
---
header: 
  seq: 654383
  stamp: 
    secs: 1561682300
    nsecs: 426063173
  frame_id: "ti_mmwave"
point_id: 16
x: 4.88671875
y: -0.30859375
z: 0.73046875
range: 5.27281332016
velocity: 0.0
doppler_bin: 8
bearing: -3.61340069771
intensity: 30.561422348
---
header: 
  seq: 654384
  stamp: 
    secs: 1561682300
    nsecs: 426074538
  frame_id: "ti_mmwave"
point_id: 18
x: 0.041015625
y: -0.033203125
z: 0.0625
range: 0.0871539413929
velocity: 0.0
doppler_bin: 8
bearing: -38.9909973145
intensity: 30.0774784088
---
header: 
  seq: 654385
  stamp: 
    secs: 1561682300
    nsecs: 426084347
  frame_id: "ti_mmwave"
point_id: 19
x: 0.052734375
y: -0.04296875
z: 0.1015625
range: 0.130730912089
velocity: 0.0
doppler_bin: 8
bearing: -39.1736602783
intensity: 28.9597473145
---
header: 
  seq: 654386
  stamp: 
    secs: 1561682300
    nsecs: 426093936
  frame_id: "ti_mmwave"
point_id: 21
x: 1.078125
y: -0.515625
z: 0.423828125
range: 1.35088610649
velocity: 0.0
doppler_bin: 8
bearing: -25.5599651337
intensity: 19.3449840546
---
header: 
  seq: 654387
  stamp: 
    secs: 1561682300
    nsecs: 426101418
  frame_id: "ti_mmwave"
point_id: 22
x: 1.224609375
y: -0.44921875
z: 0.095703125
range: 1.39446306229
velocity: 0.0
doppler_bin: 8
bearing: -20.1443576813
intensity: 20.0
---
header: 
  seq: 654388
  stamp: 
    secs: 1561682300
    nsecs: 426110962
  frame_id: "ti_mmwave"
point_id: 23
x: 0.75
y: 0.083984375
z: 1.119140625
range: 1.43804001808
velocity: 0.0
doppler_bin: 8
bearing: 6.389316082
intensity: 20.0
---
header: 
  seq: 654389
  stamp: 
    secs: 1561682300
    nsecs: 426118926
  frame_id: "ti_mmwave"
point_id: 24
x: 2.76171875
y: -2.00390625
z: -3.056640625
range: 4.88062095642
velocity: 0.0
doppler_bin: 8
bearing: -35.9646835327
intensity: 27.8461723328
---
header: 
  seq: 654390
  stamp: 
    secs: 1561682300
    nsecs: 484228224
  frame_id: "ti_mmwave"
point_id: 0
x: 0.01171875
y: -0.0390625
z: -0.0078125
range: 0.0435769706964
velocity: 0.0
doppler_bin: 8
bearing: -73.3007583618
intensity: 30.6892757416
---
header: 
  seq: 654391
  stamp: 
    secs: 1561682300
    nsecs: 484314462
  frame_id: "ti_mmwave"
point_id: 1
x: 0.017578125
y: -0.080078125
z: -0.0078125
range: 0.0871539413929
velocity: 0.0
doppler_bin: 8
bearing: -77.6192398071
intensity: 31.9312458038
---
header: 
  seq: 654392
  stamp: 
    secs: 1561682300
    nsecs: 484337191
  frame_id: "ti_mmwave"
point_id: 2
x: 0.029296875
y: -0.119140625
z: -0.005859375
range: 0.130730912089
velocity: 0.0
doppler_bin: 8
bearing: -76.1849746704
intensity: 30.1953163147
---
header: 
  seq: 654393
  stamp: 
    secs: 1561682300
    nsecs: 484352369
  frame_id: "ti_mmwave"
point_id: 3
x: 0.056640625
y: -0.154296875
z: 0.005859375
range: 0.174307882786
velocity: 0.0
doppler_bin: 8
bearing: -69.8423843384
intensity: 25.4777469635
---
header: 
  seq: 654394
  stamp: 
    secs: 1561682300
    nsecs: 484366957
  frame_id: "ti_mmwave"
point_id: 4
x: 0.78515625
y: -0.119140625
z: 0.98828125
range: 1.35088610649
velocity: 0.0
doppler_bin: 8
bearing: -8.62831401825
intensity: 22.3804607391
---
header: 
  seq: 654395
  stamp: 
    secs: 1561682300
    nsecs: 484378898
  frame_id: "ti_mmwave"
point_id: 5
x: 1.015625
y: -0.041015625
z: 0.826171875
range: 1.39446306229
velocity: 0.0
doppler_bin: 8
bearing: -2.31261134148
intensity: 23.0963020325
---
header: 
  seq: 654396
  stamp: 
    secs: 1561682300
    nsecs: 484390092
  frame_id: "ti_mmwave"
point_id: 6
x: 1.099609375
y: -0.0
z: 0.783203125
range: 1.43804001808
velocity: 0.0
doppler_bin: 8
bearing: -0.0
intensity: 19.6848297119
---
header: 
  seq: 654397
  stamp: 
    secs: 1561682300
    nsecs: 484404065
  frame_id: "ti_mmwave"
point_id: 7
x: 2.552734375
y: -0.263671875
z: 1.17578125
range: 3.00681090355
velocity: 0.0
doppler_bin: 8
bearing: -5.89716720581
intensity: 29.380191803
---
header: 
  seq: 654398
  stamp: 
    secs: 1561682300
    nsecs: 484550837
  frame_id: "ti_mmwave"
point_id: 8
x: 2.607421875
y: -0.267578125
z: 1.15234375
range: 3.05038785934
velocity: 0.0
doppler_bin: 8
bearing: -5.85928010941
intensity: 32.7276954651
---
header: 
  seq: 654399
  stamp: 
    secs: 1561682300
    nsecs: 484591507
  frame_id: "ti_mmwave"
point_id: 9
x: 2.66796875
y: -0.181640625
z: 1.134765625
range: 3.09396481514
velocity: 0.0
doppler_bin: 8
bearing: -3.89480042458
intensity: 31.9589958191
---
header: 
  seq: 654400
  stamp: 
    secs: 1561682300
    nsecs: 484609346
  frame_id: "ti_mmwave"
point_id: 10
x: 4.42578125
y: -0.287109375
z: 1.15234375
range: 4.88062095642
velocity: 0.0
doppler_bin: 8
bearing: -3.7116920948
intensity: 30.8278541565
---
header: 
  seq: 654401
  stamp: 
    secs: 1561682300
    nsecs: 484626655
  frame_id: "ti_mmwave"
point_id: 11
x: 4.490234375
y: -0.2890625
z: 1.056640625
range: 4.9241976738
velocity: 0.0
doppler_bin: 8
bearing: -3.68338012695
intensity: 30.546131134
---
header: 
  seq: 654402
  stamp: 
    secs: 1561682300
    nsecs: 484640469
  frame_id: "ti_mmwave"
point_id: 12
x: 4.68359375
y: -0.4453125
z: -0.6171875
range: 5.0549287796
velocity: 0.0
doppler_bin: 8
bearing: -5.43131160736
intensity: 29.6425971985
---
header: 
  seq: 654403
  stamp: 
    secs: 1561682300
    nsecs: 484653695
  frame_id: "ti_mmwave"
point_id: 13
x: 4.736328125
y: -0.44921875
z: -0.529296875
range: 5.09850549698
velocity: 0.0
doppler_bin: 8
bearing: -5.41803121567
intensity: 33.8810119629
---
header: 
  seq: 654404
  stamp: 
    secs: 1561682300
    nsecs: 484661811
  frame_id: "ti_mmwave"
point_id: 14
x: 4.76171875
y: -0.603515625
z: -0.51171875
range: 5.14208269119
velocity: 0.0
doppler_bin: 8
bearing: -7.22333812714
intensity: 34.587890625
---
header: 
  seq: 654405
  stamp: 
    secs: 1561682300
    nsecs: 484736483
  frame_id: "ti_mmwave"
point_id: 15
x: 4.822265625
y: -0.45703125
z: -0.48828125
range: 5.18565940857
velocity: 0.0
doppler_bin: 8
bearing: -5.41404819489
intensity: 31.5956726074
---
header: 
  seq: 654406
  stamp: 
    secs: 1561682300
    nsecs: 484752323
  frame_id: "ti_mmwave"
point_id: 16
x: 4.880859375
y: -0.30859375
z: 0.763671875
range: 5.27281332016
velocity: 0.0
doppler_bin: 8
bearing: -3.61772704124
intensity: 30.6107540131
---
header: 
  seq: 654407
  stamp: 
    secs: 1561682300
    nsecs: 484767482
  frame_id: "ti_mmwave"
point_id: 18
x: 0.041015625
y: -0.033203125
z: 0.0625
range: 0.0871539413929
velocity: 0.0
doppler_bin: 8
bearing: -38.9909973145
intensity: 30.0774784088
---
header: 
  seq: 654408
  stamp: 
    secs: 1561682300
    nsecs: 484781835
  frame_id: "ti_mmwave"
point_id: 19
x: 0.052734375
y: -0.04296875
z: 0.1015625
range: 0.130730912089
velocity: 0.0
doppler_bin: 8
bearing: -39.1736602783
intensity: 28.9652614594
---
header: 
  seq: 654409
  stamp: 
    secs: 1561682300
    nsecs: 484795936
  frame_id: "ti_mmwave"
point_id: 21
x: 1.22265625
y: -0.421875
z: -0.384765625
range: 1.43804001808
velocity: 0.0
doppler_bin: 8
bearing: -19.0368881226
intensity: 18.2607479095
---
header: 
  seq: 654410
  stamp: 
    secs: 1561682300
    nsecs: 484807642
  frame_id: "ti_mmwave"
point_id: 22
x: 2.736328125
y: -2.00390625
z: -3.080078125
range: 4.88062095642
velocity: 0.0
doppler_bin: 8
bearing: -36.2165870667
intensity: 27.8461723328
---
header: 
  seq: 654411
  stamp: 
    secs: 1561682300
    nsecs: 485505877
  frame_id: "ti_mmwave"
point_id: 0
x: 0.01171875
y: -0.0390625
z: -0.0078125
range: 0.0435769706964
velocity: 0.0
doppler_bin: 8
bearing: -73.3007583618
intensity: 30.6892757416
---
header: 
  seq: 654412
  stamp: 
    secs: 1561682300
    nsecs: 485552212
  frame_id: "ti_mmwave"
point_id: 1
x: 0.017578125
y: -0.080078125
z: -0.0078125
range: 0.0871539413929
velocity: 0.0
doppler_bin: 8
bearing: -77.6192398071
intensity: 31.9312458038
---
header: 
  seq: 654413
  stamp: 
    secs: 1561682300
    nsecs: 485568000
  frame_id: "ti_mmwave"
point_id: 2
x: 0.029296875
y: -0.119140625
z: -0.005859375
range: 0.130730912089
velocity: 0.0
doppler_bin: 8
bearing: -76.1849746704
intensity: 30.1911621094
---
header: 
  seq: 654414
  stamp: 
    secs: 1561682300
    nsecs: 485583281
  frame_id: "ti_mmwave"
point_id: 3
x: 0.056640625
y: -0.154296875
z: 0.005859375
range: 0.174307882786
velocity: 0.0
doppler_bin: 8
bearing: -69.8423843384
intensity: 25.4654273987
---
header: 
  seq: 654415
  stamp: 
    secs: 1561682300
    nsecs: 485594943
  frame_id: "ti_mmwave"
point_id: 4
x: 0.779296875
y: -0.119140625
z: 0.994140625
range: 1.35088610649
velocity: 0.0
doppler_bin: 8
bearing: -8.69220161438
intensity: 21.0720996857
---
header: 
  seq: 654416
  stamp: 
    secs: 1561682300
    nsecs: 485700137
  frame_id: "ti_mmwave"
point_id: 5
x: 0.90625
y: -0.041015625
z: 0.943359375
range: 1.39446306229
velocity: 0.0
doppler_bin: 8
bearing: -2.59135937691
intensity: 22.6717166901
---
header: 
  seq: 654417
  stamp: 
    secs: 1561682300
    nsecs: 485732335
  frame_id: "ti_mmwave"
point_id: 6
x: 0.916015625
y: -0.04296875
z: 0.990234375
range: 1.43804001808
velocity: 0.0
doppler_bin: 8
bearing: -2.68567991257
intensity: 22.3299617767
---
header: 
  seq: 654418
  stamp: 
    secs: 1561682300
    nsecs: 485742274
  frame_id: "ti_mmwave"
point_id: 7
x: 0.791015625
y: -0.0
z: -1.142578125
range: 1.48161697388
velocity: 0.0
doppler_bin: 8
bearing: -0.0
intensity: 22.2788677216
---
header: 
  seq: 654419
  stamp: 
    secs: 1561682300
    nsecs: 485794262
  frame_id: "ti_mmwave"
point_id: 8
x: 2.541015625
y: -0.263671875
z: 1.201171875
range: 3.00681090355
velocity: 0.0
doppler_bin: 8
bearing: -5.92417097092
intensity: 29.3196620941
---
header: 
  seq: 654420
  stamp: 
    secs: 1561682300
    nsecs: 485808708
  frame_id: "ti_mmwave"
point_id: 9
x: 2.603515625
y: -0.267578125
z: 1.162109375
range: 3.05038785934
velocity: 0.0
doppler_bin: 8
bearing: -5.8680100441
intensity: 32.7067871094
---
header: 
  seq: 654421
  stamp: 
    secs: 1561682300
    nsecs: 485824624
  frame_id: "ti_mmwave"
point_id: 10
x: 2.666015625
y: -0.181640625
z: 1.140625
range: 3.09396481514
velocity: 0.0
doppler_bin: 8
bearing: -3.89764523506
intensity: 31.9506893158
---
header: 
  seq: 654422
  stamp: 
    secs: 1561682300
    nsecs: 485844419
  frame_id: "ti_mmwave"
point_id: 11
x: 4.416015625
y: -0.287109375
z: 1.1875
range: 4.88062095642
velocity: 0.0
doppler_bin: 8
bearing: -3.71987724304
intensity: 30.7664051056
---
header: 
  seq: 654423
  stamp: 
    secs: 1561682300
    nsecs: 485863690
  frame_id: "ti_mmwave"
point_id: 12
x: 4.470703125
y: -0.2890625
z: 1.138671875
range: 4.9241976738
velocity: 0.0
doppler_bin: 8
bearing: -3.69942688942
intensity: 30.3342380524
---
header: 
  seq: 654424
  stamp: 
    secs: 1561682300
    nsecs: 486010549
  frame_id: "ti_mmwave"
point_id: 13
x: 4.740234375
y: -0.44921875
z: -0.478515625
range: 5.09850549698
velocity: 0.0
doppler_bin: 8
bearing: -5.41359329224
intensity: 32.1590194702
---
header: 
  seq: 654425
  stamp: 
    secs: 1561682300
    nsecs: 486055374
  frame_id: "ti_mmwave"
point_id: 14
x: 4.78125
y: -0.453125
z: -0.486328125
range: 5.14208269119
velocity: 0.0
doppler_bin: 8
bearing: -5.41382265091
intensity: 32.8330116272
---
header: 
  seq: 654426
  stamp: 
    secs: 1561682300
    nsecs: 486070908
  frame_id: "ti_mmwave"
point_id: 15
x: 4.8828125
y: -0.30859375
z: 0.751953125
range: 5.27281332016
velocity: 0.0
doppler_bin: 8
bearing: -3.61628341675
intensity: 30.5346260071
---
header: 
  seq: 654427
  stamp: 
    secs: 1561682300
    nsecs: 486091610
  frame_id: "ti_mmwave"
point_id: 17
x: 0.041015625
y: -0.033203125
z: 0.0625
range: 0.0871539413929
velocity: 0.0
doppler_bin: 8
bearing: -38.9909973145
intensity: 30.0774784088
---
header: 
  seq: 654428
  stamp: 
    secs: 1561682300
    nsecs: 486128940
  frame_id: "ti_mmwave"
point_id: 18
x: 0.052734375
y: -0.04296875
z: 0.1015625
range: 0.130730912089
velocity: 0.0
doppler_bin: 8
bearing: -39.1736602783
intensity: 28.9597473145
---
header: 
  seq: 654429
  stamp: 
    secs: 1561682300
    nsecs: 486145966
  frame_id: "ti_mmwave"
point_id: 20
x: 1.216796875
y: 0.357421875
z: -0.01171875
range: 1.35088610649
velocity: 0.0
doppler_bin: 8
bearing: 16.3696231842
intensity: 18.325088501
---
header: 
  seq: 654430
  stamp: 
    secs: 1561682300
    nsecs: 486160412
  frame_id: "ti_mmwave"
point_id: 21
x: 2.822265625
y: -2.00390625
z: -3.0
range: 4.88062095642
velocity: 0.0
doppler_bin: 8
bearing: -35.3760719299
intensity: 27.8031730652
---
header: 
  seq: 654431
  stamp: 
    secs: 1561682300
    nsecs: 544218888
  frame_id: "ti_mmwave"
point_id: 0
x: 0.01171875
y: -0.0390625
z: -0.0078125
range: 0.0435769706964
velocity: 0.0
doppler_bin: 8
bearing: -73.3007583618
intensity: 30.6892757416
---
header: 
  seq: 654432
  stamp: 
    secs: 1561682300
    nsecs: 544316072
  frame_id: "ti_mmwave"
point_id: 1
x: 0.017578125
y: -0.080078125
z: -0.0078125
range: 0.0871539413929
velocity: 0.0
doppler_bin: 8
bearing: -77.6192398071
intensity: 31.9340286255
---
header: 
  seq: 654433
  stamp: 
    secs: 1561682300
    nsecs: 544338411
  frame_id: "ti_mmwave"
point_id: 2
x: 0.029296875
y: -0.119140625
z: -0.005859375
range: 0.130730912089
velocity: 0.0
doppler_bin: 8
bearing: -76.1849746704
intensity: 30.1953163147
---
header: 
  seq: 654434
  stamp: 
    secs: 1561682300
    nsecs: 544356042
  frame_id: "ti_mmwave"
point_id: 3
x: 0.056640625
y: -0.154296875
z: 0.005859375
range: 0.174307882786
velocity: 0.0
doppler_bin: 8
bearing: -69.8423843384
intensity: 25.4777469635
---
header: 
  seq: 654435
  stamp: 
    secs: 1561682300
    nsecs: 544370046
  frame_id: "ti_mmwave"
point_id: 4
x: 1.16015625
y: -0.158203125
z: 0.484375
range: 1.35088610649
velocity: 0.0
doppler_bin: 8
bearing: -7.76516628265
intensity: 22.8555736542
---
header: 
  seq: 654436
  stamp: 
    secs: 1561682300
    nsecs: 544381525
  frame_id: "ti_mmwave"
point_id: 5
x: 1.29296875
y: -0.1640625
z: 0.126953125
range: 1.39446306229
velocity: 0.0
doppler_bin: 8
bearing: -7.23151397705
intensity: 26.0745506287
---
header: 
  seq: 654437
  stamp: 
    secs: 1561682300
    nsecs: 544394011
  frame_id: "ti_mmwave"
point_id: 6
x: 1.34375
y: -0.126953125
z: -0.0234375
range: 1.43804001808
velocity: 0.0
doppler_bin: 8
bearing: -5.3970990181
intensity: 26.6745300293
---
header: 
  seq: 654438
  stamp: 
    secs: 1561682300
    nsecs: 544404571
  frame_id: "ti_mmwave"
point_id: 7
x: 1.384765625
y: -0.130859375
z: -0.013671875
range: 1.48161697388
velocity: 0.0
doppler_bin: 8
bearing: -5.3983798027
intensity: 25.5630245209
---
header: 
  seq: 654439
  stamp: 
    secs: 1561682300
    nsecs: 544413098
  frame_id: "ti_mmwave"
point_id: 8
x: 1.419921875
y: -0.134765625
z: 0.130859375
range: 1.52519392967
velocity: 0.0
doppler_bin: 8
bearing: -5.42173528671
intensity: 24.5939254761
---
header: 
  seq: 654440
  stamp: 
    secs: 1561682300
    nsecs: 544438613
  frame_id: "ti_mmwave"
point_id: 9
x: 1.46875
y: -0.091796875
