header: 
  seq: 681231
  stamp: 
    secs: 1561682344
    nsecs: 944170480
  frame_id: "ti_mmwave"
point_id: 0
x: 0.01171875
y: -0.0390625
z: -0.0078125
range: 0.0435769706964
velocity: 0.0
doppler_bin: 8
bearing: -73.3007583618
intensity: 30.6855697632
---
header: 
  seq: 681232
  stamp: 
    secs: 1561682344
    nsecs: 944245938
  frame_id: "ti_mmwave"
point_id: 1
x: 0.017578125
y: -0.080078125
z: -0.0078125
range: 0.0871539413929
velocity: 0.0
doppler_bin: 8
bearing: -77.6192398071
intensity: 31.9256744385
---
header: 
  seq: 681233
  stamp: 
    secs: 1561682344
    nsecs: 944259010
  frame_id: "ti_mmwave"
point_id: 2
x: 0.029296875
y: -0.119140625
z: -0.005859375
range: 0.130730912089
velocity: 0.0
doppler_bin: 8
bearing: -76.1849746704
intensity: 30.1870040894
---
header: 
  seq: 681234
  stamp: 
    secs: 1561682344
    nsecs: 944267839
  frame_id: "ti_mmwave"
point_id: 3
x: 0.056640625
y: -0.154296875
z: 0.005859375
range: 0.174307882786
velocity: 0.0
doppler_bin: 8
bearing: -69.8423843384
intensity: 25.4654273987
---
header: 
  seq: 681235
  stamp: 
    secs: 1561682344
    nsecs: 944276139
  frame_id: "ti_mmwave"
point_id: 4
x: 1.107421875
y: -0.119140625
z: 0.607421875
range: 1.35088610649
velocity: 0.0
doppler_bin: 8
bearing: -6.14047861099
intensity: 23.2428245544
---
header: 
  seq: 681236
  stamp: 
    secs: 1561682344
    nsecs: 944283948
  frame_id: "ti_mmwave"
point_id: 5
x: 0.953125
y: -0.08203125
z: 0.89453125
range: 1.39446306229
velocity: 0.0
doppler_bin: 8
bearing: -4.91907215118
intensity: 23.2428245544
---
header: 
  seq: 681237
  stamp: 
    secs: 1561682344
    nsecs: 944293764
  frame_id: "ti_mmwave"
point_id: 6
x: 0.447265625
y: -0.0
z: 1.2734375
range: 1.43804001808
velocity: 0.0
doppler_bin: 8
bearing: -0.0
intensity: 21.8469142914
---
header: 
  seq: 681238
  stamp: 
    secs: 1561682344
    nsecs: 944302139
  frame_id: "ti_mmwave"
point_id: 7
x: 2.548828125
y: -0.263671875
z: 1.18359375
range: 3.00681090355
velocity: 0.0
doppler_bin: 8
bearing: -5.90614128113
intensity: 29.3851966858
---
header: 
  seq: 681239
  stamp: 
    secs: 1561682344
    nsecs: 944310378
  frame_id: "ti_mmwave"
point_id: 8
x: 2.603515625
y: -0.267578125
z: 1.16015625
range: 3.05038785934
velocity: 0.0
doppler_bin: 8
bearing: -5.8680100441
intensity: 32.7067871094
---
header: 
  seq: 681240
  stamp: 
    secs: 1561682344
    nsecs: 944318146
  frame_id: "ti_mmwave"
point_id: 9
x: 2.6640625
y: -0.181640625
z: 1.142578125
range: 3.09396481514
velocity: 0.0
doppler_bin: 8
bearing: -3.90049386024
intensity: 31.9506893158
---
header: 
  seq: 681241
  stamp: 
    secs: 1561682344
    nsecs: 944328044
  frame_id: "ti_mmwave"
point_id: 10
x: 4.423828125
y: -0.287109375
z: 1.16015625
range: 4.88062095642
velocity: 0.0
doppler_bin: 8
bearing: -3.71332621574
intensity: 30.8350257874
---
header: 
  seq: 681242
  stamp: 
    secs: 1561682344
    nsecs: 944336377
  frame_id: "ti_mmwave"
point_id: 11
x: 4.490234375
y: -0.2890625
z: 1.05859375
range: 4.9241976738
velocity: 0.0
doppler_bin: 8
bearing: -3.68338012695
intensity: 30.5384635925
---
header: 
  seq: 681243
  stamp: 
    secs: 1561682344
    nsecs: 944344777
  frame_id: "ti_mmwave"
point_id: 12
x: 4.68359375
y: -0.4453125
z: -0.625
range: 5.0549287796
velocity: 0.0
doppler_bin: 8
bearing: -5.43131160736
intensity: 29.7589111328
---
header: 
  seq: 681244
  stamp: 
    secs: 1561682344
    nsecs: 944353901
  frame_id: "ti_mmwave"
point_id: 13
x: 4.734375
y: -0.44921875
z: -0.53515625
range: 5.09850549698
velocity: 0.0
doppler_bin: 8
bearing: -5.42025327682
intensity: 33.7639427185
---
header: 
  seq: 681245
  stamp: 
    secs: 1561682344
    nsecs: 944361969
  frame_id: "ti_mmwave"
point_id: 14
x: 4.78125
y: -0.453125
z: -0.494140625
range: 5.14208269119
velocity: 0.0
doppler_bin: 8
bearing: -5.41382265091
intensity: 34.5697288513
---
header: 
  seq: 681246
  stamp: 
    secs: 1561682344
    nsecs: 944370135
  frame_id: "ti_mmwave"
point_id: 15
x: 4.828125
y: -0.45703125
z: -0.4140625
range: 5.18565940857
velocity: 0.0
doppler_bin: 8
bearing: -5.40751647949
intensity: 31.562461853
---
header: 
  seq: 681247
  stamp: 
    secs: 1561682344
    nsecs: 944380737
  frame_id: "ti_mmwave"
point_id: 16
x: 4.876953125
y: -0.30859375
z: 0.78125
range: 5.27281332016
velocity: 0.0
doppler_bin: 8
bearing: -3.62061715126
intensity: 30.546131134
---
header: 
  seq: 681248
  stamp: 
    secs: 1561682344
    nsecs: 944532110
  frame_id: "ti_mmwave"
point_id: 18
x: 0.041015625
y: -0.033203125
z: 0.0625
range: 0.0871539413929
velocity: 0.0
doppler_bin: 8
bearing: -38.9909973145
intensity: 30.0732097626
---
header: 
  seq: 681249
  stamp: 
    secs: 1561682344
    nsecs: 944553605
  frame_id: "ti_mmwave"
point_id: 19
x: 0.052734375
y: -0.04296875
z: 0.1015625
range: 0.130730912089
velocity: 0.0
doppler_bin: 8
bearing: -39.1736602783
intensity: 28.9542255402
---
header: 
  seq: 681250
  stamp: 
    secs: 1561682344
    nsecs: 945769736
  frame_id: "ti_mmwave"
point_id: 0
x: 0.01171875
y: -0.0390625
z: -0.0078125
range: 0.0435769706964
velocity: 0.0
doppler_bin: 8
bearing: -73.3007583618
intensity: 30.6892757416
---
header: 
  seq: 681251
  stamp: 
    secs: 1561682344
    nsecs: 945837006
  frame_id: "ti_mmwave"
point_id: 1
x: 0.017578125
y: -0.080078125
z: -0.0078125
range: 0.0871539413929
velocity: 0.0
doppler_bin: 8
bearing: -77.6192398071
intensity: 31.9256744385
---
header: 
  seq: 681252
  stamp: 
    secs: 1561682344
    nsecs: 945858276
  frame_id: "ti_mmwave"
point_id: 2
x: 0.029296875
y: -0.119140625
z: -0.005859375
range: 0.130730912089
velocity: 0.0
doppler_bin: 8
bearing: -76.1849746704
intensity: 30.1870040894
---
header: 
  seq: 681253
  stamp: 
    secs: 1561682344
    nsecs: 945873668
  frame_id: "ti_mmwave"
point_id: 3
x: 0.056640625
y: -0.154296875
z: 0.005859375
range: 0.174307882786
velocity: 0.0
doppler_bin: 8
bearing: -69.8423843384
intensity: 25.4654273987
---
header: 
  seq: 681254
  stamp: 
    secs: 1561682344
    nsecs: 945935240
  frame_id: "ti_mmwave"
point_id: 4
x: 1.197265625
y: -0.0
z: -0.265625
range: 1.3073091507
velocity: 0.0
doppler_bin: 8
bearing: -0.0
intensity: 19.3449840546
---
header: 
  seq: 681255
  stamp: 
    secs: 1561682344
    nsecs: 945945135
  frame_id: "ti_mmwave"
point_id: 5
x: 1.048828125
y: -0.0
z: -0.7109375
range: 1.35088610649
velocity: 0.0
doppler_bin: 8
bearing: -0.0
intensity: 19.5904140472
---
header: 
  seq: 681256
  stamp: 
    secs: 1561682344
    nsecs: 945953294
  frame_id: "ti_mmwave"
point_id: 6
x: 0.453125
y: -0.041015625
z: -1.228515625
range: 1.39446306229
velocity: 0.0
doppler_bin: 8
bearing: -5.17216062546
intensity: 21.9033164978
---
header: 
  seq: 681257
  stamp: 
    secs: 1561682344
    nsecs: 945964616
  frame_id: "ti_mmwave"
point_id: 7
x: 0.5546875
y: -0.04296875
z: 1.23046875
range: 1.43804001808
velocity: 0.0
doppler_bin: 8
bearing: -4.42955970764
intensity: 22.3044891357
---
header: 
  seq: 681258
  stamp: 
    secs: 1561682344
    nsecs: 945972329
  frame_id: "ti_mmwave"
point_id: 8
x: 1.271484375
y: -0.283203125
z: -0.76953125
range: 1.61234796047
velocity: 0.0
doppler_bin: 8
bearing: -12.5567617416
intensity: 23.3645973206
---
header: 
  seq: 681259
  stamp: 
    secs: 1561682344
    nsecs: 945979731
  frame_id: "ti_mmwave"
point_id: 9
x: 2.546875
y: -0.263671875
z: 1.1875
range: 3.00681090355
velocity: 0.0
doppler_bin: 8
bearing: -5.91063833237
intensity: 29.3550720215
---
header: 
  seq: 681260
  stamp: 
    secs: 1561682344
    nsecs: 945987956
  frame_id: "ti_mmwave"
point_id: 10
x: 2.60546875
y: -0.267578125
z: 1.158203125
range: 3.05038785934
velocity: 0.0
doppler_bin: 8
bearing: -5.86364221573
intensity: 32.6974639893
---
header: 
  seq: 681261
  stamp: 
    secs: 1561682344
    nsecs: 946031730
  frame_id: "ti_mmwave"
point_id: 11
x: 2.666015625
y: -0.181640625
z: 1.13671875
range: 3.09396481514
velocity: 0.0
doppler_bin: 8
bearing: -3.89764523506
intensity: 31.9340286255
---
header: 
  seq: 681262
  stamp: 
    secs: 1561682344
    nsecs: 946040344
  frame_id: "ti_mmwave"
point_id: 12
x: 4.419921875
y: -0.287109375
z: 1.169921875
range: 4.88062095642
velocity: 0.0
doppler_bin: 8
bearing: -3.71659874916
intensity: 30.8026561737
---
header: 
  seq: 681263
  stamp: 
    secs: 1561682344
    nsecs: 946048299
  frame_id: "ti_mmwave"
point_id: 13
x: 4.48046875
y: -0.2890625
z: 1.095703125
range: 4.9241976738
velocity: 0.0
doppler_bin: 8
bearing: -3.69138598442
intensity: 30.4493160248
---
header: 
  seq: 681264
  stamp: 
    secs: 1561682344
    nsecs: 946061826
  frame_id: "ti_mmwave"
point_id: 14
x: 4.73828125
y: -0.44921875
z: -0.50390625
range: 5.09850549698
velocity: 0.0
doppler_bin: 8
bearing: -5.4158115387
intensity: 33.455696106
---
header: 
  seq: 681265
  stamp: 
    secs: 1561682344
    nsecs: 946077519
  frame_id: "ti_mmwave"
point_id: 15
x: 4.779296875
y: -0.453125
z: -0.498046875
range: 5.14208269119
velocity: 0.0
doppler_bin: 8
bearing: -5.41602182388
intensity: 34.2618598938
---
header: 
  seq: 681266
  stamp: 
    secs: 1561682344
    nsecs: 946086226
  frame_id: "ti_mmwave"
point_id: 16
x: 4.818359375
y: -0.45703125
z: -0.525390625
range: 5.18565940857
velocity: 0.0
doppler_bin: 8
bearing: -5.41841077805
intensity: 31.0890312195
---
header: 
  seq: 681267
  stamp: 
    secs: 1561682344
    nsecs: 946155424
  frame_id: "ti_mmwave"
point_id: 17
x: 4.875
y: -0.30859375
z: 0.796875
range: 5.27281332016
velocity: 0.0
doppler_bin: 8
bearing: -3.62206339836
intensity: 30.3981056213
---
header: 
  seq: 681268
  stamp: 
    secs: 1561682344
    nsecs: 946171026
  frame_id: "ti_mmwave"
point_id: 19
x: 0.041015625
y: -0.033203125
z: 0.0625
range: 0.0871539413929
velocity: 0.0
doppler_bin: 8
bearing: -38.9909973145
intensity: 30.0774784088
---
header: 
  seq: 681269
  stamp: 
    secs: 1561682344
    nsecs: 946178769
  frame_id: "ti_mmwave"
point_id: 20
x: 0.052734375
y: -0.04296875
z: 0.1015625
range: 0.130730912089
velocity: 0.0
doppler_bin: 8
bearing: -39.1736602783
intensity: 28.9597473145
---
header: 
  seq: 681270
  stamp: 
    secs: 1561682344
    nsecs: 946188142
  frame_id: "ti_mmwave"
point_id: 22
x: 0.755859375
y: -0.4609375
z: 0.849609375
range: 1.3073091507
velocity: 0.0
doppler_bin: 8
bearing: -31.3756351471
intensity: 18.4509811401
---
header: 
  seq: 681271
  stamp: 
    secs: 1561682344
    nsecs: 946197777
  frame_id: "ti_mmwave"
point_id: 23
x: 1.056640625
y: -0.435546875
z: 0.55078125
range: 1.35088610649
velocity: 0.0
doppler_bin: 8
bearing: -22.4014377594
intensity: 19.0308990479
---
header: 
  seq: 681272
  stamp: 
    secs: 1561682344
    nsecs: 946208057
  frame_id: "ti_mmwave"
point_id: 24
x: 0.443359375
y: 0.615234375
z: 1.310546875
range: 1.61234796047
velocity: 0.0
doppler_bin: 8
bearing: 54.2221603394
intensity: 23.0749607086
---
header: 
  seq: 681273
  stamp: 
    secs: 1561682345
    nsecs:   5342058
  frame_id: "ti_mmwave"
point_id: 0
x: 0.01171875
y: -0.0390625
z: -0.0078125
range: 0.0435769706964
velocity: 0.0
doppler_bin: 8
bearing: -73.3007583618
intensity: 30.696680069
---
header: 
  seq: 681274
  stamp: 
    secs: 1561682345
    nsecs:   5414808
  frame_id: "ti_mmwave"
point_id: 1
x: 0.017578125
y: -0.080078125
z: -0.0078125
range: 0.0871539413929
velocity: 0.0
doppler_bin: 8
bearing: -77.6192398071
intensity: 31.9284610748
---
header: 
  seq: 681275
  stamp: 
    secs: 1561682345
    nsecs:   5425788
  frame_id: "ti_mmwave"
point_id: 2
x: 0.029296875
y: -0.119140625
z: -0.005859375
range: 0.130730912089
velocity: 0.0
doppler_bin: 8
bearing: -76.1849746704
intensity: 30.1870040894
---
header: 
  seq: 681276
  stamp: 
    secs: 1561682345
    nsecs:   5434345
  frame_id: "ti_mmwave"
point_id: 3
x: 0.056640625
y: -0.154296875
z: 0.005859375
range: 0.174307882786
velocity: 0.0
doppler_bin: 8
bearing: -69.8423843384
intensity: 25.4654273987
---
header: 
  seq: 681277
  stamp: 
    secs: 1561682345
    nsecs:   5444991
  frame_id: "ti_mmwave"
point_id: 4
x: 1.20703125
y: -0.154296875
z: 0.16015625
range: 1.3073091507
velocity: 0.0
doppler_bin: 8
bearing: -7.28470945358
intensity: 20.5690479279
---
header: 
  seq: 681278
  stamp: 
    secs: 1561682345
    nsecs:   5453592
  frame_id: "ti_mmwave"
point_id: 5
x: 1.228515625
y: -0.158203125
z: 0.2734375
range: 1.35088610649
velocity: 0.0
doppler_bin: 8
bearing: -7.33792734146
intensity: 23.6548805237
---
header: 
  seq: 681279
  stamp: 
    secs: 1561682345
    nsecs:   5461141
  frame_id: "ti_mmwave"
point_id: 6
x: 1.1953125
y: -0.123046875
z: 0.521484375
range: 1.39446306229
velocity: 0.0
doppler_bin: 8
bearing: -5.87739276886
intensity: 23.5410842896
---
header: 
  seq: 681280
  stamp: 
    secs: 1561682345
    nsecs:   5469792
  frame_id: "ti_mmwave"
point_id: 7
x: 0.865234375
y: -0.04296875
z: 1.03515625
range: 1.43804001808
velocity: 0.0
doppler_bin: 8
bearing: -2.84305286407
intensity: 22.5285301208
---
header: 
  seq: 681281
  stamp: 
    secs: 1561682345
    nsecs:   5482749
  frame_id: "ti_mmwave"
point_id: 8
x: 0.81640625
y: -0.0
z: -1.126953125
range: 1.48161697388
velocity: 0.0
doppler_bin: 8
bearing: -0.0
intensity: 21.9865703583
---
header: 
  seq: 681282
  stamp: 
    secs: 1561682345
    nsecs:   5494486
  frame_id: "ti_mmwave"
point_id: 9
x: 2.5546875
y: -0.263671875
z: 1.169921875
range: 3.00681090355
velocity: 0.0
doppler_bin: 8
bearing: -5.89269018173
intensity: 29.4151134491
---
header: 
  seq: 681283
  stamp: 
    secs: 1561682345
    nsecs:   5512604
  frame_id: "ti_mmwave"
point_id: 10
x: 2.60546875
y: -0.267578125
z: 1.158203125
range: 3.05038785934
velocity: 0.0
doppler_bin: 8
bearing: -5.86364221573
intensity: 32.702129364
---
header: 
  seq: 681284
  stamp: 
    secs: 1561682345
    nsecs:   5702641
  frame_id: "ti_mmwave"
point_id: 11
x: 2.662109375
y: -0.181640625
z: 1.14453125
range: 3.09396481514
velocity: 0.0
doppler_bin: 8
bearing: -3.90334677696
intensity: 31.9395904541
---
header: 
  seq: 681285
  stamp: 
    secs: 1561682345
    nsecs:   5726849
  frame_id: "ti_mmwave"
point_id: 12
x: 4.41796875
y: -0.287109375
z: 1.17578125
range: 4.88062095642
velocity: 0.0
doppler_bin: 8
bearing: -3.71823716164
intensity: 30.7627620697
---
header: 
  seq: 681286
  stamp: 
    secs: 1561682345
    nsecs:   5735826
  frame_id: "ti_mmwave"
point_id: 13
x: 4.453125
y: -0.2890625
z: 1.208984375
range: 4.9241976738
velocity: 0.0
doppler_bin: 8
bearing: -3.71398925781
intensity: 30.1157035828
---
header: 
  seq: 681287
  stamp: 
    secs: 1561682345
    nsecs:   5741103
  frame_id: "ti_mmwave"
point_id: 14
x: 4.744140625
y: -0.44921875
z: -0.44921875
range: 5.09850549698
velocity: 0.0
doppler_bin: 8
bearing: -5.40916252136
intensity: 30.8990516663
---
header: 
  seq: 681288
  stamp: 
    secs: 1561682345
    nsecs:   5760938
  frame_id: "ti_mmwave"
point_id: 15
x: 4.783203125
y: -0.453125
z: -0.455078125
range: 5.14208269119
velocity: 0.0
doppler_bin: 8
bearing: -5.41162490845
intensity: 31.5075645447
---
header: 
  seq: 681289
  stamp: 
    secs: 1561682345
    nsecs:   5771960
  frame_id: "ti_mmwave"
point_id: 16
x: 4.87109375
y: -0.30859375
z: 0.822265625
range: 5.27281332016
velocity: 0.0
doppler_bin: 8
bearing: -3.62496066093
intensity: 30.5422992706
---
header: 
  seq: 681290
  stamp: 
    secs: 1561682345
    nsecs:   5817553
  frame_id: "ti_mmwave"
point_id: 18
x: 0.041015625
y: -0.033203125
z: 0.0625
range: 0.0871539413929
velocity: 0.0
doppler_bin: 8
bearing: -38.9909973145
intensity: 30.0774784088
---
header: 
  seq: 681291
  stamp: 
    secs: 1561682345
    nsecs:   5828235
  frame_id: "ti_mmwave"
point_id: 19
x: 0.044921875
y: -0.046875
z: 0.103515625
range: 0.130730912089
velocity: 0.0
doppler_bin: 8
bearing: -46.218875885
intensity: 28.9652614594
---
header: 
  seq: 681292
  stamp: 
    secs: 1561682345
    nsecs:   5840597
  frame_id: "ti_mmwave"
point_id: 21
x: 2.771484375
y: -2.00390625
z: -3.048828125
range: 4.88062095642
velocity: 0.0
doppler_bin: 8
bearing: -35.868598938
intensity: 27.7959651947
---
header: 
  seq: 681293
  stamp: 
    secs: 1561682345
    nsecs:   5853760
  frame_id: "ti_mmwave"
point_id: 22
x: 2.82421875
y: -2.021484375
z: -3.05078125
range: 4.9241976738
velocity: 0.0
doppler_bin: 8
bearing: -35.5938606262
intensity: 27.1516742706
---
header: 
  seq: 681294
  stamp: 
    secs: 1561682345
    nsecs:  64194676
  frame_id: "ti_mmwave"
point_id: 0
x: 0.01171875
y: -0.0390625
z: -0.0078125
range: 0.0435769706964
velocity: 0.0
doppler_bin: 8
bearing: -73.3007583618
intensity: 30.6929798126
---
header: 
  seq: 681295
  stamp: 
    secs: 1561682345
    nsecs:  64269093
  frame_id: "ti_mmwave"
point_id: 1
x: 0.017578125
y: -0.080078125
z: -0.0078125
range: 0.0871539413929
velocity: 0.0
doppler_bin: 8
bearing: -77.6192398071
intensity: 31.9284610748
---
header: 
  seq: 681296
  stamp: 
    secs: 1561682345
    nsecs:  64280325
  frame_id: "ti_mmwave"
point_id: 2
x: 0.029296875
y: -0.119140625
z: -0.005859375
range: 0.130730912089
velocity: 0.0
doppler_bin: 8
bearing: -76.1849746704
intensity: 30.1911621094
---
header: 
  seq: 681297
  stamp: 
    secs: 1561682345
    nsecs:  64292779
  frame_id: "ti_mmwave"
point_id: 3
x: 0.056640625
y: -0.154296875
z: 0.005859375
range: 0.174307882786
velocity: 0.0
doppler_bin: 8
bearing: -69.8423843384
intensity: 25.4654273987
---
header: 
  seq: 681298
  stamp: 
    secs: 1561682345
    nsecs:  64301284
  frame_id: "ti_mmwave"
point_id: 4
x: 0.884765625
y: -0.080078125
z: -0.90625
range: 1.35088610649
velocity: 0.0
doppler_bin: 8
bearing: -5.17161989212
intensity: 22.2271652222
---
header: 
  seq: 681299
  stamp: 
    secs: 1561682345
    nsecs:  64309419
  frame_id: "ti_mmwave"
point_id: 5
x: 0.814453125
y: -0.041015625
z: -1.0234375
range: 1.39446306229
velocity: 0.0
doppler_bin: 8
bearing: -2.88296318054
intensity: 24.1497325897
---
header: 
  seq: 681300
  stamp: 
    secs: 1561682345
    nsecs:  64316841
  frame_id: "ti_mmwave"
point_id: 6
x: 1.0234375
y: -0.04296875
z: -0.87890625
range: 1.43804001808
velocity: 0.0
doppler_bin: 8
bearing: -2.40413618088
intensity: 23.5218257904
---
header: 
  seq: 681301
  stamp: 
    secs: 1561682345
    nsecs:  64324501
  frame_id: "ti_mmwave"
point_id: 7
x: 1.212890625
y: -0.087890625
z: -0.67578125
range: 1.48161697388
velocity: 0.0
doppler_bin: 8
bearing: -4.14462375641
intensity: 23.4635295868
---
header: 
  seq: 681302
  stamp: 
    secs: 1561682345
    nsecs:  64332310
  frame_id: "ti_mmwave"
point_id: 8
x: 1.1484375
y: -0.08984375
z: -0.849609375
range: 1.52519392967
velocity: 0.0
doppler_bin: 8
bearing: -4.47321224213
intensity: 23.5024795532
---
header: 
  seq: 681303
  stamp: 
    secs: 1561682345
    nsecs:  64340026
  frame_id: "ti_mmwave"
point_id: 9
x: 2.55078125
y: -0.263671875
z: 1.1796875
range: 3.00681090355
velocity: 0.0
doppler_bin: 8
bearing: -5.90165042877
intensity: 29.3851966858
---
header: 
  seq: 681304
  stamp: 
    secs: 1561682345
    nsecs:  64349331
  frame_id: "ti_mmwave"
point_id: 10
x: 2.607421875
y: -0.267578125
z: 1.154296875
range: 3.05038785934
velocity: 0.0
doppler_bin: 8
bearing: -5.85928010941
intensity: 32.702129364
---
header: 
  seq: 681305
  stamp: 
    secs: 1561682345
    nsecs:  64359067
  frame_id: "ti_mmwave"
point_id: 11
x: 2.6640625
y: -0.181640625
z: 1.140625
range: 3.09396481514
velocity: 0.0
doppler_bin: 8
bearing: -3.90049386024
intensity: 31.9395904541
---
header: 
  seq: 681306
  stamp: 
    secs: 1561682345
    nsecs:  64367859
  frame_id: "ti_mmwave"
point_id: 12
x: 4.4140625
y: -0.287109375
z: 1.19140625
range: 4.88062095642
velocity: 0.0
doppler_bin: 8
bearing: -3.72151875496
intensity: 30.7298469543
---
header: 
  seq: 681307
  stamp: 
    secs: 1561682345
    nsecs:  64375343
  frame_id: "ti_mmwave"
point_id: 13
x: 4.44921875
y: -0.2890625
z: 1.22265625
range: 4.9241976738
velocity: 0.0
doppler_bin: 8
bearing: -3.71724081039
intensity: 29.8944988251
---
header: 
  seq: 681308
  stamp: 
    secs: 1561682345
    nsecs:  64393955
  frame_id: "ti_mmwave"
point_id: 14
x: 4.884765625
y: -0.30859375
z: 0.732421875
range: 5.27281332016
velocity: 0.0
doppler_bin: 8
bearing: -3.6148416996
intensity: 30.5842609406
---
header: 
  seq: 681309
  stamp: 
    secs: 1561682345
    nsecs:  64406419
  frame_id: "ti_mmwave"
point_id: 16
x: 0.041015625
y: -0.033203125
z: 0.0625
range: 0.0871539413929
velocity: 0.0
doppler_bin: 8
bearing: -38.9909973145
intensity: 30.0774784088
---
header: 
  seq: 681310
  stamp: 
    secs: 1561682345
    nsecs:  64569285
  frame_id: "ti_mmwave"
point_id: 17
x: 0.052734375
y: -0.04296875
z: 0.1015625
range: 0.130730912089
velocity: 0.0
doppler_bin: 8
bearing: -39.1736602783
intensity: 28.9597473145
---
header: 
  seq: 681311
  stamp: 
    secs: 1561682345
    nsecs:  64591882
  frame_id: "ti_mmwave"
point_id: 19
x: 2.818359375
y: -2.00390625
z: -3.00390625
range: 4.88062095642
velocity: 0.0
doppler_bin: 8
bearing: -35.4135360718
intensity: 27.7597427368
---
header: 
  seq: 681312
  stamp: 
    secs: 1561682345
    nsecs:  64600918
  frame_id: "ti_mmwave"
point_id: 20
x: 2.951171875
y: -2.021484375
z: -2.927734375
range: 4.9241976738
velocity: 0.0
doppler_bin: 8
bearing: -34.4102401733
intensity: 27.0671787262
---
header: 
  seq: 681313
  stamp: 
    secs: 1561682345
    nsecs:  65679640
  frame_id: "ti_mmwave"
point_id: 0
x: 0.01171875
y: -0.0390625
z: -0.0078125
range: 0.0435769706964
velocity: 0.0
doppler_bin: 8
bearing: -73.3007583618
intensity: 30.6929798126
---
header: 
  seq: 681314
  stamp: 
    secs: 1561682345
    nsecs:  65743314
  frame_id: "ti_mmwave"
point_id: 1
x: 0.017578125
y: -0.080078125
z: -0.0078125
range: 0.0871539413929
velocity: 0.0
doppler_bin: 8
bearing: -77.6192398071
intensity: 31.9284610748
---
header: 
  seq: 681315
  stamp: 
    secs: 1561682345
    nsecs:  65760343
  frame_id: "ti_mmwave"
point_id: 2
x: 0.029296875
y: -0.119140625
z: -0.005859375
range: 0.130730912089
velocity: 0.0
doppler_bin: 8
bearing: -76.1849746704
intensity: 30.1870040894
---
header: 
  seq: 681316
  stamp: 
    secs: 1561682345
    nsecs:  65772961
  frame_id: "ti_mmwave"
point_id: 3
x: 0.056640625
y: -0.154296875
z: 0.005859375
range: 0.174307882786
velocity: 0.0
doppler_bin: 8
bearing: -69.8423843384
intensity: 25.4777469635
---
header: 
  seq: 681317
  stamp: 
    secs: 1561682345
    nsecs:  65786435
  frame_id: "ti_mmwave"
point_id: 4
x: 1.171875
y: -0.115234375
z: -0.345703125
range: 1.3073091507
velocity: 0.0
doppler_bin: 8
bearing: -5.61603021622
intensity: 24.014005661
---
header: 
  seq: 681318
  stamp: 
    secs: 1561682345
    nsecs:  65798997
  frame_id: "ti_mmwave"
point_id: 5
x: 1.208984375
y: -0.080078125
z: -0.376953125
range: 1.35088610649
velocity: 0.0
doppler_bin: 8
bearing: -3.78949999809
intensity: 27.7670116425
---
header: 
  seq: 681319
  stamp: 
    secs: 1561682345
    nsecs:  65810799
  frame_id: "ti_mmwave"
point_id: 6
x: 1.23828125
y: -0.08203125
z: -0.416015625
range: 1.39446306229
velocity: 0.0
doppler_bin: 8
bearing: -3.79008126259
intensity: 28.2282161713
---
header: 
  seq: 681320
  stamp: 
    secs: 1561682345
    nsecs:  65825502
  frame_id: "ti_mmwave"
point_id: 7
x: 1.236328125
y: -0.083984375
z: -0.53515625
range: 1.43804001808
velocity: 0.0
doppler_bin: 8
bearing: -3.88615989685
intensity: 25.550945282
---
header: 
  seq: 681321
  stamp: 
    secs: 1561682345
    nsecs:  65838394
  frame_id: "ti_mmwave"
point_id: 8
x: 0.953125
y: 0.04296875
z: -1.01171875
range: 1.48161697388
velocity: 0.0
doppler_bin: 8
bearing: 2.5812587738
intensity: 22.4054927826
---
header: 
  seq: 681322
  stamp: 
    secs: 1561682345
    nsecs:  65870086
  frame_id: "ti_mmwave"
point_id: 9
x: 1.369140625
y: -0.322265625
z: -0.43359375
range: 1.56877088547
velocity: 0.0
doppler_bin: 8
bearing: -13.2450752258
intensity: 23.8381538391
---
header: 
  seq: 681323
  stamp: 
    secs: 1561682345
    nsecs:  65947182
  frame_id: "ti_mmwave"
point_id: 10
x: 1.37890625
y: -0.33203125
z: -0.529296875
range: 1.61234796047
velocity: 0.0
doppler_bin: 8
bearing: -13.5386972427
intensity: 25.8206329346
---
header: 
  seq: 681324
  stamp: 
    secs: 1561682345
    nsecs:  65964671
  frame_id: "ti_mmwave"
point_id: 11
x: 2.546875
y: -0.263671875
z: 1.185546875
range: 3.00681090355
velocity: 0.0
doppler_bin: 8
bearing: -5.91063833237
intensity: 29.4250411987
---
header: 
  seq: 681325
  stamp: 
    secs: 1561682345
    nsecs:  65977366
  frame_id: "ti_mmwave"
point_id: 12
x: 2.6015625
y: -0.267578125
z: 1.1640625
range: 3.05038785934
velocity: 0.0
doppler_bin: 8
bearing: -5.87238502502
intensity: 32.704460144
---
header: 
  seq: 681326
  stamp: 
    secs: 1561682345
    nsecs:  65989551
  frame_id: "ti_mmwave"
point_id: 13
x: 2.66015625
y: -0.181640625
z: 1.154296875
range: 3.09396481514
velocity: 0.0
doppler_bin: 8
bearing: -3.90620398521
intensity: 31.9145107269
---
header: 
  seq: 681327
  stamp: 
    secs: 1561682345
    nsecs:  66002502
  frame_id: "ti_mmwave"
point_id: 14
x: 4.421875
y: -0.287109375
z: 1.1640625
range: 4.88062095642
velocity: 0.0
doppler_bin: 8
bearing: -3.7149617672
intensity: 30.7664051056
---
header: 
  seq: 681328
  stamp: 
    secs: 1561682345
    nsecs:  66017972
  frame_id: "ti_mmwave"
point_id: 15
x: 4.494140625
y: -0.2890625
z: 1.04296875
range: 4.9241976738
velocity: 0.0
doppler_bin: 8
bearing: -3.68018746376
intensity: 30.3140850067
---
header: 
  seq: 681329
  stamp: 
    secs: 1561682345
    nsecs:  66031051
  frame_id: "ti_mmwave"
point_id: 16
x: 4.8828125
y: -0.30859375
z: 0.748046875
range: 5.27281332016
velocity: 0.0
doppler_bin: 8
bearing: -3.61628341675
intensity: 30.4610481262
---
header: 
  seq: 681330
  stamp: 
    secs: 1561682345
    nsecs:  66045105
  frame_id: "ti_mmwave"
point_id: 18
x: 0.041015625
y: -0.033203125
z: 0.0625
range: 0.0871539413929
velocity: 0.0
doppler_bin: 8
bearing: -38.9909973145
intensity: 30.0732097626
---
header: 
  seq: 681331
  stamp: 
    secs: 1561682345
    nsecs:  66057664
  frame_id: "ti_mmwave"
point_id: 19
x: 0.052734375
y: -0.04296875
z: 0.1015625
range: 0.130730912089
velocity: 0.0
doppler_bin: 8
bearing: -39.1736602783
intensity: 28.9597473145
---
header: 
  seq: 681332
  stamp: 
    secs: 1561682345
    nsecs:  66072390
  frame_id: "ti_mmwave"
point_id: 21
x: 1.28515625
y: -0.435546875
z: 0.30859375
range: 1.48161697388
velocity: 0.0
doppler_bin: 8
bearing: -18.7218170166
intensity: 19.5424251556
---
header: 
  seq: 681333
  stamp: 
    secs: 1561682345
    nsecs:  66088779
  frame_id: "ti_mmwave"
point_id: 23
x: 2.80859375
y: -2.00390625
z: -3.013671875
range: 4.88062095642
velocity: 0.0
doppler_bin: 8
bearing: -35.5075149536
intensity: 27.8103694916
---
header: 
  seq: 681334
  stamp: 
    secs: 1561682345
    nsecs:  66111431
  frame_id: "ti_mmwave"
point_id: 24
x: 2.76953125
y: -2.021484375
z: -3.099609375
range: 4.9241976738
velocity: 0.0
doppler_bin: 8
bearing: -36.1257514954
intensity: 27.3239383698
---
header: 
  seq: 681335
  stamp: 
    secs: 1561682345
    nsecs: 124173757
  frame_id: "ti_mmwave"
point_id: 0
x: 0.01171875
y: -0.0390625
z: -0.0078125
range: 0.0435769706964
velocity: 0.0
doppler_bin: 8
bearing: -73.3007583618
intensity: 30.6855697632
---
header: 
  seq: 681336
  stamp: 
    secs: 1561682345
    nsecs: 124245895
  frame_id: "ti_mmwave"
point_id: 1
x: 0.017578125
y: -0.080078125
z: -0.0078125
range: 0.0871539413929
velocity: 0.0
doppler_bin: 8
bearing: -77.6192398071
intensity: 31.9284610748
---
header: 
  seq: 681337
  stamp: 
    secs: 1561682345
    nsecs: 124264373
  frame_id: "ti_mmwave"
point_id: 2
x: 0.029296875
y: -0.119140625
z: -0.005859375
range: 0.130730912089
velocity: 0.0
doppler_bin: 8
bearing: -76.1849746704
intensity: 30.1870040894
---
header: 
  seq: 681338
  stamp: 
    secs: 1561682345
    nsecs: 124278145
  frame_id: "ti_mmwave"
point_id: 3
x: 0.056640625
y: -0.154296875
z: 0.005859375
range: 0.174307882786
velocity: 0.0
doppler_bin: 8
bearing: -69.8423843384
intensity: 25.4654273987
---
header: 
  seq: 681339
  stamp: 
    secs: 1561682345
    nsecs: 124352295
  frame_id: "ti_mmwave"
point_id: 4
x: 1.216796875
y: -0.154296875
z: 0.025390625
range: 1.3073091507
velocity: 0.0
doppler_bin: 8
bearing: -7.2268652916
intensity: 22.8555736542
---
header: 
  seq: 681340
  stamp: 
    secs: 1561682345
    nsecs: 124367032
  frame_id: "ti_mmwave"
point_id: 5
x: 1.25390625
y: -0.158203125
z: 0.1015625
range: 1.35088610649
velocity: 0.0
doppler_bin: 8
bearing: -7.19091129303
intensity: 26.0314445496
---
header: 
  seq: 681341
  stamp: 
    secs: 1561682345
    nsecs: 124378473
  frame_id: "ti_mmwave"
point_id: 6
x: 1.27734375
y: -0.1640625
z: 0.23828125
range: 1.39446306229
velocity: 0.0
doppler_bin: 8
bearing: -7.31901884079
intensity: 25.1454772949
---
header: 
  seq: 681342
  stamp: 
    secs: 1561682345
    nsecs: 124389180
  frame_id: "ti_mmwave"
point_id: 7
x: 1.2265625
y: -0.16796875
z: 0.5390625
range: 1.43804001808
velocity: 0.0
doppler_bin: 8
bearing: -7.79773426056
intensity: 20.7188205719
---
header: 
  seq: 681343
  stamp: 
    secs: 1561682345
    nsecs: 124400220
  frame_id: "ti_mmwave"
point_id: 8
x: 1.130859375
y: -0.267578125
z: -0.8359375
range: 1.52519392967
velocity: 0.0
doppler_bin: 8
bearing: -13.3122014999
intensity: 23.7839794159
---
header: 
  seq: 681344
  stamp: 
    secs: 1561682345
    nsecs: 124415175
  frame_id: "ti_mmwave"
point_id: 9
x: 1.34375
y: -0.23046875
z: -0.55859375
range: 1.56877088547
velocity: 0.0
doppler_bin: 8
bearing: -9.73220157623
intensity: 27.2263393402
---
header: 
  seq: 681345
  stamp: 
    secs: 1561682345
    nsecs: 124427430
  frame_id: "ti_mmwave"
point_id: 10
x: 1.431640625
y: -0.283203125
z: -0.404296875
range: 1.61234796047
velocity: 0.0
doppler_bin: 8
bearing: -11.1896266937
intensity: 26.9460525513
---
header: 
  seq: 681346
  stamp: 
    secs: 1561682345
    nsecs: 124440153
  frame_id: "ti_mmwave"
point_id: 11
x: 2.55078125
y: -0.263671875
z: 1.1796875
range: 3.00681090355
velocity: 0.0
doppler_bin: 8
bearing: -5.90165042877
intensity: 29.3751792908
---
header: 
  seq: 681347
  stamp: 
    secs: 1561682345
    nsecs: 124465997
  frame_id: "ti_mmwave"
point_id: 12
x: 2.60546875
y: -0.267578125
z: 1.15625
range: 3.05038785934
velocity: 0.0
doppler_bin: 8
bearing: -5.86364221573
intensity: 32.7253761292
---
header: 
  seq: 681348
  stamp: 
    secs: 1561682345
    nsecs: 124484960
  frame_id: "ti_mmwave"
point_id: 13
x: 2.6640625
y: -0.181640625
z: 1.140625
range: 3.09396481514
velocity: 0.0
doppler_bin: 8
bearing: -3.90049386024
intensity: 31.9838218689
---
header: 
  seq: 681349
  stamp: 
    secs: 1561682345
    nsecs: 124548856
  frame_id: "ti_mmwave"
point_id: 14
x: 4.419921875
y: -0.287109375
z: 1.16796875
range: 4.88062095642
velocity: 0.0
doppler_bin: 8
bearing: -3.71659874916
intensity: 30.7918128967
---
header: 
  seq: 681350
  stamp: 
    secs: 1561682345
    nsecs: 124565403
  frame_id: "ti_mmwave"
point_id: 15
x: 4.46875
y: -0.2890625
z: 1.146484375
range: 4.9241976738
velocity: 0.0
doppler_bin: 8
bearing: -3.70103907585
intensity: 30.2077541351
---
header: 
  seq: 681351
  stamp: 
    secs: 1561682345
    nsecs: 124579430
  frame_id: "ti_mmwave"
point_id: 16
x: 4.873046875
y: -0.30859375
z: 0.80859375
range: 5.27281332016
velocity: 0.0
doppler_bin: 8
bearing: -3.62351131439
intensity: 30.5346260071
---
header: 
  seq: 681352
  stamp: 
    secs: 1561682345
    nsecs: 124597770
  frame_id: "ti_mmwave"
point_id: 18
x: 0.041015625
y: -0.033203125
z: 0.0625
range: 0.0871539413929
velocity: 0.0
doppler_bin: 8
bearing: -38.9909973145
intensity: 30.0774784088
---
header: 
  seq: 681353
  stamp: 
    secs: 1561682345
    nsecs: 124610856
  frame_id: "ti_mmwave"
point_id: 19
x: 0.052734375
y: -0.04296875
z: 0.1015625
range: 0.130730912089
velocity: 0.0
doppler_bin: 8
bearing: -39.1736602783
intensity: 28.9597473145
---
header: 
  seq: 681354
  stamp: 
    secs: 1561682345
    nsecs: 124627569
  frame_id: "ti_mmwave"
point_id: 21
x: 2.7421875
y: -2.00390625
z: -3.076171875
range: 4.88062095642
velocity: 0.0
doppler_bin: 8
bearing: -36.1581840515
intensity: 27.8318862915
---
header: 
  seq: 681355
  stamp: 
    secs: 1561682345
    nsecs: 124641046
  frame_id: "ti_mmwave"
point_id: 22
x: 2.779296875
y: -2.021484375
z: -3.091796875
range: 4.9241976738
velocity: 0.0
doppler_bin: 8
bearing: -36.0297660828
intensity: 27.283536911
---
header: 
  seq: 681356
  stamp: 
    secs: 1561682345
    nsecs: 125703637
  frame_id: "ti_mmwave"
point_id: 0
x: 0.01171875
y: -0.0390625
z: -0.0078125
range: 0.0435769706964
velocity: 0.0
doppler_bin: 8
bearing: -73.3007583618
intensity: 30.6892757416
---
header: 
  seq: 681357
  stamp: 
    secs: 1561682345
    nsecs: 125766782
  frame_id: "ti_mmwave"
point_id: 1
x: 0.017578125
y: -0.080078125
z: -0.0078125
range: 0.0871539413929
velocity: 0.0
doppler_bin: 8
bearing: -77.6192398071
intensity: 31.9284610748
---
header: 
  seq: 681358
  stamp: 
    secs: 1561682345
    nsecs: 125786400
  frame_id: "ti_mmwave"
point_id: 2
x: 0.029296875
y: -0.119140625
z: -0.005859375
range: 0.130730912089
velocity: 0.0
doppler_bin: 8
bearing: -76.1849746704
intensity: 30.1870040894
---
header: 
  seq: 681359
  stamp: 
    secs: 1561682345
    nsecs: 125797660
  frame_id: "ti_mmwave"
point_id: 3
x: 0.056640625
y: -0.154296875
z: 0.005859375
range: 0.174307882786
velocity: 0.0
doppler_bin: 8
bearing: -69.8423843384
intensity: 25.4530715942
---
header: 
  seq: 681360
  stamp: 
    secs: 1561682345
    nsecs: 125812973
  frame_id: "ti_mmwave"
point_id: 4
x: 1.216796875
y: -0.154296875
z: -0.046875
range: 1.3073091507
velocity: 0.0
doppler_bin: 8
bearing: -7.2268652916
intensity: 25.3402614594
---
header: 
  seq: 681361
  stamp: 
    secs: 1561682345
    nsecs: 125826888
  frame_id: "ti_mmwave"
point_id: 5
x: 1.2578125
y: -0.158203125
z: -0.00390625
range: 1.35088610649
velocity: 0.0
doppler_bin: 8
bearing: -7.1688117981
intensity: 29.0794849396
---
header: 
  seq: 681362
  stamp: 
    secs: 1561682345
    nsecs: 125840017
  frame_id: "ti_mmwave"
point_id: 6
x: 1.302734375
y: -0.123046875
z: 0.060546875
range: 1.39446306229
velocity: 0.0
doppler_bin: 8
bearing: -5.39573764801
intensity: 28.8761730194
---
header: 
  seq: 681363
  stamp: 
    secs: 1561682345
    nsecs: 125851425
  frame_id: "ti_mmwave"
point_id: 7
x: 1.33984375
y: -0.126953125
z: 0.115234375
range: 1.43804001808
velocity: 0.0
doppler_bin: 8
bearing: -5.4127407074
intensity: 25.5266819
---
header: 
  seq: 681364
  stamp: 
    secs: 1561682345
    nsecs: 125866007
  frame_id: "ti_mmwave"
point_id: 8
x: 1.35546875
y: -0.087890625
z: 0.298828125
range: 1.48161697388
velocity: 0.0
doppler_bin: 8
bearing: -3.70995092392
intensity: 23.8738975525
---
header: 
  seq: 681365
  stamp: 
    secs: 1561682345
    nsecs: 125877382
  frame_id: "ti_mmwave"
point_id: 9
x: 1.37890625
y: -0.08984375
z: -0.376953125
range: 1.52519392967
velocity: 0.0
doppler_bin: 8
bearing: -3.72788310051
intensity: 26.294095993
---
header: 
  seq: 681366
  stamp: 
    secs: 1561682345
    nsecs: 125890020
  frame_id: "ti_mmwave"
point_id: 10
x: 1.404296875
y: -0.091796875
z: -0.431640625
range: 1.56877088547
velocity: 0.0
doppler_bin: 8
bearing: -3.74002194405
intensity: 27.0070381165
---
header: 
  seq: 681367
  stamp: 
    secs: 1561682345
    nsecs: 125901258
  frame_id: "ti_mmwave"
point_id: 11
x: 1.470703125
y: -0.046875
z: -0.3515625
range: 1.61234796047
velocity: 0.0
doppler_bin: 8
bearing: -1.82554244995
intensity: 25.8771095276
---
header: 
  seq: 681368
  stamp: 
    secs: 1561682345
    nsecs: 125917123
  frame_id: "ti_mmwave"
point_id: 12
x: 2.5546875
y: -0.263671875
z: 1.169921875
range: 3.00681090355
velocity: 0.0
doppler_bin: 8
bearing: -5.89269018173
intensity: 29.4250411987
---
header: 
  seq: 681369
  stamp: 
    secs: 1561682345
    nsecs: 125930045
  frame_id: "ti_mmwave"
point_id: 13
x: 2.607421875
y: -0.267578125
z: 1.150390625
range: 3.05038785934
velocity: 0.0
doppler_bin: 8
bearing: -5.85928010941
intensity: 32.7230567932
---
header: 
  seq: 681370
  stamp: 
    secs: 1561682345
    nsecs: 125942665
  frame_id: "ti_mmwave"
point_id: 14
x: 2.666015625
y: -0.181640625
z: 1.13671875
range: 3.09396481514
velocity: 0.0
doppler_bin: 8
bearing: -3.89764523506
intensity: 31.994808197
---
header: 
  seq: 681371
  stamp: 
    secs: 1561682345
    nsecs: 125955948
  frame_id: "ti_mmwave"
point_id: 15
x: 4.423828125
y: -0.287109375
z: 1.16015625
range: 4.88062095642
velocity: 0.0
doppler_bin: 8
bearing: -3.71332621574
intensity: 30.788192749
---
header: 
  seq: 681372
  stamp: 
    secs: 1561682345
    nsecs: 126042778
  frame_id: "ti_mmwave"
point_id: 16
x: 4.474609375
y: -0.2890625
z: 1.119140625
range: 4.9241976738
velocity: 0.0
doppler_bin: 8
bearing: -3.69620633125
intensity: 30.2242832184
---
header: 
  seq: 681373
  stamp: 
    secs: 1561682345
    nsecs: 126057595
  frame_id: "ti_mmwave"
point_id: 17
x: 4.869140625
y: -0.30859375
z: 0.830078125
range: 5.27281332016
velocity: 0.0
doppler_bin: 8
bearing: -3.62641048431
intensity: 30.5537834167
---
header: 
  seq: 681374
  stamp: 
    secs: 1561682345
    nsecs: 126071802
  frame_id: "ti_mmwave"
point_id: 19
x: 0.041015625
y: -0.033203125
z: 0.0625
range: 0.0871539413929
velocity: 0.0
doppler_bin: 8
bearing: -38.9909973145
intensity: 30.0774784088
---
header: 
  seq: 681375
  stamp: 
    secs: 1561682345
    nsecs: 126084207
  frame_id: "ti_mmwave"
point_id: 20
x: 0.052734375
y: -0.04296875
z: 0.1015625
range: 0.130730912089
velocity: 0.0
doppler_bin: 8
bearing: -39.1736602783
intensity: 28.9652614594
---
header: 
  seq: 681376
  stamp: 
    secs: 1561682345
    nsecs: 126101028
  frame_id: "ti_mmwave"
point_id: 22
x: 0.439453125
y: 0.47265625
z: 1.369140625
range: 1.61234796047
velocity: 0.0
doppler_bin: 8
bearing: 47.0847930908
intensity: 23.7291202545
---
header: 
  seq: 681377
  stamp: 
    secs: 1561682345
    nsecs: 126114145
  frame_id: "ti_mmwave"
point_id: 23
x: 2.76953125
y: -2.00390625
z: -3.048828125
range: 4.88062095642
velocity: 0.0
doppler_bin: 8
bearing: -35.8877792358
intensity: 27.8247261047
---
header: 
  seq: 681378
  stamp: 
    secs: 1561682345
    nsecs: 126128908
  frame_id: "ti_mmwave"
point_id: 24
x: 2.7890625
y: -2.021484375
z: -3.08203125
range: 4.9241976738
velocity: 0.0
doppler_bin: 8
bearing: -35.9342193604
intensity: 27.2754135132
---
header: 
  seq: 681379
  stamp: 
    secs: 1561682345
    nsecs: 184106623
  frame_id: "ti_mmwave"
point_id: 0
x: 0.01171875
y: -0.0390625
z: -0.0078125
range: 0.0435769706964
velocity: 0.0
doppler_bin: 8
bearing: -73.3007583618
intensity: 30.6892757416
---
header: 
  seq: 681380
  stamp: 
    secs: 1561682345
    nsecs: 184167670
  frame_id: "ti_mmwave"
point_id: 1
x: 0.017578125
y: -0.080078125
z: -0.0078125
range: 0.0871539413929
velocity: 0.0
doppler_bin: 8
bearing: -77.6192398071
intensity: 31.9284610748
---
header: 
  seq: 681381
  stamp: 
    secs: 1561682345
    nsecs: 184180470
  frame_id: "ti_mmwave"
point_id: 2
x: 0.029296875
y: -0.119140625
z: -0.005859375
range: 0.130730912089
velocity: 0.0
doppler_bin: 8
bearing: -76.1849746704
intensity: 30.1870040894
---
header: 
  seq: 681382
  stamp: 
    secs: 1561682345
    nsecs: 184191541
  frame_id: "ti_mmwave"
point_id: 3
x: 0.056640625
y: -0.154296875
z: 0.005859375
range: 0.174307882786
velocity: 0.0
doppler_bin: 8
bearing: -69.8423843384
intensity: 25.4654273987
---
header: 
  seq: 681383
  stamp: 
    secs: 1561682345
    nsecs: 184210974
  frame_id: "ti_mmwave"
point_id: 4
x: 1.07421875
y: -0.23046875
z: 0.546875
range: 1.3073091507
velocity: 0.0
doppler_bin: 8
bearing: -12.1089849472
intensity: 20.1703338623
---
header: 
  seq: 681384
  stamp: 
    secs: 1561682345
    nsecs: 184274533
  frame_id: "ti_mmwave"
point_id: 5
x: 1.1953125
y: -0.158203125
z: 0.392578125
range: 1.35088610649
velocity: 0.0
doppler_bin: 8
bearing: -7.53944540024
intensity: 24.9136161804
---
header: 
  seq: 681385
  stamp: 
    secs: 1561682345
    nsecs: 184285359
  frame_id: "ti_mmwave"
point_id: 6
x: 1.259765625
y: -0.123046875
z: 0.337890625
range: 1.39446306229
velocity: 0.0
doppler_bin: 8
bearing: -5.57863616943
intensity: 26.3346843719
---
header: 
  seq: 681386
  stamp: 
    secs: 1561682345
    nsecs: 184293783
  frame_id: "ti_mmwave"
point_id: 7
x: 1.330078125
y: -0.083984375
z: 0.21875
range: 1.43804001808
velocity: 0.0
doppler_bin: 8
bearing: -3.6129989624
intensity: 25.2762985229
---
header: 
  seq: 681387
  stamp: 
    secs: 1561682345
    nsecs: 184302012
  frame_id: "ti_mmwave"
point_id: 8
x: 1.373046875
y: -0.130859375
z: -0.185546875
range: 1.48161697388
velocity: 0.0
doppler_bin: 8
bearing: -5.4441781044
intensity: 25.0920257568
---
header: 
  seq: 681388
  stamp: 
    secs: 1561682345
    nsecs: 184310742
  frame_id: "ti_mmwave"
point_id: 9
x: 1.388671875
y: -0.1796875
z: -0.30078125
range: 1.52519392967
velocity: 0.0
doppler_bin: 8
bearing: -7.37283420563
intensity: 28.9042110443
---
header: 
  seq: 681389
  stamp: 
    secs: 1561682345
    nsecs: 184319077
  frame_id: "ti_mmwave"
point_id: 10
x: 1.427734375
y: -0.18359375
z: -0.314453125
range: 1.56877088547
velocity: 0.0
doppler_bin: 8
bearing: -7.32750797272
intensity: 30.5804615021
---
header: 
  seq: 681390
  stamp: 
    secs: 1561682345
    nsecs: 184328223
  frame_id: "ti_mmwave"
point_id: 11
x: 1.46484375
y: -0.189453125
z: -0.326171875
range: 1.61234796047
velocity: 0.0
doppler_bin: 8
bearing: -7.36934614182
intensity: 29.2685680389
---
header: 
  seq: 681391
  stamp: 
    secs: 1561682345
    nsecs: 184340103
  frame_id: "ti_mmwave"
point_id: 12
x: 1.521484375
y: -0.09765625
z: -0.3046875
range: 1.65592491627
velocity: 0.0
doppler_bin: 8
bearing: -3.67248344421
intensity: 25.3019962311
---
header: 
  seq: 681392
  stamp: 
    secs: 1561682345
    nsecs: 184349968
  frame_id: "ti_mmwave"
point_id: 13
x: 2.5546875
y: -0.263671875
z: 1.171875
range: 3.00681090355
velocity: 0.0
doppler_bin: 8
bearing: -5.89269018173
intensity: 29.3951931
---
header: 
  seq: 681393
  stamp: 
    secs: 1561682345
    nsecs: 184360718
  frame_id: "ti_mmwave"
point_id: 14
x: 2.607421875
y: -0.267578125
z: 1.154296875
range: 3.05038785934
velocity: 0.0
doppler_bin: 8
bearing: -5.85928010941
intensity: 32.7137680054
---
header: 
  seq: 681394
  stamp: 
    secs: 1561682345
    nsecs: 184370137
  frame_id: "ti_mmwave"
point_id: 15
x: 2.662109375
y: -0.181640625
z: 1.146484375
range: 3.09396481514
velocity: 0.0
doppler_bin: 8
bearing: -3.90334677696
intensity: 31.9479179382
---
header: 
  seq: 681395
  stamp: 
    secs: 1561682345
    nsecs: 184421733
  frame_id: "ti_mmwave"
point_id: 16
x: 4.41796875
y: -0.287109375
z: 1.181640625
range: 4.88062095642
velocity: 0.0
doppler_bin: 8
bearing: -3.71823716164
intensity: 30.7773113251
---
header: 
  seq: 681396
  stamp: 
    secs: 1561682345
    nsecs: 184434724
  frame_id: "ti_mmwave"
point_id: 17
x: 4.46875
y: -0.2890625
z: 1.1484375
range: 4.9241976738
velocity: 0.0
doppler_bin: 8
bearing: -3.70103907585
intensity: 30.1494026184
---
header: 
  seq: 681397
  stamp: 
    secs: 1561682345
    nsecs: 184445891
  frame_id: "ti_mmwave"
point_id: 18
x: 4.865234375
y: -0.30859375
z: 0.8515625
range: 5.27281332016
velocity: 0.0
doppler_bin: 8
bearing: -3.62931442261
intensity: 30.4414768219
---
header: 
  seq: 681398
  stamp: 
    secs: 1561682345
    nsecs: 184457956
  frame_id: "ti_mmwave"
point_id: 20
x: 0.041015625
y: -0.033203125
z: 0.0625
range: 0.0871539413929
velocity: 0.0
doppler_bin: 8
bearing: -38.9909973145
intensity: 30.0774784088
---
header: 
  seq: 681399
  stamp: 
    secs: 1561682345
    nsecs: 184468123
  frame_id: "ti_mmwave"
point_id: 21
x: 0.052734375
y: -0.04296875
z: 0.1015625
range: 0.130730912089
velocity: 0.0
doppler_bin: 8
bearing: -39.1736602783
intensity: 28.9597473145
---
header: 
  seq: 681400
  stamp: 
    secs: 1561682345
    nsecs: 184482295
  frame_id: "ti_mmwave"
point_id: 24
x: 2.78125
y: -2.00390625
z: -3.0390625
range: 4.88062095642
velocity: 0.0
doppler_bin: 8
bearing: -35.7729568481
intensity: 27.8247261047
---
header: 
  seq: 681401
  stamp: 
    secs: 1561682345
    nsecs: 184492734
  frame_id: "ti_mmwave"
point_id: 25
x: 2.818359375
y: -2.021484375
z: -3.056640625
range: 4.9241976738
velocity: 0.0
doppler_bin: 8
bearing: -35.6501998901
intensity: 27.2345561981
---
header: 
  seq: 681402
  stamp: 
    secs: 1561682345
    nsecs: 185390851
  frame_id: "ti_mmwave"
point_id: 0
x: 0.01171875
y: -0.0390625
z: -0.0078125
range: 0.0435769706964
velocity: 0.0
doppler_bin: 8
bearing: -73.3007583618
intensity: 30.6929798126
---
header: 
  seq: 681403
  stamp: 
    secs: 1561682345
    nsecs: 185441162
  frame_id: "ti_mmwave"
point_id: 1
x: 0.017578125
y: -0.080078125
z: -0.0078125
range: 0.0871539413929
velocity: 0.0
doppler_bin: 8
bearing: -77.6192398071
intensity: 31.9312458038
---
header: 
  seq: 681404
  stamp: 
    secs: 1561682345
    nsecs: 185457752
  frame_id: "ti_mmwave"
point_id: 2
x: 0.029296875
y: -0.119140625
z: -0.005859375
range: 0.130730912089
velocity: 0.0
doppler_bin: 8
bearing: -76.1849746704
intensity: 30.1911621094
---
header: 
  seq: 681405
  stamp: 
    secs: 1561682345
    nsecs: 185469066
  frame_id: "ti_mmwave"
point_id: 3
x: 0.056640625
y: -0.154296875
z: 0.005859375
range: 0.174307882786
velocity: 0.0
doppler_bin: 8
bearing: -69.8423843384
intensity: 25.4654273987
---
header: 
  seq: 681406
  stamp: 
    secs: 1561682345
    nsecs: 185479398
  frame_id: "ti_mmwave"
point_id: 4
x: 1.1796875
y: -0.0390625
z: -0.333984375
range: 1.3073091507
velocity: 0.0
doppler_bin: 8
bearing: -1.89651834965
intensity: 19.7312793732
---
header: 
  seq: 681407
  stamp: 
    secs: 1561682345
    nsecs: 185490018
  frame_id: "ti_mmwave"
point_id: 5
x: 1.1875
y: -0.0390625
z: -0.4453125
range: 1.35088610649
velocity: 0.0
doppler_bin: 8
bearing: -1.88405025005
intensity: 23.5024795532
---
header: 
  seq: 681408
  stamp: 
    secs: 1561682345
    nsecs: 185499269
  frame_id: "ti_mmwave"
point_id: 6
x: 1.205078125
y: -0.041015625
z: -0.5078125
range: 1.39446306229
velocity: 0.0
doppler_bin: 8
bearing: -1.9493471384
intensity: 23.4635295868
---
header: 
  seq: 681409
  stamp: 
    secs: 1561682345
    nsecs: 185508435
  frame_id: "ti_mmwave"
point_id: 7
x: 1.3046875
y: -0.294921875
z: 0.17578125
range: 1.43804001808
velocity: 0.0
doppler_bin: 8
bearing: -12.7375183105
intensity: 19.4448261261
---
header: 
  seq: 681410
  stamp: 
    secs: 1561682345
    nsecs: 185519964
  frame_id: "ti_mmwave"
point_id: 8
x: 1.2578125
y: -0.087890625
z: 0.587890625
range: 1.48161697388
velocity: 0.0
doppler_bin: 8
bearing: -3.99709033966
intensity: 23.9619941711
---
header: 
  seq: 681411
  stamp: 
    secs: 1561682345
    nsecs: 185532396
  frame_id: "ti_mmwave"
point_id: 9
x: 1.35546875
y: -0.1796875
z: -0.427734375
range: 1.52519392967
velocity: 0.0
doppler_bin: 8
bearing: -7.55137681961
intensity: 27.5966777802
---
header: 
  seq: 681412
  stamp: 
    secs: 1561682345
    nsecs: 185541175
  frame_id: "ti_mmwave"
point_id: 10
x: 1.41796875
y: -0.18359375
z: -0.3515625
range: 1.56877088547
velocity: 0.0
doppler_bin: 8
bearing: -7.3774189949
intensity: 28.762178421
---
header: 
  seq: 681413
  stamp: 
    secs: 1561682345
    nsecs: 185599766
  frame_id: "ti_mmwave"
point_id: 11
x: 1.48046875
y: -0.189453125
z: -0.25390625
range: 1.61234796047
velocity: 0.0
doppler_bin: 8
bearing: -7.2924118042
intensity: 25.8994960785
---
header: 
  seq: 681414
  stamp: 
    secs: 1561682345
    nsecs: 185611738
  frame_id: "ti_mmwave"
point_id: 12
x: 2.55078125
y: -0.263671875
z: 1.1796875
range: 3.00681090355
velocity: 0.0
doppler_bin: 8
bearing: -5.90165042877
intensity: 29.3951931
---
header: 
  seq: 681415
  stamp: 
    secs: 1561682345
    nsecs: 185623018
  frame_id: "ti_mmwave"
point_id: 13
x: 2.607421875
y: -0.267578125
z: 1.15234375
range: 3.05038785934
velocity: 0.0
doppler_bin: 8
bearing: -5.85928010941
intensity: 32.7067871094
---
header: 
  seq: 681416
  stamp: 
    secs: 1561682345
    nsecs: 185633393
  frame_id: "ti_mmwave"
point_id: 14
x: 2.66796875
y: -0.181640625
z: 1.1328125
range: 3.09396481514
velocity: 0.0
doppler_bin: 8
bearing: -3.89480042458
intensity: 31.945142746
---
header: 
  seq: 681417
  stamp: 
    secs: 1561682345
    nsecs: 185644028
  frame_id: "ti_mmwave"
point_id: 15
x: 4.4140625
y: -0.287109375
z: 1.19140625
range: 4.88062095642
velocity: 0.0
doppler_bin: 8
bearing: -3.72151875496
intensity: 30.7481651306
---
header: 
  seq: 681418
  stamp: 
    secs: 1561682345
    nsecs: 185655804
  frame_id: "ti_mmwave"
point_id: 16
x: 4.458984375
y: -0.2890625
z: 1.185546875
range: 4.9241976738
velocity: 0.0
doppler_bin: 8
bearing: -3.70912218094
intensity: 30.064661026
---
header: 
  seq: 681419
  stamp: 
    secs: 1561682345
    nsecs: 185666572
  frame_id: "ti_mmwave"
point_id: 17
x: 4.880859375
y: -0.30859375
z: 0.765625
range: 5.27281332016
velocity: 0.0
doppler_bin: 8
bearing: -3.61772704124
intensity: 30.5230903625
---
header: 
  seq: 681420
  stamp: 
    secs: 1561682345
    nsecs: 185679952
  frame_id: "ti_mmwave"
point_id: 19
x: 0.041015625
y: -0.033203125
z: 0.0625
range: 0.0871539413929
velocity: 0.0
doppler_bin: 8
bearing: -38.9909973145
intensity: 30.0774784088
---
header: 
  seq: 681421
  stamp: 
    secs: 1561682345
    nsecs: 185753083
  frame_id: "ti_mmwave"
point_id: 20
x: 0.052734375
y: -0.04296875
z: 0.1015625
range: 0.130730912089
velocity: 0.0
doppler_bin: 8
bearing: -39.1736602783
intensity: 28.9652614594
---
header: 
  seq: 681422
  stamp: 
    secs: 1561682345
    nsecs: 185778106
  frame_id: "ti_mmwave"
point_id: 22
x: 0.63671875
y: -0.498046875
z: 0.921875
range: 1.3073091507
velocity: 0.0
doppler_bin: 8
bearing: -38.0328216553
intensity: 18.325088501
---
header: 
  seq: 681423
  stamp: 
    secs: 1561682345
    nsecs: 185792252
  frame_id: "ti_mmwave"
point_id: 23
x: 0.876953125
y: -0.515625
z: 0.755859375
range: 1.35088610649
velocity: 0.0
doppler_bin: 8
bearing: -30.4543933868
intensity: 20.5307846069
---
header: 
  seq: 681424
  stamp: 
    secs: 1561682345
    nsecs: 185823062
  frame_id: "ti_mmwave"
point_id: 24
x: 0.830078125
y: 0.548828125
z: 0.912109375
range: 1.43804001808
velocity: 0.0
doppler_bin: 8
bearing: 33.471736908
intensity: 18.4509811401
---
header: 
  seq: 681425
  stamp: 
    secs: 1561682345
    nsecs: 185874673
  frame_id: "ti_mmwave"
point_id: 25
x: 0.8984375
y: 0.42578125
z: 1.140625
range: 1.61234796047
velocity: 0.0
doppler_bin: 8
bearing: 25.3568820953
intensity: 24.5788192749
---
header: 
  seq: 681426
  stamp: 
    secs: 1561682345
    nsecs: 185888785
  frame_id: "ti_mmwave"
point_id: 26
x: 2.814453125
y: -2.00390625
z: -3.009765625
range: 4.88062095642
velocity: 0.0
doppler_bin: 8
bearing: -35.4510803223
intensity: 27.8103694916
---
header: 
  seq: 681427
  stamp: 
    secs: 1561682345
    nsecs: 185896077
  frame_id: "ti_mmwave"
point_id: 27
x: 2.943359375
y: -2.021484375
z: -2.935546875
range: 4.9241976738
velocity: 0.0
doppler_bin: 8
bearing: -34.4810829163
intensity: 27.2345561981
---
header: 
  seq: 681428
  stamp: 
    secs: 1561682345
    nsecs: 244194736
  frame_id: "ti_mmwave"
point_id: 0
x: 0.01171875
y: -0.0390625
z: -0.0078125
range: 0.0435769706964
velocity: 0.0
doppler_bin: 8
bearing: -73.3007583618
intensity: 30.6929798126
---
header: 
  seq: 681429
  stamp: 
    secs: 1561682345
    nsecs: 244267607
  frame_id: "ti_mmwave"
point_id: 1
x: 0.017578125
y: -0.080078125
z: -0.0078125
range: 0.0871539413929
velocity: 0.0
doppler_bin: 8
bearing: -77.6192398071
intensity: 31.9284610748
---
header: 
  seq: 681430
  stamp: 
    secs: 1561682345
    nsecs: 244278493
  frame_id: "ti_mmwave"
point_id: 2
x: 0.029296875
y: -0.119140625
z: -0.005859375
range: 0.130730912089
velocity: 0.0
doppler_bin: 8
bearing: -76.1849746704
intensity: 30.1870040894
---
header: 
  seq: 681431
  stamp: 
    secs: 1561682345
    nsecs: 244291144
  frame_id: "ti_mmwave"
point_id: 3
x: 0.056640625
y: -0.154296875
z: 0.005859375
range: 0.174307882786
velocity: 0.0
doppler_bin: 8
bearing: -69.8423843384
intensity: 25.4654273987
---
header: 
  seq: 681432
  stamp: 
    secs: 1561682345
    nsecs: 244299410
  frame_id: "ti_mmwave"
point_id: 4
x: 1.05859375
y: -0.080078125
z: -0.69140625
range: 1.35088610649
velocity: 0.0
doppler_bin: 8
bearing: -4.32594394684
intensity: 25.0515003204
---
header: 
  seq: 681433
  stamp: 
    secs: 1561682345
    nsecs: 244307217
  frame_id: "ti_mmwave"
point_id: 5
x: 0.65234375
y: -0.0
z: 1.181640625
range: 1.43804001808
velocity: 0.0
doppler_bin: 8
bearing: -0.0
intensity: 23.2428245544
---
header: 
  seq: 681434
  stamp: 
    secs: 1561682345
    nsecs: 244315131
  frame_id: "ti_mmwave"
point_id: 6
x: 1.361328125
y: -0.173828125
z: 0.2265625
range: 1.48161697388
velocity: 0.0
doppler_bin: 8
bearing: -7.27672624588
intensity: 24.2975234985
---
header: 
  seq: 681435
  stamp: 
    secs: 1561682345
    nsecs: 244323394
  frame_id: "ti_mmwave"
point_id: 7
x: 1.41015625
y: -0.1796875
z: -0.169921875
range: 1.52519392967
velocity: 0.0
doppler_bin: 8
bearing: -7.26171350479
intensity: 28.0685806274
---
header: 
  seq: 681436
  stamp: 
    secs: 1561682345
    nsecs: 244331048
  frame_id: "ti_mmwave"
point_id: 8
x: 1.43359375
y: -0.18359375
z: -0.283203125
range: 1.56877088547
velocity: 0.0
doppler_bin: 8
bearing: -7.29788303375
intensity: 29.0687351227
---
header: 
  seq: 681437
  stamp: 
    secs: 1561682345
    nsecs: 244339169
  frame_id: "ti_mmwave"
point_id: 9
x: 1.458984375
y: -0.189453125
z: -0.3515625
range: 1.61234796047
velocity: 0.0
doppler_bin: 8
bearing: -7.39861440659
intensity: 27.3239383698
---
header: 
  seq: 681438
  stamp: 
    secs: 1561682345
    nsecs: 244349074
  frame_id: "ti_mmwave"
point_id: 10
x: 2.5546875
y: -0.263671875
z: 1.169921875
range: 3.00681090355
velocity: 0.0
doppler_bin: 8
bearing: -5.89269018173
intensity: 29.4051647186
---
header: 
  seq: 681439
  stamp: 
    secs: 1561682345
    nsecs: 244358639
  frame_id: "ti_mmwave"
point_id: 11
x: 2.60546875
y: -0.267578125
z: 1.15625
range: 3.05038785934
velocity: 0.0
doppler_bin: 8
bearing: -5.86364221573
intensity: 32.7137680054
---
header: 
  seq: 681440
  stamp: 
    secs: 1561682345
    nsecs: 244366747
  frame_id: "ti_mmwave"
point_id: 12
x: 2.6640625
y: -0.181640625
z: 1.14453125
range: 3.09396481514
velocity: 0.0
doppler_bin: 8
bearing: -3.90049386024
intensity: 31.9506893158
---
header: 
  seq: 681441
  stamp: 
    secs: 1561682345
    nsecs: 244375444
  frame_id: "ti_mmwave"
point_id: 13
x: 4.421875
y: -0.287109375
z: 1.166015625
range: 4.88062095642
velocity: 0.0
doppler_bin: 8
bearing: -3.7149617672
intensity: 30.8350257874
---
header: 
  seq: 681442
  stamp: 
    secs: 1561682345
    nsecs: 244383190
  frame_id: "ti_mmwave"
point_id: 14
x: 4.474609375
y: -0.2890625
z: 1.123046875
range: 4.9241976738
velocity: 0.0
doppler_bin: 8
bearing: -3.69620633125
intensity: 30.2530593872
---
header: 
  seq: 681443
  stamp: 
    secs: 1561682345
    nsecs: 244403347
  frame_id: "ti_mmwave"
point_id: 15
x: 4.830078125
y: -0.46484375
z: 0.9765625
range: 5.27281332016
velocity: 0.0
doppler_bin: 8
bearing: -5.49718093872
intensity: 30.5918464661
---
header: 
  seq: 681444
  stamp: 
    secs: 1561682345
    nsecs: 244413835
  frame_id: "ti_mmwave"
point_id: 16
x: 1.306640625
y: -0.08203125
z: -0.01953125
range: 1.39446306229
velocity: 0.614668667316
doppler_bin: 9
bearing: -3.59232997894
intensity: 24.9968700409
---
header: 
  seq: 681445
  stamp: 
    secs: 1561682345
    nsecs: 244487441
  frame_id: "ti_mmwave"
point_id: 18
x: 0.041015625
y: -0.033203125
z: 0.0625
range: 0.0871539413929
velocity: 0.0
doppler_bin: 8
bearing: -38.9909973145
intensity: 30.0774784088
---
header: 
  seq: 681446
  stamp: 
    secs: 1561682345
    nsecs: 244496495
  frame_id: "ti_mmwave"
point_id: 19
x: 0.052734375
y: -0.04296875
z: 0.1015625
range: 0.130730912089
velocity: 0.0
doppler_bin: 8
bearing: -39.1736602783
intensity: 28.9597473145
---
header: 
  seq: 681447
  stamp: 
    secs: 1561682345
    nsecs: 244507607
  frame_id: "ti_mmwave"
point_id: 21
x: 2.763671875
y: -2.00390625
z: -3.0546875
range: 4.88062095642
velocity: 0.0
doppler_bin: 8
bearing: -35.9454307556
intensity: 27.8675136566
---
header: 
  seq: 681448
  stamp: 
    secs: 1561682345
    nsecs: 244515201
  frame_id: "ti_mmwave"
point_id: 22
x: 2.771484375
y: -2.021484375
z: -3.09765625
range: 4.9241976738
velocity: 0.0
doppler_bin: 8
bearing: -36.1065177917
intensity: 27.3239383698
---
header: 
  seq: 681449
  stamp: 
    secs: 1561682345
    nsecs: 245649632
  frame_id: "ti_mmwave"
point_id: 0
x: 0.01171875
y: -0.0390625
z: -0.0078125
range: 0.0435769706964
velocity: 0.0
doppler_bin: 8
bearing: -73.3007583618
intensity: 30.6855697632
---
header: 
  seq: 681450
  stamp: 
    secs: 1561682345
    nsecs: 245715581
  frame_id: "ti_mmwave"
point_id: 1
x: 0.017578125
y: -0.080078125
z: -0.0078125
range: 0.0871539413929
velocity: 0.0
doppler_bin: 8
bearing: -77.6192398071
intensity: 31.9256744385
---
header: 
  seq: 681451
  stamp: 
    secs: 1561682345
    nsecs: 245738156
  frame_id: "ti_mmwave"
point_id: 2
x: 0.029296875
y: -0.119140625
z: -0.005859375
range: 0.130730912089
velocity: 0.0
doppler_bin: 8
bearing: -76.1849746704
intensity: 30.1828422546
---
header: 
  seq: 681452
  stamp: 
    secs: 1561682345
    nsecs: 245751614
  frame_id: "ti_mmwave"
point_id: 3
x: 0.056640625
y: -0.154296875
z: 0.005859375
range: 0.174307882786
velocity: 0.0
doppler_bin: 8
bearing: -69.8423843384
intensity: 25.4654273987
---
header: 
  seq: 681453
  stamp: 
    secs: 1561682345
    nsecs: 245765032
  frame_id: "ti_mmwave"
point_id: 4
x: 1.13671875
y: -0.080078125
z: -0.5546875
range: 1.35088610649
velocity: 0.0
doppler_bin: 8
bearing: -4.02964353561
intensity: 23.8560619354
---
header: 
  seq: 681454
  stamp: 
    secs: 1561682345
    nsecs: 245781675
  frame_id: "ti_mmwave"
point_id: 5
x: 1.244140625
y: -0.08203125
z: -0.3984375
range: 1.39446306229
velocity: 0.0
doppler_bin: 8
bearing: -3.77228355408
intensity: 26.4443855286
---
header: 
  seq: 681455
  stamp: 
    secs: 1561682345
    nsecs: 245794853
  frame_id: "ti_mmwave"
point_id: 6
x: 1.318359375
y: -0.126953125
z: -0.263671875
range: 1.43804001808
velocity: 0.0
doppler_bin: 8
bearing: -5.50041151047
intensity: 26.1909332275
---
header: 
  seq: 681456
  stamp: 
    secs: 1561682345
    nsecs: 245807342
  frame_id: "ti_mmwave"
point_id: 7
x: 1.248046875
y: -0.173828125
z: -0.5859375
range: 1.48161697388
velocity: 0.0
doppler_bin: 8
bearing: -7.92915391922
intensity: 21.6136798859
---
header: 
  seq: 681457
  stamp: 
    secs: 1561682345
    nsecs: 245822695
  frame_id: "ti_mmwave"
point_id: 8
x: 1.390625
y: -0.08984375
z: -0.330078125
range: 1.52519392967
velocity: 0.0
doppler_bin: 8
bearing: -3.69655609131
intensity: 27.7451705933
---
header: 
  seq: 681458
  stamp: 
    secs: 1561682345
    nsecs: 245907176
  frame_id: "ti_mmwave"
point_id: 9
x: 1.4375
y: -0.138671875
z: -0.28515625
range: 1.56877088547
velocity: 0.0
doppler_bin: 8
bearing: -5.51012420654
intensity: 28.9872512817
---
header: 
  seq: 681459
  stamp: 
    secs: 1561682345
    nsecs: 245925260
  frame_id: "ti_mmwave"
point_id: 10
x: 1.474609375
y: -0.09375
z: -0.32421875
range: 1.61234796047
velocity: 0.0
doppler_bin: 8
bearing: -3.63774967194
intensity: 26.9897003174
---
header: 
  seq: 681460
  stamp: 
    secs: 1561682345
    nsecs: 245939281
  frame_id: "ti_mmwave"
point_id: 11
x: 2.544921875
y: -0.263671875
z: 1.19140625
range: 3.00681090355
velocity: 0.0
doppler_bin: 8
bearing: -5.91514253616
intensity: 29.3851966858
---
header: 
  seq: 681461
  stamp: 
    secs: 1561682345
    nsecs: 245950956
  frame_id: "ti_mmwave"
point_id: 12
x: 2.603515625
y: -0.267578125
z: 1.16015625
range: 3.05038785934
velocity: 0.0
doppler_bin: 8
bearing: -5.8680100441
intensity: 32.7067871094
---
header: 
  seq: 681462
  stamp: 
    secs: 1561682345
    nsecs: 245964103
  frame_id: "ti_mmwave"
point_id: 13
x: 2.662109375
y: -0.181640625
z: 1.14453125
range: 3.09396481514
velocity: 0.0
doppler_bin: 8
bearing: -3.90334677696
intensity: 31.9479179382
---
header: 
  seq: 681463
  stamp: 
    secs: 1561682345
    nsecs: 245978068
  frame_id: "ti_mmwave"
