header: 
  seq: 639114
  stamp: 
    secs: 1561682275
    nsecs: 884390817
  frame_id: "ti_mmwave"
point_id: 0
x: 0.01171875
y: -0.0390625
z: -0.0078125
range: 0.0435769706964
velocity: 0.0
doppler_bin: 8
bearing: -73.3007583618
intensity: 30.6929798126
---
header: 
  seq: 639115
  stamp: 
    secs: 1561682275
    nsecs: 884468863
  frame_id: "ti_mmwave"
point_id: 1
x: 0.017578125
y: -0.080078125
z: -0.0078125
range: 0.0871539413929
velocity: 0.0
doppler_bin: 8
bearing: -77.6192398071
intensity: 31.9368095398
---
header: 
  seq: 639116
  stamp: 
    secs: 1561682275
    nsecs: 884486692
  frame_id: "ti_mmwave"
point_id: 2
x: 0.029296875
y: -0.119140625
z: -0.005859375
range: 0.130730912089
velocity: 0.0
doppler_bin: 8
bearing: -76.1849746704
intensity: 30.1953163147
---
header: 
  seq: 639117
  stamp: 
    secs: 1561682275
    nsecs: 884496681
  frame_id: "ti_mmwave"
point_id: 3
x: 0.056640625
y: -0.154296875
z: 0.005859375
range: 0.174307882786
velocity: 0.0
doppler_bin: 8
bearing: -69.8423843384
intensity: 25.4654273987
---
header: 
  seq: 639118
  stamp: 
    secs: 1561682275
    nsecs: 884505142
  frame_id: "ti_mmwave"
point_id: 4
x: 0.3671875
y: -0.080078125
z: -1.2109375
range: 1.35088610649
velocity: 0.0
doppler_bin: 8
bearing: -12.3027267456
intensity: 21.7897701263
---
header: 
  seq: 639119
  stamp: 
    secs: 1561682275
    nsecs: 884514619
  frame_id: "ti_mmwave"
point_id: 5
x: 0.072265625
y: -0.041015625
z: 1.306640625
range: 1.39446306229
velocity: 0.0
doppler_bin: 8
bearing: -29.5778408051
intensity: 22.7875366211
---
header: 
  seq: 639120
  stamp: 
    secs: 1561682275
    nsecs: 884522977
  frame_id: "ti_mmwave"
point_id: 6
x: 1.392578125
y: -0.134765625
z: -0.306640625
range: 1.52519392967
velocity: 0.0
doppler_bin: 8
bearing: -5.52754020691
intensity: 27.1180725098
---
header: 
  seq: 639121
  stamp: 
    secs: 1561682275
    nsecs: 884532009
  frame_id: "ti_mmwave"
point_id: 7
x: 1.4453125
y: -0.138671875
z: -0.25
range: 1.56877088547
velocity: 0.0
doppler_bin: 8
bearing: -5.48052167892
intensity: 31.875207901
---
header: 
  seq: 639122
  stamp: 
    secs: 1561682275
    nsecs: 884545521
  frame_id: "ti_mmwave"
point_id: 8
x: 1.48828125
y: -0.09375
z: -0.25390625
range: 1.61234796047
velocity: 0.0
doppler_bin: 8
bearing: -3.60442066193
intensity: 32.7623214722
---
header: 
  seq: 639123
  stamp: 
    secs: 1561682275
    nsecs: 884556374
  frame_id: "ti_mmwave"
point_id: 9
x: 1.533203125
y: -0.048828125
z: -0.24609375
range: 1.65592491627
velocity: 0.0
doppler_bin: 8
bearing: -1.82409000397
intensity: 30.1283721924
---
header: 
  seq: 639124
  stamp: 
    secs: 1561682275
    nsecs: 884714863
  frame_id: "ti_mmwave"
point_id: 10
x: 2.5625
y: -0.263671875
z: 1.15234375
range: 3.00681090355
velocity: 0.0
doppler_bin: 8
bearing: -5.87485074997
intensity: 29.4349460602
---
header: 
  seq: 639125
  stamp: 
    secs: 1561682275
    nsecs: 884742507
  frame_id: "ti_mmwave"
point_id: 11
x: 2.607421875
y: -0.267578125
z: 1.15234375
range: 3.05038785934
velocity: 0.0
doppler_bin: 8
bearing: -5.85928010941
intensity: 32.7392692566
---
header: 
  seq: 639126
  stamp: 
    secs: 1561682275
    nsecs: 884754141
  frame_id: "ti_mmwave"
point_id: 12
x: 2.666015625
y: -0.181640625
z: 1.138671875
range: 3.09396481514
velocity: 0.0
doppler_bin: 8
bearing: -3.89764523506
intensity: 31.9755630493
---
header: 
  seq: 639127
  stamp: 
    secs: 1561682275
    nsecs: 884764328
  frame_id: "ti_mmwave"
point_id: 13
x: 4.423828125
y: -0.287109375
z: 1.16015625
range: 4.88062095642
velocity: 0.0
doppler_bin: 8
bearing: -3.71332621574
intensity: 30.8386077881
---
header: 
  seq: 639128
  stamp: 
    secs: 1561682275
    nsecs: 884773392
  frame_id: "ti_mmwave"
point_id: 14
x: 4.482421875
y: -0.2890625
z: 1.095703125
range: 4.9241976738
velocity: 0.0
doppler_bin: 8
bearing: -3.6897816658
intensity: 30.4139270782
---
header: 
  seq: 639129
  stamp: 
    secs: 1561682275
    nsecs: 884782937
  frame_id: "ti_mmwave"
point_id: 15
x: 1.37109375
y: -0.173828125
z: 0.15234375
range: 1.48161697388
velocity: -0.614668667316
doppler_bin: 7
bearing: -7.22544717789
intensity: 23.8381538391
---
header: 
  seq: 639130
  stamp: 
    secs: 1561682275
    nsecs: 884795104
  frame_id: "ti_mmwave"
point_id: 17
x: 0.041015625
y: -0.033203125
z: 0.0625
range: 0.0871539413929
velocity: 0.0
doppler_bin: 8
bearing: -38.9909973145
intensity: 30.0860023499
---
header: 
  seq: 639131
  stamp: 
    secs: 1561682275
    nsecs: 884804583
  frame_id: "ti_mmwave"
point_id: 18
x: 0.052734375
y: -0.04296875
z: 0.1015625
range: 0.130730912089
velocity: 0.0
doppler_bin: 8
bearing: -39.1736602783
intensity: 28.9707698822
---
header: 
  seq: 639132
  stamp: 
    secs: 1561682275
    nsecs: 884815896
  frame_id: "ti_mmwave"
point_id: 20
x: 1.11328125
y: -0.515625
z: 0.322265625
range: 1.35088610649
velocity: 0.0
doppler_bin: 8
bearing: -24.8515853882
intensity: 18.864906311
---
header: 
  seq: 639133
  stamp: 
    secs: 1561682275
    nsecs: 884847025
  frame_id: "ti_mmwave"
point_id: 21
x: 2.703125
y: -2.00390625
z: -3.109375
range: 4.88062095642
velocity: 0.0
doppler_bin: 8
bearing: -36.5506286621
intensity: 27.9028511047
---
header: 
  seq: 639134
  stamp: 
    secs: 1561682275
    nsecs: 886070293
  frame_id: "ti_mmwave"
point_id: 0
x: 0.01171875
y: -0.0390625
z: -0.0078125
range: 0.0435769706964
velocity: 0.0
doppler_bin: 8
bearing: -73.3007583618
intensity: 30.6892757416
---
header: 
  seq: 639135
  stamp: 
    secs: 1561682275
    nsecs: 886102921
  frame_id: "ti_mmwave"
point_id: 1
x: 0.017578125
y: -0.080078125
z: -0.0078125
range: 0.0871539413929
velocity: 0.0
doppler_bin: 8
bearing: -77.6192398071
intensity: 31.9368095398
---
header: 
  seq: 639136
  stamp: 
    secs: 1561682275
    nsecs: 886113348
  frame_id: "ti_mmwave"
point_id: 2
x: 0.029296875
y: -0.119140625
z: -0.005859375
range: 0.130730912089
velocity: 0.0
doppler_bin: 8
bearing: -76.1849746704
intensity: 30.1994667053
---
header: 
  seq: 639137
  stamp: 
    secs: 1561682275
    nsecs: 886121556
  frame_id: "ti_mmwave"
point_id: 3
x: 0.056640625
y: -0.154296875
z: 0.005859375
range: 0.174307882786
velocity: 0.0
doppler_bin: 8
bearing: -69.8423843384
intensity: 25.4777469635
---
header: 
  seq: 639138
  stamp: 
    secs: 1561682275
    nsecs: 886128924
  frame_id: "ti_mmwave"
point_id: 4
x: 0.328125
y: -0.080078125
z: -1.22265625
range: 1.35088610649
velocity: 0.0
doppler_bin: 8
bearing: -13.7148113251
intensity: 21.9865703583
---
header: 
  seq: 639139
  stamp: 
    secs: 1561682275
    nsecs: 886136619
  frame_id: "ti_mmwave"
point_id: 5
x: 0.619140625
y: -0.041015625
z: -1.15234375
range: 1.39446306229
velocity: 0.0
doppler_bin: 8
bearing: -3.79008126259
intensity: 24.3296928406
---
header: 
  seq: 639140
  stamp: 
    secs: 1561682275
    nsecs: 886144381
  frame_id: "ti_mmwave"
point_id: 6
x: 1.412109375
y: -0.08984375
z: -0.216796875
range: 1.52519392967
velocity: 0.0
doppler_bin: 8
bearing: -3.64046788216
intensity: 26.2838897705
---
header: 
  seq: 639141
  stamp: 
    secs: 1561682275
    nsecs: 886152150
  frame_id: "ti_mmwave"
point_id: 7
x: 1.4453125
y: -0.138671875
z: -0.25
range: 1.56877088547
velocity: 0.0
doppler_bin: 8
bearing: -5.48052167892
intensity: 26.294095993
---
header: 
  seq: 639142
  stamp: 
    secs: 1561682275
    nsecs: 886160756
  frame_id: "ti_mmwave"
point_id: 8
x: 1.48046875
y: -0.09375
z: -0.296875
range: 1.61234796047
velocity: 0.0
doppler_bin: 8
bearing: -3.62339091301
intensity: 26.2838897705
---
header: 
  seq: 639143
  stamp: 
    secs: 1561682275
    nsecs: 886169824
  frame_id: "ti_mmwave"
point_id: 9
x: 0.537109375
y: 0.630859375
z: 1.314453125
range: 1.65592491627
velocity: 0.0
doppler_bin: 8
bearing: 49.5891532898
intensity: 25.2504482269
---
header: 
  seq: 639144
  stamp: 
    secs: 1561682275
    nsecs: 886180365
  frame_id: "ti_mmwave"
point_id: 10
x: 2.552734375
y: -0.263671875
z: 1.173828125
range: 3.00681090355
velocity: 0.0
doppler_bin: 8
bearing: -5.89716720581
intensity: 29.4497585297
---
header: 
  seq: 639145
  stamp: 
    secs: 1561682275
    nsecs: 886189304
  frame_id: "ti_mmwave"
point_id: 11
x: 2.609375
y: -0.267578125
z: 1.150390625
range: 3.05038785934
velocity: 0.0
doppler_bin: 8
bearing: -5.85492515564
intensity: 32.7323265076
---
header: 
  seq: 639146
  stamp: 
    secs: 1561682275
    nsecs: 886198488
  frame_id: "ti_mmwave"
point_id: 12
x: 2.669921875
y: -0.181640625
z: 1.12890625
range: 3.09396481514
velocity: 0.0
doppler_bin: 8
bearing: -3.89196038246
intensity: 31.9534606934
---
header: 
  seq: 639147
  stamp: 
    secs: 1561682275
    nsecs: 886207427
  frame_id: "ti_mmwave"
point_id: 13
x: 4.423828125
y: -0.287109375
z: 1.158203125
range: 4.88062095642
velocity: 0.0
doppler_bin: 8
bearing: -3.71332621574
intensity: 30.8919830322
---
header: 
  seq: 639148
  stamp: 
    secs: 1561682275
    nsecs: 886216155
  frame_id: "ti_mmwave"
point_id: 14
x: 4.4765625
y: -0.2890625
z: 1.119140625
range: 4.9241976738
velocity: 0.0
doppler_bin: 8
bearing: -3.69459795952
intensity: 30.2734966278
---
header: 
  seq: 639149
  stamp: 
    secs: 1561682275
    nsecs: 886237947
  frame_id: "ti_mmwave"
point_id: 15
x: 4.810546875
y: -0.46484375
z: 1.06640625
range: 5.27281332016
velocity: 0.0
doppler_bin: 8
bearing: -5.51936244965
intensity: 30.4178733826
---
header: 
  seq: 639150
  stamp: 
    secs: 1561682275
    nsecs: 886252839
  frame_id: "ti_mmwave"
point_id: 16
x: 1.34375
y: -0.126953125
z: -0.021484375
range: 1.43804001808
velocity: -0.614668667316
doppler_bin: 7
bearing: -5.3970990181
intensity: 26.6558094025
---
header: 
  seq: 639151
  stamp: 
    secs: 1561682275
    nsecs: 886267314
  frame_id: "ti_mmwave"
point_id: 17
x: 1.384765625
y: -0.130859375
z: -0.01953125
range: 1.48161697388
velocity: -0.614668667316
doppler_bin: 7
bearing: -5.3983798027
intensity: 28.1690387726
---
header: 
  seq: 639152
  stamp: 
    secs: 1561682275
    nsecs: 886275567
  frame_id: "ti_mmwave"
point_id: 18
x: 1.421875
y: -0.08984375
z: -0.14453125
range: 1.52519392967
velocity: -0.614668667316
doppler_bin: 7
bearing: -3.61553120613
intensity: 26.4542236328
---
header: 
  seq: 639153
  stamp: 
    secs: 1561682275
    nsecs: 886344546
  frame_id: "ti_mmwave"
point_id: 20
x: 0.041015625
y: -0.033203125
z: 0.0625
range: 0.0871539413929
velocity: 0.0
doppler_bin: 8
bearing: -38.9909973145
intensity: 30.0774784088
---
header: 
  seq: 639154
  stamp: 
    secs: 1561682275
    nsecs: 886353801
  frame_id: "ti_mmwave"
point_id: 21
x: 0.052734375
y: -0.04296875
z: 0.1015625
range: 0.130730912089
velocity: 0.0
doppler_bin: 8
bearing: -39.1736602783
intensity: 28.9652614594
---
header: 
  seq: 639155
  stamp: 
    secs: 1561682275
    nsecs: 886363871
  frame_id: "ti_mmwave"
point_id: 23
x: 1.123046875
y: -0.474609375
z: 0.345703125
range: 1.35088610649
velocity: 0.0
doppler_bin: 8
bearing: -22.9093418121
intensity: 19.0308990479
---
header: 
  seq: 639156
  stamp: 
    secs: 1561682275
    nsecs: 886373058
  frame_id: "ti_mmwave"
point_id: 24
x: 0.6953125
y: 0.51953125
z: 1.240234375
range: 1.61234796047
velocity: 0.0
doppler_bin: 8
bearing: 36.7667541504
intensity: 24.5331840515
---
header: 
  seq: 639157
  stamp: 
    secs: 1561682275
    nsecs: 886381080
  frame_id: "ti_mmwave"
point_id: 25
x: 0.796875
y: 0.970703125
z: -0.9140625
range: 1.65592491627
velocity: 0.0
doppler_bin: 8
bearing: 50.6165504456
intensity: 24.2813472748
---
header: 
  seq: 639158
  stamp: 
    secs: 1561682275
    nsecs: 886388756
  frame_id: "ti_mmwave"
point_id: 26
x: 2.80859375
y: -2.021484375
z: -3.064453125
range: 4.9241976738
velocity: 0.0
doppler_bin: 8
bearing: -35.7444381714
intensity: 27.3639640808
---
header: 
  seq: 639159
  stamp: 
    secs: 1561682275
    nsecs: 944344656
  frame_id: "ti_mmwave"
point_id: 0
x: 0.01171875
y: -0.0390625
z: -0.0078125
range: 0.0435769706964
velocity: 0.0
doppler_bin: 8
bearing: -73.3007583618
intensity: 30.6929798126
---
header: 
  seq: 639160
  stamp: 
    secs: 1561682275
    nsecs: 944424239
  frame_id: "ti_mmwave"
point_id: 1
x: 0.017578125
y: -0.080078125
z: -0.0078125
range: 0.0871539413929
velocity: 0.0
doppler_bin: 8
bearing: -77.6192398071
intensity: 31.9368095398
---
header: 
  seq: 639161
  stamp: 
    secs: 1561682275
    nsecs: 944436057
  frame_id: "ti_mmwave"
point_id: 2
x: 0.029296875
y: -0.119140625
z: -0.005859375
range: 0.130730912089
velocity: 0.0
doppler_bin: 8
bearing: -76.1849746704
intensity: 30.1953163147
---
header: 
  seq: 639162
  stamp: 
    secs: 1561682275
    nsecs: 944444535
  frame_id: "ti_mmwave"
point_id: 3
x: 0.056640625
y: -0.154296875
z: 0.005859375
range: 0.174307882786
velocity: 0.0
doppler_bin: 8
bearing: -69.8423843384
intensity: 25.4777469635
---
header: 
  seq: 639163
  stamp: 
    secs: 1561682275
    nsecs: 944452410
  frame_id: "ti_mmwave"
point_id: 4
x: 0.51953125
y: -0.080078125
z: -1.154296875
range: 1.35088610649
velocity: 0.0
doppler_bin: 8
bearing: -8.76234722137
intensity: 21.7026176453
---
header: 
  seq: 639164
  stamp: 
    secs: 1561682275
    nsecs: 944460974
  frame_id: "ti_mmwave"
point_id: 5
x: 0.92578125
y: -0.0
z: -0.92578125
range: 1.39446306229
velocity: 0.0
doppler_bin: 8
bearing: -0.0
intensity: 21.8184356689
---
header: 
  seq: 639165
  stamp: 
    secs: 1561682275
    nsecs: 944468774
  frame_id: "ti_mmwave"
point_id: 6
x: 1.4140625
y: -0.224609375
z: 0.025390625
range: 1.52519392967
velocity: 0.0
doppler_bin: 8
bearing: -9.02544879913
intensity: 24.9554424286
---
header: 
  seq: 639166
  stamp: 
    secs: 1561682275
    nsecs: 944476951
  frame_id: "ti_mmwave"
point_id: 7
x: 1.419921875
y: -0.322265625
z: -0.224609375
range: 1.56877088547
velocity: 0.0
doppler_bin: 8
bearing: -12.787232399
intensity: 28.2085800171
---
header: 
  seq: 639167
  stamp: 
    secs: 1561682275
    nsecs: 944487334
  frame_id: "ti_mmwave"
point_id: 8
x: 1.4453125
y: -0.33203125
z: -0.30078125
range: 1.61234796047
velocity: 0.0
doppler_bin: 8
bearing: -12.9380559921
intensity: 29.2839584351
---
header: 
  seq: 639168
  stamp: 
    secs: 1561682275
    nsecs: 944497918
  frame_id: "ti_mmwave"
point_id: 9
x: 1.447265625
y: -0.33984375
z: -0.453125
range: 1.65592491627
velocity: 0.0
doppler_bin: 8
bearing: -13.2146587372
intensity: 27.1180725098
---
header: 
  seq: 639169
  stamp: 
    secs: 1561682275
    nsecs: 944506940
  frame_id: "ti_mmwave"
point_id: 10
x: 2.548828125
y: -0.263671875
z: 1.18359375
range: 3.00681090355
velocity: 0.0
doppler_bin: 8
bearing: -5.90614128113
intensity: 29.4101428986
---
header: 
  seq: 639170
  stamp: 
    secs: 1561682275
    nsecs: 944516927
  frame_id: "ti_mmwave"
point_id: 11
x: 2.60546875
y: -0.267578125
z: 1.154296875
range: 3.05038785934
velocity: 0.0
doppler_bin: 8
bearing: -5.86364221573
intensity: 32.7230567932
---
header: 
  seq: 639171
  stamp: 
    secs: 1561682275
    nsecs: 944526792
  frame_id: "ti_mmwave"
point_id: 12
x: 2.6640625
y: -0.181640625
z: 1.142578125
range: 3.09396481514
velocity: 0.0
doppler_bin: 8
bearing: -3.90049386024
intensity: 31.9368095398
---
header: 
  seq: 639172
  stamp: 
    secs: 1561682275
    nsecs: 944536876
  frame_id: "ti_mmwave"
point_id: 13
x: 4.419921875
y: -0.287109375
z: 1.171875
range: 4.88062095642
velocity: 0.0
doppler_bin: 8
bearing: -3.71659874916
intensity: 30.7845687866
---
header: 
  seq: 639173
  stamp: 
    secs: 1561682275
    nsecs: 944545714
  frame_id: "ti_mmwave"
point_id: 14
x: 4.470703125
y: -0.2890625
z: 1.138671875
range: 4.9241976738
velocity: 0.0
doppler_bin: 8
bearing: -3.69942688942
intensity: 30.157787323
---
header: 
  seq: 639174
  stamp: 
    secs: 1561682275
    nsecs: 944570173
  frame_id: "ti_mmwave"
point_id: 15
x: 4.875
y: -0.30859375
z: 0.796875
range: 5.27281332016
velocity: 0.0
doppler_bin: 8
bearing: -3.62206339836
intensity: 30.2118930817
---
header: 
  seq: 639175
  stamp: 
    secs: 1561682275
    nsecs: 944587956
  frame_id: "ti_mmwave"
point_id: 16
x: 1.337890625
y: -0.16796875
z: -0.044921875
range: 1.43804001808
velocity: -0.614668667316
doppler_bin: 7
bearing: -7.15589761734
intensity: 25.3019962311
---
header: 
  seq: 639176
  stamp: 
    secs: 1561682275
    nsecs: 944598507
  frame_id: "ti_mmwave"
point_id: 17
x: 1.37890625
y: -0.173828125
z: 0.0390625
range: 1.48161697388
velocity: -0.614668667316
doppler_bin: 7
bearing: -7.18493795395
intensity: 26.1066017151
---
header: 
  seq: 639177
  stamp: 
    secs: 1561682275
    nsecs: 944768239
  frame_id: "ti_mmwave"
point_id: 19
x: 0.041015625
y: -0.033203125
z: 0.0625
range: 0.0871539413929
velocity: 0.0
doppler_bin: 8
bearing: -38.9909973145
intensity: 30.081741333
---
header: 
  seq: 639178
  stamp: 
    secs: 1561682275
    nsecs: 944794584
  frame_id: "ti_mmwave"
point_id: 20
x: 0.052734375
y: -0.04296875
z: 0.1015625
range: 0.130730912089
velocity: 0.0
doppler_bin: 8
bearing: -39.1736602783
intensity: 28.9652614594
---
header: 
  seq: 639179
  stamp: 
    secs: 1561682275
    nsecs: 944810357
  frame_id: "ti_mmwave"
point_id: 22
x: 1.103515625
y: -0.515625
z: 0.35546875
range: 1.35088610649
velocity: 0.0
doppler_bin: 8
bearing: -25.0446453094
intensity: 19.0308990479
---
header: 
  seq: 639180
  stamp: 
    secs: 1561682275
    nsecs: 944821860
  frame_id: "ti_mmwave"
point_id: 23
x: 1.21484375
y: 0.44921875
z: 0.19140625
range: 1.39446306229
velocity: 0.0
doppler_bin: 8
bearing: 20.2931289673
intensity: 19.2427921295
---
header: 
  seq: 639181
  stamp: 
    secs: 1561682275
    nsecs: 944838015
  frame_id: "ti_mmwave"
point_id: 24
x: 0.974609375
y: 1.01953125
z: -0.65234375
range: 1.65592491627
velocity: 0.0
doppler_bin: 8
bearing: 46.2904815674
intensity: 24.9415454865
---
header: 
  seq: 639182
  stamp: 
    secs: 1561682275
    nsecs: 944889470
  frame_id: "ti_mmwave"
point_id: 25
x: 2.771484375
y: -2.00390625
z: -3.048828125
range: 4.88062095642
velocity: 0.0
doppler_bin: 8
bearing: -35.868598938
intensity: 27.8103694916
---
header: 
  seq: 639183
  stamp: 
    secs: 1561682275
    nsecs: 944904303
  frame_id: "ti_mmwave"
point_id: 26
x: 2.798828125
y: -2.021484375
z: -3.072265625
range: 4.9241976738
velocity: 0.0
doppler_bin: 8
bearing: -35.8391113281
intensity: 27.3078231812
---
header: 
  seq: 639184
  stamp: 
    secs: 1561682275
    nsecs: 945751975
  frame_id: "ti_mmwave"
point_id: 0
x: 0.01171875
y: -0.0390625
z: -0.0078125
range: 0.0435769706964
velocity: 0.0
doppler_bin: 8
bearing: -73.3007583618
intensity: 30.6929798126
---
header: 
  seq: 639185
  stamp: 
    secs: 1561682275
    nsecs: 945813125
  frame_id: "ti_mmwave"
point_id: 1
x: 0.017578125
y: -0.080078125
z: -0.0078125
range: 0.0871539413929
velocity: 0.0
doppler_bin: 8
bearing: -77.6192398071
intensity: 31.9368095398
---
header: 
  seq: 639186
  stamp: 
    secs: 1561682275
    nsecs: 945827955
  frame_id: "ti_mmwave"
point_id: 2
x: 0.029296875
y: -0.119140625
z: -0.005859375
range: 0.130730912089
velocity: 0.0
doppler_bin: 8
bearing: -76.1849746704
intensity: 30.1953163147
---
header: 
  seq: 639187
  stamp: 
    secs: 1561682275
    nsecs: 945844125
  frame_id: "ti_mmwave"
point_id: 3
x: 0.056640625
y: -0.154296875
z: 0.005859375
range: 0.174307882786
velocity: 0.0
doppler_bin: 8
bearing: -69.8423843384
intensity: 25.4654273987
---
header: 
  seq: 639188
  stamp: 
    secs: 1561682275
    nsecs: 945867026
  frame_id: "ti_mmwave"
point_id: 4
x: 0.46484375
y: -0.0390625
z: -1.1796875
range: 1.35088610649
velocity: 0.0
doppler_bin: 8
bearing: -4.80348587036
intensity: 20.9691009521
---
header: 
  seq: 639189
  stamp: 
    secs: 1561682275
    nsecs: 945890953
  frame_id: "ti_mmwave"
point_id: 5
x: 1.376953125
y: -0.173828125
z: 0.095703125
range: 1.48161697388
velocity: 0.0
doppler_bin: 8
bearing: -7.19502305984
intensity: 28.1023254395
---
header: 
  seq: 639190
  stamp: 
    secs: 1561682275
    nsecs: 946008834
  frame_id: "ti_mmwave"
point_id: 6
x: 1.419921875
y: -0.1796875
z: 0.01953125
range: 1.52519392967
velocity: 0.0
doppler_bin: 8
bearing: -7.21229791641
intensity: 27.0926990509
---
header: 
  seq: 639191
  stamp: 
    secs: 1561682275
    nsecs: 946025732
  frame_id: "ti_mmwave"
point_id: 7
x: 1.4375
y: -0.138671875
z: -0.29296875
range: 1.56877088547
velocity: 0.0
doppler_bin: 8
bearing: -5.51012420654
intensity: 31.5563964844
---
header: 
  seq: 639192
  stamp: 
    secs: 1561682275
    nsecs: 946040406
  frame_id: "ti_mmwave"
point_id: 8
x: 1.47265625
y: -0.142578125
z: -0.322265625
range: 1.61234796047
velocity: 0.0
doppler_bin: 8
bearing: -5.52996873856
intensity: 33.1048088074
---
header: 
  seq: 639193
  stamp: 
    secs: 1561682275
    nsecs: 946055899
  frame_id: "ti_mmwave"
point_id: 9
x: 1.5078125
y: -0.146484375
z: -0.34765625
range: 1.65592491627
velocity: 0.0
doppler_bin: 8
bearing: -5.54888629913
intensity: 31.1826477051
---
header: 
  seq: 639194
  stamp: 
    secs: 1561682275
    nsecs: 946099053
  frame_id: "ti_mmwave"
point_id: 10
x: 2.55078125
y: -0.263671875
z: 1.1796875
range: 3.00681090355
velocity: 0.0
doppler_bin: 8
bearing: -5.90165042877
intensity: 29.4645233154
---
header: 
  seq: 639195
  stamp: 
    secs: 1561682275
    nsecs: 946108314
  frame_id: "ti_mmwave"
point_id: 11
x: 2.60546875
y: -0.267578125
z: 1.154296875
range: 3.05038785934
velocity: 0.0
doppler_bin: 8
bearing: -5.86364221573
intensity: 32.743888855
---
header: 
  seq: 639196
  stamp: 
    secs: 1561682275
    nsecs: 946117393
  frame_id: "ti_mmwave"
point_id: 12
x: 2.6640625
y: -0.181640625
z: 1.142578125
range: 3.09396481514
velocity: 0.0
doppler_bin: 8
bearing: -3.90049386024
intensity: 31.9755630493
---
header: 
  seq: 639197
  stamp: 
    secs: 1561682275
    nsecs: 946125589
  frame_id: "ti_mmwave"
point_id: 13
x: 4.419921875
y: -0.287109375
z: 1.171875
range: 4.88062095642
velocity: 0.0
doppler_bin: 8
bearing: -3.71659874916
intensity: 30.7371826172
---
header: 
  seq: 639198
  stamp: 
    secs: 1561682275
    nsecs: 946133336
  frame_id: "ti_mmwave"
point_id: 14
x: 4.458984375
y: -0.2890625
z: 1.185546875
range: 4.9241976738
velocity: 0.0
doppler_bin: 8
bearing: -3.70912218094
intensity: 30.0216598511
---
header: 
  seq: 639199
  stamp: 
    secs: 1561682275
    nsecs: 946141185
  frame_id: "ti_mmwave"
point_id: 15
x: 4.83203125
y: -0.46484375
z: 0.966796875
range: 5.27281332016
velocity: 0.0
doppler_bin: 8
bearing: -5.49497270584
intensity: 30.3302135468
---
header: 
  seq: 639200
  stamp: 
    secs: 1561682275
    nsecs: 946162959
  frame_id: "ti_mmwave"
point_id: 16
x: 1.29296875
y: -0.205078125
z: 0.025390625
range: 1.39446306229
velocity: -0.614668667316
doppler_bin: 7
bearing: -9.01262187958
intensity: 22.6481781006
---
header: 
  seq: 639201
  stamp: 
    secs: 1561682275
    nsecs: 946202827
  frame_id: "ti_mmwave"
point_id: 17
x: 1.33984375
y: -0.16796875
z: -0.01953125
range: 1.43804001808
velocity: -0.614668667316
doppler_bin: 7
bearing: -7.14557504654
intensity: 27.7378635406
---
header: 
  seq: 639202
  stamp: 
    secs: 1561682275
    nsecs: 946212893
  frame_id: "ti_mmwave"
point_id: 19
x: 0.041015625
y: -0.033203125
z: 0.0625
range: 0.0871539413929
velocity: 0.0
doppler_bin: 8
bearing: -38.9909973145
intensity: 30.0774784088
---
header: 
  seq: 639203
  stamp: 
    secs: 1561682275
    nsecs: 946220797
  frame_id: "ti_mmwave"
point_id: 20
x: 0.052734375
y: -0.04296875
z: 0.1015625
range: 0.130730912089
velocity: 0.0
doppler_bin: 8
bearing: -39.1736602783
intensity: 28.9652614594
---
header: 
  seq: 639204
  stamp: 
    secs: 1561682275
    nsecs: 946230060
  frame_id: "ti_mmwave"
point_id: 22
x: 1.111328125
y: -0.474609375
z: 0.380859375
range: 1.35088610649
velocity: 0.0
doppler_bin: 8
bearing: -23.1256332397
intensity: 18.6923179626
---
header: 
  seq: 639205
  stamp: 
    secs: 1561682275
    nsecs: 946238299
  frame_id: "ti_mmwave"
point_id: 23
x: 2.806640625
y: -2.00390625
z: -3.015625
range: 4.88062095642
velocity: 0.0
doppler_bin: 8
bearing: -35.5263633728
intensity: 27.8031730652
---
header: 
  seq: 639206
  stamp: 
    secs: 1561682275
    nsecs: 946245672
  frame_id: "ti_mmwave"
point_id: 24
x: 2.904296875
y: -2.021484375
z: -2.974609375
range: 4.9241976738
velocity: 0.0
doppler_bin: 8
bearing: -34.8391609192
intensity: 27.1516742706
---
header: 
  seq: 639207
  stamp: 
    secs: 1561682276
    nsecs:   5583320
  frame_id: "ti_mmwave"
point_id: 0
x: 0.01171875
y: -0.0390625
z: -0.0078125
range: 0.0435769706964
velocity: 0.0
doppler_bin: 8
bearing: -73.3007583618
intensity: 30.6892757416
---
header: 
  seq: 639208
  stamp: 
    secs: 1561682276
    nsecs:   5687332
  frame_id: "ti_mmwave"
point_id: 1
x: 0.017578125
y: -0.080078125
z: -0.0078125
range: 0.0871539413929
velocity: 0.0
doppler_bin: 8
bearing: -77.6192398071
intensity: 31.9340286255
---
header: 
  seq: 639209
  stamp: 
    secs: 1561682276
    nsecs:   5705111
  frame_id: "ti_mmwave"
point_id: 2
x: 0.029296875
y: -0.119140625
z: -0.005859375
range: 0.130730912089
velocity: 0.0
doppler_bin: 8
bearing: -76.1849746704
intensity: 30.1953163147
---
header: 
  seq: 639210
  stamp: 
    secs: 1561682276
    nsecs:   5719142
  frame_id: "ti_mmwave"
point_id: 3
x: 0.056640625
y: -0.154296875
z: 0.005859375
range: 0.174307882786
velocity: 0.0
doppler_bin: 8
bearing: -69.8423843384
intensity: 25.4654273987
---
header: 
  seq: 639211
  stamp: 
    secs: 1561682276
    nsecs:   5732958
  frame_id: "ti_mmwave"
point_id: 4
x: 0.53515625
y: -0.0390625
z: -1.1484375
range: 1.35088610649
velocity: 0.0
doppler_bin: 8
bearing: -4.17476940155
intensity: 20.9691009521
---
header: 
  seq: 639212
  stamp: 
    secs: 1561682276
    nsecs:   5747782
  frame_id: "ti_mmwave"
point_id: 5
x: 0.9140625
y: -0.0
z: -0.9375
range: 1.39446306229
velocity: 0.0
doppler_bin: 8
bearing: -0.0
intensity: 21.5228843689
---
header: 
  seq: 639213
  stamp: 
    secs: 1561682276
    nsecs:   5761249
  frame_id: "ti_mmwave"
point_id: 6
x: 1.345703125
y: -0.087890625
z: -0.33984375
range: 1.48161697388
velocity: 0.0
doppler_bin: 8
bearing: -3.73679685593
intensity: 24.1161975861
---
header: 
  seq: 639214
  stamp: 
    secs: 1561682276
    nsecs:   5776957
  frame_id: "ti_mmwave"
point_id: 7
x: 1.365234375
y: -0.08984375
z: -0.423828125
range: 1.52519392967
velocity: 0.0
doppler_bin: 8
bearing: -3.76510858536
intensity: 24.871383667
---
header: 
  seq: 639215
  stamp: 
    secs: 1561682276
    nsecs:   5791379
  frame_id: "ti_mmwave"
point_id: 8
x: 1.4375
y: -0.138671875
z: -0.291015625
range: 1.56877088547
velocity: 0.0
doppler_bin: 8
bearing: -5.51012420654
intensity: 27.9865055084
---
header: 
  seq: 639216
  stamp: 
    secs: 1561682276
    nsecs:   5880624
  frame_id: "ti_mmwave"
point_id: 9
x: 1.4921875
y: -0.09375
z: -0.234375
range: 1.61234796047
velocity: 0.0
doppler_bin: 8
bearing: -3.59500956535
intensity: 29.2941894531
---
header: 
  seq: 639217
  stamp: 
    secs: 1561682276
    nsecs:   5895886
  frame_id: "ti_mmwave"
point_id: 10
x: 1.53515625
y: -0.09765625
z: -0.220703125
range: 1.65592491627
velocity: 0.0
doppler_bin: 8
bearing: -3.63986492157
intensity: 26.9284687042
---
header: 
  seq: 639218
  stamp: 
    secs: 1561682276
    nsecs:   5909484
  frame_id: "ti_mmwave"
point_id: 11
x: 2.548828125
y: -0.263671875
z: 1.18359375
range: 3.00681090355
velocity: 0.0
doppler_bin: 8
bearing: -5.90614128113
intensity: 29.4001808167
---
header: 
  seq: 639219
  stamp: 
    secs: 1561682276
    nsecs:   5923355
  frame_id: "ti_mmwave"
point_id: 12
x: 2.603515625
y: -0.267578125
z: 1.16015625
range: 3.05038785934
velocity: 0.0
doppler_bin: 8
bearing: -5.8680100441
intensity: 32.7067871094
---
header: 
  seq: 639220
  stamp: 
    secs: 1561682276
    nsecs:   5936332
  frame_id: "ti_mmwave"
point_id: 13
x: 2.662109375
y: -0.181640625
z: 1.1484375
range: 3.09396481514
velocity: 0.0
doppler_bin: 8
bearing: -3.90334677696
intensity: 31.9562301636
---
header: 
  seq: 639221
  stamp: 
    secs: 1561682276
    nsecs:   5951794
  frame_id: "ti_mmwave"
point_id: 14
x: 4.41796875
y: -0.287109375
z: 1.1796875
range: 4.88062095642
velocity: 0.0
doppler_bin: 8
bearing: -3.71823716164
intensity: 30.7736797333
---
header: 
  seq: 639222
  stamp: 
    secs: 1561682276
    nsecs:   5964899
  frame_id: "ti_mmwave"
point_id: 15
x: 4.470703125
y: -0.2890625
z: 1.142578125
range: 4.9241976738
velocity: 0.0
doppler_bin: 8
bearing: -3.69942688942
intensity: 30.2201576233
---
header: 
  seq: 639223
  stamp: 
    secs: 1561682276
    nsecs:   5978550
  frame_id: "ti_mmwave"
point_id: 16
x: 4.87890625
y: -0.30859375
z: 0.779296875
range: 5.27281332016
velocity: 0.0
doppler_bin: 8
bearing: -3.61917114258
intensity: 30.6744289398
---
header: 
  seq: 639224
  stamp: 
    secs: 1561682276
    nsecs:   6036425
  frame_id: "ti_mmwave"
point_id: 17
x: 1.33203125
y: -0.16796875
z: -0.140625
range: 1.43804001808
velocity: -0.614668667316
doppler_bin: 7
bearing: -7.1870470047
intensity: 23.8381538391
---
header: 
  seq: 639225
  stamp: 
    secs: 1561682276
    nsecs:   6056224
  frame_id: "ti_mmwave"
point_id: 19
x: 0.041015625
y: -0.033203125
z: 0.0625
range: 0.0871539413929
velocity: 0.0
doppler_bin: 8
bearing: -38.9909973145
intensity: 30.081741333
---
header: 
  seq: 639226
  stamp: 
    secs: 1561682276
    nsecs:   6069407
  frame_id: "ti_mmwave"
point_id: 20
x: 0.052734375
y: -0.04296875
z: 0.1015625
range: 0.130730912089
velocity: 0.0
doppler_bin: 8
bearing: -39.1736602783
intensity: 28.9707698822
---
header: 
  seq: 639227
  stamp: 
    secs: 1561682276
    nsecs:   6085257
  frame_id: "ti_mmwave"
point_id: 22
x: 1.10546875
y: -0.474609375
z: 0.3984375
range: 1.35088610649
velocity: 0.0
doppler_bin: 8
bearing: -23.2352333069
intensity: 18.864906311
---
header: 
  seq: 639228
  stamp: 
    secs: 1561682276
    nsecs:   6100983
  frame_id: "ti_mmwave"
point_id: 23
x: 1.21875
y: -0.408203125
z: 0.2421875
range: 1.39446306229
velocity: 0.0
doppler_bin: 8
bearing: -18.5175476074
intensity: 19.5904140472
---
header: 
  seq: 639229
  stamp: 
    secs: 1561682276
    nsecs:   6114245
  frame_id: "ti_mmwave"
point_id: 24
x: 0.78515625
y: 0.53515625
z: 1.23046875
range: 1.65592491627
velocity: 0.0
doppler_bin: 8
bearing: 34.2780303955
intensity: 25.7518787384
---
header: 
  seq: 639230
  stamp: 
    secs: 1561682276
    nsecs:   6127820
  frame_id: "ti_mmwave"
point_id: 25
x: 2.779296875
y: -2.00390625
z: -3.041015625
range: 4.88062095642
velocity: 0.0
doppler_bin: 8
bearing: -35.7920532227
intensity: 27.8390350342
---
header: 
  seq: 639231
  stamp: 
    secs: 1561682276
    nsecs:   6186438
  frame_id: "ti_mmwave"
point_id: 26
x: 2.814453125
y: -2.021484375
z: -3.060546875
range: 4.9241976738
velocity: 0.0
doppler_bin: 8
bearing: -35.6878433228
intensity: 27.2591171265
---
header: 
  seq: 639232
  stamp: 
    secs: 1561682276
    nsecs:  64196338
  frame_id: "ti_mmwave"
point_id: 0
x: 0.01171875
y: -0.0390625
z: -0.0078125
range: 0.0435769706964
velocity: 0.0
doppler_bin: 8
bearing: -73.3007583618
intensity: 30.700378418
---
header: 
  seq: 639233
  stamp: 
    secs: 1561682276
    nsecs:  64273554
  frame_id: "ti_mmwave"
point_id: 1
x: 0.017578125
y: -0.080078125
z: -0.0078125
range: 0.0871539413929
velocity: 0.0
doppler_bin: 8
bearing: -77.6192398071
intensity: 31.9340286255
---
header: 
  seq: 639234
  stamp: 
    secs: 1561682276
    nsecs:  64287042
  frame_id: "ti_mmwave"
point_id: 2
x: 0.029296875
y: -0.119140625
z: -0.005859375
range: 0.130730912089
velocity: 0.0
doppler_bin: 8
bearing: -76.1849746704
intensity: 30.1953163147
---
header: 
  seq: 639235
  stamp: 
    secs: 1561682276
    nsecs:  64296235
  frame_id: "ti_mmwave"
point_id: 3
x: 0.056640625
y: -0.154296875
z: 0.005859375
range: 0.174307882786
velocity: 0.0
doppler_bin: 8
bearing: -69.8423843384
intensity: 25.4654273987
---
header: 
  seq: 639236
  stamp: 
    secs: 1561682276
    nsecs:  64307508
  frame_id: "ti_mmwave"
point_id: 4
x: 0.7890625
y: -0.080078125
z: -0.990234375
range: 1.35088610649
velocity: 0.0
doppler_bin: 8
bearing: -5.79483127594
intensity: 22.2530937195
---
header: 
  seq: 639237
  stamp: 
    secs: 1561682276
    nsecs:  64320118
  frame_id: "ti_mmwave"
point_id: 5
x: 1.0234375
y: -0.041015625
z: -0.814453125
range: 1.39446306229
velocity: 0.0
doppler_bin: 8
bearing: -2.29497671127
intensity: 23.7106781006
---
header: 
  seq: 639238
  stamp: 
    secs: 1561682276
    nsecs:  64330880
  frame_id: "ti_mmwave"
point_id: 6
x: 1.365234375
y: -0.26171875
z: 0.001953125
range: 1.48161697388
velocity: 0.0
doppler_bin: 8
bearing: -10.8520812988
intensity: 20.5690479279
---
header: 
  seq: 639239
  stamp: 
    secs: 1561682276
    nsecs:  64339122
  frame_id: "ti_mmwave"
point_id: 7
x: 1.44140625
y: -0.189453125
z: -0.421875
range: 1.61234796047
velocity: 0.0
doppler_bin: 8
bearing: -7.48782444
intensity: 26.1066017151
---
header: 
  seq: 639240
  stamp: 
    secs: 1561682276
    nsecs:  64348518
  frame_id: "ti_mmwave"
point_id: 8
x: 1.474609375
y: -0.193359375
z: -0.455078125
range: 1.65592491627
velocity: 0.0
doppler_bin: 8
bearing: -7.47033596039
intensity: 25.9549617767
---
header: 
  seq: 639241
  stamp: 
    secs: 1561682276
    nsecs:  64358363
  frame_id: "ti_mmwave"
point_id: 9
x: 2.548828125
y: -0.263671875
z: 1.185546875
range: 3.00681090355
velocity: 0.0
doppler_bin: 8
bearing: -5.90614128113
intensity: 29.3901977539
---
header: 
  seq: 639242
  stamp: 
    secs: 1561682276
    nsecs:  64367167
  frame_id: "ti_mmwave"
point_id: 10
x: 2.6015625
y: -0.267578125
z: 1.1640625
range: 3.05038785934
velocity: 0.0
doppler_bin: 8
bearing: -5.87238502502
intensity: 32.6951293945
---
header: 
  seq: 639243
  stamp: 
    secs: 1561682276
    nsecs:  64375417
  frame_id: "ti_mmwave"
point_id: 11
x: 2.658203125
y: -0.181640625
z: 1.15625
range: 3.09396481514
velocity: 0.0
doppler_bin: 8
bearing: -3.90906453133
intensity: 31.8892841339
---
header: 
  seq: 639244
  stamp: 
    secs: 1561682276
    nsecs:  64387485
  frame_id: "ti_mmwave"
point_id: 12
x: 4.416015625
y: -0.287109375
z: 1.1875
range: 4.88062095642
velocity: 0.0
doppler_bin: 8
bearing: -3.71987724304
intensity: 30.7188205719
---
header: 
  seq: 639245
  stamp: 
    secs: 1561682276
    nsecs:  64395947
  frame_id: "ti_mmwave"
point_id: 13
x: 4.46875
y: -0.2890625
z: 1.150390625
range: 4.9241976738
velocity: 0.0
doppler_bin: 8
bearing: -3.70103907585
intensity: 30.0987567902
---
header: 
  seq: 639246
  stamp: 
    secs: 1561682276
    nsecs:  64409964
  frame_id: "ti_mmwave"
point_id: 14
x: 4.87890625
y: -0.30859375
z: 0.78125
range: 5.27281332016
velocity: 0.0
doppler_bin: 8
bearing: -3.61917114258
intensity: 30.6032009125
---
header: 
  seq: 639247
  stamp: 
    secs: 1561682276
    nsecs:  64570153
  frame_id: "ti_mmwave"
point_id: 15
x: 1.3046875
y: -0.16796875
z: -0.3046875
range: 1.43804001808
velocity: -0.614668667316
doppler_bin: 7
bearing: -7.33605003357
intensity: 23.3845653534
---
header: 
  seq: 639248
  stamp: 
    secs: 1561682276
    nsecs:  64602689
  frame_id: "ti_mmwave"
point_id: 17
x: 0.041015625
y: -0.033203125
z: 0.0625
range: 0.0871539413929
velocity: 0.0
doppler_bin: 8
bearing: -38.9909973145
intensity: 30.081741333
---
header: 
  seq: 639249
  stamp: 
    secs: 1561682276
    nsecs:  64612049
  frame_id: "ti_mmwave"
point_id: 18
x: 0.052734375
y: -0.04296875
z: 0.1015625
range: 0.130730912089
velocity: 0.0
doppler_bin: 8
bearing: -39.1736602783
intensity: 28.9652614594
---
header: 
  seq: 639250
  stamp: 
    secs: 1561682276
    nsecs:  64622617
  frame_id: "ti_mmwave"
point_id: 20
x: 1.0703125
y: -0.515625
z: 0.443359375
range: 1.35088610649
velocity: 0.0
doppler_bin: 8
bearing: -25.7225265503
intensity: 19.4448261261
---
header: 
  seq: 639251
  stamp: 
    secs: 1561682276
    nsecs:  64634171
  frame_id: "ti_mmwave"
point_id: 23
x: 2.78515625
y: -2.00390625
z: -3.03515625
range: 4.88062095642
velocity: 0.0
doppler_bin: 8
bearing: -35.7348327637
intensity: 27.8103694916
---
header: 
  seq: 639252
  stamp: 
    secs: 1561682276
    nsecs:  64642428
  frame_id: "ti_mmwave"
point_id: 24
x: 2.798828125
y: -2.021484375
z: -3.072265625
range: 4.9241976738
velocity: 0.0
doppler_bin: 8
bearing: -35.8391113281
intensity: 27.2591171265
---
header: 
  seq: 639253
  stamp: 
    secs: 1561682276
    nsecs:  65716608
  frame_id: "ti_mmwave"
point_id: 0
x: 0.01171875
y: -0.0390625
z: -0.0078125
range: 0.0435769706964
velocity: 0.0
doppler_bin: 8
bearing: -73.3007583618
intensity: 30.6892757416
---
header: 
  seq: 639254
  stamp: 
    secs: 1561682276
    nsecs:  65777303
  frame_id: "ti_mmwave"
point_id: 1
x: 0.017578125
y: -0.080078125
z: -0.0078125
range: 0.0871539413929
velocity: 0.0
doppler_bin: 8
bearing: -77.6192398071
intensity: 31.9340286255
---
header: 
  seq: 639255
  stamp: 
    secs: 1561682276
    nsecs:  65814773
  frame_id: "ti_mmwave"
point_id: 2
x: 0.029296875
y: -0.119140625
z: -0.005859375
range: 0.130730912089
velocity: 0.0
doppler_bin: 8
bearing: -76.1849746704
intensity: 30.1911621094
---
header: 
  seq: 639256
  stamp: 
    secs: 1561682276
    nsecs:  65831653
  frame_id: "ti_mmwave"
point_id: 3
x: 0.056640625
y: -0.154296875
z: 0.005859375
range: 0.174307882786
velocity: 0.0
doppler_bin: 8
bearing: -69.8423843384
intensity: 25.4654273987
---
header: 
  seq: 639257
  stamp: 
    secs: 1561682276
    nsecs:  65896012
  frame_id: "ti_mmwave"
point_id: 4
x: 1.05078125
y: -0.080078125
z: -0.705078125
range: 1.35088610649
velocity: 0.0
doppler_bin: 8
bearing: -4.35798358917
intensity: 24.1161975861
---
header: 
  seq: 639258
  stamp: 
    secs: 1561682276
    nsecs:  65910178
  frame_id: "ti_mmwave"
point_id: 5
x: 1.23828125
y: -0.123046875
z: -0.40625
range: 1.39446306229
velocity: 0.0
doppler_bin: 8
bearing: -5.67479991913
intensity: 27.7011528015
---
header: 
  seq: 639259
  stamp: 
    secs: 1561682276
    nsecs:  65922209
  frame_id: "ti_mmwave"
point_id: 6
x: 1.31640625
y: -0.126953125
z: -0.275390625
range: 1.43804001808
velocity: 0.0
doppler_bin: 8
bearing: -5.50852203369
intensity: 28.350561142
---
header: 
  seq: 639260
  stamp: 
    secs: 1561682276
    nsecs:  65933924
  frame_id: "ti_mmwave"
point_id: 7
x: 1.33984375
y: -0.087890625
z: -0.361328125
range: 1.48161697388
velocity: 0.0
doppler_bin: 8
bearing: -3.75309252739
intensity: 25.5870857239
---
header: 
  seq: 639261
  stamp: 
    secs: 1561682276
    nsecs:  65947322
  frame_id: "ti_mmwave"
point_id: 8
x: 1.423828125
y: -0.189453125
z: -0.48046875
range: 1.61234796047
velocity: 0.0
doppler_bin: 8
bearing: -7.57919788361
intensity: 25.3655853271
---
header: 
  seq: 639262
  stamp: 
    secs: 1561682276
    nsecs:  65959573
  frame_id: "ti_mmwave"
point_id: 9
x: 1.466796875
y: -0.193359375
z: -0.4765625
range: 1.65592491627
velocity: 0.0
doppler_bin: 8
bearing: -7.50967264175
intensity: 25.8206329346
---
header: 
  seq: 639263
  stamp: 
    secs: 1561682276
    nsecs:  65973101
  frame_id: "ti_mmwave"
point_id: 10
x: 2.54296875
y: -0.263671875
z: 1.193359375
range: 3.00681090355
velocity: 0.0
doppler_bin: 8
bearing: -5.91965341568
intensity: 29.3751792908
---
header: 
  seq: 639264
  stamp: 
    secs: 1561682276
    nsecs:  65988803
  frame_id: "ti_mmwave"
point_id: 11
x: 2.60546875
y: -0.267578125
z: 1.158203125
range: 3.05038785934
velocity: 0.0
doppler_bin: 8
bearing: -5.86364221573
intensity: 32.7184143066
---
header: 
  seq: 639265
  stamp: 
    secs: 1561682276
    nsecs:  66034861
  frame_id: "ti_mmwave"
point_id: 12
x: 2.666015625
y: -0.181640625
z: 1.140625
range: 3.09396481514
velocity: 0.0
doppler_bin: 8
bearing: -3.89764523506
intensity: 31.9256744385
---
header: 
  seq: 639266
  stamp: 
    secs: 1561682276
    nsecs:  66050588
  frame_id: "ti_mmwave"
point_id: 13
x: 4.423828125
y: -0.287109375
z: 1.15625
range: 4.88062095642
velocity: 0.0
doppler_bin: 8
bearing: -3.71332621574
intensity: 30.7700424194
---
header: 
  seq: 639267
  stamp: 
    secs: 1561682276
    nsecs:  66064574
  frame_id: "ti_mmwave"
point_id: 14
x: 4.474609375
y: -0.2890625
z: 1.123046875
range: 4.9241976738
velocity: 0.0
doppler_bin: 8
bearing: -3.69620633125
intensity: 30.1072387695
---
header: 
  seq: 639268
  stamp: 
    secs: 1561682276
    nsecs:  66076726
  frame_id: "ti_mmwave"
point_id: 15
x: 4.88671875
y: -0.30859375
z: 0.724609375
range: 5.27281332016
velocity: 0.0
doppler_bin: 8
bearing: -3.61340069771
intensity: 30.6707077026
---
header: 
  seq: 639269
  stamp: 
    secs: 1561682276
    nsecs:  66092964
  frame_id: "ti_mmwave"
point_id: 17
x: 0.041015625
y: -0.033203125
z: 0.0625
range: 0.0871539413929
velocity: 0.0
doppler_bin: 8
bearing: -38.9909973145
intensity: 30.081741333
---
header: 
  seq: 639270
  stamp: 
    secs: 1561682276
    nsecs:  66106676
  frame_id: "ti_mmwave"
point_id: 18
x: 0.052734375
y: -0.04296875
z: 0.1015625
range: 0.130730912089
velocity: 0.0
doppler_bin: 8
bearing: -39.1736602783
intensity: 28.9652614594
---
header: 
  seq: 639271
  stamp: 
    secs: 1561682276
    nsecs:  66127755
  frame_id: "ti_mmwave"
point_id: 22
x: 2.794921875
y: -2.021484375
z: -3.076171875
range: 4.9241976738
velocity: 0.0
doppler_bin: 8
bearing: -35.8771018982
intensity: 27.1850166321
---
header: 
  seq: 639272
  stamp: 
    secs: 1561682276
    nsecs: 124196940
  frame_id: "ti_mmwave"
point_id: 0
x: 0.01171875
y: -0.0390625
z: -0.0078125
range: 0.0435769706964
velocity: 0.0
doppler_bin: 8
bearing: -73.3007583618
intensity: 30.696680069
---
header: 
  seq: 639273
  stamp: 
    secs: 1561682276
    nsecs: 124268226
  frame_id: "ti_mmwave"
point_id: 1
x: 0.017578125
y: -0.080078125
z: -0.0078125
range: 0.0871539413929
velocity: 0.0
doppler_bin: 8
bearing: -77.6192398071
intensity: 31.9395904541
---
header: 
  seq: 639274
  stamp: 
    secs: 1561682276
    nsecs: 124281261
  frame_id: "ti_mmwave"
point_id: 2
x: 0.029296875
y: -0.119140625
z: -0.005859375
range: 0.130730912089
velocity: 0.0
doppler_bin: 8
bearing: -76.1849746704
intensity: 30.1994667053
---
header: 
  seq: 639275
  stamp: 
    secs: 1561682276
    nsecs: 124290027
  frame_id: "ti_mmwave"
point_id: 3
x: 0.056640625
y: -0.154296875
z: 0.005859375
range: 0.174307882786
velocity: 0.0
doppler_bin: 8
bearing: -69.8423843384
intensity: 25.4777469635
---
header: 
  seq: 639276
  stamp: 
    secs: 1561682276
    nsecs: 124298152
  frame_id: "ti_mmwave"
point_id: 4
x: 1.134765625
y: -0.119140625
z: -0.5546875
range: 1.35088610649
velocity: 0.0
doppler_bin: 8
bearing: -5.99360513687
intensity: 25.3402614594
---
header: 
  seq: 639277
  stamp: 
    secs: 1561682276
    nsecs: 124306273
  frame_id: "ti_mmwave"
point_id: 5
x: 1.259765625
y: -0.123046875
z: -0.333984375
range: 1.39446306229
velocity: 0.0
doppler_bin: 8
bearing: -5.57863616943
intensity: 29.127532959
---
header: 
  seq: 639278
  stamp: 
    secs: 1561682276
    nsecs: 124314625
  frame_id: "ti_mmwave"
point_id: 6
x: 1.3203125
y: -0.126953125
z: -0.24609375
range: 1.43804001808
velocity: 0.0
doppler_bin: 8
bearing: -5.49232435226
intensity: 29.4743366241
---
header: 
  seq: 639279
  stamp: 
    secs: 1561682276
    nsecs: 124322590
  frame_id: "ti_mmwave"
point_id: 7
x: 1.34765625
y: -0.087890625
z: -0.33203125
range: 1.48161697388
velocity: 0.0
doppler_bin: 8
bearing: -3.73139691353
intensity: 26.1066017151
---
header: 
  seq: 639280
  stamp: 
    secs: 1561682276
    nsecs: 124331765
  frame_id: "ti_mmwave"
point_id: 8
x: 1.44140625
y: -0.18359375
z: -0.240234375
range: 1.56877088547
velocity: 0.0
doppler_bin: 8
bearing: -7.25875043869
intensity: 24.2975234985
---
header: 
  seq: 639281
  stamp: 
    secs: 1561682276
    nsecs: 124341203
  frame_id: "ti_mmwave"
point_id: 9
x: 1.423828125
y: -0.189453125
z: -0.4765625
range: 1.61234796047
velocity: 0.0
doppler_bin: 8
bearing: -7.57919788361
intensity: 27.1432971954
---
header: 
  seq: 639282
  stamp: 
    secs: 1561682276
    nsecs: 124349511
  frame_id: "ti_mmwave"
point_id: 10
x: 1.4296875
y: -0.193359375
z: -0.576171875
range: 1.65592491627
velocity: 0.0
doppler_bin: 8
bearing: -7.70228481293
intensity: 26.6745300293
---
header: 
  seq: 639283
  stamp: 
    secs: 1561682276
    nsecs: 124357643
  frame_id: "ti_mmwave"
point_id: 11
x: 2.552734375
y: -0.263671875
z: 1.17578125
range: 3.00681090355
velocity: 0.0
doppler_bin: 8
bearing: -5.89716720581
intensity: 29.3901977539
---
header: 
  seq: 639284
  stamp: 
    secs: 1561682276
    nsecs: 124365727
  frame_id: "ti_mmwave"
point_id: 12
x: 2.603515625
y: -0.267578125
z: 1.16015625
range: 3.05038785934
velocity: 0.0
doppler_bin: 8
bearing: -5.8680100441
intensity: 32.7067871094
---
header: 
  seq: 639285
  stamp: 
    secs: 1561682276
    nsecs: 124373822
  frame_id: "ti_mmwave"
point_id: 13
x: 2.66015625
y: -0.181640625
z: 1.15234375
range: 3.09396481514
velocity: 0.0
doppler_bin: 8
bearing: -3.90620398521
intensity: 31.9312458038
---
header: 
  seq: 639286
  stamp: 
    secs: 1561682276
    nsecs: 124382060
  frame_id: "ti_mmwave"
point_id: 14
x: 4.419921875
y: -0.287109375
z: 1.173828125
range: 4.88062095642
velocity: 0.0
doppler_bin: 8
bearing: -3.71659874916
intensity: 30.7736797333
---
header: 
  seq: 639287
  stamp: 
    secs: 1561682276
    nsecs: 124389518
  frame_id: "ti_mmwave"
point_id: 15
x: 4.462890625
y: -0.2890625
z: 1.166015625
range: 4.9241976738
velocity: 0.0
doppler_bin: 8
bearing: -3.70588517189
intensity: 30.1072387695
---
header: 
  seq: 639288
  stamp: 
    secs: 1561682276
    nsecs: 124497452
  frame_id: "ti_mmwave"
point_id: 16
x: 4.88671875
y: -0.30859375
z: 0.720703125
range: 5.27281332016
velocity: 0.0
doppler_bin: 8
bearing: -3.61340069771
intensity: 30.4921798706
---
header: 
  seq: 639289
  stamp: 
    secs: 1561682276
    nsecs: 124517131
  frame_id: "ti_mmwave"
point_id: 18
x: 0.041015625
y: -0.033203125
z: 0.0625
range: 0.0871539413929
velocity: 0.0
doppler_bin: 8
bearing: -38.9909973145
intensity: 30.081741333
---
header: 
  seq: 639290
  stamp: 
    secs: 1561682276
    nsecs: 124529560
  frame_id: "ti_mmwave"
point_id: 19
x: 0.052734375
y: -0.04296875
z: 0.1015625
range: 0.130730912089
velocity: 0.0
doppler_bin: 8
bearing: -39.1736602783
intensity: 28.9707698822
---
header: 
  seq: 639291
  stamp: 
    secs: 1561682276
    nsecs: 124546195
  frame_id: "ti_mmwave"
point_id: 22
x: 2.771484375
y: -2.00390625
z: -3.048828125
range: 4.88062095642
velocity: 0.0
doppler_bin: 8
bearing: -35.868598938
intensity: 27.8247261047
---
header: 
  seq: 639292
  stamp: 
    secs: 1561682276
    nsecs: 124555423
  frame_id: "ti_mmwave"
point_id: 23
x: 2.841796875
y: -2.021484375
z: -3.033203125
range: 4.9241976738
velocity: 0.0
doppler_bin: 8
bearing: -35.4257736206
intensity: 27.1933135986
---
header: 
  seq: 639293
  stamp: 
    secs: 1561682276
    nsecs: 125378742
  frame_id: "ti_mmwave"
point_id: 0
x: 0.01171875
y: -0.0390625
z: -0.0078125
range: 0.0435769706964
velocity: 0.0
doppler_bin: 8
bearing: -73.3007583618
intensity: 30.6892757416
---
header: 
  seq: 639294
  stamp: 
    secs: 1561682276
    nsecs: 125437548
  frame_id: "ti_mmwave"
point_id: 1
x: 0.017578125
y: -0.080078125
z: -0.0078125
range: 0.0871539413929
velocity: 0.0
doppler_bin: 8
bearing: -77.6192398071
intensity: 31.9340286255
---
header: 
  seq: 639295
  stamp: 
    secs: 1561682276
    nsecs: 125454625
  frame_id: "ti_mmwave"
point_id: 2
x: 0.029296875
y: -0.119140625
z: -0.005859375
range: 0.130730912089
velocity: 0.0
doppler_bin: 8
bearing: -76.1849746704
intensity: 30.1953163147
---
header: 
  seq: 639296
  stamp: 
    secs: 1561682276
    nsecs: 125470690
  frame_id: "ti_mmwave"
point_id: 3
x: 0.056640625
y: -0.154296875
z: 0.005859375
range: 0.174307882786
velocity: 0.0
doppler_bin: 8
bearing: -69.8423843384
intensity: 25.4654273987
---
header: 
  seq: 639297
  stamp: 
    secs: 1561682276
    nsecs: 125482923
  frame_id: "ti_mmwave"
point_id: 4
x: 1.033203125
y: -0.119140625
z: -0.7265625
range: 1.35088610649
velocity: 0.0
doppler_bin: 8
bearing: -6.57783317566
intensity: 24.4870624542
---
header: 
  seq: 639298
  stamp: 
    secs: 1561682276
    nsecs: 125550311
  frame_id: "ti_mmwave"
point_id: 5
x: 1.275390625
y: -0.08203125
z: -0.283203125
range: 1.39446306229
velocity: 0.0
doppler_bin: 8
bearing: -3.6801109314
intensity: 27.8390350342
---
header: 
  seq: 639299
  stamp: 
    secs: 1561682276
    nsecs: 125561764
  frame_id: "ti_mmwave"
point_id: 6
x: 1.32421875
y: -0.126953125
z: -0.232421875
range: 1.43804001808
velocity: 0.0
doppler_bin: 8
bearing: -5.47622156143
intensity: 28.0685806274
---
header: 
  seq: 639300
  stamp: 
    secs: 1561682276
    nsecs: 125569607
  frame_id: "ti_mmwave"
point_id: 7
x: 1.328125
y: -0.087890625
z: -0.404296875
range: 1.48161697388
velocity: 0.0
doppler_bin: 8
bearing: -3.78611207008
intensity: 25.6702632904
---
header: 
  seq: 639301
  stamp: 
    secs: 1561682276
    nsecs: 125579048
  frame_id: "ti_mmwave"
point_id: 8
x: 2.55078125
y: -0.263671875
z: 1.177734375
range: 3.00681090355
velocity: 0.0
doppler_bin: 8
bearing: -5.90165042877
intensity: 29.4001808167
---
header: 
  seq: 639302
  stamp: 
    secs: 1561682276
    nsecs: 125586965
  frame_id: "ti_mmwave"
point_id: 9
x: 2.603515625
y: -0.267578125
z: 1.16015625
range: 3.05038785934
velocity: 0.0
doppler_bin: 8
bearing: -5.8680100441
intensity: 32.704460144
---
header: 
  seq: 639303
  stamp: 
    secs: 1561682276
    nsecs: 125595570
  frame_id: "ti_mmwave"
point_id: 10
x: 2.662109375
y: -0.181640625
z: 1.146484375
range: 3.09396481514
velocity: 0.0
doppler_bin: 8
bearing: -3.90334677696
intensity: 31.9617614746
---
header: 
  seq: 639304
  stamp: 
    secs: 1561682276
    nsecs: 125616790
  frame_id: "ti_mmwave"
point_id: 11
x: 4.4140625
y: -0.287109375
z: 1.189453125
range: 4.88062095642
velocity: 0.0
doppler_bin: 8
bearing: -3.72151875496
intensity: 30.7736797333
---
header: 
  seq: 639305
  stamp: 
    secs: 1561682276
    nsecs: 125630162
  frame_id: "ti_mmwave"
point_id: 12
x: 4.43359375
y: -0.2890625
z: 1.279296875
range: 4.9241976738
velocity: 0.0
doppler_bin: 8
bearing: -3.73030400276
intensity: 29.9387683868
---
header: 
  seq: 639306
  stamp: 
    secs: 1561682276
    nsecs: 125642947
  frame_id: "ti_mmwave"
point_id: 13
x: 4.87890625
y: -0.30859375
z: 0.779296875
range: 5.27281332016
velocity: 0.0
doppler_bin: 8
bearing: -3.61917114258
intensity: 30.5804615021
---
header: 
  seq: 639307
  stamp: 
    secs: 1561682276
    nsecs: 125658750
  frame_id: "ti_mmwave"
point_id: 15
x: 0.041015625
y: -0.033203125
z: 0.0625
range: 0.0871539413929
velocity: 0.0
doppler_bin: 8
bearing: -38.9909973145
intensity: 30.0774784088
---
header: 
  seq: 639308
  stamp: 
    secs: 1561682276
    nsecs: 125721820
  frame_id: "ti_mmwave"
point_id: 16
x: 0.052734375
y: -0.04296875
z: 0.1015625
range: 0.130730912089
velocity: 0.0
doppler_bin: 8
bearing: -39.1736602783
intensity: 28.9597473145
---
header: 
  seq: 639309
  stamp: 
    secs: 1561682276
    nsecs: 125736409
  frame_id: "ti_mmwave"
point_id: 18
x: 2.802734375
y: -2.00390625
z: -3.01953125
range: 4.88062095642
velocity: 0.0
doppler_bin: 8
bearing: -35.5641059875
intensity: 27.8461723328
---
header: 
  seq: 639310
  stamp: 
    secs: 1561682276
    nsecs: 125749680
  frame_id: "ti_mmwave"
point_id: 19
x: 2.943359375
y: -2.021484375
z: -2.935546875
range: 4.9241976738
velocity: 0.0
doppler_bin: 8
bearing: -34.4810829163
intensity: 27.1432971954
---
header: 
  seq: 639311
  stamp: 
    secs: 1561682276
    nsecs: 184316808
  frame_id: "ti_mmwave"
point_id: 0
x: 0.01171875
y: -0.0390625
z: -0.0078125
range: 0.0435769706964
velocity: 0.0
doppler_bin: 8
bearing: -73.3007583618
intensity: 30.6929798126
---
header: 
  seq: 639312
  stamp: 
    secs: 1561682276
    nsecs: 184386417
  frame_id: "ti_mmwave"
point_id: 1
x: 0.017578125
y: -0.080078125
z: -0.0078125
range: 0.0871539413929
velocity: 0.0
doppler_bin: 8
bearing: -77.6192398071
intensity: 31.9395904541
---
header: 
  seq: 639313
  stamp: 
    secs: 1561682276
    nsecs: 184397017
  frame_id: "ti_mmwave"
point_id: 2
x: 0.029296875
y: -0.119140625
z: -0.005859375
range: 0.130730912089
velocity: 0.0
doppler_bin: 8
bearing: -76.1849746704
intensity: 30.1994667053
---
header: 
  seq: 639314
  stamp: 
    secs: 1561682276
    nsecs: 184407164
  frame_id: "ti_mmwave"
point_id: 3
x: 0.056640625
y: -0.154296875
z: 0.005859375
range: 0.174307882786
velocity: 0.0
doppler_bin: 8
bearing: -69.8423843384
intensity: 25.4777469635
---
header: 
  seq: 639315
  stamp: 
    secs: 1561682276
    nsecs: 184415137
  frame_id: "ti_mmwave"
point_id: 4
x: 0.921875
y: -0.0390625
z: -0.869140625
range: 1.35088610649
velocity: 0.0
doppler_bin: 8
bearing: -2.42633581161
intensity: 21.5533599854
---
header: 
  seq: 639316
  stamp: 
    secs: 1561682276
    nsecs: 184423088
  frame_id: "ti_mmwave"
point_id: 5
x: 1.08984375
y: -0.041015625
z: -0.724609375
range: 1.39446306229
velocity: 0.0
doppler_bin: 8
bearing: -2.15527582169
intensity: 23.2221927643
---
header: 
  seq: 639317
  stamp: 
    secs: 1561682276
    nsecs: 184430870
  frame_id: "ti_mmwave"
point_id: 6
x: 1.27734375
y: -0.16796875
z: -0.40234375
range: 1.43804001808
velocity: 0.0
doppler_bin: 8
bearing: -7.49132490158
intensity: 23.2014636993
---
header: 
  seq: 639318
  stamp: 
    secs: 1561682276
    nsecs: 184438955
  frame_id: "ti_mmwave"
point_id: 7
x: 1.36328125
y: -0.26171875
z: -0.07421875
range: 1.48161697388
velocity: 0.0
doppler_bin: 8
bearing: -10.8672590256
intensity: 19.7772369385
---
header: 
  seq: 639319
  stamp: 
    secs: 1561682276
    nsecs: 184446708
  frame_id: "ti_mmwave"
point_id: 8
x: 2.548828125
y: -0.263671875
z: 1.18359375
range: 3.00681090355
velocity: 0.0
doppler_bin: 8
bearing: -5.90614128113
intensity: 29.3851966858
---
header: 
  seq: 639320
  stamp: 
    secs: 1561682276
    nsecs: 184456233
  frame_id: "ti_mmwave"
point_id: 9
x: 2.60546875
y: -0.267578125
z: 1.15625
range: 3.05038785934
velocity: 0.0
doppler_bin: 8
bearing: -5.86364221573
intensity: 32.7184143066
---
header: 
  seq: 639321
  stamp: 
    secs: 1561682276
    nsecs: 184464975
  frame_id: "ti_mmwave"
point_id: 10
x: 2.666015625
y: -0.181640625
z: 1.134765625
range: 3.09396481514
velocity: 0.0
doppler_bin: 8
bearing: -3.89764523506
intensity: 31.945142746
---
header: 
  seq: 639322
  stamp: 
    secs: 1561682276
    nsecs: 184472801
  frame_id: "ti_mmwave"
point_id: 11
x: 4.41796875
y: -0.287109375
z: 1.181640625
range: 4.88062095642
velocity: 0.0
doppler_bin: 8
bearing: -3.71823716164
intensity: 30.8098697662
---
header: 
  seq: 639323
  stamp: 
    secs: 1561682276
    nsecs: 184480144
  frame_id: "ti_mmwave"
point_id: 12
x: 4.455078125
y: -0.2890625
z: 1.19921875
range: 4.9241976738
velocity: 0.0
doppler_bin: 8
bearing: -3.71236538887
intensity: 30.1870040894
---
header: 
  seq: 639324
  stamp: 
    secs: 1561682276
    nsecs: 184488123
  frame_id: "ti_mmwave"
point_id: 13
x: 4.77734375
y: -0.603515625
z: -0.33203125
range: 5.14208269119
velocity: 0.0
doppler_bin: 8
bearing: -7.19996213913
intensity: 29.9956550598
---
header: 
  seq: 639325
  stamp: 
    secs: 1561682276
    nsecs: 184495914
  frame_id: "ti_mmwave"
point_id: 14
x: 4.865234375
y: -0.30859375
z: 0.859375
range: 5.27281332016
velocity: 0.0
doppler_bin: 8
bearing: -3.62931442261
intensity: 30.5230903625
---
header: 
  seq: 639326
  stamp: 
    secs: 1561682276
    nsecs: 184506300
  frame_id: "ti_mmwave"
point_id: 16
x: 0.041015625
y: -0.033203125
z: 0.0625
range: 0.0871539413929
velocity: 0.0
doppler_bin: 8
bearing: -38.9909973145
intensity: 30.081741333
---
header: 
  seq: 639327
  stamp: 
    secs: 1561682276
    nsecs: 184514379
  frame_id: "ti_mmwave"
point_id: 17
x: 0.052734375
y: -0.04296875
z: 0.1015625
range: 0.130730912089
velocity: 0.0
doppler_bin: 8
bearing: -39.1736602783
intensity: 28.9652614594
---
header: 
  seq: 639328
  stamp: 
    secs: 1561682276
    nsecs: 184526703
  frame_id: "ti_mmwave"
point_id: 19
x: 1.05078125
y: -0.515625
z: 0.48828125
range: 1.35088610649
velocity: 0.0
doppler_bin: 8
bearing: -26.1374797821
intensity: 19.1907806396
---
header: 
  seq: 639329
  stamp: 
    secs: 1561682276
    nsecs: 184535065
  frame_id: "ti_mmwave"
point_id: 20
x: 0.275390625
y: 0.216796875
z: 1.345703125
range: 1.48161697388
velocity: 0.0
doppler_bin: 8
bearing: 38.211025238
intensity: 17.7085208893
---
header: 
  seq: 639330
  stamp: 
    secs: 1561682276
    nsecs: 184545691
  frame_id: "ti_mmwave"
point_id: 21
x: 2.7890625
y: -2.00390625
z: -3.03125
range: 4.88062095642
velocity: 0.0
doppler_bin: 8
bearing: -35.6967697144
intensity: 27.8247261047
---
header: 
  seq: 639331
  stamp: 
    secs: 1561682276
    nsecs: 184553269
  frame_id: "ti_mmwave"
point_id: 22
x: 2.861328125
y: -2.021484375
z: -3.013671875
range: 4.9241976738
velocity: 0.0
doppler_bin: 8
bearing: -35.2406158447
intensity: 27.2427577972
---
header: 
  seq: 639332
  stamp: 
    secs: 1561682276
    nsecs: 185838300
  frame_id: "ti_mmwave"
point_id: 0
x: 0.01171875
y: -0.0390625
z: -0.0078125
range: 0.0435769706964
velocity: 0.0
doppler_bin: 8
bearing: -73.3007583618
intensity: 30.6892757416
---
header: 
  seq: 639333
  stamp: 
    secs: 1561682276
    nsecs: 185892134
  frame_id: "ti_mmwave"
point_id: 1
x: 0.017578125
y: -0.080078125
z: -0.0078125
range: 0.0871539413929
velocity: 0.0
doppler_bin: 8
bearing: -77.6192398071
intensity: 31.9368095398
---
header: 
  seq: 639334
  stamp: 
    secs: 1561682276
    nsecs: 185906321
  frame_id: "ti_mmwave"
point_id: 2
x: 0.029296875
y: -0.119140625
z: -0.005859375
range: 0.130730912089
velocity: 0.0
doppler_bin: 8
bearing: -76.1849746704
intensity: 30.1994667053
---
header: 
  seq: 639335
  stamp: 
    secs: 1561682276
    nsecs: 185918172
  frame_id: "ti_mmwave"
point_id: 3
x: 0.056640625
y: -0.154296875
z: 0.005859375
range: 0.174307882786
velocity: 0.0
doppler_bin: 8
bearing: -69.8423843384
intensity: 25.4777469635
---
header: 
  seq: 639336
  stamp: 
    secs: 1561682276
    nsecs: 185959205
  frame_id: "ti_mmwave"
point_id: 4
x: 0.56640625
y: -0.080078125
z: -1.130859375
range: 1.35088610649
velocity: 0.0
doppler_bin: 8
bearing: -8.04710483551
intensity: 21.7026176453
---
header: 
  seq: 639337
  stamp: 
    secs: 1561682276
    nsecs: 185968226
  frame_id: "ti_mmwave"
point_id: 5
x: 0.640625
y: -0.041015625
z: -1.140625
range: 1.39446306229
velocity: 0.0
doppler_bin: 8
bearing: -3.6633272171
intensity: 23.5218257904
---
header: 
  seq: 639338
  stamp: 
    secs: 1561682276
    nsecs: 185976488
  frame_id: "ti_mmwave"
point_id: 6
x: 0.91796875
y: -0.083984375
z: -0.986328125
range: 1.43804001808
velocity: 0.0
doppler_bin: 8
bearing: -5.2274017334
intensity: 23.4635295868
---
header: 
  seq: 639339
  stamp: 
    secs: 1561682276
    nsecs: 185983922
  frame_id: "ti_mmwave"
point_id: 7
x: 1.056640625
y: -0.04296875
z: -0.904296875
range: 1.48161697388
velocity: 0.0
doppler_bin: 8
bearing: -2.32867455482
intensity: 23.1806335449
---
header: 
  seq: 639340
  stamp: 
    secs: 1561682276
    nsecs: 185991238
  frame_id: "ti_mmwave"
point_id: 8
x: 2.556640625
y: -0.263671875
z: 1.1640625
range: 3.00681090355
velocity: 0.0
doppler_bin: 8
bearing: -5.88822031021
intensity: 29.380191803
---
header: 
  seq: 639341
  stamp: 
    secs: 1561682276
    nsecs: 186000411
  frame_id: "ti_mmwave"
point_id: 9
x: 2.60546875
y: -0.267578125
z: 1.15625
range: 3.05038785934
velocity: 0.0
doppler_bin: 8
bearing: -5.86364221573
intensity: 32.7276954651
---
header: 
  seq: 639342
  stamp: 
    secs: 1561682276
    nsecs: 186008497
  frame_id: "ti_mmwave"
point_id: 10
x: 2.66015625
y: -0.181640625
z: 1.150390625
range: 3.09396481514
velocity: 0.0
doppler_bin: 8
bearing: -3.90620398521
intensity: 31.9200954437
---
header: 
  seq: 639343
  stamp: 
    secs: 1561682276
    nsecs: 186044561
  frame_id: "ti_mmwave"
point_id: 11
x: 4.41796875
y: -0.287109375
z: 1.181640625
range: 4.88062095642
velocity: 0.0
doppler_bin: 8
bearing: -3.71823716164
intensity: 30.7954292297
---
header: 
  seq: 639344
  stamp: 
    secs: 1561682276
    nsecs: 186054308
  frame_id: "ti_mmwave"
point_id: 12
x: 4.486328125
y: -0.2890625
z: 1.078125
range: 4.9241976738
velocity: 0.0
doppler_bin: 8
bearing: -3.68657827377
intensity: 30.4649524689
---
header: 
  seq: 639345
  stamp: 
    secs: 1561682276
    nsecs: 186062530
  frame_id: "ti_mmwave"
point_id: 13
x: 4.73828125
y: -0.44921875
z: -0.5
