header: 
  seq: 667712
  stamp: 
    secs: 1561682322
    nsecs: 264239439
  frame_id: "ti_mmwave"
point_id: 0
x: 0.01171875
y: -0.0390625
z: -0.0078125
range: 0.0435769706964
velocity: 0.0
doppler_bin: 8
bearing: -73.3007583618
intensity: 30.6855697632
---
header: 
  seq: 667713
  stamp: 
    secs: 1561682322
    nsecs: 264340206
  frame_id: "ti_mmwave"
point_id: 1
x: 0.017578125
y: -0.080078125
z: -0.0078125
range: 0.0871539413929
velocity: 0.0
doppler_bin: 8
bearing: -77.6192398071
intensity: 31.9312458038
---
header: 
  seq: 667714
  stamp: 
    secs: 1561682322
    nsecs: 264363897
  frame_id: "ti_mmwave"
point_id: 2
x: 0.029296875
y: -0.119140625
z: -0.005859375
range: 0.130730912089
velocity: 0.0
doppler_bin: 8
bearing: -76.1849746704
intensity: 30.1870040894
---
header: 
  seq: 667715
  stamp: 
    secs: 1561682322
    nsecs: 264377344
  frame_id: "ti_mmwave"
point_id: 3
x: 0.056640625
y: -0.154296875
z: 0.005859375
range: 0.174307882786
velocity: 0.0
doppler_bin: 8
bearing: -69.8423843384
intensity: 25.4530715942
---
header: 
  seq: 667716
  stamp: 
    secs: 1561682322
    nsecs: 264389769
  frame_id: "ti_mmwave"
point_id: 4
x: 0.30859375
y: -0.080078125
z: -1.2265625
range: 1.35088610649
velocity: 0.0
doppler_bin: 8
bearing: -14.547039032
intensity: 21.8184356689
---
header: 
  seq: 667717
  stamp: 
    secs: 1561682322
    nsecs: 264402159
  frame_id: "ti_mmwave"
point_id: 5
x: 0.333984375
y: -0.041015625
z: 1.265625
range: 1.39446306229
velocity: 0.0
doppler_bin: 8
bearing: -7.00126743317
intensity: 23.138671875
---
header: 
  seq: 667718
  stamp: 
    secs: 1561682322
    nsecs: 264450935
  frame_id: "ti_mmwave"
point_id: 6
x: 0.611328125
y: -0.0
z: 1.203125
range: 1.43804001808
velocity: 0.0
doppler_bin: 8
bearing: -0.0
intensity: 20.7188205719
---
header: 
  seq: 667719
  stamp: 
    secs: 1561682322
    nsecs: 264467144
  frame_id: "ti_mmwave"
point_id: 7
x: 1.353515625
y: -0.357421875
z: 0.30078125
range: 1.52519392967
velocity: 0.0
doppler_bin: 8
bearing: -14.7923870087
intensity: 21.3353881836
---
header: 
  seq: 667720
  stamp: 
    secs: 1561682322
    nsecs: 264480148
  frame_id: "ti_mmwave"
point_id: 8
x: 1.451171875
y: -0.23046875
z: 0.087890625
range: 1.56877088547
velocity: 0.0
doppler_bin: 8
bearing: -9.0240983963
intensity: 26.6086540222
---
header: 
  seq: 667721
  stamp: 
    secs: 1561682322
    nsecs: 264493374
  frame_id: "ti_mmwave"
point_id: 9
x: 1.509765625
y: -0.09375
z: 0.048828125
range: 1.61234796047
velocity: 0.0
doppler_bin: 8
bearing: -3.55326104164
intensity: 27.2427577972
---
header: 
  seq: 667722
  stamp: 
    secs: 1561682322
    nsecs: 264507580
  frame_id: "ti_mmwave"
point_id: 10
x: 2.546875
y: -0.263671875
z: 1.185546875
range: 3.00681090355
velocity: 0.0
doppler_bin: 8
bearing: -5.91063833237
intensity: 29.4299964905
---
header: 
  seq: 667723
  stamp: 
    secs: 1561682322
    nsecs: 264520360
  frame_id: "ti_mmwave"
point_id: 11
x: 2.6015625
y: -0.267578125
z: 1.1640625
range: 3.05038785934
velocity: 0.0
doppler_bin: 8
bearing: -5.87238502502
intensity: 32.7276954651
---
header: 
  seq: 667724
  stamp: 
    secs: 1561682322
    nsecs: 264530973
  frame_id: "ti_mmwave"
point_id: 12
x: 2.66015625
y: -0.181640625
z: 1.15234375
range: 3.09396481514
velocity: 0.0
doppler_bin: 8
bearing: -3.90620398521
intensity: 31.9810695648
---
header: 
  seq: 667725
  stamp: 
    secs: 1561682322
    nsecs: 264546139
  frame_id: "ti_mmwave"
point_id: 14
x: 0.041015625
y: -0.033203125
z: 0.0625
range: 0.0871539413929
velocity: 0.0
doppler_bin: 8
bearing: -38.9909973145
intensity: 30.0732097626
---
header: 
  seq: 667726
  stamp: 
    secs: 1561682322
    nsecs: 264561218
  frame_id: "ti_mmwave"
point_id: 15
x: 0.052734375
y: -0.04296875
z: 0.1015625
range: 0.130730912089
velocity: 0.0
doppler_bin: 8
bearing: -39.1736602783
intensity: 28.9542255402
---
header: 
  seq: 667727
  stamp: 
    secs: 1561682322
    nsecs: 264676188
  frame_id: "ti_mmwave"
point_id: 17
x: 1.119140625
y: -0.515625
z: 0.296875
range: 1.35088610649
velocity: 0.0
doppler_bin: 8
bearing: -24.7370834351
intensity: 18.9762706757
---
header: 
  seq: 667728
  stamp: 
    secs: 1561682322
    nsecs: 264691837
  frame_id: "ti_mmwave"
point_id: 18
x: 1.263671875
y: -0.46484375
z: -0.09375
range: 1.43804001808
velocity: 0.0
doppler_bin: 8
bearing: -20.1961269379
intensity: 18.1954402924
---
header: 
  seq: 667729
  stamp: 
    secs: 1561682322
    nsecs: 264703718
  frame_id: "ti_mmwave"
point_id: 19
x: 1.333984375
y: 0.08984375
z: -0.513671875
range: 1.52519392967
velocity: 0.0
doppler_bin: 8
bearing: 3.85304760933
intensity: 21.2710475922
---
header: 
  seq: 667730
  stamp: 
    secs: 1561682322
    nsecs: 264714784
  frame_id: "ti_mmwave"
point_id: 20
x: 0.740234375
y: 0.47265625
z: 1.232421875
range: 1.61234796047
velocity: 0.0
doppler_bin: 8
bearing: 32.5591468811
intensity: 24.3775062561
---
header: 
  seq: 667731
  stamp: 
    secs: 1561682322
    nsecs: 265453126
  frame_id: "ti_mmwave"
point_id: 0
x: 0.01171875
y: -0.0390625
z: -0.0078125
range: 0.0435769706964
velocity: 0.0
doppler_bin: 8
bearing: -73.3007583618
intensity: 30.6892757416
---
header: 
  seq: 667732
  stamp: 
    secs: 1561682322
    nsecs: 265507134
  frame_id: "ti_mmwave"
point_id: 1
x: 0.017578125
y: -0.080078125
z: -0.0078125
range: 0.0871539413929
velocity: 0.0
doppler_bin: 8
bearing: -77.6192398071
intensity: 31.9312458038
---
header: 
  seq: 667733
  stamp: 
    secs: 1561682322
    nsecs: 265525094
  frame_id: "ti_mmwave"
point_id: 2
x: 0.029296875
y: -0.119140625
z: -0.005859375
range: 0.130730912089
velocity: 0.0
doppler_bin: 8
bearing: -76.1849746704
intensity: 30.1911621094
---
header: 
  seq: 667734
  stamp: 
    secs: 1561682322
    nsecs: 265537545
  frame_id: "ti_mmwave"
point_id: 3
x: 0.056640625
y: -0.154296875
z: 0.005859375
range: 0.174307882786
velocity: 0.0
doppler_bin: 8
bearing: -69.8423843384
intensity: 25.4654273987
---
header: 
  seq: 667735
  stamp: 
    secs: 1561682322
    nsecs: 265550171
  frame_id: "ti_mmwave"
point_id: 4
x: 0.34765625
y: -0.080078125
z: -1.216796875
range: 1.35088610649
velocity: 0.0
doppler_bin: 8
bearing: -12.9711065292
intensity: 21.7897701263
---
header: 
  seq: 667736
  stamp: 
    secs: 1561682322
    nsecs: 265561861
  frame_id: "ti_mmwave"
point_id: 5
x: 0.3125
y: -0.041015625
z: 1.271484375
range: 1.39446306229
velocity: 0.0
doppler_bin: 8
bearing: -7.47732973099
intensity: 23.138671875
---
header: 
  seq: 667737
  stamp: 
    secs: 1561682322
    nsecs: 265573951
  frame_id: "ti_mmwave"
point_id: 6
x: 0.6640625
y: -0.04296875
z: 1.173828125
range: 1.43804001808
velocity: 0.0
doppler_bin: 8
bearing: -3.70221304893
intensity: 21.9865703583
---
header: 
  seq: 667738
  stamp: 
    secs: 1561682322
    nsecs: 265585921
  frame_id: "ti_mmwave"
point_id: 7
x: 1.3359375
y: -0.087890625
z: 0.37890625
range: 1.48161697388
velocity: 0.0
doppler_bin: 8
bearing: -3.76403474808
intensity: 24.563659668
---
header: 
  seq: 667739
  stamp: 
    secs: 1561682322
    nsecs: 265598038
  frame_id: "ti_mmwave"
point_id: 8
x: 1.416015625
y: -0.1796875
z: 0.109375
range: 1.52519392967
velocity: 0.0
doppler_bin: 8
bearing: -7.23198366165
intensity: 28.5491294861
---
header: 
  seq: 667740
  stamp: 
    secs: 1561682322
    nsecs: 265609443
  frame_id: "ti_mmwave"
point_id: 9
x: 1.455078125
y: -0.23046875
z: 0.015625
range: 1.56877088547
velocity: 0.0
doppler_bin: 8
bearing: -9.00026893616
intensity: 29.1115760803
---
header: 
  seq: 667741
  stamp: 
    secs: 1561682322
    nsecs: 265621264
  frame_id: "ti_mmwave"
point_id: 10
x: 1.5
y: -0.189453125
z: -0.060546875
range: 1.61234796047
velocity: 0.0
doppler_bin: 8
bearing: -7.19846010208
intensity: 27.2916469574
---
header: 
  seq: 667742
  stamp: 
    secs: 1561682322
    nsecs: 265682039
  frame_id: "ti_mmwave"
point_id: 11
x: 2.5546875
y: -0.263671875
z: 1.169921875
range: 3.00681090355
velocity: 0.0
doppler_bin: 8
bearing: -5.89269018173
intensity: 29.4497585297
---
header: 
  seq: 667743
  stamp: 
    secs: 1561682322
    nsecs: 265859551
  frame_id: "ti_mmwave"
point_id: 12
x: 2.6015625
y: -0.267578125
z: 1.1640625
range: 3.05038785934
velocity: 0.0
doppler_bin: 8
bearing: -5.87238502502
intensity: 32.7137680054
---
header: 
  seq: 667744
  stamp: 
    secs: 1561682322
    nsecs: 265883722
  frame_id: "ti_mmwave"
point_id: 13
x: 2.65625
y: -0.181640625
z: 1.158203125
range: 3.09396481514
velocity: 0.0
doppler_bin: 8
bearing: -3.91193032265
intensity: 31.9534606934
---
header: 
  seq: 667745
  stamp: 
    secs: 1561682322
    nsecs: 265978659
  frame_id: "ti_mmwave"
point_id: 15
x: 0.041015625
y: -0.033203125
z: 0.0625
range: 0.0871539413929
velocity: 0.0
doppler_bin: 8
bearing: -38.9909973145
intensity: 30.0732097626
---
header: 
  seq: 667746
  stamp: 
    secs: 1561682322
    nsecs: 265996170
  frame_id: "ti_mmwave"
point_id: 16
x: 0.052734375
y: -0.04296875
z: 0.1015625
range: 0.130730912089
velocity: 0.0
doppler_bin: 8
bearing: -39.1736602783
intensity: 28.9597473145
---
header: 
  seq: 667747
  stamp: 
    secs: 1561682322
    nsecs: 266010693
  frame_id: "ti_mmwave"
point_id: 18
x: 1.115234375
y: -0.515625
z: 0.31640625
range: 1.35088610649
velocity: 0.0
doppler_bin: 8
bearing: -24.8133087158
intensity: 18.9762706757
---
header: 
  seq: 667748
  stamp: 
    secs: 1561682322
    nsecs: 324161816
  frame_id: "ti_mmwave"
point_id: 0
x: 0.01171875
y: -0.0390625
z: -0.0078125
range: 0.0435769706964
velocity: 0.0
doppler_bin: 8
bearing: -73.3007583618
intensity: 30.6855697632
---
header: 
  seq: 667749
  stamp: 
    secs: 1561682322
    nsecs: 324248347
  frame_id: "ti_mmwave"
point_id: 1
x: 0.017578125
y: -0.080078125
z: -0.0078125
range: 0.0871539413929
velocity: 0.0
doppler_bin: 8
bearing: -77.6192398071
intensity: 31.9312458038
---
header: 
  seq: 667750
  stamp: 
    secs: 1561682322
    nsecs: 324267253
  frame_id: "ti_mmwave"
point_id: 2
x: 0.029296875
y: -0.119140625
z: -0.005859375
range: 0.130730912089
velocity: 0.0
doppler_bin: 8
bearing: -76.1849746704
intensity: 30.1953163147
---
header: 
  seq: 667751
  stamp: 
    secs: 1561682322
    nsecs: 324283162
  frame_id: "ti_mmwave"
point_id: 3
x: 0.056640625
y: -0.154296875
z: 0.005859375
range: 0.174307882786
velocity: 0.0
doppler_bin: 8
bearing: -69.8423843384
intensity: 25.4777469635
---
header: 
  seq: 667752
  stamp: 
    secs: 1561682322
    nsecs: 324373621
  frame_id: "ti_mmwave"
point_id: 4
x: 0.333984375
y: -0.080078125
z: -1.220703125
range: 1.35088610649
velocity: 0.0
doppler_bin: 8
bearing: -13.4830598831
intensity: 21.8184356689
---
header: 
  seq: 667753
  stamp: 
    secs: 1561682322
    nsecs: 324391769
  frame_id: "ti_mmwave"
point_id: 5
x: 0.294921875
y: -0.041015625
z: 1.275390625
range: 1.39446306229
velocity: 0.0
doppler_bin: 8
bearing: -7.91750335693
intensity: 23.1597042084
---
header: 
  seq: 667754
  stamp: 
    secs: 1561682322
    nsecs: 324404314
  frame_id: "ti_mmwave"
point_id: 6
x: 0.60546875
y: -0.0
z: -1.20703125
range: 1.43804001808
velocity: 0.0
doppler_bin: 8
bearing: -0.0
intensity: 21.6435279846
---
header: 
  seq: 667755
  stamp: 
    secs: 1561682322
    nsecs: 324416378
  frame_id: "ti_mmwave"
point_id: 7
x: 1.357421875
y: -0.173828125
z: -0.251953125
range: 1.48161697388
velocity: 0.0
doppler_bin: 8
bearing: -7.29744052887
intensity: 24.8855075836
---
header: 
  seq: 667756
  stamp: 
    secs: 1561682322
    nsecs: 324428770
  frame_id: "ti_mmwave"
point_id: 8
x: 1.40625
y: -0.1796875
z: -0.20703125
range: 1.52519392967
velocity: 0.0
doppler_bin: 8
bearing: -7.28166913986
intensity: 29.7358970642
---
header: 
  seq: 667757
  stamp: 
    secs: 1561682322
    nsecs: 324441557
  frame_id: "ti_mmwave"
point_id: 9
x: 1.45703125
y: -0.138671875
z: -0.16015625
range: 1.56877088547
velocity: 0.0
doppler_bin: 8
bearing: -5.43670701981
intensity: 30.8849048615
---
header: 
  seq: 667758
  stamp: 
    secs: 1561682322
    nsecs: 324487025
  frame_id: "ti_mmwave"
point_id: 10
x: 1.5078125
y: -0.142578125
z: -0.001953125
range: 1.61234796047
velocity: 0.0
doppler_bin: 8
bearing: -5.40180301666
intensity: 28.9376182556
---
header: 
  seq: 667759
  stamp: 
    secs: 1561682322
    nsecs: 324507248
  frame_id: "ti_mmwave"
point_id: 11
x: 0.349609375
y: 0.58203125
z: 1.3984375
range: 1.65592491627
velocity: 0.0
doppler_bin: 8
bearing: 59.007976532
intensity: 25.490032196
---
header: 
  seq: 667760
  stamp: 
    secs: 1561682322
    nsecs: 324519984
  frame_id: "ti_mmwave"
point_id: 12
x: 1.5703125
y: -0.05078125
z: -0.455078125
range: 1.74307882786
velocity: 0.0
doppler_bin: 8
bearing: -1.85220324993
intensity: 27.1933135986
---
header: 
  seq: 667761
  stamp: 
    secs: 1561682322
    nsecs: 324549432
  frame_id: "ti_mmwave"
point_id: 13
x: 1.611328125
y: -0.052734375
z: -0.458984375
range: 1.78665578365
velocity: 0.0
doppler_bin: 8
bearing: -1.87446534634
intensity: 26.9983768463
---
header: 
  seq: 667762
  stamp: 
    secs: 1561682322
    nsecs: 324572808
  frame_id: "ti_mmwave"
point_id: 14
x: 2.548828125
y: -0.263671875
z: 1.18359375
range: 3.00681090355
velocity: 0.0
doppler_bin: 8
bearing: -5.90614128113
intensity: 29.4546852112
---
header: 
  seq: 667763
  stamp: 
    secs: 1561682322
    nsecs: 324592706
  frame_id: "ti_mmwave"
point_id: 15
x: 2.60546875
y: -0.267578125
z: 1.158203125
range: 3.05038785934
velocity: 0.0
doppler_bin: 8
bearing: -5.86364221573
intensity: 32.7137680054
---
header: 
  seq: 667764
  stamp: 
    secs: 1561682322
    nsecs: 324604998
  frame_id: "ti_mmwave"
point_id: 16
x: 2.662109375
y: -0.181640625
z: 1.1484375
range: 3.09396481514
velocity: 0.0
doppler_bin: 8
bearing: -3.90334677696
intensity: 31.9645252228
---
header: 
  seq: 667765
  stamp: 
    secs: 1561682322
    nsecs: 324628794
  frame_id: "ti_mmwave"
point_id: 18
x: 0.041015625
y: -0.033203125
z: 0.0625
range: 0.0871539413929
velocity: 0.0
doppler_bin: 8
bearing: -38.9909973145
intensity: 30.0732097626
---
header: 
  seq: 667766
  stamp: 
    secs: 1561682322
    nsecs: 324651324
  frame_id: "ti_mmwave"
point_id: 19
x: 0.052734375
y: -0.04296875
z: 0.1015625
range: 0.130730912089
velocity: 0.0
doppler_bin: 8
bearing: -39.1736602783
intensity: 28.9597473145
---
header: 
  seq: 667767
  stamp: 
    secs: 1561682322
    nsecs: 324675991
  frame_id: "ti_mmwave"
point_id: 21
x: 1.119140625
y: -0.515625
z: 0.298828125
range: 1.35088610649
velocity: 0.0
doppler_bin: 8
bearing: -24.7370834351
intensity: 18.9209461212
---
header: 
  seq: 667768
  stamp: 
    secs: 1561682322
    nsecs: 324920299
  frame_id: "ti_mmwave"
point_id: 22
x: 1.44921875
y: -0.2421875
z: 0.505859375
range: 1.65592491627
velocity: 0.0
doppler_bin: 8
bearing: -9.48736381531
intensity: 22.718416214
---
header: 
  seq: 667769
  stamp: 
    secs: 1561682322
    nsecs: 325655613
  frame_id: "ti_mmwave"
point_id: 0
x: 0.01171875
y: -0.0390625
z: -0.0078125
range: 0.0435769706964
velocity: 0.0
doppler_bin: 8
bearing: -73.3007583618
intensity: 30.6818580627
---
header: 
  seq: 667770
  stamp: 
    secs: 1561682322
    nsecs: 325701074
  frame_id: "ti_mmwave"
point_id: 1
x: 0.017578125
y: -0.080078125
z: -0.0078125
range: 0.0871539413929
velocity: 0.0
doppler_bin: 8
bearing: -77.6192398071
intensity: 31.9256744385
---
header: 
  seq: 667771
  stamp: 
    secs: 1561682322
    nsecs: 325711486
  frame_id: "ti_mmwave"
point_id: 2
x: 0.029296875
y: -0.119140625
z: -0.005859375
range: 0.130730912089
velocity: 0.0
doppler_bin: 8
bearing: -76.1849746704
intensity: 30.1870040894
---
header: 
  seq: 667772
  stamp: 
    secs: 1561682322
    nsecs: 325729169
  frame_id: "ti_mmwave"
point_id: 3
x: 0.056640625
y: -0.154296875
z: 0.005859375
range: 0.174307882786
velocity: 0.0
doppler_bin: 8
bearing: -69.8423843384
intensity: 25.4654273987
---
header: 
  seq: 667773
  stamp: 
    secs: 1561682322
    nsecs: 325743082
  frame_id: "ti_mmwave"
point_id: 4
x: 0.37109375
y: -0.080078125
z: -1.208984375
range: 1.35088610649
velocity: 0.0
doppler_bin: 8
bearing: -12.177107811
intensity: 21.7897701263
---
header: 
  seq: 667774
  stamp: 
    secs: 1561682322
    nsecs: 325756656
  frame_id: "ti_mmwave"
point_id: 5
x: 0.314453125
y: -0.041015625
z: 1.26953125
range: 1.39446306229
velocity: 0.0
doppler_bin: 8
bearing: -7.43140792847
intensity: 23.138671875
---
header: 
  seq: 667775
  stamp: 
    secs: 1561682322
    nsecs: 325770640
  frame_id: "ti_mmwave"
point_id: 6
x: 0.611328125
y: -0.04296875
z: 1.203125
range: 1.43804001808
velocity: 0.0
doppler_bin: 8
bearing: -4.02056694031
intensity: 21.5533599854
---
header: 
  seq: 667776
  stamp: 
    secs: 1561682322
    nsecs: 325783752
  frame_id: "ti_mmwave"
point_id: 7
x: 1.27734375
y: -0.0
z: 0.55078125
range: 1.48161697388
velocity: 0.0
doppler_bin: 8
bearing: -0.0
intensity: 21.0720996857
---
header: 
  seq: 667777
  stamp: 
    secs: 1561682322
    nsecs: 325796623
  frame_id: "ti_mmwave"
point_id: 8
x: 1.419921875
y: 0.044921875
z: 0.1796875
range: 1.52519392967
velocity: 0.0
doppler_bin: 8
bearing: 1.81205427647
intensity: 25.3402614594
---
header: 
  seq: 667778
  stamp: 
    secs: 1561682322
    nsecs: 325827841
  frame_id: "ti_mmwave"
point_id: 9
x: 1.46484375
y: -0.091796875
z: 0.11328125
range: 1.56877088547
velocity: 0.0
doppler_bin: 8
bearing: -3.58584666252
intensity: 26.3447723389
---
header: 
  seq: 667779
  stamp: 
    secs: 1561682322
    nsecs: 325837144
  frame_id: "ti_mmwave"
point_id: 10
x: 1.443359375
y: -0.046875
z: -0.455078125
range: 1.61234796047
velocity: 0.0
doppler_bin: 8
bearing: -1.86010229588
intensity: 24.0993309021
---
header: 
  seq: 667780
  stamp: 
    secs: 1561682322
    nsecs: 325854790
  frame_id: "ti_mmwave"
point_id: 11
x: 1.169921875
y: -0.33984375
z: -0.966796875
range: 1.65592491627
velocity: 0.0
doppler_bin: 8
bearing: -16.1977424622
intensity: 25.3019962311
---
header: 
  seq: 667781
  stamp: 
    secs: 1561682322
    nsecs: 325867919
  frame_id: "ti_mmwave"
point_id: 12
x: 2.5546875
y: -0.263671875
z: 1.171875
range: 3.00681090355
velocity: 0.0
doppler_bin: 8
bearing: -5.89269018173
intensity: 29.3951931
---
header: 
  seq: 667782
  stamp: 
    secs: 1561682322
    nsecs: 325881062
  frame_id: "ti_mmwave"
point_id: 13
x: 2.607421875
y: -0.267578125
z: 1.15234375
range: 3.05038785934
velocity: 0.0
doppler_bin: 8
bearing: -5.85928010941
intensity: 32.7137680054
---
header: 
  seq: 667783
  stamp: 
    secs: 1561682322
    nsecs: 325889634
  frame_id: "ti_mmwave"
point_id: 14
x: 2.6640625
y: -0.181640625
z: 1.142578125
range: 3.09396481514
velocity: 0.0
doppler_bin: 8
bearing: -3.90049386024
intensity: 31.9395904541
---
header: 
  seq: 667784
  stamp: 
    secs: 1561682322
    nsecs: 326068599
  frame_id: "ti_mmwave"
point_id: 16
x: 0.041015625
y: -0.033203125
z: 0.0625
range: 0.0871539413929
velocity: 0.0
doppler_bin: 8
bearing: -38.9909973145
intensity: 30.0732097626
---
header: 
  seq: 667785
  stamp: 
    secs: 1561682322
    nsecs: 326087397
  frame_id: "ti_mmwave"
point_id: 17
x: 0.052734375
y: -0.04296875
z: 0.1015625
range: 0.130730912089
velocity: 0.0
doppler_bin: 8
bearing: -39.1736602783
intensity: 28.9652614594
---
header: 
  seq: 667786
  stamp: 
    secs: 1561682322
    nsecs: 326101431
  frame_id: "ti_mmwave"
point_id: 19
x: 1.115234375
y: -0.474609375
z: 0.369140625
range: 1.35088610649
velocity: 0.0
doppler_bin: 8
bearing: -23.0531082153
intensity: 18.9209461212
---
header: 
  seq: 667787
  stamp: 
    secs: 1561682322
    nsecs: 326110044
  frame_id: "ti_mmwave"
point_id: 20
x: 0.966796875
y: -0.478515625
z: -0.87890625
range: 1.48161697388
velocity: 0.0
doppler_bin: 8
bearing: -26.3330860138
intensity: 18.2607479095
---
header: 
  seq: 667788
  stamp: 
    secs: 1561682322
    nsecs: 326117998
  frame_id: "ti_mmwave"
point_id: 21
x: 0.603515625
y: -0.357421875
z: 1.248046875
range: 1.52519392967
velocity: 0.0
doppler_bin: 8
bearing: -30.6354160309
intensity: 23.8916606903
---
header: 
  seq: 667789
  stamp: 
    secs: 1561682322
    nsecs: 326123295
  frame_id: "ti_mmwave"
point_id: 22
x: 0.56640625
y: 0.42578125
z: 1.337890625
range: 1.61234796047
velocity: 0.0
doppler_bin: 8
bearing: 36.9330673218
intensity: 23.9619941711
---
header: 
  seq: 667790
  stamp: 
    secs: 1561682322
    nsecs: 326145349
  frame_id: "ti_mmwave"
point_id: 23
x: 0.548828125
y: 0.630859375
z: 1.310546875
range: 1.65592491627
velocity: 0.0
doppler_bin: 8
bearing: 48.9777412415
intensity: 24.7712116241
---
header: 
  seq: 667791
  stamp: 
    secs: 1561682322
    nsecs: 384368712
  frame_id: "ti_mmwave"
point_id: 0
x: 0.01171875
y: -0.0390625
z: -0.0078125
range: 0.0435769706964
velocity: 0.0
doppler_bin: 8
bearing: -73.3007583618
intensity: 30.6929798126
---
header: 
  seq: 667792
  stamp: 
    secs: 1561682322
    nsecs: 384449879
  frame_id: "ti_mmwave"
point_id: 1
x: 0.017578125
y: -0.080078125
z: -0.0078125
range: 0.0871539413929
velocity: 0.0
doppler_bin: 8
bearing: -77.6192398071
intensity: 31.9312458038
---
header: 
  seq: 667793
  stamp: 
    secs: 1561682322
    nsecs: 384460954
  frame_id: "ti_mmwave"
point_id: 2
x: 0.029296875
y: -0.119140625
z: -0.005859375
range: 0.130730912089
velocity: 0.0
doppler_bin: 8
bearing: -76.1849746704
intensity: 30.1911621094
---
header: 
  seq: 667794
  stamp: 
    secs: 1561682322
    nsecs: 384469462
  frame_id: "ti_mmwave"
point_id: 3
x: 0.056640625
y: -0.154296875
z: 0.005859375
range: 0.174307882786
velocity: 0.0
doppler_bin: 8
bearing: -69.8423843384
intensity: 25.4777469635
---
header: 
  seq: 667795
  stamp: 
    secs: 1561682322
    nsecs: 384477491
  frame_id: "ti_mmwave"
point_id: 4
x: 0.37109375
y: -0.080078125
z: -1.2109375
range: 1.35088610649
velocity: 0.0
doppler_bin: 8
bearing: -12.177107811
intensity: 21.8184356689
---
header: 
  seq: 667796
  stamp: 
    secs: 1561682322
    nsecs: 384485531
  frame_id: "ti_mmwave"
point_id: 5
x: 0.337890625
y: -0.041015625
z: 1.263671875
range: 1.39446306229
velocity: 0.0
doppler_bin: 8
bearing: -6.92111730576
intensity: 23.138671875
---
header: 
  seq: 667797
  stamp: 
    secs: 1561682322
    nsecs: 384493129
  frame_id: "ti_mmwave"
point_id: 6
x: 0.33203125
y: -0.04296875
z: -1.30859375
range: 1.43804001808
velocity: 0.0
doppler_bin: 8
bearing: -7.37376642227
intensity: 21.9865703583
---
header: 
  seq: 667798
  stamp: 
    secs: 1561682322
    nsecs: 384501272
  frame_id: "ti_mmwave"
point_id: 7
x: 1.27734375
y: -0.087890625
z: -0.54296875
range: 1.48161697388
velocity: 0.0
doppler_bin: 8
bearing: -3.93616628647
intensity: 23.5218257904
---
header: 
  seq: 667799
  stamp: 
    secs: 1561682322
    nsecs: 384512175
  frame_id: "ti_mmwave"
point_id: 8
x: 1.35546875
y: -0.08984375
z: -0.453125
range: 1.52519392967
velocity: 0.0
doppler_bin: 8
bearing: -3.79215598106
intensity: 27.6417617798
---
header: 
  seq: 667800
  stamp: 
    secs: 1561682322
    nsecs: 384520682
  frame_id: "ti_mmwave"
point_id: 9
x: 1.40234375
y: -0.091796875
z: -0.4375
range: 1.56877088547
velocity: 0.0
doppler_bin: 8
bearing: -3.74521589279
intensity: 29.0471553802
---
header: 
  seq: 667801
  stamp: 
    secs: 1561682322
    nsecs: 384529305
  frame_id: "ti_mmwave"
point_id: 10
x: 1.455078125
y: -0.046875
z: -0.4140625
range: 1.61234796047
velocity: 0.0
doppler_bin: 8
bearing: -1.84513187408
intensity: 26.8214511871
---
header: 
  seq: 667802
  stamp: 
    secs: 1561682322
    nsecs: 384538025
  frame_id: "ti_mmwave"
point_id: 11
x: 0.23828125
y: -0.4375
z: 1.47265625
range: 1.65592491627
velocity: 0.0
doppler_bin: 8
bearing: -61.4253921509
intensity: 25.4282550812
---
header: 
  seq: 667803
  stamp: 
    secs: 1561682322
    nsecs: 384547216
  frame_id: "ti_mmwave"
point_id: 12
x: 2.55859375
y: -0.263671875
z: 1.1640625
range: 3.00681090355
velocity: 0.0
doppler_bin: 8
bearing: -5.88375711441
intensity: 29.4497585297
---
header: 
  seq: 667804
  stamp: 
    secs: 1561682322
    nsecs: 384555134
  frame_id: "ti_mmwave"
point_id: 13
x: 2.607421875
y: -0.267578125
z: 1.15234375
range: 3.05038785934
velocity: 0.0
doppler_bin: 8
bearing: -5.85928010941
intensity: 32.7207374573
---
header: 
  seq: 667805
  stamp: 
    secs: 1561682322
    nsecs: 384563448
  frame_id: "ti_mmwave"
point_id: 14
x: 2.662109375
y: -0.181640625
z: 1.1484375
range: 3.09396481514
velocity: 0.0
doppler_bin: 8
bearing: -3.90334677696
intensity: 31.9479179382
---
header: 
  seq: 667806
  stamp: 
    secs: 1561682322
    nsecs: 384575783
  frame_id: "ti_mmwave"
point_id: 16
x: 0.041015625
y: -0.033203125
z: 0.0625
range: 0.0871539413929
velocity: 0.0
doppler_bin: 8
bearing: -38.9909973145
intensity: 30.0774784088
---
header: 
  seq: 667807
  stamp: 
    secs: 1561682322
    nsecs: 384594950
  frame_id: "ti_mmwave"
point_id: 17
x: 0.044921875
y: -0.046875
z: 0.103515625
range: 0.130730912089
velocity: 0.0
doppler_bin: 8
bearing: -46.218875885
intensity: 28.9597473145
---
header: 
  seq: 667808
  stamp: 
    secs: 1561682322
    nsecs: 384612021
  frame_id: "ti_mmwave"
point_id: 19
x: 1.1171875
y: -0.515625
z: 0.3046875
range: 1.35088610649
velocity: 0.0
doppler_bin: 8
bearing: -24.7751407623
intensity: 18.864906311
---
header: 
  seq: 667809
  stamp: 
    secs: 1561682322
    nsecs: 384625077
  frame_id: "ti_mmwave"
point_id: 20
x: 0.763671875
y: 0.47265625
z: 1.21875
range: 1.61234796047
velocity: 0.0
doppler_bin: 8
bearing: 31.7544345856
intensity: 24.6089782715
---
header: 
  seq: 667810
  stamp: 
    secs: 1561682322
    nsecs: 384632617
  frame_id: "ti_mmwave"
point_id: 21
x: 0.572265625
y: 0.58203125
z: 1.322265625
range: 1.65592491627
velocity: 0.0
doppler_bin: 8
bearing: 45.4847221375
intensity: 24.9276046753
---
header: 
  seq: 667811
  stamp: 
    secs: 1561682322
    nsecs: 385682212
  frame_id: "ti_mmwave"
point_id: 0
x: 0.01171875
y: -0.0390625
z: -0.0078125
range: 0.0435769706964
velocity: 0.0
doppler_bin: 8
bearing: -73.3007583618
intensity: 30.6855697632
---
header: 
  seq: 667812
  stamp: 
    secs: 1561682322
    nsecs: 385756993
  frame_id: "ti_mmwave"
point_id: 1
x: 0.017578125
y: -0.080078125
z: -0.0078125
range: 0.0871539413929
velocity: 0.0
doppler_bin: 8
bearing: -77.6192398071
intensity: 31.9284610748
---
header: 
  seq: 667813
  stamp: 
    secs: 1561682322
    nsecs: 385775646
  frame_id: "ti_mmwave"
point_id: 2
x: 0.029296875
y: -0.119140625
z: -0.005859375
range: 0.130730912089
velocity: 0.0
doppler_bin: 8
bearing: -76.1849746704
intensity: 30.1911621094
---
header: 
  seq: 667814
  stamp: 
    secs: 1561682322
    nsecs: 385790308
  frame_id: "ti_mmwave"
point_id: 3
x: 0.056640625
y: -0.154296875
z: 0.005859375
range: 0.174307882786
velocity: 0.0
doppler_bin: 8
bearing: -69.8423843384
intensity: 25.4654273987
---
header: 
  seq: 667815
  stamp: 
    secs: 1561682322
    nsecs: 385893289
  frame_id: "ti_mmwave"
point_id: 4
x: 0.328125
y: -0.080078125
z: -1.22265625
range: 1.35088610649
velocity: 0.0
doppler_bin: 8
bearing: -13.7148113251
intensity: 21.7609119415
---
header: 
  seq: 667816
  stamp: 
    secs: 1561682322
    nsecs: 385903993
  frame_id: "ti_mmwave"
point_id: 5
x: 0.31640625
y: -0.041015625
z: 1.26953125
range: 1.39446306229
velocity: 0.0
doppler_bin: 8
bearing: -7.38604259491
intensity: 23.1175384521
---
header: 
  seq: 667817
  stamp: 
    secs: 1561682322
    nsecs: 385912239
  frame_id: "ti_mmwave"
point_id: 6
x: 0.052734375
y: -0.04296875
z: -1.34765625
range: 1.43804001808
velocity: 0.0
doppler_bin: 8
bearing: -39.1736602783
intensity: 21.9312458038
---
header: 
  seq: 667818
  stamp: 
    secs: 1561682322
    nsecs: 385917671
  frame_id: "ti_mmwave"
point_id: 7
x: 1.322265625
y: -0.087890625
z: -0.421875
range: 1.48161697388
velocity: 0.0
doppler_bin: 8
bearing: -3.80284047127
intensity: 25.9879055023
---
header: 
  seq: 667819
  stamp: 
    secs: 1561682322
    nsecs: 385942021
  frame_id: "ti_mmwave"
point_id: 8
x: 1.396484375
y: -0.134765625
z: -0.28515625
range: 1.52519392967
velocity: 0.0
doppler_bin: 8
bearing: -5.51217412949
intensity: 31.1294002533
---
header: 
  seq: 667820
  stamp: 
    secs: 1561682322
    nsecs: 385953793
  frame_id: "ti_mmwave"
point_id: 9
x: 1.44921875
y: -0.091796875
z: -0.240234375
range: 1.56877088547
velocity: 0.0
doppler_bin: 8
bearing: -3.62440538406
intensity: 32.7669143677
---
header: 
  seq: 667821
  stamp: 
    secs: 1561682322
    nsecs: 386041288
  frame_id: "ti_mmwave"
point_id: 10
x: 1.498046875
y: -0.09375
z: -0.19921875
range: 1.61234796047
velocity: 0.0
doppler_bin: 8
bearing: -3.58098506927
intensity: 31.306552887
---
header: 
  seq: 667822
  stamp: 
    secs: 1561682322
    nsecs: 386058308
  frame_id: "ti_mmwave"
point_id: 11
x: 1.55078125
y: -0.0
z: -0.107421875
range: 1.65592491627
velocity: 0.0
doppler_bin: 8
bearing: -0.0
intensity: 27.7959651947
---
header: 
  seq: 667823
  stamp: 
    secs: 1561682322
    nsecs: 386091178
  frame_id: "ti_mmwave"
point_id: 12
x: 2.552734375
y: -0.263671875
z: 1.173828125
range: 3.00681090355
velocity: 0.0
doppler_bin: 8
bearing: -5.89716720581
intensity: 29.380191803
---
header: 
  seq: 667824
  stamp: 
    secs: 1561682322
    nsecs: 386107288
  frame_id: "ti_mmwave"
point_id: 13
x: 2.607421875
y: -0.267578125
z: 1.15234375
range: 3.05038785934
velocity: 0.0
doppler_bin: 8
bearing: -5.85928010941
intensity: 32.7230567932
---
header: 
  seq: 667825
  stamp: 
    secs: 1561682322
    nsecs: 386120312
  frame_id: "ti_mmwave"
point_id: 14
x: 2.6640625
y: -0.181640625
z: 1.140625
range: 3.09396481514
velocity: 0.0
doppler_bin: 8
bearing: -3.90049386024
intensity: 31.9838218689
---
header: 
  seq: 667826
  stamp: 
    secs: 1561682322
    nsecs: 386138640
  frame_id: "ti_mmwave"
point_id: 16
x: 0.041015625
y: -0.033203125
z: 0.0625
range: 0.0871539413929
velocity: 0.0
doppler_bin: 8
bearing: -38.9909973145
intensity: 30.0774784088
---
header: 
  seq: 667827
  stamp: 
    secs: 1561682322
    nsecs: 386148818
  frame_id: "ti_mmwave"
point_id: 17
x: 0.052734375
y: -0.04296875
z: 0.1015625
range: 0.130730912089
velocity: 0.0
doppler_bin: 8
bearing: -39.1736602783
intensity: 28.9652614594
---
header: 
  seq: 667828
  stamp: 
    secs: 1561682322
    nsecs: 386174413
  frame_id: "ti_mmwave"
point_id: 19
x: 1.1171875
y: -0.474609375
z: 0.36328125
range: 1.35088610649
velocity: 0.0
doppler_bin: 8
bearing: -23.0170059204
intensity: 18.864906311
---
header: 
  seq: 667829
  stamp: 
    secs: 1561682322
    nsecs: 386200383
  frame_id: "ti_mmwave"
point_id: 20
x: 0.755859375
y: -0.53515625
z: 1.25
range: 1.65592491627
velocity: 0.0
doppler_bin: 8
bearing: -35.2988891602
intensity: 25.8658733368
---
header: 
  seq: 667830
  stamp: 
    secs: 1561682322
    nsecs: 444347213
  frame_id: "ti_mmwave"
point_id: 0
x: 0.01171875
y: -0.0390625
z: -0.0078125
range: 0.0435769706964
velocity: 0.0
doppler_bin: 8
bearing: -73.3007583618
intensity: 30.678144455
---
header: 
  seq: 667831
  stamp: 
    secs: 1561682322
    nsecs: 444422930
  frame_id: "ti_mmwave"
point_id: 1
x: 0.017578125
y: -0.080078125
z: -0.0078125
range: 0.0871539413929
velocity: 0.0
doppler_bin: 8
bearing: -77.6192398071
intensity: 31.9284610748
---
header: 
  seq: 667832
  stamp: 
    secs: 1561682322
    nsecs: 444435377
  frame_id: "ti_mmwave"
point_id: 2
x: 0.029296875
y: -0.119140625
z: -0.005859375
range: 0.130730912089
velocity: 0.0
doppler_bin: 8
bearing: -76.1849746704
intensity: 30.1870040894
---
header: 
  seq: 667833
  stamp: 
    secs: 1561682322
    nsecs: 444443715
  frame_id: "ti_mmwave"
point_id: 3
x: 0.056640625
y: -0.154296875
z: 0.005859375
range: 0.174307882786
velocity: 0.0
doppler_bin: 8
bearing: -69.8423843384
intensity: 25.4654273987
---
header: 
  seq: 667834
  stamp: 
    secs: 1561682322
    nsecs: 444451812
  frame_id: "ti_mmwave"
point_id: 4
x: 0.359375
y: -0.080078125
z: -1.212890625
range: 1.35088610649
velocity: 0.0
doppler_bin: 8
bearing: -12.5617752075
intensity: 21.7897701263
---
header: 
  seq: 667835
  stamp: 
    secs: 1561682322
    nsecs: 444459572
  frame_id: "ti_mmwave"
point_id: 5
x: 0.310546875
y: -0.041015625
z: 1.271484375
range: 1.39446306229
velocity: 0.0
doppler_bin: 8
bearing: -7.52382040024
intensity: 23.1597042084
---
header: 
  seq: 667836
  stamp: 
    secs: 1561682322
    nsecs: 444467604
  frame_id: "ti_mmwave"
point_id: 6
x: 1.04296875
y: -0.083984375
z: 0.853515625
range: 1.43804001808
velocity: 0.0
doppler_bin: 8
bearing: -4.60377216339
intensity: 22.6951293945
---
header: 
  seq: 667837
  stamp: 
    secs: 1561682322
    nsecs: 444475617
  frame_id: "ti_mmwave"
point_id: 7
x: 1.384765625
y: -0.130859375
z: -0.02734375
range: 1.48161697388
velocity: 0.0
doppler_bin: 8
bearing: -5.3983798027
intensity: 28.1291332245
---
header: 
  seq: 667838
  stamp: 
    secs: 1561682322
    nsecs: 444483718
  frame_id: "ti_mmwave"
point_id: 8
x: 1.419921875
y: -0.134765625
z: -0.125
range: 1.52519392967
velocity: 0.0
doppler_bin: 8
bearing: -5.42173528671
intensity: 32.0520439148
---
header: 
  seq: 667839
  stamp: 
    secs: 1561682322
    nsecs: 444494984
  frame_id: "ti_mmwave"
point_id: 9
x: 1.458984375
y: -0.138671875
z: -0.150390625
range: 1.56877088547
velocity: 0.0
doppler_bin: 8
bearing: -5.42947340012
intensity: 32.9159088135
---
header: 
  seq: 667840
  stamp: 
    secs: 1561682322
    nsecs: 444505514
  frame_id: "ti_mmwave"
point_id: 10
x: 1.501953125
y: -0.09375
z: -0.16015625
range: 1.61234796047
velocity: 0.0
doppler_bin: 8
bearing: -3.5716958046
intensity: 30.8671569824
---
header: 
  seq: 667841
  stamp: 
    secs: 1561682322
    nsecs: 444514176
  frame_id: "ti_mmwave"
point_id: 11
x: 1.55078125
y: -0.048828125
z: -0.08984375
range: 1.65592491627
velocity: 0.0
doppler_bin: 8
bearing: -1.80342757702
intensity: 25.3529415131
---
header: 
  seq: 667842
  stamp: 
    secs: 1561682322
    nsecs: 444522506
  frame_id: "ti_mmwave"
point_id: 12
x: 2.552734375
y: -0.263671875
z: 1.17578125
range: 3.00681090355
velocity: 0.0
doppler_bin: 8
bearing: -5.89716720581
intensity: 29.4200801849
---
header: 
  seq: 667843
  stamp: 
    secs: 1561682322
    nsecs: 444530736
  frame_id: "ti_mmwave"
point_id: 13
x: 2.603515625
y: -0.267578125
z: 1.162109375
range: 3.05038785934
velocity: 0.0
doppler_bin: 8
bearing: -5.8680100441
intensity: 32.6951293945
---
header: 
  seq: 667844
  stamp: 
    secs: 1561682322
    nsecs: 444539456
  frame_id: "ti_mmwave"
point_id: 14
x: 2.6640625
y: -0.181640625
z: 1.142578125
range: 3.09396481514
velocity: 0.0
doppler_bin: 8
bearing: -3.90049386024
intensity: 31.9479179382
---
header: 
  seq: 667845
  stamp: 
    secs: 1561682322
    nsecs: 444550086
  frame_id: "ti_mmwave"
point_id: 16
x: 0.041015625
y: -0.033203125
z: 0.0625
range: 0.0871539413929
velocity: 0.0
doppler_bin: 8
bearing: -38.9909973145
intensity: 30.0732097626
---
header: 
  seq: 667846
  stamp: 
    secs: 1561682322
    nsecs: 444573010
  frame_id: "ti_mmwave"
point_id: 17
x: 0.052734375
y: -0.04296875
z: 0.1015625
range: 0.130730912089
velocity: 0.0
doppler_bin: 8
bearing: -39.1736602783
intensity: 28.9652614594
---
header: 
  seq: 667847
  stamp: 
    secs: 1561682322
    nsecs: 444592568
  frame_id: "ti_mmwave"
point_id: 19
x: 1.1171875
y: -0.515625
z: 0.306640625
range: 1.35088610649
velocity: 0.0
doppler_bin: 8
bearing: -24.7751407623
intensity: 18.9209461212
---
header: 
  seq: 667848
  stamp: 
    secs: 1561682322
    nsecs: 445637889
  frame_id: "ti_mmwave"
point_id: 0
x: 0.01171875
y: -0.0390625
z: -0.0078125
range: 0.0435769706964
velocity: 0.0
doppler_bin: 8
bearing: -73.3007583618
intensity: 30.678144455
---
header: 
  seq: 667849
  stamp: 
    secs: 1561682322
    nsecs: 445708424
  frame_id: "ti_mmwave"
point_id: 1
x: 0.017578125
y: -0.080078125
z: -0.0078125
range: 0.0871539413929
velocity: 0.0
doppler_bin: 8
bearing: -77.6192398071
intensity: 31.9284610748
---
header: 
  seq: 667850
  stamp: 
    secs: 1561682322
    nsecs: 445726031
  frame_id: "ti_mmwave"
point_id: 2
x: 0.029296875
y: -0.119140625
z: -0.005859375
range: 0.130730912089
velocity: 0.0
doppler_bin: 8
bearing: -76.1849746704
intensity: 30.1911621094
---
header: 
  seq: 667851
  stamp: 
    secs: 1561682322
    nsecs: 445740506
  frame_id: "ti_mmwave"
point_id: 3
x: 0.056640625
y: -0.154296875
z: 0.005859375
range: 0.174307882786
velocity: 0.0
doppler_bin: 8
bearing: -69.8423843384
intensity: 25.4777469635
---
header: 
  seq: 667852
  stamp: 
    secs: 1561682322
    nsecs: 445761479
  frame_id: "ti_mmwave"
point_id: 4
x: 0.345703125
y: -0.080078125
z: -1.216796875
range: 1.35088610649
velocity: 0.0
doppler_bin: 8
bearing: -13.0418901443
intensity: 21.7609119415
---
header: 
  seq: 667853
  stamp: 
    secs: 1561682322
    nsecs: 445828376
  frame_id: "ti_mmwave"
point_id: 5
x: 0.3359375
y: -0.041015625
z: 1.263671875
range: 1.39446306229
velocity: 0.0
doppler_bin: 8
bearing: -6.96096277237
intensity: 23.1175384521
---
header: 
  seq: 667854
  stamp: 
    secs: 1561682322
    nsecs: 445843805
  frame_id: "ti_mmwave"
point_id: 6
x: 0.599609375
y: 0.04296875
z: 1.208984375
range: 1.43804001808
velocity: 0.0
doppler_bin: 8
bearing: 4.09887981415
intensity: 20.934217453
---
header: 
  seq: 667855
  stamp: 
    secs: 1561682322
    nsecs: 445858229
  frame_id: "ti_mmwave"
point_id: 7
x: 1.3359375
y: -0.216796875
z: 0.318359375
range: 1.48161697388
velocity: 0.0
doppler_bin: 8
bearing: -9.21764469147
intensity: 23.6548805237
---
header: 
  seq: 667856
  stamp: 
    secs: 1561682322
    nsecs: 445870390
  frame_id: "ti_mmwave"
point_id: 8
x: 1.380859375
y: -0.0
z: -0.380859375
range: 1.52519392967
velocity: 0.0
doppler_bin: 8
bearing: -0.0
intensity: 27.7378635406
---
header: 
  seq: 667857
  stamp: 
    secs: 1561682322
    nsecs: 445882397
  frame_id: "ti_mmwave"
point_id: 9
x: 1.45703125
y: -0.046875
z: -0.205078125
range: 1.56877088547
velocity: 0.0
doppler_bin: 8
bearing: -1.84266018867
intensity: 30.3342380524
---
header: 
  seq: 667858
  stamp: 
    secs: 1561682322
    nsecs: 445893144
  frame_id: "ti_mmwave"
point_id: 10
x: 1.5078125
y: -0.046875
z: -0.12109375
range: 1.61234796047
velocity: 0.0
doppler_bin: 8
bearing: -1.78064239025
intensity: 29.9913063049
---
header: 
  seq: 667859
  stamp: 
    secs: 1561682322
    nsecs: 445900490
  frame_id: "ti_mmwave"
point_id: 11
x: 1.552734375
y: -0.048828125
z: -0.04296875
range: 1.65592491627
velocity: 0.0
doppler_bin: 8
bearing: -1.80116057396
intensity: 26.5513839722
---
header: 
  seq: 667860
  stamp: 
    secs: 1561682322
    nsecs: 445921681
  frame_id: "ti_mmwave"
point_id: 12
x: 2.544921875
y: -0.263671875
z: 1.19140625
range: 3.00681090355
velocity: 0.0
doppler_bin: 8
bearing: -5.91514253616
intensity: 29.380191803
---
header: 
  seq: 667861
  stamp: 
    secs: 1561682322
    nsecs: 445935666
  frame_id: "ti_mmwave"
point_id: 13
x: 2.6015625
y: -0.267578125
z: 1.16796875
range: 3.05038785934
velocity: 0.0
doppler_bin: 8
bearing: -5.87238502502
intensity: 32.699798584
---
header: 
  seq: 667862
  stamp: 
    secs: 1561682322
    nsecs: 445943760
  frame_id: "ti_mmwave"
point_id: 14
x: 2.66015625
y: -0.181640625
z: 1.15234375
range: 3.09396481514
velocity: 0.0
doppler_bin: 8
bearing: -3.90620398521
intensity: 31.894903183
---
header: 
  seq: 667863
  stamp: 
    secs: 1561682322
    nsecs: 446103532
  frame_id: "ti_mmwave"
point_id: 16
x: 0.041015625
y: -0.033203125
z: 0.0625
range: 0.0871539413929
velocity: 0.0
doppler_bin: 8
bearing: -38.9909973145
intensity: 30.0774784088
---
header: 
  seq: 667864
  stamp: 
    secs: 1561682322
    nsecs: 446126956
  frame_id: "ti_mmwave"
point_id: 17
x: 0.052734375
y: -0.04296875
z: 0.1015625
range: 0.130730912089
velocity: 0.0
doppler_bin: 8
bearing: -39.1736602783
intensity: 28.9652614594
---
header: 
  seq: 667865
  stamp: 
    secs: 1561682322
    nsecs: 446134703
  frame_id: "ti_mmwave"
point_id: 19
x: 1.205078125
y: 0.357421875
z: 0.16796875
range: 1.35088610649
velocity: 0.0
doppler_bin: 8
bearing: 16.5201683044
intensity: 18.9209461212
---
header: 
  seq: 667866
  stamp: 
    secs: 1561682322
    nsecs: 446172998
  frame_id: "ti_mmwave"
point_id: 20
x: 1.28125
y: -0.421875
z: -0.046875
range: 1.43804001808
velocity: 0.0
doppler_bin: 8
bearing: -18.2250766754
intensity: 18.9762706757
---
header: 
  seq: 667867
  stamp: 
    secs: 1561682322
    nsecs: 446186805
  frame_id: "ti_mmwave"
point_id: 21
x: 0.50390625
y: 0.53515625
z: 1.37109375
range: 1.65592491627
velocity: 0.0
doppler_bin: 8
bearing: 46.7226638794
intensity: 25.3275432587
---
header: 
  seq: 667868
  stamp: 
    secs: 1561682322
    nsecs: 505137812
  frame_id: "ti_mmwave"
point_id: 0
x: 0.01171875
y: -0.0390625
z: -0.0078125
range: 0.0435769706964
velocity: 0.0
doppler_bin: 8
bearing: -73.3007583618
intensity: 30.6892757416
---
header: 
  seq: 667869
  stamp: 
    secs: 1561682322
    nsecs: 505233941
  frame_id: "ti_mmwave"
point_id: 1
x: 0.017578125
y: -0.080078125
z: -0.0078125
range: 0.0871539413929
velocity: 0.0
doppler_bin: 8
bearing: -77.6192398071
intensity: 31.9284610748
---
header: 
  seq: 667870
  stamp: 
    secs: 1561682322
    nsecs: 505252012
  frame_id: "ti_mmwave"
point_id: 2
x: 0.029296875
y: -0.119140625
z: -0.005859375
range: 0.130730912089
velocity: 0.0
doppler_bin: 8
bearing: -76.1849746704
intensity: 30.1911621094
---
header: 
  seq: 667871
  stamp: 
    secs: 1561682322
    nsecs: 505268051
  frame_id: "ti_mmwave"
point_id: 3
x: 0.056640625
y: -0.154296875
z: 0.00390625
range: 0.174307882786
velocity: 0.0
doppler_bin: 8
bearing: -69.8423843384
intensity: 25.4654273987
---
header: 
  seq: 667872
  stamp: 
    secs: 1561682322
    nsecs: 505284659
  frame_id: "ti_mmwave"
point_id: 4
x: 0.349609375
y: -0.080078125
z: -1.216796875
range: 1.35088610649
velocity: 0.0
doppler_bin: 8
bearing: -12.9010734558
intensity: 21.7609119415
---
header: 
  seq: 667873
  stamp: 
    secs: 1561682322
    nsecs: 505299466
  frame_id: "ti_mmwave"
point_id: 5
x: 0.306640625
y: -0.041015625
z: 1.271484375
range: 1.39446306229
velocity: 0.0
doppler_bin: 8
bearing: -7.6185464859
intensity: 23.1806335449
---
header: 
  seq: 667874
  stamp: 
    secs: 1561682322
    nsecs: 505313454
  frame_id: "ti_mmwave"
point_id: 6
x: 0.3203125
y: -0.04296875
z: 1.310546875
range: 1.43804001808
velocity: 0.0
doppler_bin: 8
bearing: -7.64040660858
intensity: 22.7415790558
---
header: 
  seq: 667875
  stamp: 
    secs: 1561682322
    nsecs: 505326795
  frame_id: "ti_mmwave"
point_id: 7
x: 1.380859375
y: -0.087890625
z: -0.134765625
range: 1.48161697388
velocity: 0.0
doppler_bin: 8
bearing: -3.64191913605
intensity: 25.9106464386
---
header: 
  seq: 667876
  stamp: 
    secs: 1561682322
    nsecs: 505340570
  frame_id: "ti_mmwave"
point_id: 8
x: 1.419921875
y: -0.044921875
z: -0.17578125
range: 1.52519392967
velocity: 0.0
doppler_bin: 8
bearing: -1.81205427647
intensity: 29.5424251556
---
header: 
  seq: 667877
  stamp: 
    secs: 1561682322
    nsecs: 505425478
  frame_id: "ti_mmwave"
point_id: 9
x: 1.458984375
y: -0.091796875
z: -0.181640625
range: 1.56877088547
velocity: 0.0
doppler_bin: 8
bearing: -3.60020971298
intensity: 30.6220588684
---
header: 
  seq: 667878
  stamp: 
    secs: 1561682322
    nsecs: 505441111
  frame_id: "ti_mmwave"
point_id: 10
x: 1.49609375
y: -0.046875
z: -0.220703125
range: 1.61234796047
velocity: 0.0
doppler_bin: 8
bearing: -1.79458093643
intensity: 28.727388382
---
header: 
  seq: 667879
  stamp: 
    secs: 1561682322
    nsecs: 505458516
  frame_id: "ti_mmwave"
point_id: 11
x: 2.546875
y: -0.263671875
z: 1.185546875
range: 3.00681090355
velocity: 0.0
doppler_bin: 8
bearing: -5.91063833237
intensity: 29.4250411987
---
header: 
  seq: 667880
  stamp: 
    secs: 1561682322
    nsecs: 505471936
  frame_id: "ti_mmwave"
point_id: 12
x: 2.603515625
y: -0.267578125
z: 1.16015625
range: 3.05038785934
velocity: 0.0
doppler_bin: 8
bearing: -5.8680100441
intensity: 32.7276954651
---
header: 
  seq: 667881
  stamp: 
    secs: 1561682322
    nsecs: 505484816
  frame_id: "ti_mmwave"
point_id: 13
x: 2.662109375
y: -0.181640625
z: 1.146484375
range: 3.09396481514
velocity: 0.0
doppler_bin: 8
bearing: -3.90334677696
intensity: 31.9145107269
---
header: 
  seq: 667882
  stamp: 
    secs: 1561682322
    nsecs: 505501750
  frame_id: "ti_mmwave"
point_id: 15
x: 0.041015625
y: -0.033203125
z: 0.0625
range: 0.0871539413929
velocity: 0.0
doppler_bin: 8
bearing: -38.9909973145
intensity: 30.0689373016
---
header: 
  seq: 667883
  stamp: 
    secs: 1561682322
    nsecs: 505514953
  frame_id: "ti_mmwave"
point_id: 16
x: 0.052734375
y: -0.04296875
z: 0.1015625
range: 0.130730912089
velocity: 0.0
doppler_bin: 8
bearing: -39.1736602783
intensity: 28.9597473145
---
header: 
  seq: 667884
  stamp: 
    secs: 1561682322
    nsecs: 505528466
  frame_id: "ti_mmwave"
point_id: 18
x: 1.11328125
y: -0.515625
z: 0.3203125
range: 1.35088610649
velocity: 0.0
doppler_bin: 8
bearing: -24.8515853882
intensity: 18.9762706757
---
header: 
  seq: 667885
  stamp: 
    secs: 1561682322
    nsecs: 564281340
  frame_id: "ti_mmwave"
point_id: 0
x: 0.01171875
y: -0.0390625
z: -0.0078125
range: 0.0435769706964
velocity: 0.0
doppler_bin: 8
bearing: -73.3007583618
intensity: 30.6892757416
---
header: 
  seq: 667886
  stamp: 
    secs: 1561682322
    nsecs: 564406922
  frame_id: "ti_mmwave"
point_id: 1
x: 0.017578125
y: -0.080078125
z: -0.0078125
range: 0.0871539413929
velocity: 0.0
doppler_bin: 8
bearing: -77.6192398071
intensity: 31.9312458038
---
header: 
  seq: 667887
  stamp: 
    secs: 1561682322
    nsecs: 564430183
  frame_id: "ti_mmwave"
point_id: 2
x: 0.029296875
y: -0.119140625
z: -0.005859375
range: 0.130730912089
velocity: 0.0
doppler_bin: 8
bearing: -76.1849746704
intensity: 30.1911621094
---
header: 
  seq: 667888
  stamp: 
    secs: 1561682322
    nsecs: 564445002
  frame_id: "ti_mmwave"
point_id: 3
x: 0.056640625
y: -0.154296875
z: 0.005859375
range: 0.174307882786
velocity: 0.0
doppler_bin: 8
bearing: -69.8423843384
intensity: 25.4654273987
---
header: 
  seq: 667889
  stamp: 
    secs: 1561682322
    nsecs: 564458829
  frame_id: "ti_mmwave"
point_id: 4
x: 0.34765625
y: -0.080078125
z: -1.216796875
range: 1.35088610649
velocity: 0.0
doppler_bin: 8
bearing: -12.9711065292
intensity: 21.7897701263
---
header: 
  seq: 667890
  stamp: 
    secs: 1561682322
    nsecs: 564472590
  frame_id: "ti_mmwave"
point_id: 5
x: 0.328125
y: -0.041015625
z: 1.267578125
range: 1.39446306229
velocity: 0.0
doppler_bin: 8
bearing: -7.12501621246
intensity: 23.1175384521
---
header: 
  seq: 667891
  stamp: 
    secs: 1561682322
    nsecs: 564486430
  frame_id: "ti_mmwave"
point_id: 6
x: 0.71875
y: -0.0
z: 1.142578125
range: 1.43804001808
velocity: 0.0
doppler_bin: 8
bearing: -0.0
intensity: 21.4612808228
---
header: 
  seq: 667892
  stamp: 
    secs: 1561682322
    nsecs: 564502658
  frame_id: "ti_mmwave"
point_id: 7
x: 0.96484375
y: -0.0
z: 1.001953125
range: 1.48161697388
velocity: 0.0
doppler_bin: 8
bearing: -0.0
intensity: 24.5178642273
---
header: 
  seq: 667893
  stamp: 
    secs: 1561682322
    nsecs: 564581355
  frame_id: "ti_mmwave"
point_id: 8
x: 1.359375
y: -0.044921875
z: -0.44921875
range: 1.52519392967
velocity: 0.0
doppler_bin: 8
bearing: -1.89270627499
intensity: 28.325088501
---
header: 
  seq: 667894
  stamp: 
    secs: 1561682322
    nsecs: 564597594
  frame_id: "ti_mmwave"
point_id: 9
x: 1.431640625
y: -0.046875
z: -0.345703125
range: 1.56877088547
velocity: 0.0
doppler_bin: 8
bearing: -1.87531721592
intensity: 29.4349460602
---
header: 
  seq: 667895
  stamp: 
    secs: 1561682322
    nsecs: 564613305
  frame_id: "ti_mmwave"
point_id: 10
x: 1.478515625
y: -0.046875
z: -0.3203125
range: 1.61234796047
velocity: 0.0
doppler_bin: 8
bearing: -1.81590247154
intensity: 27.8175544739
---
header: 
  seq: 667896
  stamp: 
    secs: 1561682322
    nsecs: 564626650
  frame_id: "ti_mmwave"
point_id: 11
x: 2.54296875
y: -0.263671875
z: 1.193359375
range: 3.00681090355
velocity: 0.0
doppler_bin: 8
bearing: -5.91965341568
intensity: 29.4051647186
---
header: 
  seq: 667897
  stamp: 
    secs: 1561682322
    nsecs: 564641275
  frame_id: "ti_mmwave"
point_id: 12
x: 2.603515625
y: -0.267578125
z: 1.162109375
range: 3.05038785934
velocity: 0.0
doppler_bin: 8
bearing: -5.8680100441
intensity: 32.7091178894
---
header: 
  seq: 667898
  stamp: 
    secs: 1561682322
    nsecs: 564655248
  frame_id: "ti_mmwave"
point_id: 13
x: 2.658203125
y: -0.181640625
z: 1.154296875
range: 3.09396481514
velocity: 0.0
doppler_bin: 8
bearing: -3.90906453133
intensity: 31.9479179382
---
header: 
  seq: 667899
  stamp: 
    secs: 1561682322
    nsecs: 564704808
  frame_id: "ti_mmwave"
point_id: 15
x: 0.041015625
y: -0.033203125
z: 0.0625
range: 0.0871539413929
velocity: 0.0
doppler_bin: 8
bearing: -38.9909973145
intensity: 30.081741333
---
header: 
  seq: 667900
  stamp: 
    secs: 1561682322
    nsecs: 564719131
  frame_id: "ti_mmwave"
point_id: 16
x: 0.052734375
y: -0.04296875
z: 0.1015625
range: 0.130730912089
velocity: 0.0
doppler_bin: 8
bearing: -39.1736602783
intensity: 28.9652614594
---
header: 
  seq: 667901
  stamp: 
    secs: 1561682322
    nsecs: 564736121
  frame_id: "ti_mmwave"
point_id: 18
x: 1.1171875
y: -0.515625
z: 0.306640625
range: 1.35088610649
velocity: 0.0
doppler_bin: 8
bearing: -24.7751407623
intensity: 19.0308990479
---
header: 
  seq: 667902
  stamp: 
    secs: 1561682322
    nsecs: 565496670
  frame_id: "ti_mmwave"
point_id: 0
x: 0.01171875
y: -0.0390625
z: -0.0078125
range: 0.0435769706964
velocity: 0.0
doppler_bin: 8
bearing: -73.3007583618
intensity: 30.6855697632
---
header: 
  seq: 667903
  stamp: 
    secs: 1561682322
    nsecs: 565538218
  frame_id: "ti_mmwave"
point_id: 1
x: 0.017578125
y: -0.080078125
z: -0.0078125
range: 0.0871539413929
velocity: 0.0
doppler_bin: 8
bearing: -77.6192398071
intensity: 31.9284610748
---
header: 
  seq: 667904
  stamp: 
    secs: 1561682322
    nsecs: 565547965
  frame_id: "ti_mmwave"
point_id: 2
x: 0.029296875
y: -0.119140625
z: -0.005859375
range: 0.130730912089
velocity: 0.0
doppler_bin: 8
bearing: -76.1849746704
intensity: 30.1953163147
---
header: 
  seq: 667905
  stamp: 
    secs: 1561682322
    nsecs: 565558329
  frame_id: "ti_mmwave"
point_id: 3
x: 0.056640625
y: -0.154296875
z: 0.005859375
range: 0.174307882786
velocity: 0.0
doppler_bin: 8
bearing: -69.8423843384
intensity: 25.4777469635
---
header: 
  seq: 667906
  stamp: 
    secs: 1561682322
    nsecs: 565566642
  frame_id: "ti_mmwave"
point_id: 4
x: 0.33984375
y: -0.080078125
z: -1.21875
range: 1.35088610649
velocity: 0.0
doppler_bin: 8
bearing: -13.2588720322
intensity: 21.7609119415
---
header: 
  seq: 667907
  stamp: 
    secs: 1561682322
    nsecs: 565574930
  frame_id: "ti_mmwave"
point_id: 5
x: 0.326171875
y: -0.041015625
z: 1.267578125
range: 1.39446306229
velocity: 0.0
doppler_bin: 8
bearing: -7.16723871231
intensity: 23.1597042084
---
header: 
  seq: 667908
  stamp: 
    secs: 1561682322
    nsecs: 565583699
  frame_id: "ti_mmwave"
point_id: 6
x: 0.84375
y: -0.04296875
z: 1.052734375
range: 1.43804001808
velocity: 0.0
doppler_bin: 8
bearing: -2.91532206535
intensity: 21.7897701263
---
header: 
  seq: 667909
  stamp: 
    secs: 1561682322
    nsecs: 565591697
  frame_id: "ti_mmwave"
point_id: 7
x: 0.3828125
y: -0.04296875
z: 1.3359375
range: 1.48161697388
velocity: 0.0
doppler_bin: 8
bearing: -6.40435266495
intensity: 24.6239795685
---
header: 
  seq: 667910
  stamp: 
    secs: 1561682322
    nsecs: 565600158
  frame_id: "ti_mmwave"
point_id: 8
x: 1.205078125
y: -0.044921875
z: -0.771484375
range: 1.52519392967
velocity: 0.0
doppler_bin: 8
bearing: -2.13483476639
intensity: 27.1264972687
---
header: 
  seq: 667911
  stamp: 
    secs: 1561682322
    nsecs: 565611710
  frame_id: "ti_mmwave"
point_id: 9
x: 1.35546875
y: -0.046875
z: -0.57421875
range: 1.56877088547
velocity: 0.0
doppler_bin: 8
bearing: -1.98062098026
intensity: 26.812412262
---
header: 
  seq: 667912
  stamp: 
    secs: 1561682322
    nsecs: 565696396
  frame_id: "ti_mmwave"
point_id: 10
x: 2.544921875
y: -0.263671875
z: 1.189453125
range: 3.00681090355
velocity: 0.0
doppler_bin: 8
bearing: -5.91514253616
intensity: 29.4694328308
---
header: 
  seq: 667913
  stamp: 
    secs: 1561682322
    nsecs: 565711449
  frame_id: "ti_mmwave"
point_id: 11
x: 2.6015625
y: -0.267578125
z: 1.1640625
range: 3.05038785934
velocity: 0.0
doppler_bin: 8
bearing: -5.87238502502
intensity: 32.7323265076
---
header: 
  seq: 667914
  stamp: 
    secs: 1561682322
    nsecs: 565722485
  frame_id: "ti_mmwave"
point_id: 12
x: 2.66015625
y: -0.181640625
z: 1.15234375
range: 3.09396481514
velocity: 0.0
doppler_bin: 8
bearing: -3.90620398521
intensity: 31.9810695648
---
header: 
  seq: 667915
  stamp: 
    secs: 1561682322
    nsecs: 565736873
  frame_id: "ti_mmwave"
point_id: 14
x: 0.041015625
y: -0.033203125
z: 0.0625
range: 0.0871539413929
velocity: 0.0
doppler_bin: 8
bearing: -38.9909973145
intensity: 30.0774784088
---
header: 
  seq: 667916
  stamp: 
    secs: 1561682322
    nsecs: 565748438
  frame_id: "ti_mmwave"
point_id: 15
x: 0.052734375
y: -0.04296875
z: 0.1015625
range: 0.130730912089
velocity: 0.0
doppler_bin: 8
bearing: -39.1736602783
intensity: 28.9652614594
---
header: 
  seq: 667917
  stamp: 
    secs: 1561682322
    nsecs: 565762313
  frame_id: "ti_mmwave"
point_id: 17
x: 1.1171875
y: -0.515625
z: 0.306640625
range: 1.35088610649
velocity: 0.0
doppler_bin: 8
bearing: -24.7751407623
intensity: 18.864906311
---
header: 
  seq: 667918
  stamp: 
    secs: 1561682322
    nsecs: 624191556
  frame_id: "ti_mmwave"
point_id: 0
x: 0.01171875
y: -0.0390625
z: -0.0078125
range: 0.0435769706964
velocity: 0.0
doppler_bin: 8
bearing: -73.3007583618
intensity: 30.6892757416
---
header: 
  seq: 667919
  stamp: 
    secs: 1561682322
    nsecs: 624269960
  frame_id: "ti_mmwave"
point_id: 1
x: 0.017578125
y: -0.080078125
z: -0.0078125
range: 0.0871539413929
velocity: 0.0
doppler_bin: 8
bearing: -77.6192398071
intensity: 31.9340286255
---
header: 
  seq: 667920
  stamp: 
    secs: 1561682322
    nsecs: 624281686
  frame_id: "ti_mmwave"
point_id: 2
x: 0.029296875
y: -0.119140625
z: -0.005859375
range: 0.130730912089
velocity: 0.0
doppler_bin: 8
bearing: -76.1849746704
intensity: 30.1953163147
---
header: 
  seq: 667921
  stamp: 
    secs: 1561682322
    nsecs: 624290399
  frame_id: "ti_mmwave"
point_id: 3
x: 0.056640625
y: -0.154296875
z: 0.005859375
range: 0.174307882786
velocity: 0.0
doppler_bin: 8
bearing: -69.8423843384
intensity: 25.4654273987
---
header: 
  seq: 667922
  stamp: 
    secs: 1561682322
    nsecs: 624299038
  frame_id: "ti_mmwave"
point_id: 4
x: 0.35546875
y: -0.080078125
z: -1.21484375
range: 1.35088610649
velocity: 0.0
doppler_bin: 8
bearing: -12.6953649521
intensity: 21.8469142914
---
header: 
  seq: 667923
  stamp: 
    secs: 1561682322
    nsecs: 624308277
  frame_id: "ti_mmwave"
point_id: 5
x: 0.310546875
y: -0.041015625
z: 1.271484375
range: 1.39446306229
velocity: 0.0
doppler_bin: 8
bearing: -7.52382040024
intensity: 23.2221927643
---
header: 
  seq: 667924
  stamp: 
    secs: 1561682322
    nsecs: 624321323
  frame_id: "ti_mmwave"
point_id: 6
x: 0.654296875
y: -0.04296875
z: 1.1796875
range: 1.43804001808
velocity: 0.0
doppler_bin: 8
bearing: -3.75731277466
intensity: 23.0535144806
---
header: 
  seq: 667925
  stamp: 
    secs: 1561682322
    nsecs: 624336346
  frame_id: "ti_mmwave"
point_id: 7
x: 1.33203125
y: -0.087890625
z: -0.388671875
range: 1.48161697388
velocity: 0.0
doppler_bin: 8
bearing: -3.77504086494
intensity: 26.4542236328
---
header: 
  seq: 667926
  stamp: 
    secs: 1561682322
    nsecs: 624504735
  frame_id: "ti_mmwave"
point_id: 8
x: 1.369140625
y: -0.08984375
z: -0.412109375
range: 1.52519392967
velocity: 0.0
doppler_bin: 8
bearing: -3.75439739227
intensity: 28.6033802032
---
header: 
  seq: 667927
  stamp: 
    secs: 1561682322
    nsecs: 624535490
  frame_id: "ti_mmwave"
point_id: 9
x: 1.400390625
y: -0.046875
z: -0.455078125
range: 1.56877088547
velocity: 0.0
doppler_bin: 8
bearing: -1.91713440418
intensity: 26.3748970032
---
header: 
  seq: 667928
  stamp: 
    secs: 1561682322
    nsecs: 624547742
  frame_id: "ti_mmwave"
point_id: 10
x: 2.537109375
y: -0.263671875
z: 1.208984375
range: 3.00681090355
velocity: 0.0
doppler_bin: 8
bearing: -5.93322753906
intensity: 29.4001808167
---
header: 
  seq: 667929
  stamp: 
    secs: 1561682322
    nsecs: 624559990
  frame_id: "ti_mmwave"
point_id: 11
x: 2.6015625
y: -0.267578125
z: 1.1640625
range: 3.05038785934
velocity: 0.0
doppler_bin: 8
bearing: -5.87238502502
intensity: 32.7461967468
---
header: 
  seq: 667930
  stamp: 
    secs: 1561682322
    nsecs: 624571678
  frame_id: "ti_mmwave"
point_id: 12
x: 2.662109375
y: -0.181640625
z: 1.1484375
range: 3.09396481514
velocity: 0.0
doppler_bin: 8
bearing: -3.90334677696
intensity: 31.9506893158
---
header: 
  seq: 667931
  stamp: 
    secs: 1561682322
    nsecs: 624644657
  frame_id: "ti_mmwave"
point_id: 14
x: 0.041015625
y: -0.033203125
z: 0.0625
range: 0.0871539413929
velocity: 0.0
doppler_bin: 8
bearing: -38.9909973145
intensity: 30.081741333
---
header: 
  seq: 667932
  stamp: 
    secs: 1561682322
    nsecs: 624665694
  frame_id: "ti_mmwave"
point_id: 15
x: 0.052734375
y: -0.04296875
z: 0.1015625
range: 0.130730912089
velocity: 0.0
doppler_bin: 8
bearing: -39.1736602783
intensity: 28.9652614594
---
header: 
  seq: 667933
  stamp: 
    secs: 1561682322
    nsecs: 625510185
  frame_id: "ti_mmwave"
point_id: 0
x: 0.01171875
y: -0.0390625
z: -0.0078125
range: 0.0435769706964
velocity: 0.0
doppler_bin: 8
bearing: -73.3007583618
intensity: 30.678144455
---
header: 
  seq: 667934
  stamp: 
    secs: 1561682322
    nsecs: 625545140
  frame_id: "ti_mmwave"
point_id: 1
x: 0.017578125
y: -0.080078125
z: -0.0078125
range: 0.0871539413929
velocity: 0.0
doppler_bin: 8
bearing: -77.6192398071
intensity: 31.9284610748
---
header: 
  seq: 667935
  stamp: 
    secs: 1561682322
    nsecs: 625557294
  frame_id: "ti_mmwave"
point_id: 2
x: 0.029296875
y: -0.119140625
z: -0.005859375
range: 0.130730912089
velocity: 0.0
doppler_bin: 8
bearing: -76.1849746704
intensity: 30.1911621094
---
header: 
  seq: 667936
  stamp: 
    secs: 1561682322
    nsecs: 625566590
  frame_id: "ti_mmwave"
point_id: 3
x: 0.056640625
y: -0.154296875
z: 0.005859375
range: 0.174307882786
velocity: 0.0
doppler_bin: 8
bearing: -69.8423843384
intensity: 25.4654273987
---
header: 
  seq: 667937
  stamp: 
    secs: 1561682322
    nsecs: 625575163
  frame_id: "ti_mmwave"
point_id: 4
x: 0.328125
y: -0.080078125
z: -1.22265625
range: 1.35088610649
velocity: 0.0
doppler_bin: 8
bearing: -13.7148113251
intensity: 21.8469142914
---
header: 
  seq: 667938
  stamp: 
    secs: 1561682322
    nsecs: 625584598
  frame_id: "ti_mmwave"
point_id: 5
x: 0.3359375
y: -0.041015625
z: 1.265625
range: 1.39446306229
velocity: 0.0
doppler_bin: 8
bearing: -6.96096277237
intensity: 23.138671875
---
header: 
  seq: 667939
  stamp: 
    secs: 1561682322
    nsecs: 625593106
  frame_id: "ti_mmwave"
point_id: 6
x: 0.126953125
y: -0.04296875
z: -1.34375
range: 1.43804001808
velocity: 0.0
doppler_bin: 8
bearing: -18.6989841461
intensity: 21.9865703583
---
header: 
  seq: 667940
  stamp: 
    secs: 1561682322
    nsecs: 625653474
  frame_id: "ti_mmwave"
point_id: 7
x: 1.30078125
y: -0.04296875
z: -0.48828125
range: 1.48161697388
velocity: 0.0
doppler_bin: 8
bearing: -1.89196538925
intensity: 25.5990657806
---
header: 
  seq: 667941
  stamp: 
    secs: 1561682322
    nsecs: 625662444
  frame_id: "ti_mmwave"
point_id: 8
x: 1.3984375
y: -0.08984375
z: -0.291015625
range: 1.52519392967
velocity: 0.0
doppler_bin: 8
bearing: -3.6759622097
intensity: 31.0991592407
---
header: 
  seq: 667942
  stamp: 
    secs: 1561682322
    nsecs: 625671003
  frame_id: "ti_mmwave"
point_id: 9
x: 1.44921875
y: -0.138671875
z: -0.21875
range: 1.56877088547
velocity: 0.0
doppler_bin: 8
bearing: -5.46583890915
intensity: 33.2056159973
---
header: 
  seq: 667943
  stamp: 
    secs: 1561682322
    nsecs: 625680705
  frame_id: "ti_mmwave"
point_id: 10
x: 1.5
y: -0.09375
z: -0.1796875
range: 1.61234796047
velocity: 0.0
doppler_bin: 8
bearing: -3.57633447647
intensity: 32.0002937317
---
header: 
  seq: 667944
  stamp: 
    secs: 1561682322
    nsecs: 625688763
  frame_id: "ti_mmwave"
point_id: 11
x: 1.53515625
y: -0.09765625
