header: 
  seq: 621692
  stamp: 
    secs: 1561682248
    nsecs: 164289329
  frame_id: "ti_mmwave"
point_id: 0
x: 0.01171875
y: -0.0390625
z: -0.0078125
range: 0.0435769706964
velocity: 0.0
doppler_bin: 8
bearing: -73.3007583618
intensity: 30.700378418
---
header: 
  seq: 621693
  stamp: 
    secs: 1561682248
    nsecs: 164363593
  frame_id: "ti_mmwave"
point_id: 1
x: 0.017578125
y: -0.080078125
z: -0.0078125
range: 0.0871539413929
velocity: 0.0
doppler_bin: 8
bearing: -77.6192398071
intensity: 31.9395904541
---
header: 
  seq: 621694
  stamp: 
    secs: 1561682248
    nsecs: 164374700
  frame_id: "ti_mmwave"
point_id: 2
x: 0.029296875
y: -0.119140625
z: -0.005859375
range: 0.130730912089
velocity: 0.0
doppler_bin: 8
bearing: -76.1849746704
intensity: 30.1994667053
---
header: 
  seq: 621695
  stamp: 
    secs: 1561682248
    nsecs: 164414044
  frame_id: "ti_mmwave"
point_id: 3
x: 0.056640625
y: -0.154296875
z: 0.005859375
range: 0.174307882786
velocity: 0.0
doppler_bin: 8
bearing: -69.8423843384
intensity: 25.4777469635
---
header: 
  seq: 621696
  stamp: 
    secs: 1561682248
    nsecs: 164427886
  frame_id: "ti_mmwave"
point_id: 4
x: 0.361328125
y: -0.080078125
z: -1.212890625
range: 1.35088610649
velocity: 0.0
doppler_bin: 8
bearing: -12.4960107803
intensity: 21.8184356689
---
header: 
  seq: 621697
  stamp: 
    secs: 1561682248
    nsecs: 164436355
  frame_id: "ti_mmwave"
point_id: 5
x: 0.28515625
y: -0.041015625
z: 1.27734375
range: 1.39446306229
velocity: 0.0
doppler_bin: 8
bearing: -8.18503570557
intensity: 23.1806335449
---
header: 
  seq: 621698
  stamp: 
    secs: 1561682248
    nsecs: 164444817
  frame_id: "ti_mmwave"
point_id: 6
x: 0.482421875
y: -0.04296875
z: 1.259765625
range: 1.43804001808
velocity: 0.0
doppler_bin: 8
bearing: -5.08983659744
intensity: 21.9312458038
---
header: 
  seq: 621699
  stamp: 
    secs: 1561682248
    nsecs: 164452614
  frame_id: "ti_mmwave"
point_id: 7
x: 1.443359375
y: -0.275390625
z: 0.083984375
range: 1.56877088547
velocity: 0.0
doppler_bin: 8
bearing: -10.8021097183
intensity: 24.7129173279
---
header: 
  seq: 621700
  stamp: 
    secs: 1561682248
    nsecs: 164460442
  frame_id: "ti_mmwave"
point_id: 8
x: 1.478515625
y: -0.283203125
z: -0.15234375
range: 1.61234796047
velocity: 0.0
doppler_bin: 8
bearing: -10.8434123993
intensity: 28.2672252655
---
header: 
  seq: 621701
  stamp: 
    secs: 1561682248
    nsecs: 164553121
  frame_id: "ti_mmwave"
point_id: 9
x: 1.52734375
y: -0.193359375
z: -0.212890625
range: 1.65592491627
velocity: 0.0
doppler_bin: 8
bearing: -7.21517467499
intensity: 28.8874092102
---
header: 
  seq: 621702
  stamp: 
    secs: 1561682248
    nsecs: 164564584
  frame_id: "ti_mmwave"
point_id: 10
x: 1.587890625
y: -0.150390625
z: 0.013671875
range: 1.69950187206
velocity: 0.0
doppler_bin: 8
bearing: -5.41039848328
intensity: 27.1600341797
---
header: 
  seq: 621703
  stamp: 
    secs: 1561682248
    nsecs: 164575692
  frame_id: "ti_mmwave"
point_id: 11
x: 2.560546875
y: -0.263671875
z: 1.15625
range: 3.00681090355
velocity: 0.0
doppler_bin: 8
bearing: -5.87930107117
intensity: 29.4299964905
---
header: 
  seq: 621704
  stamp: 
    secs: 1561682248
    nsecs: 164583695
  frame_id: "ti_mmwave"
point_id: 12
x: 2.611328125
y: -0.267578125
z: 1.146484375
range: 3.05038785934
velocity: 0.0
doppler_bin: 8
bearing: -5.85057687759
intensity: 32.7137680054
---
header: 
  seq: 621705
  stamp: 
    secs: 1561682248
    nsecs: 164593772
  frame_id: "ti_mmwave"
point_id: 13
x: 2.66796875
y: -0.181640625
z: 1.1328125
range: 3.09396481514
velocity: 0.0
doppler_bin: 8
bearing: -3.89480042458
intensity: 31.9368095398
---
header: 
  seq: 621706
  stamp: 
    secs: 1561682248
    nsecs: 164608455
  frame_id: "ti_mmwave"
point_id: 15
x: 0.041015625
y: -0.033203125
z: 0.0625
range: 0.0871539413929
velocity: 0.0
doppler_bin: 8
bearing: -38.9909973145
intensity: 30.081741333
---
header: 
  seq: 621707
  stamp: 
    secs: 1561682248
    nsecs: 164619919
  frame_id: "ti_mmwave"
point_id: 16
x: 0.052734375
y: -0.04296875
z: 0.1015625
range: 0.130730912089
velocity: 0.0
doppler_bin: 8
bearing: -39.1736602783
intensity: 28.9652614594
---
header: 
  seq: 621708
  stamp: 
    secs: 1561682248
    nsecs: 164634110
  frame_id: "ti_mmwave"
point_id: 18
x: 1.119140625
y: -0.515625
z: 0.298828125
range: 1.35088610649
velocity: 0.0
doppler_bin: 8
bearing: -24.7370834351
intensity: 18.864906311
---
header: 
  seq: 621709
  stamp: 
    secs: 1561682248
    nsecs: 165499184
  frame_id: "ti_mmwave"
point_id: 0
x: 0.01171875
y: -0.0390625
z: -0.0078125
range: 0.0435769706964
velocity: 0.0
doppler_bin: 8
bearing: -73.3007583618
intensity: 30.6929798126
---
header: 
  seq: 621710
  stamp: 
    secs: 1561682248
    nsecs: 165563151
  frame_id: "ti_mmwave"
point_id: 1
x: 0.017578125
y: -0.080078125
z: -0.0078125
range: 0.0871539413929
velocity: 0.0
doppler_bin: 8
bearing: -77.6192398071
intensity: 31.9368095398
---
header: 
  seq: 621711
  stamp: 
    secs: 1561682248
    nsecs: 165585484
  frame_id: "ti_mmwave"
point_id: 2
x: 0.029296875
y: -0.119140625
z: -0.005859375
range: 0.130730912089
velocity: 0.0
doppler_bin: 8
bearing: -76.1849746704
intensity: 30.1953163147
---
header: 
  seq: 621712
  stamp: 
    secs: 1561682248
    nsecs: 165601401
  frame_id: "ti_mmwave"
point_id: 3
x: 0.056640625
y: -0.154296875
z: 0.005859375
range: 0.174307882786
velocity: 0.0
doppler_bin: 8
bearing: -69.8423843384
intensity: 25.4654273987
---
header: 
  seq: 621713
  stamp: 
    secs: 1561682248
    nsecs: 165632652
  frame_id: "ti_mmwave"
point_id: 4
x: 0.2890625
y: -0.080078125
z: -1.232421875
range: 1.35088610649
velocity: 0.0
doppler_bin: 8
bearing: -15.48416996
intensity: 21.875207901
---
header: 
  seq: 621714
  stamp: 
    secs: 1561682248
    nsecs: 165792265
  frame_id: "ti_mmwave"
point_id: 5
x: 0.32421875
y: -0.041015625
z: 1.267578125
range: 1.39446306229
velocity: 0.0
doppler_bin: 8
bearing: -7.20996236801
intensity: 23.1806335449
---
header: 
  seq: 621715
  stamp: 
    secs: 1561682248
    nsecs: 165822123
  frame_id: "ti_mmwave"
point_id: 6
x: 0.439453125
y: -0.04296875
z: 1.275390625
range: 1.43804001808
velocity: 0.0
doppler_bin: 8
bearing: -5.58450222015
intensity: 21.8469142914
---
header: 
  seq: 621716
  stamp: 
    secs: 1561682248
    nsecs: 165850360
  frame_id: "ti_mmwave"
point_id: 7
x: 1.455078125
y: -0.138671875
z: -0.17578125
range: 1.56877088547
velocity: 0.0
doppler_bin: 8
bearing: -5.44396114349
intensity: 27.5891189575
---
header: 
  seq: 621717
  stamp: 
    secs: 1561682248
    nsecs: 165913938
  frame_id: "ti_mmwave"
point_id: 8
x: 1.494140625
y: -0.142578125
z: -0.201171875
range: 1.61234796047
velocity: 0.0
doppler_bin: 8
bearing: -5.45093536377
intensity: 30.6595306396
---
header: 
  seq: 621718
  stamp: 
    secs: 1561682248
    nsecs: 165930195
  frame_id: "ti_mmwave"
point_id: 9
x: 1.529296875
y: -0.193359375
z: -0.203125
range: 1.65592491627
velocity: 0.0
doppler_bin: 8
bearing: -7.20605707169
intensity: 30.0259799957
---
header: 
  seq: 621719
  stamp: 
    secs: 1561682248
    nsecs: 165948080
  frame_id: "ti_mmwave"
point_id: 10
x: 1.57421875
y: -0.25
z: -0.083984375
range: 1.69950187206
velocity: 0.0
doppler_bin: 8
bearing: -9.02372455597
intensity: 26.6464195251
---
header: 
  seq: 621720
  stamp: 
    secs: 1561682248
    nsecs: 165972290
  frame_id: "ti_mmwave"
point_id: 11
x: 2.5546875
y: -0.263671875
z: 1.171875
range: 3.00681090355
velocity: 0.0
doppler_bin: 8
bearing: -5.89269018173
intensity: 29.4101428986
---
header: 
  seq: 621721
  stamp: 
    secs: 1561682248
    nsecs: 166029938
  frame_id: "ti_mmwave"
point_id: 12
x: 2.603515625
y: -0.267578125
z: 1.162109375
range: 3.05038785934
velocity: 0.0
doppler_bin: 8
bearing: -5.8680100441
intensity: 32.6927947998
---
header: 
  seq: 621722
  stamp: 
    secs: 1561682248
    nsecs: 166047413
  frame_id: "ti_mmwave"
point_id: 13
x: 2.66015625
y: -0.181640625
z: 1.150390625
range: 3.09396481514
velocity: 0.0
doppler_bin: 8
bearing: -3.90620398521
intensity: 31.9506893158
---
header: 
  seq: 621723
  stamp: 
    secs: 1561682248
    nsecs: 166065972
  frame_id: "ti_mmwave"
point_id: 15
x: 0.041015625
y: -0.033203125
z: 0.0625
range: 0.0871539413929
velocity: 0.0
doppler_bin: 8
bearing: -38.9909973145
intensity: 30.0860023499
---
header: 
  seq: 621724
  stamp: 
    secs: 1561682248
    nsecs: 166079002
  frame_id: "ti_mmwave"
point_id: 16
x: 0.052734375
y: -0.04296875
z: 0.1015625
range: 0.130730912089
velocity: 0.0
doppler_bin: 8
bearing: -39.1736602783
intensity: 28.9652614594
---
header: 
  seq: 621725
  stamp: 
    secs: 1561682248
    nsecs: 166106174
  frame_id: "ti_mmwave"
point_id: 18
x: 1.12109375
y: -0.515625
z: 0.294921875
range: 1.35088610649
velocity: 0.0
doppler_bin: 8
bearing: -24.6991329193
intensity: 18.9762706757
---
header: 
  seq: 621726
  stamp: 
    secs: 1561682248
    nsecs: 224198569
  frame_id: "ti_mmwave"
point_id: 0
x: 0.01171875
y: -0.0390625
z: -0.0078125
range: 0.0435769706964
velocity: 0.0
doppler_bin: 8
bearing: -73.3007583618
intensity: 30.700378418
---
header: 
  seq: 621727
  stamp: 
    secs: 1561682248
    nsecs: 224279111
  frame_id: "ti_mmwave"
point_id: 1
x: 0.017578125
y: -0.080078125
z: -0.0078125
range: 0.0871539413929
velocity: 0.0
doppler_bin: 8
bearing: -77.6192398071
intensity: 31.9395904541
---
header: 
  seq: 621728
  stamp: 
    secs: 1561682248
    nsecs: 224300665
  frame_id: "ti_mmwave"
point_id: 2
x: 0.029296875
y: -0.119140625
z: -0.005859375
range: 0.130730912089
velocity: 0.0
doppler_bin: 8
bearing: -76.1849746704
intensity: 30.1994667053
---
header: 
  seq: 621729
  stamp: 
    secs: 1561682248
    nsecs: 224316253
  frame_id: "ti_mmwave"
point_id: 3
x: 0.056640625
y: -0.154296875
z: 0.005859375
range: 0.174307882786
velocity: 0.0
doppler_bin: 8
bearing: -69.8423843384
intensity: 25.4777469635
---
header: 
  seq: 621730
  stamp: 
    secs: 1561682248
    nsecs: 224328736
  frame_id: "ti_mmwave"
point_id: 4
x: 0.314453125
y: -0.080078125
z: -1.2265625
range: 1.35088610649
velocity: 0.0
doppler_bin: 8
bearing: -14.2871713638
intensity: 21.9033164978
---
header: 
  seq: 621731
  stamp: 
    secs: 1561682248
    nsecs: 224352498
  frame_id: "ti_mmwave"
point_id: 5
x: 0.33203125
y: -0.041015625
z: 1.265625
range: 1.39446306229
velocity: 0.0
doppler_bin: 8
bearing: -7.04203891754
intensity: 23.1597042084
---
header: 
  seq: 621732
  stamp: 
    secs: 1561682248
    nsecs: 224371140
  frame_id: "ti_mmwave"
point_id: 6
x: 0.466796875
y: -0.04296875
z: 1.265625
range: 1.43804001808
velocity: 0.0
doppler_bin: 8
bearing: -5.25926733017
intensity: 21.9312458038
---
header: 
  seq: 621733
  stamp: 
    secs: 1561682248
    nsecs: 224484429
  frame_id: "ti_mmwave"
point_id: 7
x: 1.42578125
y: -0.08984375
z: -0.09765625
range: 1.52519392967
velocity: 0.0
doppler_bin: 8
bearing: -3.60565137863
intensity: 25.1719589233
---
header: 
  seq: 621734
  stamp: 
    secs: 1561682248
    nsecs: 224500657
  frame_id: "ti_mmwave"
point_id: 8
x: 1.4609375
y: -0.138671875
z: -0.119140625
range: 1.56877088547
velocity: 0.0
doppler_bin: 8
bearing: -5.4222574234
intensity: 28.4385547638
---
header: 
  seq: 621735
  stamp: 
    secs: 1561682248
    nsecs: 224514486
  frame_id: "ti_mmwave"
point_id: 9
x: 1.494140625
y: -0.142578125
z: -0.201171875
range: 1.61234796047
velocity: 0.0
doppler_bin: 8
bearing: -5.45093536377
intensity: 30.0216598511
---
header: 
  seq: 621736
  stamp: 
    secs: 1561682248
    nsecs: 224527698
  frame_id: "ti_mmwave"
point_id: 10
x: 1.521484375
y: -0.146484375
z: -0.279296875
range: 1.65592491627
velocity: 0.0
doppler_bin: 8
bearing: -5.49933195114
intensity: 29.5712814331
---
header: 
  seq: 621737
  stamp: 
    secs: 1561682248
    nsecs: 224539194
  frame_id: "ti_mmwave"
point_id: 11
x: 1.572265625
y: -0.05078125
z: -0.267578125
range: 1.69950187206
velocity: 0.0
doppler_bin: 8
bearing: -1.84990382195
intensity: 26.812412262
---
header: 
  seq: 621738
  stamp: 
    secs: 1561682248
    nsecs: 224550928
  frame_id: "ti_mmwave"
point_id: 12
x: 2.57421875
y: -0.263671875
z: 1.125
range: 3.00681090355
velocity: 0.0
doppler_bin: 8
bearing: -5.84829235077
intensity: 29.4448261261
---
header: 
  seq: 621739
  stamp: 
    secs: 1561682248
    nsecs: 224562455
  frame_id: "ti_mmwave"
point_id: 13
x: 2.61328125
y: -0.267578125
z: 1.138671875
range: 3.05038785934
velocity: 0.0
doppler_bin: 8
bearing: -5.84623432159
intensity: 32.7276954651
---
header: 
  seq: 621740
  stamp: 
    secs: 1561682248
    nsecs: 224573843
  frame_id: "ti_mmwave"
point_id: 14
x: 2.66796875
y: -0.181640625
z: 1.134765625
range: 3.09396481514
velocity: 0.0
doppler_bin: 8
bearing: -3.89480042458
intensity: 31.9368095398
---
header: 
  seq: 621741
  stamp: 
    secs: 1561682248
    nsecs: 224588623
  frame_id: "ti_mmwave"
point_id: 16
x: 0.041015625
y: -0.033203125
z: 0.0625
range: 0.0871539413929
velocity: 0.0
doppler_bin: 8
bearing: -38.9909973145
intensity: 30.081741333
---
header: 
  seq: 621742
  stamp: 
    secs: 1561682248
    nsecs: 224597027
  frame_id: "ti_mmwave"
point_id: 17
x: 0.052734375
y: -0.04296875
z: 0.1015625
range: 0.130730912089
velocity: 0.0
doppler_bin: 8
bearing: -39.1736602783
intensity: 28.9652614594
---
header: 
  seq: 621743
  stamp: 
    secs: 1561682248
    nsecs: 224624948
  frame_id: "ti_mmwave"
point_id: 19
x: 1.115234375
y: -0.515625
z: 0.31640625
range: 1.35088610649
velocity: 0.0
doppler_bin: 8
bearing: -24.8133087158
intensity: 19.0308990479
---
header: 
  seq: 621744
  stamp: 
    secs: 1561682248
    nsecs: 225712966
  frame_id: "ti_mmwave"
point_id: 0
x: 0.01171875
y: -0.0390625
z: -0.0078125
range: 0.0435769706964
velocity: 0.0
doppler_bin: 8
bearing: -73.3007583618
intensity: 30.700378418
---
header: 
  seq: 621745
  stamp: 
    secs: 1561682248
    nsecs: 225771563
  frame_id: "ti_mmwave"
point_id: 1
x: 0.017578125
y: -0.080078125
z: -0.0078125
range: 0.0871539413929
velocity: 0.0
doppler_bin: 8
bearing: -77.6192398071
intensity: 31.9368095398
---
header: 
  seq: 621746
  stamp: 
    secs: 1561682248
    nsecs: 225790433
  frame_id: "ti_mmwave"
point_id: 2
x: 0.029296875
y: -0.119140625
z: -0.005859375
range: 0.130730912089
velocity: 0.0
doppler_bin: 8
bearing: -76.1849746704
intensity: 30.1994667053
---
header: 
  seq: 621747
  stamp: 
    secs: 1561682248
    nsecs: 225812574
  frame_id: "ti_mmwave"
point_id: 3
x: 0.056640625
y: -0.154296875
z: 0.005859375
range: 0.174307882786
velocity: 0.0
doppler_bin: 8
bearing: -69.8423843384
intensity: 25.490032196
---
header: 
  seq: 621748
  stamp: 
    secs: 1561682248
    nsecs: 225866267
  frame_id: "ti_mmwave"
point_id: 4
x: 0.357421875
y: -0.080078125
z: -1.21484375
range: 1.35088610649
velocity: 0.0
doppler_bin: 8
bearing: -12.6282215118
intensity: 21.875207901
---
header: 
  seq: 621749
  stamp: 
    secs: 1561682248
    nsecs: 225881420
  frame_id: "ti_mmwave"
point_id: 5
x: 0.29296875
y: -0.041015625
z: 1.275390625
range: 1.39446306229
velocity: 0.0
doppler_bin: 8
bearing: -7.96961069107
intensity: 23.1806335449
---
header: 
  seq: 621750
  stamp: 
    secs: 1561682248
    nsecs: 225893415
  frame_id: "ti_mmwave"
point_id: 6
x: 0.490234375
y: -0.04296875
z: 1.2578125
range: 1.43804001808
velocity: 0.0
doppler_bin: 8
bearing: -5.00914001465
intensity: 21.7897701263
---
header: 
  seq: 621751
  stamp: 
    secs: 1561682248
    nsecs: 225906186
  frame_id: "ti_mmwave"
point_id: 7
x: 1.400390625
y: -0.224609375
z: 0.1953125
range: 1.52519392967
velocity: 0.0
doppler_bin: 8
bearing: -9.11209106445
intensity: 20.4532299042
---
header: 
  seq: 621752
  stamp: 
    secs: 1561682248
    nsecs: 225918598
  frame_id: "ti_mmwave"
point_id: 8
x: 1.466796875
y: -0.091796875
z: -0.103515625
range: 1.56877088547
velocity: 0.0
doppler_bin: 8
bearing: -3.58108401299
intensity: 25.7054290771
---
header: 
  seq: 621753
  stamp: 
    secs: 1561682248
    nsecs: 225931377
  frame_id: "ti_mmwave"
point_id: 9
x: 1.494140625
y: -0.046875
z: -0.234375
range: 1.61234796047
velocity: 0.0
doppler_bin: 8
bearing: -1.79692542553
intensity: 26.3748970032
---
header: 
  seq: 621754
  stamp: 
    secs: 1561682248
    nsecs: 225940313
  frame_id: "ti_mmwave"
point_id: 10
x: 1.505859375
y: -0.291015625
z: -0.251953125
range: 1.65592491627
velocity: 0.0
doppler_bin: 8
bearing: -10.9378871918
intensity: 26.9372692108
---
header: 
  seq: 621755
  stamp: 
    secs: 1561682248
    nsecs: 225992003
  frame_id: "ti_mmwave"
point_id: 11
x: 1.51171875
y: -0.298828125
z: -0.416015625
range: 1.69950187206
velocity: 0.0
doppler_bin: 8
bearing: -11.1817550659
intensity: 26.7024593353
---
header: 
  seq: 621756
  stamp: 
    secs: 1561682248
    nsecs: 226007998
  frame_id: "ti_mmwave"
point_id: 12
x: 2.52734375
y: -0.263671875
z: 1.228515625
range: 3.00681090355
velocity: 0.0
doppler_bin: 8
bearing: -5.9559879303
intensity: 29.2634239197
---
header: 
  seq: 621757
  stamp: 
    secs: 1561682248
    nsecs: 226022049
  frame_id: "ti_mmwave"
point_id: 13
x: 2.603515625
y: -0.267578125
z: 1.162109375
range: 3.05038785934
velocity: 0.0
doppler_bin: 8
bearing: -5.8680100441
intensity: 32.704460144
---
header: 
  seq: 621758
  stamp: 
    secs: 1561682248
    nsecs: 226035205
  frame_id: "ti_mmwave"
point_id: 14
x: 2.6640625
y: -0.181640625
z: 1.142578125
range: 3.09396481514
velocity: 0.0
doppler_bin: 8
bearing: -3.90049386024
intensity: 31.9479179382
---
header: 
  seq: 621759
  stamp: 
    secs: 1561682248
    nsecs: 226053175
  frame_id: "ti_mmwave"
point_id: 16
x: 0.041015625
y: -0.033203125
z: 0.0625
range: 0.0871539413929
velocity: 0.0
doppler_bin: 8
bearing: -38.9909973145
intensity: 30.0732097626
---
header: 
  seq: 621760
  stamp: 
    secs: 1561682248
    nsecs: 226070498
  frame_id: "ti_mmwave"
point_id: 17
x: 0.052734375
y: -0.04296875
z: 0.1015625
range: 0.130730912089
velocity: 0.0
doppler_bin: 8
bearing: -39.1736602783
intensity: 28.9542255402
---
header: 
  seq: 621761
  stamp: 
    secs: 1561682248
    nsecs: 226127599
  frame_id: "ti_mmwave"
point_id: 19
x: 1.205078125
y: 0.357421875
z: 0.166015625
range: 1.35088610649
velocity: 0.0
doppler_bin: 8
bearing: 16.5201683044
intensity: 18.9209461212
---
header: 
  seq: 621762
  stamp: 
    secs: 1561682248
    nsecs: 226141054
  frame_id: "ti_mmwave"
point_id: 20
x: 0.96484375
y: 0.267578125
z: -1.0234375
range: 1.52519392967
velocity: 0.0
doppler_bin: 8
bearing: 15.5001802444
intensity: 18.0618000031
---
header: 
  seq: 621763
  stamp: 
    secs: 1561682248
    nsecs: 226154326
  frame_id: "ti_mmwave"
point_id: 21
x: 0.09765625
y: 0.615234375
z: 1.37890625
range: 1.61234796047
velocity: 0.0
doppler_bin: 8
bearing: 80.9806747437
intensity: 25.2244415283
---
header: 
  seq: 621764
  stamp: 
    secs: 1561682248
    nsecs: 226171304
  frame_id: "ti_mmwave"
point_id: 23
x: 0.3203125
y: 0.697265625
z: 1.3984375
range: 1.69950187206
velocity: 0.0
doppler_bin: 8
bearing: 65.326713562
intensity: 23.8738975525
---
header: 
  seq: 621765
  stamp: 
    secs: 1561682248
    nsecs: 284352259
  frame_id: "ti_mmwave"
point_id: 0
x: 0.01171875
y: -0.0390625
z: -0.0078125
range: 0.0435769706964
velocity: 0.0
doppler_bin: 8
bearing: -73.3007583618
intensity: 30.700378418
---
header: 
  seq: 621766
  stamp: 
    secs: 1561682248
    nsecs: 284443954
  frame_id: "ti_mmwave"
point_id: 1
x: 0.017578125
y: -0.080078125
z: -0.0078125
range: 0.0871539413929
velocity: 0.0
doppler_bin: 8
bearing: -77.6192398071
intensity: 31.9340286255
---
header: 
  seq: 621767
  stamp: 
    secs: 1561682248
    nsecs: 284465550
  frame_id: "ti_mmwave"
point_id: 2
x: 0.029296875
y: -0.119140625
z: -0.005859375
range: 0.130730912089
velocity: 0.0
doppler_bin: 8
bearing: -76.1849746704
intensity: 30.1953163147
---
header: 
  seq: 621768
  stamp: 
    secs: 1561682248
    nsecs: 284478999
  frame_id: "ti_mmwave"
point_id: 3
x: 0.056640625
y: -0.154296875
z: 0.005859375
range: 0.174307882786
velocity: 0.0
doppler_bin: 8
bearing: -69.8423843384
intensity: 25.4654273987
---
header: 
  seq: 621769
  stamp: 
    secs: 1561682248
    nsecs: 284522700
  frame_id: "ti_mmwave"
point_id: 4
x: 0.34765625
y: -0.080078125
z: -1.216796875
range: 1.35088610649
velocity: 0.0
doppler_bin: 8
bearing: -12.9711065292
intensity: 21.9033164978
---
header: 
  seq: 621770
  stamp: 
    secs: 1561682248
    nsecs: 284592764
  frame_id: "ti_mmwave"
point_id: 5
x: 0.31640625
y: -0.041015625
z: 1.26953125
range: 1.39446306229
velocity: 0.0
doppler_bin: 8
bearing: -7.38604259491
intensity: 23.2221927643
---
header: 
  seq: 621771
  stamp: 
    secs: 1561682248
    nsecs: 284607472
  frame_id: "ti_mmwave"
point_id: 6
x: 0.52734375
y: -0.04296875
z: 1.2421875
range: 1.43804001808
velocity: 0.0
doppler_bin: 8
bearing: -4.65825366974
intensity: 21.9033164978
---
header: 
  seq: 621772
  stamp: 
    secs: 1561682248
    nsecs: 284619330
  frame_id: "ti_mmwave"
point_id: 7
x: 1.404296875
y: -0.1796875
z: 0.212890625
range: 1.52519392967
velocity: 0.0
doppler_bin: 8
bearing: -7.29168701172
intensity: 22.6717166901
---
header: 
  seq: 621773
  stamp: 
    secs: 1561682248
    nsecs: 284630356
  frame_id: "ti_mmwave"
point_id: 8
x: 1.455078125
y: -0.18359375
z: -0.1328125
range: 1.56877088547
velocity: 0.0
doppler_bin: 8
bearing: -7.19126558304
intensity: 28.5003318787
---
header: 
  seq: 621774
  stamp: 
    secs: 1561682248
    nsecs: 284641133
  frame_id: "ti_mmwave"
point_id: 9
x: 1.4921875
y: -0.142578125
z: -0.203125
range: 1.61234796047
velocity: 0.0
doppler_bin: 8
bearing: -5.45802688599
intensity: 30.2036132812
---
header: 
  seq: 621775
  stamp: 
    secs: 1561682248
    nsecs: 284654663
  frame_id: "ti_mmwave"
point_id: 10
x: 1.517578125
y: -0.193359375
z: -0.279296875
range: 1.65592491627
velocity: 0.0
doppler_bin: 8
bearing: -7.26111030579
intensity: 28.2412586212
---
header: 
  seq: 621776
  stamp: 
    secs: 1561682248
    nsecs: 284668533
  frame_id: "ti_mmwave"
point_id: 11
x: 2.544921875
y: -0.263671875
z: 1.193359375
range: 3.00681090355
velocity: 0.0
doppler_bin: 8
bearing: -5.91514253616
intensity: 29.380191803
---
header: 
  seq: 621777
  stamp: 
    secs: 1561682248
    nsecs: 284681218
  frame_id: "ti_mmwave"
point_id: 12
x: 2.599609375
y: -0.267578125
z: 1.16796875
range: 3.05038785934
velocity: 0.0
doppler_bin: 8
bearing: -5.87676620483
intensity: 32.7346420288
---
header: 
  seq: 621778
  stamp: 
    secs: 1561682248
    nsecs: 284694872
  frame_id: "ti_mmwave"
point_id: 13
x: 2.662109375
y: -0.181640625
z: 1.146484375
range: 3.09396481514
velocity: 0.0
doppler_bin: 8
bearing: -3.90334677696
intensity: 31.9838218689
---
header: 
  seq: 621779
  stamp: 
    secs: 1561682248
    nsecs: 284710610
  frame_id: "ti_mmwave"
point_id: 15
x: 0.041015625
y: -0.033203125
z: 0.0625
range: 0.0871539413929
velocity: 0.0
doppler_bin: 8
bearing: -38.9909973145
intensity: 30.081741333
---
header: 
  seq: 621780
  stamp: 
    secs: 1561682248
    nsecs: 284757977
  frame_id: "ti_mmwave"
point_id: 16
x: 0.052734375
y: -0.04296875
z: 0.1015625
range: 0.130730912089
velocity: 0.0
doppler_bin: 8
bearing: -39.1736602783
intensity: 28.9652614594
---
header: 
  seq: 621781
  stamp: 
    secs: 1561682248
    nsecs: 284777033
  frame_id: "ti_mmwave"
point_id: 18
x: 1.115234375
y: -0.515625
z: 0.31640625
range: 1.35088610649
velocity: 0.0
doppler_bin: 8
bearing: -24.8133087158
intensity: 18.9762706757
---
header: 
  seq: 621782
  stamp: 
    secs: 1561682248
    nsecs: 285485871
  frame_id: "ti_mmwave"
point_id: 0
x: 0.01171875
y: -0.0390625
z: -0.0078125
range: 0.0435769706964
velocity: 0.0
doppler_bin: 8
bearing: -73.3007583618
intensity: 30.700378418
---
header: 
  seq: 621783
  stamp: 
    secs: 1561682248
    nsecs: 285540992
  frame_id: "ti_mmwave"
point_id: 1
x: 0.017578125
y: -0.080078125
z: -0.0078125
range: 0.0871539413929
velocity: 0.0
doppler_bin: 8
bearing: -77.6192398071
intensity: 31.9340286255
---
header: 
  seq: 621784
  stamp: 
    secs: 1561682248
    nsecs: 285551771
  frame_id: "ti_mmwave"
point_id: 2
x: 0.029296875
y: -0.119140625
z: -0.005859375
range: 0.130730912089
velocity: 0.0
doppler_bin: 8
bearing: -76.1849746704
intensity: 30.1953163147
---
header: 
  seq: 621785
  stamp: 
    secs: 1561682248
    nsecs: 285562396
  frame_id: "ti_mmwave"
point_id: 3
x: 0.056640625
y: -0.154296875
z: 0.005859375
range: 0.174307882786
velocity: 0.0
doppler_bin: 8
bearing: -69.8423843384
intensity: 25.4777469635
---
header: 
  seq: 621786
  stamp: 
    secs: 1561682248
    nsecs: 285571097
  frame_id: "ti_mmwave"
point_id: 4
x: 0.322265625
y: -0.080078125
z: -1.224609375
range: 1.35088610649
velocity: 0.0
doppler_bin: 8
bearing: -13.9545097351
intensity: 21.8184356689
---
header: 
  seq: 621787
  stamp: 
    secs: 1561682248
    nsecs: 285579518
  frame_id: "ti_mmwave"
point_id: 5
x: 0.326171875
y: -0.041015625
z: 1.267578125
range: 1.39446306229
velocity: 0.0
doppler_bin: 8
bearing: -7.16723871231
intensity: 23.2014636993
---
header: 
  seq: 621788
  stamp: 
    secs: 1561682248
    nsecs: 285599021
  frame_id: "ti_mmwave"
point_id: 6
x: 0.529296875
y: -0.04296875
z: 1.2421875
range: 1.43804001808
velocity: 0.0
doppler_bin: 8
bearing: -4.64113998413
intensity: 21.875207901
---
header: 
  seq: 621789
  stamp: 
    secs: 1561682248
    nsecs: 285608621
  frame_id: "ti_mmwave"
point_id: 7
x: 1.39453125
y: -0.134765625
z: 0.298828125
range: 1.52519392967
velocity: 0.0
doppler_bin: 8
bearing: -5.51984643936
intensity: 22.2788677216
---
header: 
  seq: 621790
  stamp: 
    secs: 1561682248
    nsecs: 285616621
  frame_id: "ti_mmwave"
point_id: 8
x: 1.462890625
y: -0.138671875
z: -0.09765625
range: 1.56877088547
velocity: 0.0
doppler_bin: 8
bearing: -5.41506147385
intensity: 27.8746051788
---
header: 
  seq: 621791
  stamp: 
    secs: 1561682248
    nsecs: 285626138
  frame_id: "ti_mmwave"
point_id: 9
x: 1.498046875
y: -0.142578125
z: -0.162109375
range: 1.61234796047
velocity: 0.0
doppler_bin: 8
bearing: -5.43680667877
intensity: 29.8362636566
---
header: 
  seq: 621792
  stamp: 
    secs: 1561682248
    nsecs: 285636330
  frame_id: "ti_mmwave"
point_id: 10
x: 1.53125
y: -0.193359375
z: -0.1875
range: 1.65592491627
velocity: 0.0
doppler_bin: 8
bearing: -7.19696187973
intensity: 29.0471553802
---
header: 
  seq: 621793
  stamp: 
    secs: 1561682248
    nsecs: 285649349
  frame_id: "ti_mmwave"
point_id: 11
x: 1.55859375
y: -0.25
z: -0.236328125
range: 1.69950187206
velocity: 0.0
doppler_bin: 8
bearing: -9.11267757416
intensity: 26.9722938538
---
header: 
  seq: 621794
  stamp: 
    secs: 1561682248
    nsecs: 285672033
  frame_id: "ti_mmwave"
point_id: 12
x: 2.552734375
y: -0.263671875
z: 1.17578125
range: 3.00681090355
velocity: 0.0
doppler_bin: 8
bearing: -5.89716720581
intensity: 29.4001808167
---
header: 
  seq: 621795
  stamp: 
    secs: 1561682248
    nsecs: 285696763
  frame_id: "ti_mmwave"
point_id: 13
x: 2.60546875
y: -0.267578125
z: 1.15625
range: 3.05038785934
velocity: 0.0
doppler_bin: 8
bearing: -5.86364221573
intensity: 32.7461967468
---
header: 
  seq: 621796
  stamp: 
    secs: 1561682248
    nsecs: 285724180
  frame_id: "ti_mmwave"
point_id: 14
x: 2.6640625
y: -0.181640625
z: 1.142578125
range: 3.09396481514
velocity: 0.0
doppler_bin: 8
bearing: -3.90049386024
intensity: 31.9920654297
---
header: 
  seq: 621797
  stamp: 
    secs: 1561682248
    nsecs: 285891825
  frame_id: "ti_mmwave"
point_id: 16
x: 0.041015625
y: -0.033203125
z: 0.0625
range: 0.0871539413929
velocity: 0.0
doppler_bin: 8
bearing: -38.9909973145
intensity: 30.081741333
---
header: 
  seq: 621798
  stamp: 
    secs: 1561682248
    nsecs: 285909942
  frame_id: "ti_mmwave"
point_id: 17
x: 0.052734375
y: -0.04296875
z: 0.1015625
range: 0.130730912089
velocity: 0.0
doppler_bin: 8
bearing: -39.1736602783
intensity: 28.9652614594
---
header: 
  seq: 621799
  stamp: 
    secs: 1561682248
    nsecs: 285922587
  frame_id: "ti_mmwave"
point_id: 19
x: 1.119140625
y: -0.515625
z: 0.298828125
range: 1.35088610649
velocity: 0.0
doppler_bin: 8
bearing: -24.7370834351
intensity: 19.0308990479
---
header: 
  seq: 621800
  stamp: 
    secs: 1561682248
    nsecs: 344264978
  frame_id: "ti_mmwave"
point_id: 0
x: 0.01171875
y: -0.0390625
z: -0.0078125
range: 0.0435769706964
velocity: 0.0
doppler_bin: 8
bearing: -73.3007583618
intensity: 30.700378418
---
header: 
  seq: 621801
  stamp: 
    secs: 1561682248
    nsecs: 344339756
  frame_id: "ti_mmwave"
point_id: 1
x: 0.017578125
y: -0.080078125
z: -0.0078125
range: 0.0871539413929
velocity: 0.0
doppler_bin: 8
bearing: -77.6192398071
intensity: 31.9368095398
---
header: 
  seq: 621802
  stamp: 
    secs: 1561682248
    nsecs: 344353884
  frame_id: "ti_mmwave"
point_id: 2
x: 0.029296875
y: -0.119140625
z: -0.005859375
range: 0.130730912089
velocity: 0.0
doppler_bin: 8
bearing: -76.1849746704
intensity: 30.1994667053
---
header: 
  seq: 621803
  stamp: 
    secs: 1561682248
    nsecs: 344363122
  frame_id: "ti_mmwave"
point_id: 3
x: 0.056640625
y: -0.154296875
z: 0.005859375
range: 0.174307882786
velocity: 0.0
doppler_bin: 8
bearing: -69.8423843384
intensity: 25.4777469635
---
header: 
  seq: 621804
  stamp: 
    secs: 1561682248
    nsecs: 344371836
  frame_id: "ti_mmwave"
point_id: 4
x: 0.27734375
y: -0.080078125
z: -1.234375
range: 1.35088610649
velocity: 0.0
doppler_bin: 8
bearing: -16.1051425934
intensity: 21.9033164978
---
header: 
  seq: 621805
  stamp: 
    secs: 1561682248
    nsecs: 344381122
  frame_id: "ti_mmwave"
point_id: 5
x: 0.333984375
y: -0.041015625
z: 1.265625
range: 1.39446306229
velocity: 0.0
doppler_bin: 8
bearing: -7.00126743317
intensity: 23.2014636993
---
header: 
  seq: 621806
  stamp: 
    secs: 1561682248
    nsecs: 344390009
  frame_id: "ti_mmwave"
point_id: 6
x: 0.521484375
y: -0.04296875
z: 1.244140625
range: 1.43804001808
velocity: 0.0
doppler_bin: 8
bearing: -4.7103600502
intensity: 21.9312458038
---
header: 
  seq: 621807
  stamp: 
    secs: 1561682248
    nsecs: 344411289
  frame_id: "ti_mmwave"
point_id: 7
x: 1.396484375
y: -0.134765625
z: 0.291015625
range: 1.52519392967
velocity: 0.0
doppler_bin: 8
bearing: -5.51217412949
intensity: 22.9666519165
---
header: 
  seq: 621808
  stamp: 
    secs: 1561682248
    nsecs: 344427456
  frame_id: "ti_mmwave"
point_id: 8
x: 1.462890625
y: -0.138671875
z: -0.083984375
range: 1.56877088547
velocity: 0.0
doppler_bin: 8
bearing: -5.41506147385
intensity: 26.4836006165
---
header: 
  seq: 621809
  stamp: 
    secs: 1561682248
    nsecs: 344595372
  frame_id: "ti_mmwave"
point_id: 9
x: 1.501953125
y: -0.142578125
z: -0.130859375
range: 1.61234796047
velocity: 0.0
doppler_bin: 8
bearing: -5.4227514267
intensity: 27.0842094421
---
header: 
  seq: 621810
  stamp: 
    secs: 1561682248
    nsecs: 344619176
  frame_id: "ti_mmwave"
point_id: 11
x: 2.55078125
y: -0.263671875
z: 1.1796875
range: 3.00681090355
velocity: 0.0
doppler_bin: 8
bearing: -5.90165042877
intensity: 29.3651371002
---
header: 
  seq: 621811
  stamp: 
    secs: 1561682248
    nsecs: 344627952
  frame_id: "ti_mmwave"
point_id: 12
x: 2.609375
y: -0.267578125
z: 1.1484375
range: 3.05038785934
velocity: 0.0
doppler_bin: 8
bearing: -5.85492515564
intensity: 32.73695755
---
header: 
  seq: 621812
  stamp: 
    secs: 1561682248
    nsecs: 344652987
  frame_id: "ti_mmwave"
point_id: 13
x: 2.671875
y: -0.181640625
z: 1.125
range: 3.09396481514
velocity: 0.0
doppler_bin: 8
bearing: -3.88912391663
intensity: 31.9783172607
---
header: 
  seq: 621813
  stamp: 
    secs: 1561682248
    nsecs: 344663858
  frame_id: "ti_mmwave"
point_id: 15
x: 0.041015625
y: -0.033203125
z: 0.0625
range: 0.0871539413929
velocity: 0.0
doppler_bin: 8
bearing: -38.9909973145
intensity: 30.081741333
---
header: 
  seq: 621814
  stamp: 
    secs: 1561682248
    nsecs: 344713735
  frame_id: "ti_mmwave"
point_id: 16
x: 0.052734375
y: -0.04296875
z: 0.1015625
range: 0.130730912089
velocity: 0.0
doppler_bin: 8
bearing: -39.1736602783
intensity: 28.9597473145
---
header: 
  seq: 621815
  stamp: 
    secs: 1561682248
    nsecs: 344728306
  frame_id: "ti_mmwave"
point_id: 18
x: 1.541015625
y: -0.193359375
z: 0.044921875
range: 1.65592491627
velocity: 0.0
doppler_bin: 8
bearing: -7.15182781219
intensity: 24.5939254761
---
header: 
  seq: 621816
  stamp: 
    secs: 1561682248
    nsecs: 345566223
  frame_id: "ti_mmwave"
point_id: 0
x: 0.01171875
y: -0.0390625
z: -0.0078125
range: 0.0435769706964
velocity: 0.0
doppler_bin: 8
bearing: -73.3007583618
intensity: 30.6892757416
---
header: 
  seq: 621817
  stamp: 
    secs: 1561682248
    nsecs: 345630164
  frame_id: "ti_mmwave"
point_id: 1
x: 0.017578125
y: -0.080078125
z: -0.0078125
range: 0.0871539413929
velocity: 0.0
doppler_bin: 8
bearing: -77.6192398071
intensity: 31.9368095398
---
header: 
  seq: 621818
  stamp: 
    secs: 1561682248
    nsecs: 345648956
  frame_id: "ti_mmwave"
point_id: 2
x: 0.029296875
y: -0.119140625
z: -0.005859375
range: 0.130730912089
velocity: 0.0
doppler_bin: 8
bearing: -76.1849746704
intensity: 30.1953163147
---
header: 
  seq: 621819
  stamp: 
    secs: 1561682248
    nsecs: 345670456
  frame_id: "ti_mmwave"
point_id: 3
x: 0.056640625
y: -0.154296875
z: 0.005859375
range: 0.174307882786
velocity: 0.0
doppler_bin: 8
bearing: -69.8423843384
intensity: 25.4654273987
---
header: 
  seq: 621820
  stamp: 
    secs: 1561682248
    nsecs: 345734781
  frame_id: "ti_mmwave"
point_id: 4
x: 0.33984375
y: -0.080078125
z: -1.21875
range: 1.35088610649
velocity: 0.0
doppler_bin: 8
bearing: -13.2588720322
intensity: 21.875207901
---
header: 
  seq: 621821
  stamp: 
    secs: 1561682248
    nsecs: 345749093
  frame_id: "ti_mmwave"
point_id: 5
x: 0.2890625
y: -0.041015625
z: 1.275390625
range: 1.39446306229
velocity: 0.0
doppler_bin: 8
bearing: -8.0758972168
intensity: 23.2014636993
---
header: 
  seq: 621822
  stamp: 
    secs: 1561682248
    nsecs: 345762989
  frame_id: "ti_mmwave"
point_id: 6
x: 0.46484375
y: -0.04296875
z: 1.265625
range: 1.43804001808
velocity: 0.0
doppler_bin: 8
bearing: -5.28124046326
intensity: 21.7609119415
---
header: 
  seq: 621823
  stamp: 
    secs: 1561682248
    nsecs: 345776144
  frame_id: "ti_mmwave"
point_id: 7
x: 1.416015625
y: -0.1796875
z: 0.107421875
range: 1.52519392967
velocity: 0.0
doppler_bin: 8
bearing: -7.23198366165
intensity: 24.0483379364
---
header: 
  seq: 621824
  stamp: 
    secs: 1561682248
    nsecs: 345788085
  frame_id: "ti_mmwave"
point_id: 8
x: 1.451171875
y: -0.138671875
z: -0.203125
range: 1.56877088547
velocity: 0.0
doppler_bin: 8
bearing: -5.45852708817
intensity: 28.3058872223
---
header: 
  seq: 621825
  stamp: 
    secs: 1561682248
    nsecs: 345799186
  frame_id: "ti_mmwave"
point_id: 9
x: 1.45703125
y: -0.189453125
z: -0.365234375
range: 1.61234796047
velocity: 0.0
doppler_bin: 8
bearing: -7.40842199326
intensity: 29.0579586029
---
header: 
  seq: 621826
  stamp: 
    secs: 1561682248
    nsecs: 345807218
  frame_id: "ti_mmwave"
point_id: 10
x: 1.439453125
y: -0.193359375
z: -0.5546875
range: 1.65592491627
velocity: 0.0
doppler_bin: 8
bearing: -7.65065097809
intensity: 26.6181259155
---
header: 
  seq: 621827
  stamp: 
    secs: 1561682248
    nsecs: 345838324
  frame_id: "ti_mmwave"
point_id: 11
x: 2.556640625
y: -0.263671875
z: 1.166015625
range: 3.00681090355
velocity: 0.0
doppler_bin: 8
bearing: -5.88822031021
intensity: 29.3901977539
---
header: 
  seq: 621828
  stamp: 
    secs: 1561682248
    nsecs: 345949664
  frame_id: "ti_mmwave"
point_id: 12
x: 2.609375
y: -0.267578125
z: 1.146484375
range: 3.05038785934
velocity: 0.0
doppler_bin: 8
bearing: -5.85492515564
intensity: 32.7300109863
---
header: 
  seq: 621829
  stamp: 
    secs: 1561682248
    nsecs: 345980894
  frame_id: "ti_mmwave"
point_id: 13
x: 2.669921875
y: -0.181640625
z: 1.130859375
range: 3.09396481514
velocity: 0.0
doppler_bin: 8
bearing: -3.89196038246
intensity: 31.9479179382
---
header: 
  seq: 621830
  stamp: 
    secs: 1561682248
    nsecs: 345999090
  frame_id: "ti_mmwave"
point_id: 15
x: 0.041015625
y: -0.033203125
z: 0.0625
range: 0.0871539413929
velocity: 0.0
doppler_bin: 8
bearing: -38.9909973145
intensity: 30.081741333
---
header: 
  seq: 621831
  stamp: 
    secs: 1561682248
    nsecs: 346015306
  frame_id: "ti_mmwave"
point_id: 16
x: 0.052734375
y: -0.04296875
z: 0.1015625
range: 0.130730912089
velocity: 0.0
doppler_bin: 8
bearing: -39.1736602783
intensity: 28.9652614594
---
header: 
  seq: 621832
  stamp: 
    secs: 1561682248
    nsecs: 346032461
  frame_id: "ti_mmwave"
point_id: 18
x: 1.115234375
y: -0.515625
z: 0.314453125
range: 1.35088610649
velocity: 0.0
doppler_bin: 8
bearing: -24.8133087158
intensity: 18.9209461212
---
header: 
  seq: 621833
  stamp: 
    secs: 1561682248
    nsecs: 405003447
  frame_id: "ti_mmwave"
point_id: 0
x: 0.01171875
y: -0.0390625
z: -0.0078125
range: 0.0435769706964
velocity: 0.0
doppler_bin: 8
bearing: -73.3007583618
intensity: 30.700378418
---
header: 
  seq: 621834
  stamp: 
    secs: 1561682248
    nsecs: 405075628
  frame_id: "ti_mmwave"
point_id: 1
x: 0.017578125
y: -0.080078125
z: -0.0078125
range: 0.0871539413929
velocity: 0.0
doppler_bin: 8
bearing: -77.6192398071
intensity: 31.9395904541
---
header: 
  seq: 621835
  stamp: 
    secs: 1561682248
    nsecs: 405088961
  frame_id: "ti_mmwave"
point_id: 2
x: 0.029296875
y: -0.119140625
z: -0.005859375
range: 0.130730912089
velocity: 0.0
doppler_bin: 8
bearing: -76.1849746704
intensity: 30.2036132812
---
header: 
  seq: 621836
  stamp: 
    secs: 1561682248
    nsecs: 405097265
  frame_id: "ti_mmwave"
point_id: 3
x: 0.056640625
y: -0.154296875
z: 0.005859375
range: 0.174307882786
velocity: 0.0
doppler_bin: 8
bearing: -69.8423843384
intensity: 25.490032196
---
header: 
  seq: 621837
  stamp: 
    secs: 1561682248
    nsecs: 405105466
  frame_id: "ti_mmwave"
point_id: 4
x: 0.33984375
y: -0.080078125
z: -1.21875
range: 1.35088610649
velocity: 0.0
doppler_bin: 8
bearing: -13.2588720322
intensity: 21.9033164978
---
header: 
  seq: 621838
  stamp: 
    secs: 1561682248
    nsecs: 405113253
  frame_id: "ti_mmwave"
point_id: 5
x: 0.322265625
y: -0.041015625
z: 1.267578125
range: 1.39446306229
velocity: 0.0
doppler_bin: 8
bearing: -7.25319480896
intensity: 23.2014636993
---
header: 
  seq: 621839
  stamp: 
    secs: 1561682248
    nsecs: 405122404
  frame_id: "ti_mmwave"
point_id: 6
x: 0.486328125
y: -0.04296875
z: 1.259765625
range: 1.43804001808
velocity: 0.0
doppler_bin: 8
bearing: -5.04916620255
intensity: 21.875207901
---
header: 
  seq: 621840
  stamp: 
    secs: 1561682248
    nsecs: 405130870
  frame_id: "ti_mmwave"
point_id: 7
x: 1.455078125
y: -0.091796875
z: -0.205078125
range: 1.56877088547
velocity: 0.0
doppler_bin: 8
bearing: -3.60984897614
intensity: 25.9879055023
---
header: 
  seq: 621841
  stamp: 
    secs: 1561682248
    nsecs: 405138609
  frame_id: "ti_mmwave"
point_id: 8
x: 1.505859375
y: -0.09375
z: -0.115234375
range: 1.61234796047
velocity: 0.0
doppler_bin: 8
bearing: -3.56245470047
intensity: 28.5793533325
---
header: 
  seq: 621842
  stamp: 
    secs: 1561682248
    nsecs: 405148174
  frame_id: "ti_mmwave"
point_id: 9
x: 1.548828125
y: -0.048828125
z: -0.119140625
range: 1.65592491627
velocity: 0.0
doppler_bin: 8
bearing: -1.80570006371
intensity: 28.1424751282
---
header: 
  seq: 621843
  stamp: 
    secs: 1561682248
    nsecs: 405156450
  frame_id: "ti_mmwave"
point_id: 10
x: 2.568359375
y: -0.263671875
z: 1.140625
range: 3.00681090355
velocity: 0.0
doppler_bin: 8
bearing: -5.86154127121
intensity: 29.4200801849
---
header: 
  seq: 621844
  stamp: 
    secs: 1561682248
    nsecs: 405165116
  frame_id: "ti_mmwave"
point_id: 11
x: 2.61328125
y: -0.267578125
z: 1.138671875
range: 3.05038785934
velocity: 0.0
doppler_bin: 8
bearing: -5.84623432159
intensity: 32.753112793
---
header: 
  seq: 621845
  stamp: 
    secs: 1561682248
    nsecs: 405173739
  frame_id: "ti_mmwave"
point_id: 12
x: 2.669921875
y: -0.181640625
z: 1.130859375
range: 3.09396481514
velocity: 0.0
doppler_bin: 8
bearing: -3.89196038246
intensity: 31.9728050232
---
header: 
  seq: 621846
  stamp: 
    secs: 1561682248
    nsecs: 405183878
  frame_id: "ti_mmwave"
point_id: 14
x: 0.041015625
y: -0.033203125
z: 0.0625
range: 0.0871539413929
velocity: 0.0
doppler_bin: 8
bearing: -38.9909973145
intensity: 30.081741333
---
header: 
  seq: 621847
  stamp: 
    secs: 1561682248
    nsecs: 405193207
  frame_id: "ti_mmwave"
point_id: 15
x: 0.052734375
y: -0.04296875
z: 0.1015625
range: 0.130730912089
velocity: 0.0
doppler_bin: 8
bearing: -39.1736602783
intensity: 28.9707698822
---
header: 
  seq: 621848
  stamp: 
    secs: 1561682248
    nsecs: 405371859
  frame_id: "ti_mmwave"
point_id: 17
x: 1.20703125
y: 0.357421875
z: 0.15234375
range: 1.35088610649
velocity: 0.0
doppler_bin: 8
bearing: 16.4948921204
intensity: 19.0308990479
---
header: 
  seq: 621849
  stamp: 
    secs: 1561682248
    nsecs: 405396432
  frame_id: "ti_mmwave"
point_id: 18
x: 0.734375
y: 0.58203125
z: 1.240234375
range: 1.65592491627
velocity: 0.0
doppler_bin: 8
bearing: 38.3986968994
intensity: 25.5870857239
---
header: 
  seq: 621850
  stamp: 
    secs: 1561682248
    nsecs: 464356805
  frame_id: "ti_mmwave"
point_id: 0
x: 0.01171875
y: -0.0390625
z: -0.0078125
range: 0.0435769706964
velocity: 0.0
doppler_bin: 8
bearing: -73.3007583618
intensity: 30.700378418
---
header: 
  seq: 621851
  stamp: 
    secs: 1561682248
    nsecs: 464446006
  frame_id: "ti_mmwave"
point_id: 1
x: 0.017578125
y: -0.080078125
z: -0.0078125
range: 0.0871539413929
velocity: 0.0
doppler_bin: 8
bearing: -77.6192398071
intensity: 31.9368095398
---
header: 
  seq: 621852
  stamp: 
    secs: 1561682248
    nsecs: 464458175
  frame_id: "ti_mmwave"
point_id: 2
x: 0.029296875
y: -0.119140625
z: -0.005859375
range: 0.130730912089
velocity: 0.0
doppler_bin: 8
bearing: -76.1849746704
intensity: 30.1994667053
---
header: 
  seq: 621853
  stamp: 
    secs: 1561682248
    nsecs: 464466334
  frame_id: "ti_mmwave"
point_id: 3
x: 0.056640625
y: -0.154296875
z: 0.005859375
range: 0.174307882786
velocity: 0.0
doppler_bin: 8
bearing: -69.8423843384
intensity: 25.4654273987
---
header: 
  seq: 621854
  stamp: 
    secs: 1561682248
    nsecs: 464474435
  frame_id: "ti_mmwave"
point_id: 4
x: 0.328125
y: -0.080078125
z: -1.22265625
range: 1.35088610649
velocity: 0.0
doppler_bin: 8
bearing: -13.7148113251
intensity: 21.875207901
---
header: 
  seq: 621855
  stamp: 
    secs: 1561682248
    nsecs: 464486371
  frame_id: "ti_mmwave"
point_id: 5
x: 0.333984375
y: -0.041015625
z: 1.265625
range: 1.39446306229
velocity: 0.0
doppler_bin: 8
bearing: -7.00126743317
intensity: 23.1806335449
---
header: 
  seq: 621856
  stamp: 
    secs: 1561682248
    nsecs: 464494294
  frame_id: "ti_mmwave"
point_id: 6
x: 0.29296875
y: -0.0
z: 1.318359375
range: 1.43804001808
velocity: 0.0
doppler_bin: 8
bearing: -0.0
intensity: 21.7609119415
---
header: 
  seq: 621857
  stamp: 
    secs: 1561682248
    nsecs: 464503151
  frame_id: "ti_mmwave"
point_id: 7
x: 1.40234375
y: -0.267578125
z: 0.111328125
range: 1.52519392967
velocity: 0.0
doppler_bin: 8
bearing: -10.8026313782
intensity: 21.5836257935
---
header: 
  seq: 621858
  stamp: 
    secs: 1561682248
    nsecs: 464511217
  frame_id: "ti_mmwave"
point_id: 8
x: 1.453125
y: -0.23046875
z: 0.0390625
range: 1.56877088547
velocity: 0.0
doppler_bin: 8
bearing: -9.0121679306
intensity: 25.4282550812
---
header: 
  seq: 621859
  stamp: 
    secs: 1561682248
    nsecs: 464518944
  frame_id: "ti_mmwave"
point_id: 9
x: 1.4921875
y: -0.236328125
z: 0.1015625
range: 1.61234796047
velocity: 0.0
doppler_bin: 8
bearing: -8.99958229065
intensity: 24.6538276672
---
header: 
  seq: 621860
  stamp: 
    secs: 1561682248
    nsecs: 464527359
  frame_id: "ti_mmwave"
point_id: 10
x: 0.26171875
y: 0.923828125
z: -1.22265625
range: 1.65592491627
velocity: 0.0
doppler_bin: 8
bearing: 74.1826705933
intensity: 24.5939254761
---
header: 
  seq: 621861
  stamp: 
    secs: 1561682248
    nsecs: 464535961
  frame_id: "ti_mmwave"
point_id: 11
x: 2.55078125
y: -0.263671875
z: 1.1796875
range: 3.00681090355
velocity: 0.0
doppler_bin: 8
bearing: -5.90165042877
intensity: 29.4398880005
---
header: 
  seq: 621862
  stamp: 
    secs: 1561682248
    nsecs: 464566771
  frame_id: "ti_mmwave"
point_id: 12
x: 2.607421875
y: -0.267578125
z: 1.15234375
range: 3.05038785934
velocity: 0.0
doppler_bin: 8
bearing: -5.85928010941
intensity: 32.7485046387
---
header: 
  seq: 621863
  stamp: 
    secs: 1561682248
    nsecs: 464764430
  frame_id: "ti_mmwave"
point_id: 13
x: 2.666015625
y: -0.181640625
z: 1.13671875
range: 3.09396481514
velocity: 0.0
doppler_bin: 8
bearing: -3.89764523506
intensity: 31.9920654297
---
header: 
  seq: 621864
  stamp: 
    secs: 1561682248
    nsecs: 464802877
  frame_id: "ti_mmwave"
point_id: 14
x: 4.36328125
y: -0.287109375
z: 1.3671875
range: 4.88062095642
velocity: 0.0
doppler_bin: 8
bearing: -3.76470732689
intensity: 28.5853729248
---
header: 
  seq: 621865
  stamp: 
    secs: 1561682248
    nsecs: 464822730
  frame_id: "ti_mmwave"
point_id: 16
x: 0.041015625
y: -0.033203125
z: 0.0625
range: 0.0871539413929
velocity: 0.0
doppler_bin: 8
bearing: -38.9909973145
intensity: 30.0860023499
---
header: 
  seq: 621866
  stamp: 
    secs: 1561682248
    nsecs: 464837763
  frame_id: "ti_mmwave"
point_id: 17
x: 0.044921875
y: -0.046875
z: 0.103515625
range: 0.130730912089
velocity: 0.0
doppler_bin: 8
bearing: -46.218875885
intensity: 28.9707698822
---
header: 
  seq: 621867
  stamp: 
    secs: 1561682248
    nsecs: 464855330
  frame_id: "ti_mmwave"
point_id: 19
x: 1.1171875
y: -0.515625
z: 0.3046875
range: 1.35088610649
velocity: 0.0
doppler_bin: 8
bearing: -24.7751407623
intensity: 18.9209461212
---
header: 
  seq: 621868
  stamp: 
    secs: 1561682248
    nsecs: 464915221
  frame_id: "ti_mmwave"
point_id: 20
x: 1.068359375
y: 0.1796875
z: -0.935546875
range: 1.52519392967
velocity: 0.0
doppler_bin: 8
bearing: 9.54722976685
intensity: 19.9122600555
---
header: 
  seq: 621869
  stamp: 
    secs: 1561682248
    nsecs: 464930233
  frame_id: "ti_mmwave"
point_id: 21
x: 1.4609375
y: -0.33203125
z: 0.212890625
range: 1.61234796047
velocity: 0.0
doppler_bin: 8
bearing: -12.804265976
intensity: 24.6239795685
---
header: 
  seq: 621870
  stamp: 
    secs: 1561682248
    nsecs: 464939665
  frame_id: "ti_mmwave"
point_id: 22
x: 0.548828125
y: 0.58203125
z: 1.33203125
range: 1.65592491627
velocity: 0.0
doppler_bin: 8
bearing: 46.6817779541
intensity: 24.5939254761
---
header: 
  seq: 621871
  stamp: 
    secs: 1561682248
    nsecs: 464950478
  frame_id: "ti_mmwave"
point_id: 23
x: 3.58984375
y: -1.861328125
z: -2.15234375
range: 4.88062095642
velocity: 0.0
doppler_bin: 8
bearing: -27.406665802
intensity: 25.9988307953
---
header: 
  seq: 621872
  stamp: 
    secs: 1561682248
    nsecs: 465884864
  frame_id: "ti_mmwave"
point_id: 0
x: 0.01171875
y: -0.0390625
z: -0.0078125
range: 0.0435769706964
velocity: 0.0
doppler_bin: 8
bearing: -73.3007583618
intensity: 30.696680069
---
header: 
  seq: 621873
  stamp: 
    secs: 1561682248
    nsecs: 465917651
  frame_id: "ti_mmwave"
point_id: 1
x: 0.017578125
y: -0.080078125
z: -0.0078125
range: 0.0871539413929
velocity: 0.0
doppler_bin: 8
bearing: -77.6192398071
intensity: 31.9395904541
---
header: 
  seq: 621874
  stamp: 
    secs: 1561682248
    nsecs: 465936217
  frame_id: "ti_mmwave"
point_id: 2
x: 0.029296875
y: -0.119140625
z: -0.005859375
range: 0.130730912089
velocity: 0.0
doppler_bin: 8
bearing: -76.1849746704
intensity: 30.1994667053
---
header: 
  seq: 621875
  stamp: 
    secs: 1561682248
    nsecs: 465979221
  frame_id: "ti_mmwave"
point_id: 3
x: 0.056640625
y: -0.154296875
z: 0.005859375
range: 0.174307882786
velocity: 0.0
doppler_bin: 8
bearing: -69.8423843384
intensity: 25.4777469635
---
header: 
  seq: 621876
  stamp: 
    secs: 1561682248
    nsecs: 465993301
  frame_id: "ti_mmwave"
point_id: 4
x: 0.341796875
y: -0.080078125
z: -1.21875
range: 1.35088610649
velocity: 0.0
doppler_bin: 8
bearing: -13.1857614517
intensity: 21.8184356689
---
header: 
  seq: 621877
  stamp: 
    secs: 1561682248
    nsecs: 466006763
  frame_id: "ti_mmwave"
point_id: 5
x: 0.302734375
y: -0.041015625
z: 1.2734375
range: 1.39446306229
velocity: 0.0
doppler_bin: 8
bearing: -7.71567344666
intensity: 23.138671875
---
header: 
  seq: 621878
  stamp: 
    secs: 1561682248
    nsecs: 466018080
  frame_id: "ti_mmwave"
point_id: 6
x: 0.619140625
y: -0.04296875
z: 1.19921875
range: 1.43804001808
velocity: 0.0
doppler_bin: 8
bearing: -3.96999740601
intensity: 21.8184356689
---
header: 
  seq: 621879
  stamp: 
    secs: 1561682248
    nsecs: 466033967
  frame_id: "ti_mmwave"
point_id: 7
x: 1.1875
y: -0.087890625
z: 0.71875
range: 1.48161697388
velocity: 0.0
doppler_bin: 8
bearing: -4.23292350769
intensity: 22.4054927826
---
header: 
  seq: 621880
  stamp: 
    secs: 1561682248
    nsecs: 466042181
  frame_id: "ti_mmwave"
point_id: 8
x: 1.4140625
y: -0.1796875
z: 0.142578125
range: 1.52519392967
velocity: 0.0
doppler_bin: 8
bearing: -7.24186706543
intensity: 26.7577838898
---
header: 
  seq: 621881
  stamp: 
    secs: 1561682248
    nsecs: 466098156
  frame_id: "ti_mmwave"
point_id: 9
x: 1.462890625
y: -0.138671875
z: -0.095703125
range: 1.56877088547
velocity: 0.0
doppler_bin: 8
bearing: -5.41506147385
intensity: 29.7220287323
---
header: 
  seq: 621882
  stamp: 
    secs: 1561682248
    nsecs: 466182933
  frame_id: "ti_mmwave"
point_id: 10
x: 1.494140625
y: -0.142578125
z: -0.19140625
range: 1.61234796047
velocity: 0.0
doppler_bin: 8
bearing: -5.45093536377
intensity: 30.358297348
---
header: 
  seq: 621883
  stamp: 
    secs: 1561682248
    nsecs: 466200122
  frame_id: "ti_mmwave"
point_id: 11
x: 1.52734375
y: -0.146484375
z: -0.255859375
range: 1.65592491627
velocity: 0.0
doppler_bin: 8
bearing: -5.47836303711
intensity: 28.0002937317
---
header: 
  seq: 621884
  stamp: 
    secs: 1561682248
    nsecs: 466212822
  frame_id: "ti_mmwave"
point_id: 12
x: 2.541015625
y: -0.263671875
z: 1.201171875
range: 3.00681090355
velocity: 0.0
doppler_bin: 8
bearing: -5.92417097092
intensity: 29.3901977539
---
header: 
  seq: 621885
  stamp: 
    secs: 1561682248
    nsecs: 466224180
  frame_id: "ti_mmwave"
point_id: 13
x: 2.60546875
y: -0.267578125
z: 1.158203125
range: 3.05038785934
velocity: 0.0
doppler_bin: 8
bearing: -5.86364221573
intensity: 32.73695755
---
header: 
  seq: 621886
  stamp: 
    secs: 1561682248
    nsecs: 466236764
  frame_id: "ti_mmwave"
point_id: 14
x: 2.666015625
y: -0.181640625
z: 1.138671875
range: 3.09396481514
velocity: 0.0
doppler_bin: 8
bearing: -3.89764523506
intensity: 31.9645252228
---
header: 
  seq: 621887
  stamp: 
    secs: 1561682248
    nsecs: 466249858
  frame_id: "ti_mmwave"
point_id: 15
x: 4.375
y: -0.287109375
z: 1.330078125
range: 4.88062095642
velocity: 0.0
doppler_bin: 8
bearing: -3.75465154648
intensity: 28.9982051849
---
header: 
  seq: 621888
  stamp: 
    secs: 1561682248
    nsecs: 466264884
  frame_id: "ti_mmwave"
point_id: 17
x: 0.041015625
y: -0.033203125
z: 0.0625
range: 0.0871539413929
velocity: 0.0
doppler_bin: 8
bearing: -38.9909973145
intensity: 30.081741333
---
header: 
  seq: 621889
  stamp: 
    secs: 1561682248
    nsecs: 466295323
  frame_id: "ti_mmwave"
point_id: 18
x: 0.052734375
y: -0.04296875
z: 0.1015625
range: 0.130730912089
velocity: 0.0
doppler_bin: 8
bearing: -39.1736602783
intensity: 28.9652614594
---
header: 
  seq: 621890
  stamp: 
    secs: 1561682248
    nsecs: 466320187
  frame_id: "ti_mmwave"
point_id: 20
x: 1.111328125
y: -0.515625
z: 0.328125
range: 1.35088610649
velocity: 0.0
doppler_bin: 8
bearing: -24.8899745941
intensity: 18.9209461212
---
header: 
  seq: 621891
  stamp: 
    secs: 1561682248
    nsecs: 466397926
  frame_id: "ti_mmwave"
point_id: 22
x: 3.529296875
y: -1.861328125
z: -2.251953125
range: 4.88062095642
velocity: 0.0
doppler_bin: 8
bearing: -27.8068714142
intensity: 26.2634029388
---
header: 
  seq: 621892
  stamp: 
    secs: 1561682248
    nsecs: 524243420
  frame_id: "ti_mmwave"
point_id: 0
x: 0.01171875
y: -0.0390625
z: -0.0078125
range: 0.0435769706964
velocity: 0.0
doppler_bin: 8
bearing: -73.3007583618
intensity: 30.7040729523
---
header: 
  seq: 621893
  stamp: 
    secs: 1561682248
    nsecs: 524318082
  frame_id: "ti_mmwave"
point_id: 1
x: 0.017578125
y: -0.080078125
z: -0.0078125
range: 0.0871539413929
velocity: 0.0
doppler_bin: 8
bearing: -77.6192398071
intensity: 31.9423675537
---
header: 
  seq: 621894
  stamp: 
    secs: 1561682248
    nsecs: 524329171
  frame_id: "ti_mmwave"
point_id: 2
x: 0.029296875
y: -0.119140625
z: -0.005859375
range: 0.130730912089
velocity: 0.0
doppler_bin: 8
bearing: -76.1849746704
intensity: 30.1994667053
---
header: 
  seq: 621895
  stamp: 
    secs: 1561682248
    nsecs: 524341098
  frame_id: "ti_mmwave"
point_id: 3
x: 0.056640625
y: -0.154296875
z: 0.005859375
range: 0.174307882786
velocity: 0.0
doppler_bin: 8
bearing: -69.8423843384
intensity: 25.4777469635
---
header: 
  seq: 621896
  stamp: 
    secs: 1561682248
    nsecs: 524349372
  frame_id: "ti_mmwave"
point_id: 4
x: 0.3359375
y: -0.080078125
z: -1.220703125
range: 1.35088610649
velocity: 0.0
doppler_bin: 8
bearing: -13.4075088501
intensity: 21.875207901
---
header: 
  seq: 621897
  stamp: 
    secs: 1561682248
    nsecs: 524357408
  frame_id: "ti_mmwave"
point_id: 5
x: 0.291015625
y: -0.041015625
z: 1.275390625
range: 1.39446306229
velocity: 0.0
doppler_bin: 8
bearing: -8.02240371704
intensity: 23.1597042084
---
header: 
  seq: 621898
  stamp: 
    secs: 1561682248
    nsecs: 524365078
  frame_id: "ti_mmwave"
point_id: 6
x: 0.490234375
y: -0.04296875
z: 1.2578125
range: 1.43804001808
velocity: 0.0
doppler_bin: 8
bearing: -5.00914001465
intensity: 21.8184356689
---
header: 
  seq: 621899
  stamp: 
    secs: 1561682248
    nsecs: 524373631
  frame_id: "ti_mmwave"
point_id: 7
x: 1.40625
y: -0.08984375
z: 0.248046875
range: 1.52519392967
velocity: 0.0
doppler_bin: 8
bearing: -3.65559530258
intensity: 23.6172790527
---
header: 
  seq: 621900
  stamp: 
    secs: 1561682248
    nsecs: 524400022
  frame_id: "ti_mmwave"
point_id: 8
x: 1.466796875
y: -0.091796875
z: -0.099609375
range: 1.56877088547
velocity: 0.0
doppler_bin: 8
bearing: -3.58108401299
intensity: 28.2477645874
---
header: 
  seq: 621901
  stamp: 
    secs: 1561682248
    nsecs: 524417740
  frame_id: "ti_mmwave"
point_id: 9
x: 1.5
y: -0.046875
z: -0.193359375
range: 1.61234796047
velocity: 0.0
doppler_bin: 8
bearing: -1.7899106741
intensity: 29.4151134491
---
header: 
  seq: 621902
  stamp: 
    secs: 1561682248
    nsecs: 524428083
  frame_id: "ti_mmwave"
point_id: 10
x: 1.5390625
y: -0.09765625
z: -0.203125
range: 1.65592491627
velocity: 0.0
doppler_bin: 8
bearing: -3.630651474
intensity: 27.466342926
---
header: 
  seq: 621903
  stamp: 
    secs: 1561682248
    nsecs: 524623365
  frame_id: "ti_mmwave"
point_id: 11
x: 2.5546875
y: -0.263671875
z: 1.169921875
range: 3.00681090355
velocity: 0.0
doppler_bin: 8
bearing: -5.89269018173
intensity: 29.5133743286
---
header: 
  seq: 621904
  stamp: 
    secs: 1561682248
    nsecs: 524645311
  frame_id: "ti_mmwave"
point_id: 12
x: 2.60546875
y: -0.267578125
z: 1.158203125
range: 3.05038785934
velocity: 0.0
doppler_bin: 8
bearing: -5.86364221573
intensity: 32.7461967468
---
header: 
  seq: 621905
  stamp: 
    secs: 1561682248
    nsecs: 524684818
  frame_id: "ti_mmwave"
point_id: 13
x: 2.662109375
y: -0.181640625
z: 1.1484375
range: 3.09396481514
velocity: 0.0
doppler_bin: 8
bearing: -3.90334677696
intensity: 31.945142746
---
header: 
  seq: 621906
  stamp: 
    secs: 1561682248
    nsecs: 524704287
  frame_id: "ti_mmwave"
point_id: 14
x: 4.388671875
y: -0.287109375
z: 1.28515625
range: 4.88062095642
velocity: 0.0
doppler_bin: 8
bearing: -3.74298858643
intensity: 29.4694328308
---
header: 
  seq: 621907
  stamp: 
    secs: 1561682248
    nsecs: 524712855
  frame_id: "ti_mmwave"
point_id: 15
x: 4.416015625
y: -0.2890625
z: 1.3359375
range: 4.9241976738
velocity: 0.0
doppler_bin: 8
bearing: -3.74511051178
intensity: 29.247959137
---
header: 
  seq: 621908
  stamp: 
    secs: 1561682248
    nsecs: 524796977
  frame_id: "ti_mmwave"
point_id: 17
x: 0.041015625
y: -0.033203125
z: 0.0625
range: 0.0871539413929
velocity: 0.0
doppler_bin: 8
bearing: -38.9909973145
intensity: 30.081741333
---
header: 
  seq: 621909
  stamp: 
    secs: 1561682248
    nsecs: 524819179
  frame_id: "ti_mmwave"
point_id: 18
x: 0.052734375
y: -0.04296875
z: 0.1015625
range: 0.130730912089
velocity: 0.0
doppler_bin: 8
bearing: -39.1736602783
intensity: 28.9652614594
---
header: 
  seq: 621910
  stamp: 
    secs: 1561682248
    nsecs: 524836416
  frame_id: "ti_mmwave"
point_id: 20
x: 1.115234375
y: -0.515625
z: 0.314453125
range: 1.35088610649
velocity: 0.0
doppler_bin: 8
bearing: -24.8133087158
intensity: 18.9762706757
---
header: 
  seq: 621911
  stamp: 
    secs: 1561682248
    nsecs: 524882468
  frame_id: "ti_mmwave"
point_id: 22
x: 3.39453125
y: -1.861328125
z: -2.451171875
range: 4.88062095642
velocity: 0.0
doppler_bin: 8
bearing: -28.7373447418
intensity: 26.532125473
---
header: 
  seq: 621912
  stamp: 
    secs: 1561682248
    nsecs: 524895957
  frame_id: "ti_mmwave"
point_id: 23
x: 3.4296875
y: -2.021484375
z: -2.34765625
range: 4.9241976738
velocity: 0.0
doppler_bin: 8
bearing: -30.5154266357
intensity: 26.3245735168
---
header: 
  seq: 621913
  stamp: 
    secs: 1561682248
    nsecs: 525721374
  frame_id: "ti_mmwave"
point_id: 0
x: 0.01171875
y: -0.0390625
z: -0.0078125
range: 0.0435769706964
velocity: 0.0
doppler_bin: 8
bearing: -73.3007583618
intensity: 30.700378418
---
header: 
  seq: 621914
  stamp: 
    secs: 1561682248
    nsecs: 525775919
  frame_id: "ti_mmwave"
point_id: 1
x: 0.017578125
y: -0.080078125
z: -0.0078125
range: 0.0871539413929
velocity: 0.0
doppler_bin: 8
bearing: -77.6192398071
intensity: 31.9395904541
---
header: 
  seq: 621915
  stamp: 
    secs: 1561682248
    nsecs: 525794842
  frame_id: "ti_mmwave"
point_id: 2
x: 0.029296875
y: -0.119140625
z: -0.005859375
range: 0.130730912089
velocity: 0.0
doppler_bin: 8
bearing: -76.1849746704
intensity: 30.1994667053
---
header: 
  seq: 621916
  stamp: 
    secs: 1561682248
    nsecs: 525808890
  frame_id: "ti_mmwave"
point_id: 3
x: 0.056640625
y: -0.154296875
z: 0.005859375
range: 0.174307882786
velocity: 0.0
doppler_bin: 8
bearing: -69.8423843384
intensity: 25.4654273987
---
header: 
  seq: 621917
  stamp: 
    secs: 1561682248
    nsecs: 525821694
  frame_id: "ti_mmwave"
point_id: 4
x: 0.314453125
y: -0.080078125
z: -1.2265625
range: 1.35088610649
velocity: 0.0
doppler_bin: 8
bearing: -14.2871713638
intensity: 21.875207901
---
header: 
  seq: 621918
  stamp: 
    secs: 1561682248
    nsecs: 525833110
  frame_id: "ti_mmwave"
point_id: 5
x: 0.30078125
y: -0.041015625
z: 1.2734375
range: 1.39446306229
velocity: 0.0
doppler_bin: 8
bearing: -7.76516628265
intensity: 23.1597042084
---
header: 
  seq: 621919
  stamp: 
    secs: 1561682248
    nsecs: 525847294
  frame_id: "ti_mmwave"
point_id: 6
x: 0.685546875
y: -0.04296875
z: 1.162109375
range: 1.43804001808
velocity: 0.0
doppler_bin: 8
bearing: -3.58649682999
intensity: 21.7609119415
---
header: 
  seq: 621920
  stamp: 
    secs: 1561682248
    nsecs: 525860869
  frame_id: "ti_mmwave"
point_id: 7
x: 1.16015625
y: -0.087890625
z: 0.759765625
range: 1.48161697388
velocity: 0.0
doppler_bin: 8
bearing: -4.33231449127
intensity: 22.4303798676
---
header: 
  seq: 621921
  stamp: 
    secs: 1561682248
    nsecs: 525872348
  frame_id: "ti_mmwave"
point_id: 8
x: 1.3828125
y: -0.1796875
z: 0.326171875
range: 1.52519392967
velocity: 0.0
doppler_bin: 8
bearing: -7.40372848511
intensity: 24.3136367798
---
header: 
  seq: 621922
  stamp: 
    secs: 1561682248
    nsecs: 525885381
  frame_id: "ti_mmwave"
point_id: 9
x: 1.4609375
y: -0.18359375
z: -0.0546875
range: 1.56877088547
velocity: 0.0
doppler_bin: 8
bearing: -7.16272354126
intensity: 27.6417617798
---
header: 
  seq: 621923
  stamp: 
    secs: 1561682248
    nsecs: 526026879
  frame_id: "ti_mmwave"
point_id: 10
x: 1.490234375
y: -0.189453125
z: -0.1875
range: 1.61234796047
velocity: 0.0
doppler_bin: 8
bearing: -7.24513244629
intensity: 29.2272548676
---
header: 
