header: 
  seq: 592043
  stamp: 
    secs: 1561682201
    nsecs: 334360424
  frame_id: "ti_mmwave"
point_id: 0
x: 0.01171875
y: -0.0390625
z: -0.0078125
range: 0.0435769706964
velocity: 0.0
doppler_bin: 8
bearing: -73.3007583618
intensity: 30.700378418
---
header: 
  seq: 592044
  stamp: 
    secs: 1561682201
    nsecs: 334437454
  frame_id: "ti_mmwave"
point_id: 1
x: 0.017578125
y: -0.080078125
z: -0.0078125
range: 0.0871539413929
velocity: 0.0
doppler_bin: 8
bearing: -77.6192398071
intensity: 31.945142746
---
header: 
  seq: 592045
  stamp: 
    secs: 1561682201
    nsecs: 334457952
  frame_id: "ti_mmwave"
point_id: 2
x: 0.029296875
y: -0.119140625
z: -0.005859375
range: 0.130730912089
velocity: 0.0
doppler_bin: 8
bearing: -76.1849746704
intensity: 30.2077541351
---
header: 
  seq: 592046
  stamp: 
    secs: 1561682201
    nsecs: 334470279
  frame_id: "ti_mmwave"
point_id: 3
x: 0.056640625
y: -0.154296875
z: 0.005859375
range: 0.174307882786
velocity: 0.0
doppler_bin: 8
bearing: -69.8423843384
intensity: 25.4777469635
---
header: 
  seq: 592047
  stamp: 
    secs: 1561682201
    nsecs: 334480648
  frame_id: "ti_mmwave"
point_id: 4
x: 0.32421875
y: -0.080078125
z: -1.22265625
range: 1.35088610649
velocity: 0.0
doppler_bin: 8
bearing: -13.8737030029
intensity: 21.875207901
---
header: 
  seq: 592048
  stamp: 
    secs: 1561682201
    nsecs: 334490226
  frame_id: "ti_mmwave"
point_id: 5
x: 0.330078125
y: -0.041015625
z: 1.265625
range: 1.39446306229
velocity: 0.0
doppler_bin: 8
bearing: -7.0832862854
intensity: 23.1806335449
---
header: 
  seq: 592049
  stamp: 
    secs: 1561682201
    nsecs: 334498907
  frame_id: "ti_mmwave"
point_id: 6
x: 0.27734375
y: -0.0
z: 1.322265625
range: 1.43804001808
velocity: 0.0
doppler_bin: 8
bearing: -0.0
intensity: 21.9033164978
---
header: 
  seq: 592050
  stamp: 
    secs: 1561682201
    nsecs: 334508449
  frame_id: "ti_mmwave"
point_id: 7
x: 1.3671875
y: -0.134765625
z: -0.40234375
range: 1.52519392967
velocity: 0.0
doppler_bin: 8
bearing: -5.62954092026
intensity: 24.1497325897
---
header: 
  seq: 592051
  stamp: 
    secs: 1561682201
    nsecs: 334517928
  frame_id: "ti_mmwave"
point_id: 8
x: 1.44921875
y: -0.138671875
z: -0.224609375
range: 1.56877088547
velocity: 0.0
doppler_bin: 8
bearing: -5.46583890915
intensity: 27.5281639099
---
header: 
  seq: 592052
  stamp: 
    secs: 1561682201
    nsecs: 334527897
  frame_id: "ti_mmwave"
point_id: 9
x: 1.49609375
y: -0.142578125
z: -0.17578125
range: 1.61234796047
velocity: 0.0
doppler_bin: 8
bearing: -5.44386196136
intensity: 29.8587532043
---
header: 
  seq: 592053
  stamp: 
    secs: 1561682201
    nsecs: 334536782
  frame_id: "ti_mmwave"
point_id: 10
x: 1.5390625
y: -0.146484375
z: -0.169921875
range: 1.65592491627
velocity: 0.0
doppler_bin: 8
bearing: -5.43690061569
intensity: 29.4151134491
---
header: 
  seq: 592054
  stamp: 
    secs: 1561682201
    nsecs: 334558945
  frame_id: "ti_mmwave"
point_id: 11
x: 2.55078125
y: -0.263671875
z: 1.1796875
range: 3.00681090355
velocity: 0.0
doppler_bin: 8
bearing: -5.90165042877
intensity: 29.4596061707
---
header: 
  seq: 592055
  stamp: 
    secs: 1561682201
    nsecs: 334575391
  frame_id: "ti_mmwave"
point_id: 12
x: 2.599609375
y: -0.267578125
z: 1.169921875
range: 3.05038785934
velocity: 0.0
doppler_bin: 8
bearing: -5.87676620483
intensity: 32.7091178894
---
header: 
  seq: 592056
  stamp: 
    secs: 1561682201
    nsecs: 334589716
  frame_id: "ti_mmwave"
point_id: 13
x: 2.66015625
y: -0.181640625
z: 1.150390625
range: 3.09396481514
velocity: 0.0
doppler_bin: 8
bearing: -3.90620398521
intensity: 31.9423675537
---
header: 
  seq: 592057
  stamp: 
    secs: 1561682201
    nsecs: 334604050
  frame_id: "ti_mmwave"
point_id: 14
x: 4.3828125
y: -0.287109375
z: 1.3046875
range: 4.88062095642
velocity: 0.0
doppler_bin: 8
bearing: -3.74797797203
intensity: 29.4299964905
---
header: 
  seq: 592058
  stamp: 
    secs: 1561682201
    nsecs: 334612224
  frame_id: "ti_mmwave"
point_id: 15
x: 4.416015625
y: -0.2890625
z: 1.3359375
range: 4.9241976738
velocity: 0.0
doppler_bin: 8
bearing: -3.74511051178
intensity: 29.2634239197
---
header: 
  seq: 592059
  stamp: 
    secs: 1561682201
    nsecs: 334628348
  frame_id: "ti_mmwave"
point_id: 17
x: 0.041015625
y: -0.033203125
z: 0.0625
range: 0.0871539413929
velocity: 0.0
doppler_bin: 8
bearing: -38.9909973145
intensity: 30.0902576447
---
header: 
  seq: 592060
  stamp: 
    secs: 1561682201
    nsecs: 334636648
  frame_id: "ti_mmwave"
point_id: 18
x: 0.052734375
y: -0.04296875
z: 0.1015625
range: 0.130730912089
velocity: 0.0
doppler_bin: 8
bearing: -39.1736602783
intensity: 28.9762706757
---
header: 
  seq: 592061
  stamp: 
    secs: 1561682201
    nsecs: 334811695
  frame_id: "ti_mmwave"
point_id: 20
x: 1.11328125
y: -0.515625
z: 0.318359375
range: 1.35088610649
velocity: 0.0
doppler_bin: 8
bearing: -24.8515853882
intensity: 18.9762706757
---
header: 
  seq: 592062
  stamp: 
    secs: 1561682201
    nsecs: 334839433
  frame_id: "ti_mmwave"
point_id: 21
x: 0.919921875
y: 0.4375
z: 1.173828125
range: 1.65592491627
velocity: 0.0
doppler_bin: 8
bearing: 25.4350070953
intensity: 26.503074646
---
header: 
  seq: 592063
  stamp: 
    secs: 1561682201
    nsecs: 334854016
  frame_id: "ti_mmwave"
point_id: 22
x: 3.42578125
y: -1.861328125
z: -2.40625
range: 4.88062095642
velocity: 0.0
doppler_bin: 8
bearing: -28.5165405273
intensity: 26.6086540222
---
header: 
  seq: 592064
  stamp: 
    secs: 1561682201
    nsecs: 334865772
  frame_id: "ti_mmwave"
point_id: 23
x: 3.44921875
y: -2.021484375
z: -2.318359375
range: 4.9241976738
velocity: 0.0
doppler_bin: 8
bearing: -30.373298645
intensity: 26.3245735168
---
header: 
  seq: 592065
  stamp: 
    secs: 1561682201
    nsecs: 335912329
  frame_id: "ti_mmwave"
point_id: 0
x: 0.01171875
y: -0.0390625
z: -0.0078125
range: 0.0435769706964
velocity: 0.0
doppler_bin: 8
bearing: -73.3007583618
intensity: 30.7040729523
---
header: 
  seq: 592066
  stamp: 
    secs: 1561682201
    nsecs: 335982504
  frame_id: "ti_mmwave"
point_id: 1
x: 0.017578125
y: -0.080078125
z: -0.0078125
range: 0.0871539413929
velocity: 0.0
doppler_bin: 8
bearing: -77.6192398071
intensity: 31.945142746
---
header: 
  seq: 592067
  stamp: 
    secs: 1561682201
    nsecs: 335998803
  frame_id: "ti_mmwave"
point_id: 2
x: 0.029296875
y: -0.119140625
z: -0.005859375
range: 0.130730912089
velocity: 0.0
doppler_bin: 8
bearing: -76.1849746704
intensity: 30.2077541351
---
header: 
  seq: 592068
  stamp: 
    secs: 1561682201
    nsecs: 336012557
  frame_id: "ti_mmwave"
point_id: 3
x: 0.056640625
y: -0.154296875
z: 0.005859375
range: 0.174307882786
velocity: 0.0
doppler_bin: 8
bearing: -69.8423843384
intensity: 25.4777469635
---
header: 
  seq: 592069
  stamp: 
    secs: 1561682201
    nsecs: 336044765
  frame_id: "ti_mmwave"
point_id: 4
x: 0.345703125
y: -0.080078125
z: -1.216796875
range: 1.35088610649
velocity: 0.0
doppler_bin: 8
bearing: -13.0418901443
intensity: 21.8184356689
---
header: 
  seq: 592070
  stamp: 
    secs: 1561682201
    nsecs: 336126825
  frame_id: "ti_mmwave"
point_id: 5
x: 0.30078125
y: -0.041015625
z: 1.2734375
range: 1.39446306229
velocity: 0.0
doppler_bin: 8
bearing: -7.76516628265
intensity: 23.1597042084
---
header: 
  seq: 592071
  stamp: 
    secs: 1561682201
    nsecs: 336142735
  frame_id: "ti_mmwave"
point_id: 6
x: 0.53125
y: -0.04296875
z: 1.240234375
range: 1.43804001808
velocity: 0.0
doppler_bin: 8
bearing: -4.6241517067
intensity: 21.9865703583
---
header: 
  seq: 592072
  stamp: 
    secs: 1561682201
    nsecs: 336154169
  frame_id: "ti_mmwave"
point_id: 7
x: 1.154296875
y: -0.087890625
z: 0.771484375
range: 1.48161697388
velocity: 0.0
doppler_bin: 8
bearing: -4.35422134399
intensity: 22.6245117188
---
header: 
  seq: 592073
  stamp: 
    secs: 1561682201
    nsecs: 336169336
  frame_id: "ti_mmwave"
point_id: 8
x: 1.41796875
y: -0.134765625
z: 0.154296875
range: 1.52519392967
velocity: 0.0
doppler_bin: 8
bearing: -5.42915868759
intensity: 26.4246444702
---
header: 
  seq: 592074
  stamp: 
    secs: 1561682201
    nsecs: 336182386
  frame_id: "ti_mmwave"
point_id: 9
x: 1.462890625
y: -0.138671875
z: -0.087890625
range: 1.56877088547
velocity: 0.0
doppler_bin: 8
bearing: -5.41506147385
intensity: 30.3181228638
---
header: 
  seq: 592075
  stamp: 
    secs: 1561682201
    nsecs: 336197508
  frame_id: "ti_mmwave"
point_id: 10
x: 1.498046875
y: -0.142578125
z: -0.158203125
range: 1.61234796047
velocity: 0.0
doppler_bin: 8
bearing: -5.43680667877
intensity: 32.4895362854
---
header: 
  seq: 592076
  stamp: 
    secs: 1561682201
    nsecs: 336210379
  frame_id: "ti_mmwave"
point_id: 11
x: 1.54296875
y: -0.09765625
z: -0.154296875
range: 1.65592491627
velocity: 0.0
doppler_bin: 8
bearing: -3.62148451805
intensity: 32.04662323
---
header: 
  seq: 592077
  stamp: 
    secs: 1561682201
    nsecs: 336274753
  frame_id: "ti_mmwave"
point_id: 12
x: 1.58203125
y: -0.099609375
z: -0.185546875
range: 1.69950187206
velocity: 0.0
doppler_bin: 8
bearing: -3.60275626183
intensity: 28.9817657471
---
header: 
  seq: 592078
  stamp: 
    secs: 1561682201
    nsecs: 336291898
  frame_id: "ti_mmwave"
point_id: 13
x: 2.55859375
y: -0.263671875
z: 1.1640625
range: 3.00681090355
velocity: 0.0
doppler_bin: 8
bearing: -5.88375711441
intensity: 29.4250411987
---
header: 
  seq: 592079
  stamp: 
    secs: 1561682201
    nsecs: 336306751
  frame_id: "ti_mmwave"
point_id: 14
x: 2.609375
y: -0.267578125
z: 1.150390625
range: 3.05038785934
velocity: 0.0
doppler_bin: 8
bearing: -5.85492515564
intensity: 32.7184143066
---
header: 
  seq: 592080
  stamp: 
    secs: 1561682201
    nsecs: 336323383
  frame_id: "ti_mmwave"
point_id: 15
x: 2.666015625
y: -0.181640625
z: 1.138671875
range: 3.09396481514
velocity: 0.0
doppler_bin: 8
bearing: -3.89764523506
intensity: 31.9672870636
---
header: 
  seq: 592081
  stamp: 
    secs: 1561682201
    nsecs: 336342704
  frame_id: "ti_mmwave"
point_id: 16
x: 4.3828125
y: -0.287109375
z: 1.302734375
range: 4.88062095642
velocity: 0.0
doppler_bin: 8
bearing: -3.74797797203
intensity: 29.9122600555
---
header: 
  seq: 592082
  stamp: 
    secs: 1561682201
    nsecs: 336390553
  frame_id: "ti_mmwave"
point_id: 17
x: 4.419921875
y: -0.2890625
z: 1.3203125
range: 4.9241976738
velocity: 0.0
doppler_bin: 8
bearing: -3.74181032181
intensity: 29.6284275055
---
header: 
  seq: 592083
  stamp: 
    secs: 1561682201
    nsecs: 336410665
  frame_id: "ti_mmwave"
point_id: 19
x: 0.041015625
y: -0.033203125
z: 0.0625
range: 0.0871539413929
velocity: 0.0
doppler_bin: 8
bearing: -38.9909973145
intensity: 30.0902576447
---
header: 
  seq: 592084
  stamp: 
    secs: 1561682201
    nsecs: 336426856
  frame_id: "ti_mmwave"
point_id: 20
x: 0.052734375
y: -0.04296875
z: 0.1015625
range: 0.130730912089
velocity: 0.0
doppler_bin: 8
bearing: -39.1736602783
intensity: 28.9707698822
---
header: 
  seq: 592085
  stamp: 
    secs: 1561682201
    nsecs: 336450134
  frame_id: "ti_mmwave"
point_id: 22
x: 1.119140625
y: -0.515625
z: 0.298828125
range: 1.35088610649
velocity: 0.0
doppler_bin: 8
bearing: -24.7370834351
intensity: 19.0308990479
---
header: 
  seq: 592086
  stamp: 
    secs: 1561682201
    nsecs: 394574909
  frame_id: "ti_mmwave"
point_id: 0
x: 0.01171875
y: -0.0390625
z: -0.0078125
range: 0.0435769706964
velocity: 0.0
doppler_bin: 8
bearing: -73.3007583618
intensity: 30.700378418
---
header: 
  seq: 592087
  stamp: 
    secs: 1561682201
    nsecs: 394651418
  frame_id: "ti_mmwave"
point_id: 1
x: 0.017578125
y: -0.080078125
z: -0.0078125
range: 0.0871539413929
velocity: 0.0
doppler_bin: 8
bearing: -77.6192398071
intensity: 31.9423675537
---
header: 
  seq: 592088
  stamp: 
    secs: 1561682201
    nsecs: 394663509
  frame_id: "ti_mmwave"
point_id: 2
x: 0.029296875
y: -0.119140625
z: -0.005859375
range: 0.130730912089
velocity: 0.0
doppler_bin: 8
bearing: -76.1849746704
intensity: 30.1994667053
---
header: 
  seq: 592089
  stamp: 
    secs: 1561682201
    nsecs: 394673819
  frame_id: "ti_mmwave"
point_id: 3
x: 0.056640625
y: -0.154296875
z: 0.005859375
range: 0.174307882786
velocity: 0.0
doppler_bin: 8
bearing: -69.8423843384
intensity: 25.4654273987
---
header: 
  seq: 592090
  stamp: 
    secs: 1561682201
    nsecs: 394684871
  frame_id: "ti_mmwave"
point_id: 4
x: 0.32421875
y: -0.080078125
z: -1.22265625
range: 1.35088610649
velocity: 0.0
doppler_bin: 8
bearing: -13.8737030029
intensity: 21.9033164978
---
header: 
  seq: 592091
  stamp: 
    secs: 1561682201
    nsecs: 394696241
  frame_id: "ti_mmwave"
point_id: 5
x: 0.298828125
y: -0.041015625
z: 1.2734375
range: 1.39446306229
velocity: 0.0
doppler_bin: 8
bearing: -7.81529378891
intensity: 23.2014636993
---
header: 
  seq: 592092
  stamp: 
    secs: 1561682201
    nsecs: 394706308
  frame_id: "ti_mmwave"
point_id: 6
x: 0.025390625
y: -0.0
z: 1.349609375
range: 1.43804001808
velocity: 0.0
doppler_bin: 8
bearing: -0.0
intensity: 21.6731739044
---
header: 
  seq: 592093
  stamp: 
    secs: 1561682201
    nsecs: 394731539
  frame_id: "ti_mmwave"
point_id: 7
x: 1.41015625
y: -0.1796875
z: 0.166015625
range: 1.52519392967
velocity: 0.0
doppler_bin: 8
bearing: -7.26171350479
intensity: 25.2891674042
---
header: 
  seq: 592094
  stamp: 
    secs: 1561682201
    nsecs: 394748276
  frame_id: "ti_mmwave"
point_id: 8
x: 1.439453125
y: -0.138671875
z: -0.28125
range: 1.56877088547
velocity: 0.0
doppler_bin: 8
bearing: -5.50269365311
intensity: 27.7305469513
---
header: 
  seq: 592095
  stamp: 
    secs: 1561682201
    nsecs: 394757857
  frame_id: "ti_mmwave"
point_id: 9
x: 1.45703125
y: -0.189453125
z: -0.365234375
range: 1.61234796047
velocity: 0.0
doppler_bin: 8
bearing: -7.40842199326
intensity: 31.1327476501
---
header: 
  seq: 592096
  stamp: 
    secs: 1561682201
    nsecs: 394931808
  frame_id: "ti_mmwave"
point_id: 10
x: 1.49609375
y: -0.193359375
z: -0.37109375
range: 1.65592491627
velocity: 0.0
doppler_bin: 8
bearing: -7.36424589157
intensity: 30.6855697632
---
header: 
  seq: 592097
  stamp: 
    secs: 1561682201
    nsecs: 394952085
  frame_id: "ti_mmwave"
point_id: 11
x: 2.556640625
y: -0.263671875
z: 1.16796875
range: 3.00681090355
velocity: 0.0
doppler_bin: 8
bearing: -5.88822031021
intensity: 29.4694328308
---
header: 
  seq: 592098
  stamp: 
    secs: 1561682201
    nsecs: 394964997
  frame_id: "ti_mmwave"
point_id: 12
x: 2.609375
y: -0.267578125
z: 1.1484375
range: 3.05038785934
velocity: 0.0
doppler_bin: 8
bearing: -5.85492515564
intensity: 32.743888855
---
header: 
  seq: 592099
  stamp: 
    secs: 1561682201
    nsecs: 394975517
  frame_id: "ti_mmwave"
point_id: 13
x: 2.66796875
y: -0.181640625
z: 1.1328125
range: 3.09396481514
velocity: 0.0
doppler_bin: 8
bearing: -3.89480042458
intensity: 31.9340286255
---
header: 
  seq: 592100
  stamp: 
    secs: 1561682201
    nsecs: 395018747
  frame_id: "ti_mmwave"
point_id: 14
x: 4.3984375
y: -0.287109375
z: 1.24609375
range: 4.88062095642
velocity: 0.0
doppler_bin: 8
bearing: -3.73470139503
intensity: 30.4571399689
---
header: 
  seq: 592101
  stamp: 
    secs: 1561682201
    nsecs: 395028539
  frame_id: "ti_mmwave"
point_id: 15
x: 4.443359375
y: -0.2890625
z: 1.23828125
range: 4.9241976738
velocity: 0.0
doppler_bin: 8
bearing: -3.72212862968
intensity: 30.2201576233
---
header: 
  seq: 592102
  stamp: 
    secs: 1561682201
    nsecs: 395075736
  frame_id: "ti_mmwave"
point_id: 17
x: 0.041015625
y: -0.033203125
z: 0.0625
range: 0.0871539413929
velocity: 0.0
doppler_bin: 8
bearing: -38.9909973145
intensity: 30.0860023499
---
header: 
  seq: 592103
  stamp: 
    secs: 1561682201
    nsecs: 395085813
  frame_id: "ti_mmwave"
point_id: 18
x: 0.052734375
y: -0.04296875
z: 0.1015625
range: 0.130730912089
velocity: 0.0
doppler_bin: 8
bearing: -39.1736602783
intensity: 28.9652614594
---
header: 
  seq: 592104
  stamp: 
    secs: 1561682201
    nsecs: 396069092
  frame_id: "ti_mmwave"
point_id: 0
x: 0.01171875
y: -0.0390625
z: -0.0078125
range: 0.0435769706964
velocity: 0.0
doppler_bin: 8
bearing: -73.3007583618
intensity: 30.7040729523
---
header: 
  seq: 592105
  stamp: 
    secs: 1561682201
    nsecs: 396123280
  frame_id: "ti_mmwave"
point_id: 1
x: 0.017578125
y: -0.080078125
z: -0.0078125
range: 0.0871539413929
velocity: 0.0
doppler_bin: 8
bearing: -77.6192398071
intensity: 31.945142746
---
header: 
  seq: 592106
  stamp: 
    secs: 1561682201
    nsecs: 396136598
  frame_id: "ti_mmwave"
point_id: 2
x: 0.029296875
y: -0.119140625
z: -0.005859375
range: 0.130730912089
velocity: 0.0
doppler_bin: 8
bearing: -76.1849746704
intensity: 30.2036132812
---
header: 
  seq: 592107
  stamp: 
    secs: 1561682201
    nsecs: 396145242
  frame_id: "ti_mmwave"
point_id: 3
x: 0.056640625
y: -0.154296875
z: 0.005859375
range: 0.174307882786
velocity: 0.0
doppler_bin: 8
bearing: -69.8423843384
intensity: 25.4777469635
---
header: 
  seq: 592108
  stamp: 
    secs: 1561682201
    nsecs: 396153088
  frame_id: "ti_mmwave"
point_id: 4
x: 0.333984375
y: -0.080078125
z: -1.220703125
range: 1.35088610649
velocity: 0.0
doppler_bin: 8
bearing: -13.4830598831
intensity: 21.8184356689
---
header: 
  seq: 592109
  stamp: 
    secs: 1561682201
    nsecs: 396160729
  frame_id: "ti_mmwave"
point_id: 5
x: 0.318359375
y: -0.041015625
z: 1.26953125
range: 1.39446306229
velocity: 0.0
doppler_bin: 8
bearing: -7.34122562408
intensity: 23.1597042084
---
header: 
  seq: 592110
  stamp: 
    secs: 1561682201
    nsecs: 396168313
  frame_id: "ti_mmwave"
point_id: 6
x: 0.4375
y: -0.04296875
z: 1.275390625
range: 1.43804001808
velocity: 0.0
doppler_bin: 8
bearing: -5.60927438736
intensity: 22.1748390198
---
header: 
  seq: 592111
  stamp: 
    secs: 1561682201
    nsecs: 396176129
  frame_id: "ti_mmwave"
point_id: 7
x: 0.984375
y: 0.134765625
z: -1.03125
range: 1.52519392967
velocity: 0.0
doppler_bin: 8
bearing: 7.79560232162
intensity: 19.8677177429
---
header: 
  seq: 592112
  stamp: 
    secs: 1561682201
    nsecs: 396184213
  frame_id: "ti_mmwave"
point_id: 8
x: 1.4609375
y: -0.18359375
z: -0.05078125
range: 1.56877088547
velocity: 0.0
doppler_bin: 8
bearing: -7.16272354126
intensity: 27.1011734009
---
header: 
  seq: 592113
  stamp: 
    secs: 1561682201
    nsecs: 396193455
  frame_id: "ti_mmwave"
point_id: 9
x: 1.498046875
y: -0.189453125
z: -0.109375
range: 1.61234796047
velocity: 0.0
doppler_bin: 8
bearing: -7.20774745941
intensity: 29.7863693237
---
header: 
  seq: 592114
  stamp: 
    secs: 1561682201
    nsecs: 396202312
  frame_id: "ti_mmwave"
point_id: 10
x: 1.544921875
y: -0.146484375
z: -0.103515625
range: 1.65592491627
velocity: 0.0
doppler_bin: 8
bearing: -5.41640329361
intensity: 29.0794849396
---
header: 
  seq: 592115
  stamp: 
    secs: 1561682201
    nsecs: 396211737
  frame_id: "ti_mmwave"
point_id: 11
x: 2.544921875
y: -0.263671875
z: 1.19140625
range: 3.00681090355
velocity: 0.0
doppler_bin: 8
bearing: -5.91514253616
intensity: 29.4546852112
---
header: 
  seq: 592116
  stamp: 
    secs: 1561682201
    nsecs: 396220201
  frame_id: "ti_mmwave"
point_id: 12
x: 2.60546875
y: -0.267578125
z: 1.158203125
range: 3.05038785934
velocity: 0.0
doppler_bin: 8
bearing: -5.86364221573
intensity: 32.7692108154
---
header: 
  seq: 592117
  stamp: 
    secs: 1561682201
    nsecs: 396228722
  frame_id: "ti_mmwave"
point_id: 13
x: 2.66796875
y: -0.181640625
z: 1.134765625
range: 3.09396481514
velocity: 0.0
doppler_bin: 8
bearing: -3.89480042458
intensity: 32.0030326843
---
header: 
  seq: 592118
  stamp: 
    secs: 1561682201
    nsecs: 396237289
  frame_id: "ti_mmwave"
point_id: 14
x: 4.40625
y: -0.287109375
z: 1.22265625
range: 4.88062095642
velocity: 0.0
doppler_bin: 8
bearing: -3.72809815407
intensity: 30.9272060394
---
header: 
  seq: 592119
  stamp: 
    secs: 1561682201
    nsecs: 396248210
  frame_id: "ti_mmwave"
point_id: 15
x: 4.455078125
y: -0.2890625
z: 1.197265625
range: 4.9241976738
velocity: 0.0
doppler_bin: 8
bearing: -3.71236538887
intensity: 30.7040729523
---
header: 
  seq: 592120
  stamp: 
    secs: 1561682201
    nsecs: 396312289
  frame_id: "ti_mmwave"
point_id: 17
x: 0.041015625
y: -0.033203125
z: 0.0625
range: 0.0871539413929
velocity: 0.0
doppler_bin: 8
bearing: -38.9909973145
intensity: 30.0860023499
---
header: 
  seq: 592121
  stamp: 
    secs: 1561682201
    nsecs: 396321680
  frame_id: "ti_mmwave"
point_id: 18
x: 0.052734375
y: -0.04296875
z: 0.1015625
range: 0.130730912089
velocity: 0.0
doppler_bin: 8
bearing: -39.1736602783
intensity: 28.9652614594
---
header: 
  seq: 592122
  stamp: 
    secs: 1561682201
    nsecs: 396347070
  frame_id: "ti_mmwave"
point_id: 20
x: 1.1171875
y: -0.515625
z: 0.30859375
range: 1.35088610649
velocity: 0.0
doppler_bin: 8
bearing: -24.7751407623
intensity: 19.0308990479
---
header: 
  seq: 592123
  stamp: 
    secs: 1561682201
    nsecs: 396356679
  frame_id: "ti_mmwave"
point_id: 21
x: 1.388671875
y: -0.3125
z: 0.150390625
range: 1.52519392967
velocity: 0.0
doppler_bin: 8
bearing: -12.6823015213
intensity: 19.7312793732
---
header: 
  seq: 592124
  stamp: 
    secs: 1561682201
    nsecs: 454549319
  frame_id: "ti_mmwave"
point_id: 0
x: 0.01171875
y: -0.0390625
z: -0.0078125
range: 0.0435769706964
velocity: 0.0
doppler_bin: 8
bearing: -73.3007583618
intensity: 30.7077655792
---
header: 
  seq: 592125
  stamp: 
    secs: 1561682201
    nsecs: 454647139
  frame_id: "ti_mmwave"
point_id: 1
x: 0.017578125
y: -0.080078125
z: -0.0078125
range: 0.0871539413929
velocity: 0.0
doppler_bin: 8
bearing: -77.6192398071
intensity: 31.9479179382
---
header: 
  seq: 592126
  stamp: 
    secs: 1561682201
    nsecs: 454666178
  frame_id: "ti_mmwave"
point_id: 2
x: 0.029296875
y: -0.119140625
z: -0.005859375
range: 0.130730912089
velocity: 0.0
doppler_bin: 8
bearing: -76.1849746704
intensity: 30.2118930817
---
header: 
  seq: 592127
  stamp: 
    secs: 1561682201
    nsecs: 454681481
  frame_id: "ti_mmwave"
point_id: 3
x: 0.056640625
y: -0.154296875
z: 0.005859375
range: 0.174307882786
velocity: 0.0
doppler_bin: 8
bearing: -69.8423843384
intensity: 25.4777469635
---
header: 
  seq: 592128
  stamp: 
    secs: 1561682201
    nsecs: 454694998
  frame_id: "ti_mmwave"
point_id: 4
x: 0.36328125
y: -0.080078125
z: -1.212890625
range: 1.35088610649
velocity: 0.0
doppler_bin: 8
bearing: -12.4309225082
intensity: 21.8184356689
---
header: 
  seq: 592129
  stamp: 
    secs: 1561682201
    nsecs: 454708861
  frame_id: "ti_mmwave"
point_id: 5
x: 0.3046875
y: -0.041015625
z: 1.271484375
range: 1.39446306229
velocity: 0.0
doppler_bin: 8
bearing: -7.66680431366
intensity: 23.1597042084
---
header: 
  seq: 592130
  stamp: 
    secs: 1561682201
    nsecs: 454722486
  frame_id: "ti_mmwave"
point_id: 6
x: 0.666015625
y: -0.04296875
z: 1.173828125
range: 1.43804001808
velocity: 0.0
doppler_bin: 8
bearing: -3.69138598442
intensity: 21.5836257935
---
header: 
  seq: 592131
  stamp: 
    secs: 1561682201
    nsecs: 454736783
  frame_id: "ti_mmwave"
point_id: 7
x: 1.302734375
y: -0.173828125
z: 0.455078125
range: 1.48161697388
velocity: 0.0
doppler_bin: 8
bearing: -7.60026979446
intensity: 22.8330116272
---
header: 
  seq: 592132
  stamp: 
    secs: 1561682201
    nsecs: 454752264
  frame_id: "ti_mmwave"
point_id: 8
x: 1.390625
y: -0.134765625
z: 0.310546875
range: 1.52519392967
velocity: 0.0
doppler_bin: 8
bearing: -5.53525543213
intensity: 26.637008667
---
header: 
  seq: 592133
  stamp: 
    secs: 1561682201
    nsecs: 454840056
  frame_id: "ti_mmwave"
point_id: 9
x: 1.46484375
y: -0.138671875
z: 0.05078125
range: 1.56877088547
velocity: 0.0
doppler_bin: 8
bearing: -5.40788412094
intensity: 27.9726753235
---
header: 
  seq: 592134
  stamp: 
    secs: 1561682201
    nsecs: 454855749
  frame_id: "ti_mmwave"
point_id: 10
x: 1.4921875
y: -0.142578125
z: -0.2109375
range: 1.61234796047
velocity: 0.0
doppler_bin: 8
bearing: -5.45802688599
intensity: 29.2168655396
---
header: 
  seq: 592135
  stamp: 
    secs: 1561682201
    nsecs: 454869598
  frame_id: "ti_mmwave"
point_id: 11
x: 1.544921875
y: -0.09765625
z: -0.13671875
range: 1.65592491627
velocity: 0.0
doppler_bin: 8
bearing: -3.61691856384
intensity: 29.1855449677
---
header: 
  seq: 592136
  stamp: 
    secs: 1561682201
    nsecs: 454884159
  frame_id: "ti_mmwave"
point_id: 12
x: 1.591796875
y: -0.099609375
z: -0.03125
range: 1.69950187206
velocity: 0.0
doppler_bin: 8
bearing: -3.58071136475
intensity: 26.570558548
---
header: 
  seq: 592137
  stamp: 
    secs: 1561682201
    nsecs: 454898247
  frame_id: "ti_mmwave"
point_id: 13
x: 2.533203125
y: -0.263671875
z: 1.21875
range: 3.00681090355
velocity: 0.0
doppler_bin: 8
bearing: -5.94231081009
intensity: 29.3751792908
---
header: 
  seq: 592138
  stamp: 
    secs: 1561682201
    nsecs: 454911838
  frame_id: "ti_mmwave"
point_id: 14
x: 2.59765625
y: -0.267578125
z: 1.17578125
range: 3.05038785934
velocity: 0.0
doppler_bin: 8
bearing: -5.88115358353
intensity: 32.7207374573
---
header: 
  seq: 592139
  stamp: 
    secs: 1561682201
    nsecs: 454927863
  frame_id: "ti_mmwave"
point_id: 15
x: 2.658203125
y: -0.181640625
z: 1.158203125
range: 3.09396481514
velocity: 0.0
doppler_bin: 8
bearing: -3.90906453133
intensity: 32.0030326843
---
header: 
  seq: 592140
  stamp: 
    secs: 1561682201
    nsecs: 454937998
  frame_id: "ti_mmwave"
point_id: 16
x: 4.412109375
y: -0.287109375
z: 1.19921875
range: 4.88062095642
velocity: 0.0
doppler_bin: 8
bearing: -3.72316122055
intensity: 31.0788803101
---
header: 
  seq: 592141
  stamp: 
    secs: 1561682201
    nsecs: 454986231
  frame_id: "ti_mmwave"
point_id: 17
x: 4.458984375
y: -0.2890625
z: 1.1796875
range: 4.9241976738
velocity: 0.0
doppler_bin: 8
bearing: -3.70912218094
intensity: 30.6220588684
---
header: 
  seq: 592142
  stamp: 
    secs: 1561682201
    nsecs: 455005883
  frame_id: "ti_mmwave"
point_id: 19
x: 0.041015625
y: -0.033203125
z: 0.0625
range: 0.0871539413929
velocity: 0.0
doppler_bin: 8
bearing: -38.9909973145
intensity: 30.0902576447
---
header: 
  seq: 592143
  stamp: 
    secs: 1561682201
    nsecs: 455020907
  frame_id: "ti_mmwave"
point_id: 20
x: 0.052734375
y: -0.04296875
z: 0.1015625
range: 0.130730912089
velocity: 0.0
doppler_bin: 8
bearing: -39.1736602783
intensity: 28.9707698822
---
header: 
  seq: 592144
  stamp: 
    secs: 1561682201
    nsecs: 455039057
  frame_id: "ti_mmwave"
point_id: 22
x: 1.205078125
y: 0.357421875
z: 0.171875
range: 1.35088610649
velocity: 0.0
doppler_bin: 8
bearing: 16.5201683044
intensity: 18.9762706757
---
header: 
  seq: 592145
  stamp: 
    secs: 1561682201
    nsecs: 456083231
  frame_id: "ti_mmwave"
point_id: 0
x: 0.01171875
y: -0.0390625
z: -0.0078125
range: 0.0435769706964
velocity: 0.0
doppler_bin: 8
bearing: -73.3007583618
intensity: 30.7040729523
---
header: 
  seq: 592146
  stamp: 
    secs: 1561682201
    nsecs: 456135093
  frame_id: "ti_mmwave"
point_id: 1
x: 0.017578125
y: -0.080078125
z: -0.0078125
range: 0.0871539413929
velocity: 0.0
doppler_bin: 8
bearing: -77.6192398071
intensity: 31.945142746
---
header: 
  seq: 592147
  stamp: 
    secs: 1561682201
    nsecs: 456146511
  frame_id: "ti_mmwave"
point_id: 2
x: 0.029296875
y: -0.119140625
z: -0.005859375
range: 0.130730912089
velocity: 0.0
doppler_bin: 8
bearing: -76.1849746704
intensity: 30.2118930817
---
header: 
  seq: 592148
  stamp: 
    secs: 1561682201
    nsecs: 456155590
  frame_id: "ti_mmwave"
point_id: 3
x: 0.056640625
y: -0.154296875
z: 0.005859375
range: 0.174307882786
velocity: 0.0
doppler_bin: 8
bearing: -69.8423843384
intensity: 25.490032196
---
header: 
  seq: 592149
  stamp: 
    secs: 1561682201
    nsecs: 456164909
  frame_id: "ti_mmwave"
point_id: 4
x: 0.322265625
y: -0.080078125
z: -1.224609375
range: 1.35088610649
velocity: 0.0
doppler_bin: 8
bearing: -13.9545097351
intensity: 21.7897701263
---
header: 
  seq: 592150
  stamp: 
    secs: 1561682201
    nsecs: 456173308
  frame_id: "ti_mmwave"
point_id: 5
x: 0.333984375
y: -0.041015625
z: 1.265625
range: 1.39446306229
velocity: 0.0
doppler_bin: 8
bearing: -7.00126743317
intensity: 23.138671875
---
header: 
  seq: 592151
  stamp: 
    secs: 1561682201
    nsecs: 456181331
  frame_id: "ti_mmwave"
point_id: 6
x: 0.59375
y: -0.04296875
z: 1.2109375
range: 1.43804001808
velocity: 0.0
doppler_bin: 8
bearing: -4.13918924332
intensity: 21.8469142914
---
header: 
  seq: 592152
  stamp: 
    secs: 1561682201
    nsecs: 456201773
  frame_id: "ti_mmwave"
point_id: 7
x: 1.421875
y: -0.134765625
z: 0.111328125
range: 1.52519392967
velocity: 0.0
doppler_bin: 8
bearing: -5.41433238983
intensity: 24.1161975861
---
header: 
  seq: 592153
  stamp: 
    secs: 1561682201
    nsecs: 456216819
  frame_id: "ti_mmwave"
point_id: 8
x: 1.349609375
y: -0.138671875
z: -0.5703125
range: 1.56877088547
velocity: 0.0
doppler_bin: 8
bearing: -5.86653327942
intensity: 23.4242267609
---
header: 
  seq: 592154
  stamp: 
    secs: 1561682201
    nsecs: 456227268
  frame_id: "ti_mmwave"
point_id: 9
x: 1.486328125
y: -0.142578125
z: -0.2421875
range: 1.61234796047
velocity: 0.0
doppler_bin: 8
bearing: -5.47941255569
intensity: 29.6661090851
---
header: 
  seq: 592155
  stamp: 
    secs: 1561682201
    nsecs: 456371742
  frame_id: "ti_mmwave"
point_id: 10
x: 1.537109375
y: -0.146484375
z: -0.1875
range: 1.65592491627
velocity: 0.0
doppler_bin: 8
bearing: -5.44376754761
intensity: 30.0
---
header: 
  seq: 592156
  stamp: 
    secs: 1561682201
    nsecs: 456390498
  frame_id: "ti_mmwave"
point_id: 11
x: 1.580078125
y: -0.150390625
z: -0.15625
range: 1.69950187206
velocity: 0.0
doppler_bin: 8
bearing: -5.43698978424
intensity: 27.1349048615
---
header: 
  seq: 592157
  stamp: 
    secs: 1561682201
    nsecs: 456401273
  frame_id: "ti_mmwave"
point_id: 12
x: 2.552734375
y: -0.263671875
z: 1.173828125
range: 3.00681090355
velocity: 0.0
doppler_bin: 8
bearing: -5.89716720581
intensity: 29.4890174866
---
header: 
  seq: 592158
  stamp: 
    secs: 1561682201
    nsecs: 456409503
  frame_id: "ti_mmwave"
point_id: 13
x: 2.6015625
y: -0.267578125
z: 1.1640625
range: 3.05038785934
velocity: 0.0
doppler_bin: 8
bearing: -5.87238502502
intensity: 32.7300109863
---
header: 
  seq: 592159
  stamp: 
    secs: 1561682201
    nsecs: 456419216
  frame_id: "ti_mmwave"
point_id: 14
x: 2.658203125
y: -0.181640625
z: 1.15625
range: 3.09396481514
velocity: 0.0
doppler_bin: 8
bearing: -3.90906453133
intensity: 31.9672870636
---
header: 
  seq: 592160
  stamp: 
    secs: 1561682201
    nsecs: 456427510
  frame_id: "ti_mmwave"
point_id: 15
x: 4.4140625
y: -0.287109375
z: 1.197265625
range: 4.88062095642
velocity: 0.0
doppler_bin: 8
bearing: -3.72151875496
intensity: 30.8098697662
---
header: 
  seq: 592161
  stamp: 
    secs: 1561682201
    nsecs: 456435439
  frame_id: "ti_mmwave"
point_id: 16
x: 4.45703125
y: -0.2890625
z: 1.1875
range: 4.9241976738
velocity: 0.0
doppler_bin: 8
bearing: -3.71074318886
intensity: 30.0689373016
---
header: 
  seq: 592162
  stamp: 
    secs: 1561682201
    nsecs: 456444978
  frame_id: "ti_mmwave"
point_id: 18
x: 0.041015625
y: -0.033203125
z: 0.0625
range: 0.0871539413929
velocity: 0.0
doppler_bin: 8
bearing: -38.9909973145
intensity: 30.0860023499
---
header: 
  seq: 592163
  stamp: 
    secs: 1561682201
    nsecs: 456453016
  frame_id: "ti_mmwave"
point_id: 19
x: 0.052734375
y: -0.04296875
z: 0.1015625
range: 0.130730912089
velocity: 0.0
doppler_bin: 8
bearing: -39.1736602783
intensity: 28.9707698822
---
header: 
  seq: 592164
  stamp: 
    secs: 1561682201
    nsecs: 456462465
  frame_id: "ti_mmwave"
point_id: 21
x: 1.205078125
y: 0.357421875
z: 0.173828125
range: 1.35088610649
velocity: 0.0
doppler_bin: 8
bearing: 16.5201683044
intensity: 18.864906311
---
header: 
  seq: 592165
  stamp: 
    secs: 1561682201
    nsecs: 456469536
  frame_id: "ti_mmwave"
point_id: 22
x: 2.861328125
y: -2.00390625
z: -2.962890625
range: 4.88062095642
velocity: 0.0
doppler_bin: 8
bearing: -35.0051422119
intensity: 27.8247261047
---
header: 
  seq: 592166
  stamp: 
    secs: 1561682201
    nsecs: 456495986
  frame_id: "ti_mmwave"
point_id: 23
x: 2.87109375
y: -2.021484375
z: -3.005859375
range: 4.9241976738
velocity: 0.0
doppler_bin: 8
bearing: -35.1486740112
intensity: 27.1767044067
---
header: 
  seq: 592167
  stamp: 
    secs: 1561682201
    nsecs: 514349384
  frame_id: "ti_mmwave"
point_id: 0
x: 0.01171875
y: -0.0390625
z: -0.0078125
range: 0.0435769706964
velocity: 0.0
doppler_bin: 8
bearing: -73.3007583618
intensity: 30.700378418
---
header: 
  seq: 592168
  stamp: 
    secs: 1561682201
    nsecs: 514437883
  frame_id: "ti_mmwave"
point_id: 1
x: 0.017578125
y: -0.080078125
z: -0.0078125
range: 0.0871539413929
velocity: 0.0
doppler_bin: 8
bearing: -77.6192398071
intensity: 31.9423675537
---
header: 
  seq: 592169
  stamp: 
    secs: 1561682201
    nsecs: 514449737
  frame_id: "ti_mmwave"
point_id: 2
x: 0.029296875
y: -0.119140625
z: -0.005859375
range: 0.130730912089
velocity: 0.0
doppler_bin: 8
bearing: -76.1849746704
intensity: 30.2036132812
---
header: 
  seq: 592170
  stamp: 
    secs: 1561682201
    nsecs: 514458541
  frame_id: "ti_mmwave"
point_id: 3
x: 0.056640625
y: -0.154296875
z: 0.005859375
range: 0.174307882786
velocity: 0.0
doppler_bin: 8
bearing: -69.8423843384
intensity: 25.4777469635
---
header: 
  seq: 592171
  stamp: 
    secs: 1561682201
    nsecs: 514466825
  frame_id: "ti_mmwave"
point_id: 4
x: 0.35546875
y: -0.080078125
z: -1.21484375
range: 1.35088610649
velocity: 0.0
doppler_bin: 8
bearing: -12.6953649521
intensity: 21.875207901
---
header: 
  seq: 592172
  stamp: 
    secs: 1561682201
    nsecs: 514477337
  frame_id: "ti_mmwave"
point_id: 5
x: 0.365234375
y: -0.041015625
z: 1.255859375
range: 1.39446306229
velocity: 0.0
doppler_bin: 8
bearing: -6.40744018555
intensity: 23.2014636993
---
header: 
  seq: 592173
  stamp: 
    secs: 1561682201
    nsecs: 514486461
  frame_id: "ti_mmwave"
point_id: 6
x: 0.92578125
y: -0.04296875
z: 0.982421875
range: 1.43804001808
velocity: 0.0
doppler_bin: 8
bearing: -2.6573908329
intensity: 22.5041999817
---
header: 
  seq: 592174
  stamp: 
    secs: 1561682201
    nsecs: 514495171
  frame_id: "ti_mmwave"
point_id: 7
x: 1.294921875
y: -0.087890625
z: 0.5
range: 1.48161697388
velocity: 0.0
doppler_bin: 8
bearing: -3.88289904594
intensity: 24.5484485626
---
header: 
  seq: 592175
  stamp: 
    secs: 1561682201
    nsecs: 514502998
  frame_id: "ti_mmwave"
point_id: 8
x: 1.337890625
y: -0.08984375
z: 0.5
range: 1.52519392967
velocity: 0.0
doppler_bin: 8
bearing: -3.84183168411
intensity: 25.7170886993
---
header: 
  seq: 592176
  stamp: 
    secs: 1561682201
    nsecs: 514511927
  frame_id: "ti_mmwave"
point_id: 9
x: 1.498046875
y: -0.09375
z: -0.193359375
range: 1.61234796047
velocity: 0.0
doppler_bin: 8
bearing: -3.58098506927
intensity: 28.4385547638
---
header: 
  seq: 592177
  stamp: 
    secs: 1561682201
    nsecs: 514519932
  frame_id: "ti_mmwave"
point_id: 10
x: 1.541015625
y: -0.146484375
z: -0.1328125
range: 1.65592491627
velocity: 0.0
doppler_bin: 8
bearing: -5.43005132675
intensity: 28.727388382
---
header: 
  seq: 592178
  stamp: 
    secs: 1561682201
    nsecs: 514528732
  frame_id: "ti_mmwave"
point_id: 11
x: 2.552734375
y: -0.263671875
z: 1.173828125
range: 3.00681090355
velocity: 0.0
doppler_bin: 8
bearing: -5.89716720581
intensity: 29.4349460602
---
header: 
  seq: 592179
  stamp: 
    secs: 1561682201
    nsecs: 514560478
  frame_id: "ti_mmwave"
point_id: 12
x: 2.603515625
y: -0.267578125
z: 1.16015625
range: 3.05038785934
velocity: 0.0
doppler_bin: 8
bearing: -5.8680100441
intensity: 32.7300109863
---
header: 
  seq: 592180
  stamp: 
    secs: 1561682201
    nsecs: 514657116
  frame_id: "ti_mmwave"
point_id: 13
x: 2.66015625
y: -0.181640625
z: 1.150390625
range: 3.09396481514
velocity: 0.0
doppler_bin: 8
bearing: -3.90620398521
intensity: 31.9312458038
---
header: 
  seq: 592181
  stamp: 
    secs: 1561682201
    nsecs: 514669623
  frame_id: "ti_mmwave"
point_id: 14
x: 4.416015625
y: -0.287109375
z: 1.18359375
range: 4.88062095642
velocity: 0.0
doppler_bin: 8
bearing: -3.71987724304
intensity: 30.8564720154
---
header: 
  seq: 592182
  stamp: 
    secs: 1561682201
    nsecs: 514677660
  frame_id: "ti_mmwave"
point_id: 15
x: 4.46484375
y: -0.2890625
z: 1.16015625
range: 4.9241976738
velocity: 0.0
doppler_bin: 8
bearing: -3.70426845551
intensity: 30.1199302673
---
header: 
  seq: 592183
  stamp: 
    secs: 1561682201
    nsecs: 514687211
  frame_id: "ti_mmwave"
point_id: 17
x: 0.041015625
y: -0.033203125
z: 0.0625
range: 0.0871539413929
velocity: 0.0
doppler_bin: 8
bearing: -38.9909973145
intensity: 30.0902576447
---
header: 
  seq: 592184
  stamp: 
    secs: 1561682201
    nsecs: 514695028
  frame_id: "ti_mmwave"
point_id: 18
x: 0.052734375
y: -0.04296875
z: 0.1015625
range: 0.130730912089
velocity: 0.0
doppler_bin: 8
bearing: -39.1736602783
intensity: 28.9707698822
---
header: 
  seq: 592185
  stamp: 
    secs: 1561682201
    nsecs: 514705088
  frame_id: "ti_mmwave"
point_id: 20
x: 1.11328125
y: -0.515625
z: 0.3203125
range: 1.35088610649
velocity: 0.0
doppler_bin: 8
bearing: -24.8515853882
intensity: 18.9209461212
---
header: 
  seq: 592186
  stamp: 
    secs: 1561682201
    nsecs: 514714528
  frame_id: "ti_mmwave"
point_id: 21
x: 0.791015625
y: 0.53515625
z: 1.2265625
range: 1.65592491627
velocity: 0.0
doppler_bin: 8
bearing: 34.0800476074
intensity: 26.0422611237
---
header: 
  seq: 592187
  stamp: 
    secs: 1561682201
    nsecs: 514722362
  frame_id: "ti_mmwave"
point_id: 22
x: 2.947265625
y: -2.021484375
z: -2.931640625
range: 4.9241976738
velocity: 0.0
doppler_bin: 8
bearing: -34.4456291199
intensity: 27.2591171265
---
header: 
  seq: 592188
  stamp: 
    secs: 1561682201
    nsecs: 515805749
  frame_id: "ti_mmwave"
point_id: 0
x: 0.01171875
y: -0.0390625
z: -0.0078125
range: 0.0435769706964
velocity: 0.0
doppler_bin: 8
bearing: -73.3007583618
intensity: 30.7114524841
---
header: 
  seq: 592189
  stamp: 
    secs: 1561682201
    nsecs: 515861134
  frame_id: "ti_mmwave"
point_id: 1
x: 0.017578125
y: -0.080078125
z: -0.0078125
range: 0.0871539413929
velocity: 0.0
doppler_bin: 8
bearing: -77.6192398071
intensity: 31.945142746
---
header: 
  seq: 592190
  stamp: 
    secs: 1561682201
    nsecs: 515963658
  frame_id: "ti_mmwave"
point_id: 2
x: 0.029296875
y: -0.119140625
z: -0.005859375
range: 0.130730912089
velocity: 0.0
doppler_bin: 8
bearing: -76.1849746704
intensity: 30.2077541351
---
header: 
  seq: 592191
  stamp: 
    secs: 1561682201
    nsecs: 516088308
  frame_id: "ti_mmwave"
point_id: 3
x: 0.056640625
y: -0.154296875
z: 0.005859375
range: 0.174307882786
velocity: 0.0
doppler_bin: 8
bearing: -69.8423843384
intensity: 25.4777469635
---
header: 
  seq: 592192
  stamp: 
    secs: 1561682201
    nsecs: 516132842
  frame_id: "ti_mmwave"
point_id: 4
x: 0.314453125
y: -0.080078125
z: -1.2265625
range: 1.35088610649
velocity: 0.0
doppler_bin: 8
bearing: -14.2871713638
intensity: 21.8184356689
---
header: 
  seq: 592193
  stamp: 
    secs: 1561682201
    nsecs: 516199513
  frame_id: "ti_mmwave"
point_id: 5
x: 0.341796875
y: -0.041015625
z: 1.263671875
range: 1.39446306229
velocity: 0.0
doppler_bin: 8
bearing: -6.8427734375
intensity: 23.138671875
---
header: 
  seq: 592194
  stamp: 
    secs: 1561682201
    nsecs: 516219414
  frame_id: "ti_mmwave"
point_id: 6
x: 0.78125
y: -0.04296875
z: 1.099609375
range: 1.43804001808
velocity: 0.0
doppler_bin: 8
bearing: -3.14809608459
intensity: 21.875207901
---
header: 
  seq: 592195
  stamp: 
    secs: 1561682201
    nsecs: 516232896
  frame_id: "ti_mmwave"
point_id: 7
x: 1.275390625
y: -0.087890625
z: 0.546875
range: 1.48161697388
velocity: 0.0
doppler_bin: 8
bearing: -3.94217467308
intensity: 22.9446620941
---
header: 
  seq: 592196
  stamp: 
    secs: 1561682201
    nsecs: 516247871
  frame_id: "ti_mmwave"
point_id: 8
x: 1.412109375
y: -0.08984375
z: 0.212890625
range: 1.52519392967
velocity: 0.0
doppler_bin: 8
bearing: -3.64046788216
intensity: 25.15873909
---
header: 
  seq: 592197
  stamp: 
    secs: 1561682201
    nsecs: 516274435
  frame_id: "ti_mmwave"
point_id: 9
x: 1.4609375
y: -0.091796875
z: -0.162109375
range: 1.56877088547
velocity: 0.0
doppler_bin: 8
bearing: -3.59540891647
intensity: 27.2754135132
---
header: 
  seq: 592198
  stamp: 
    secs: 1561682201
    nsecs: 516346302
  frame_id: "ti_mmwave"
point_id: 10
x: 1.494140625
y: -0.09375
z: -0.22265625
range: 1.61234796047
velocity: 0.0
doppler_bin: 8
bearing: -3.59032273293
intensity: 29.4200801849
---
header: 
  seq: 592199
  stamp: 
    secs: 1561682201
    nsecs: 516363679
  frame_id: "ti_mmwave"
point_id: 11
x: 1.533203125
y: -0.09765625
z: -0.234375
range: 1.65592491627
velocity: 0.0
doppler_bin: 8
bearing: -3.64448952675
intensity: 29.1855449677
---
header: 
  seq: 592200
  stamp: 
    secs: 1561682201
    nsecs: 516376157
  frame_id: "ti_mmwave"
point_id: 12
x: 1.578125
y: -0.099609375
z: -0.20703125
range: 1.69950187206
velocity: 0.0
doppler_bin: 8
bearing: -3.61165046692
intensity: 26.3245735168
---
header: 
  seq: 592201
  stamp: 
    secs: 1561682201
    nsecs: 516387979
  frame_id: "ti_mmwave"
point_id: 13
x: 2.5390625
y: -0.263671875
z: 1.203125
range: 3.00681090355
velocity: 0.0
doppler_bin: 8
bearing: -5.92869567871
intensity: 29.3951931
---
header: 
  seq: 592202
  stamp: 
    secs: 1561682201
    nsecs: 516400039
  frame_id: "ti_mmwave"
point_id: 14
x: 2.6015625
y: -0.267578125
z: 1.16796875
range: 3.05038785934
velocity: 0.0
doppler_bin: 8
bearing: -5.87238502502
intensity: 32.6974639893
---
header: 
  seq: 592203
  stamp: 
    secs: 1561682201
    nsecs: 516411813
  frame_id: "ti_mmwave"
point_id: 15
x: 2.658203125
y: -0.181640625
z: 1.154296875
range: 3.09396481514
velocity: 0.0
doppler_bin: 8
bearing: -3.90906453133
intensity: 31.8977088928
---
header: 
  seq: 592204
  stamp: 
    secs: 1561682201
    nsecs: 516423842
  frame_id: "ti_mmwave"
point_id: 16
x: 4.419921875
y: -0.287109375
z: 1.16796875
range: 4.88062095642
velocity: 0.0
doppler_bin: 8
bearing: -3.71659874916
intensity: 30.8278541565
---
header: 
  seq: 592205
  stamp: 
    secs: 1561682201
    nsecs: 516509104
  frame_id: "ti_mmwave"
point_id: 17
x: 4.470703125
y: -0.2890625
z: 1.140625
range: 4.9241976738
velocity: 0.0
doppler_bin: 8
bearing: -3.69942688942
intensity: 30.3059978485
---
header: 
  seq: 592206
  stamp: 
    secs: 1561682201
    nsecs: 516535624
  frame_id: "ti_mmwave"
point_id: 19
x: 0.041015625
y: -0.033203125
z: 0.0625
range: 0.0871539413929
velocity: 0.0
doppler_bin: 8
bearing: -38.9909973145
intensity: 30.0902576447
---
header: 
  seq: 592207
  stamp: 
    secs: 1561682201
    nsecs: 516547258
  frame_id: "ti_mmwave"
point_id: 20
x: 0.052734375
y: -0.04296875
z: 0.1015625
range: 0.130730912089
velocity: 0.0
doppler_bin: 8
bearing: -39.1736602783
intensity: 28.9707698822
---
header: 
  seq: 592208
  stamp: 
    secs: 1561682201
    nsecs: 516562711
  frame_id: "ti_mmwave"
point_id: 22
x: 1.119140625
y: -0.515625
z: 0.30078125
range: 1.35088610649
velocity: 0.0
doppler_bin: 8
bearing: -24.7370834351
intensity: 18.864906311
---
header: 
  seq: 592209
  stamp: 
    secs: 1561682201
    nsecs: 516576005
  frame_id: "ti_mmwave"
point_id: 23
x: 2.75390625
y: -2.00390625
z: -3.064453125
range: 4.88062095642
velocity: 0.0
doppler_bin: 8
bearing: -36.0418663025
intensity: 27.9169063568
---
header: 
  seq: 592210
  stamp: 
    secs: 1561682201
    nsecs: 516603674
  frame_id: "ti_mmwave"
point_id: 24
x: 2.7890625
y: -2.021484375
z: -3.08203125
range: 4.9241976738
velocity: 0.0
doppler_bin: 8
bearing: -35.9342193604
intensity: 27.3719272614
---
header: 
  seq: 592211
  stamp: 
    secs: 1561682201
    nsecs: 574611617
  frame_id: "ti_mmwave"
point_id: 0
x: 0.01171875
y: -0.0390625
z: -0.0078125
range: 0.0435769706964
velocity: 0.0
doppler_bin: 8
bearing: -73.3007583618
intensity: 30.7077655792
---
header: 
  seq: 592212
  stamp: 
    secs: 1561682201
    nsecs: 574689931
  frame_id: "ti_mmwave"
point_id: 1
x: 0.017578125
y: -0.080078125
z: -0.0078125
range: 0.0871539413929
velocity: 0.0
doppler_bin: 8
bearing: -77.6192398071
intensity: 31.9479179382
---
header: 
  seq: 592213
  stamp: 
    secs: 1561682201
    nsecs: 574700796
  frame_id: "ti_mmwave"
point_id: 2
x: 0.029296875
y: -0.119140625
z: -0.005859375
range: 0.130730912089
velocity: 0.0
doppler_bin: 8
bearing: -76.1849746704
intensity: 30.2118930817
---
header: 
  seq: 592214
  stamp: 
    secs: 1561682201
    nsecs: 574709389
  frame_id: "ti_mmwave"
point_id: 3
x: 0.056640625
y: -0.154296875
z: 0.005859375
range: 0.174307882786
velocity: 0.0
doppler_bin: 8
bearing: -69.8423843384
intensity: 25.490032196
---
header: 
  seq: 592215
  stamp: 
    secs: 1561682201
    nsecs: 574717497
  frame_id: "ti_mmwave"
point_id: 4
x: 0.35546875
y: -0.080078125
z: -1.21484375
range: 1.35088610649
velocity: 0.0
doppler_bin: 8
bearing: -12.6953649521
intensity: 21.7897701263
---
header: 
  seq: 592216
  stamp: 
    secs: 1561682201
    nsecs: 574725247
  frame_id: "ti_mmwave"
point_id: 5
x: 0.216796875
y: -0.041015625
z: 1.291015625
range: 1.39446306229
velocity: 0.0
doppler_bin: 8
bearing: -10.7131233215
intensity: 23.1597042084
---
header: 
  seq: 592217
  stamp: 
    secs: 1561682201
    nsecs: 574734859
  frame_id: "ti_mmwave"
point_id: 6
x: 0.43359375
y: -0.0
z: -1.279296875
range: 1.43804001808
velocity: 0.0
doppler_bin: 8
bearing: -0.0
intensity: 20.4139270782
---
header: 
  seq: 592218
  stamp: 
    secs: 1561682201
    nsecs: 574742852
  frame_id: "ti_mmwave"
point_id: 7
x: 1.40234375
y: -0.134765625
z: 0.255859375
range: 1.52519392967
velocity: 0.0
doppler_bin: 8
bearing: -5.48928356171
intensity: 25.2113800049
---
header: 
  seq: 592219
  stamp: 
    secs: 1561682201
    nsecs: 574751348
  frame_id: "ti_mmwave"
point_id: 8
x: 1.4609375
y: -0.091796875
z: -0.15234375
range: 1.56877088547
velocity: 0.0
doppler_bin: 8
bearing: -3.59540891647
intensity: 29.5568771362
---
header: 
  seq: 592220
  stamp: 
    secs: 1561682201
    nsecs: 574760909
  frame_id: "ti_mmwave"
point_id: 9
x: 1.484375
y: -0.142578125
z: -0.255859375
range: 1.61234796047
velocity: 0.0
doppler_bin: 8
bearing: -5.48657846451
intensity: 32.5599555969
---
header: 
  seq: 592221
  stamp: 
    secs: 1561682201
    nsecs: 574768874
  frame_id: "ti_mmwave"
point_id: 10
x: 1.53125
y: -0.09765625
z: -0.251953125
range: 1.65592491627
velocity: 0.0
doppler_bin: 8
bearing: -3.64912557602
intensity: 32.3426399231
---
header: 
  seq: 592222
  stamp: 
    secs: 1561682201
    nsecs: 574778039
  frame_id: "ti_mmwave"
point_id: 11
x: 1.5625
y: -0.150390625
z: -0.287109375
range: 1.69950187206
velocity: 0.0
doppler_bin: 8
bearing: -5.49778318405
intensity: 28.6033802032
---
header: 
  seq: 592223
  stamp: 
    secs: 1561682201
    nsecs: 574786420
  frame_id: "ti_mmwave"
point_id: 12
x: 2.5546875
y: -0.263671875
z: 1.171875
range: 3.00681090355
velocity: 0.0
doppler_bin: 8
bearing: -5.89269018173
intensity: 29.4546852112
---
header: 
  seq: 592224
  stamp: 
    secs: 1561682201
    nsecs: 574796301
  frame_id: "ti_mmwave"
point_id: 13
x: 2.607421875
y: -0.267578125
z: 1.15234375
range: 3.05038785934
velocity: 0.0
doppler_bin: 8
bearing: -5.85928010941
intensity: 32.7253761292
---
header: 
  seq: 592225
  stamp: 
    secs: 1561682201
    nsecs: 574804409
  frame_id: "ti_mmwave"
point_id: 14
x: 2.666015625
y: -0.181640625
z: 1.13671875
range: 3.09396481514
velocity: 0.0
doppler_bin: 8
bearing: -3.89764523506
intensity: 31.9728050232
---
header: 
  seq: 592226
  stamp: 
    secs: 1561682201
    nsecs: 574812826
  frame_id: "ti_mmwave"
point_id: 15
x: 4.4140625
y: -0.287109375
z: 1.19140625
range: 4.88062095642
velocity: 0.0
doppler_bin: 8
bearing: -3.72151875496
intensity: 30.7114524841
---
header: 
  seq: 592227
  stamp: 
    secs: 1561682201
    nsecs: 574821254
  frame_id: "ti_mmwave"
point_id: 16
x: 4.453125
y: -0.2890625
z: 1.203125
range: 4.9241976738
velocity: 0.0
doppler_bin: 8
bearing: -3.71398925781
intensity: 29.9913063049
---
header: 
  seq: 592228
  stamp: 
    secs: 1561682201
    nsecs: 574832442
  frame_id: "ti_mmwave"
point_id: 17
x: 4.822265625
y: -0.46484375
z: 1.013671875
range: 5.27281332016
velocity: 0.0
doppler_bin: 8
bearing: -5.50603199005
intensity: 29.9387683868
---
header: 
  seq: 592229
  stamp: 
    secs: 1561682201
    nsecs: 574998235
  frame_id: "ti_mmwave"
point_id: 18
x: 1.369140625
y: -0.173828125
z: 0.1796875
range: 1.48161697388
velocity: -0.614668667316
doppler_bin: 7
bearing: -7.23564529419
intensity: 22.810333252
---
header: 
  seq: 592230
  stamp: 
    secs: 1561682201
    nsecs: 575029907
  frame_id: "ti_mmwave"
point_id: 20
x: 0.041015625
y: -0.033203125
z: 0.0625
range: 0.0871539413929
velocity: 0.0
doppler_bin: 8
bearing: -38.9909973145
intensity: 30.0902576447
---
header: 
  seq: 592231
  stamp: 
    secs: 1561682201
    nsecs: 575046739
  frame_id: "ti_mmwave"
point_id: 21
x: 0.052734375
y: -0.04296875
z: 0.1015625
range: 0.130730912089
velocity: 0.0
doppler_bin: 8
bearing: -39.1736602783
intensity: 28.9707698822
---
header: 
  seq: 592232
  stamp: 
    secs: 1561682201
    nsecs: 575060607
  frame_id: "ti_mmwave"
point_id: 23
x: 1.11328125
y: -0.515625
z: 0.318359375
range: 1.35088610649
velocity: 0.0
doppler_bin: 8
bearing: -24.8515853882
intensity: 19.0308990479
---
header: 
  seq: 592233
  stamp: 
    secs: 1561682201
    nsecs: 575110968
  frame_id: "ti_mmwave"
point_id: 24
x: 1.248046875
y: 0.46484375
z: 0.22265625
range: 1.43804001808
velocity: 0.0
doppler_bin: 8
bearing: 20.4281978607
intensity: 17.7815132141
---
header: 
  seq: 592234
  stamp: 
    secs: 1561682201
    nsecs: 575126914
  frame_id: "ti_mmwave"
point_id: 25
x: 2.880859375
y: -2.00390625
z: -2.9453125
range: 4.88062095642
velocity: 0.0
doppler_bin: 8
bearing: -34.8222122192
intensity: 27.7887439728
---
header: 
  seq: 592235
  stamp: 
    secs: 1561682201
    nsecs: 575140205
  frame_id: "ti_mmwave"
point_id: 26
x: 2.970703125
y: -2.021484375
z: -2.90625
range: 4.9241976738
velocity: 0.0
doppler_bin: 8
bearing: -34.2342453003
intensity: 27.1432971954
---
header: 
  seq: 592236
  stamp: 
    secs: 1561682201
    nsecs: 634219066
  frame_id: "ti_mmwave"
point_id: 0
x: 0.01171875
y: -0.0390625
z: -0.0078125
range: 0.0435769706964
velocity: 0.0
doppler_bin: 8
bearing: -73.3007583618
intensity: 30.7077655792
---
header: 
  seq: 592237
  stamp: 
    secs: 1561682201
    nsecs: 634304198
  frame_id: "ti_mmwave"
point_id: 1
x: 0.017578125
y: -0.080078125
z: -0.0078125
range: 0.0871539413929
velocity: 0.0
doppler_bin: 8
bearing: -77.6192398071
intensity: 31.9479179382
---
header: 
  seq: 592238
  stamp: 
    secs: 1561682201
    nsecs: 634316441
  frame_id: "ti_mmwave"
point_id: 2
x: 0.029296875
y: -0.119140625
z: -0.005859375
range: 0.130730912089
velocity: 0.0
doppler_bin: 8
bearing: -76.1849746704
intensity: 30.2077541351
---
header: 
  seq: 592239
  stamp: 
    secs: 1561682201
    nsecs: 634324847
  frame_id: "ti_mmwave"
point_id: 3
x: 0.056640625
y: -0.154296875
z: 0.005859375
range: 0.174307882786
velocity: 0.0
doppler_bin: 8
bearing: -69.8423843384
intensity: 25.490032196
---
header: 
  seq: 592240
  stamp: 
    secs: 1561682201
    nsecs: 634334634
  frame_id: "ti_mmwave"
point_id: 4
x: 0.359375
y: -0.080078125
z: -1.212890625
range: 1.35088610649
velocity: 0.0
doppler_bin: 8
bearing: -12.5617752075
intensity: 21.7897701263
---
header: 
  seq: 592241
  stamp: 
    secs: 1561682201
    nsecs: 634343045
  frame_id: "ti_mmwave"
point_id: 5
x: 0.099609375
y: -0.041015625
z: -1.3046875
range: 1.39446306229
velocity: 0.0
doppler_bin: 8
bearing: -22.3801364899
intensity: 22.8555736542
---
header: 
  seq: 592242
  stamp: 
    secs: 1561682201
    nsecs: 634352314
  frame_id: "ti_mmwave"
point_id: 6
x: 0.80078125
y: 0.04296875
z: -1.0859375
range: 1.43804001808
velocity: 0.0
doppler_bin: 8
bearing: 3.07146215439
intensity: 20.3742656708
---
header: 
  seq: 592243
  stamp: 
    secs: 1561682201
    nsecs: 634362718
  frame_id: "ti_mmwave"
point_id: 7
x: 1.3515625
y: -0.216796875
z: -0.248046875
range: 1.48161697388
velocity: 0.0
doppler_bin: 8
bearing: -9.11287975311
intensity: 19.2427921295
---
header: 
  seq: 592244
  stamp: 
    secs: 1561682201
    nsecs: 634451420
  frame_id: "ti_mmwave"
point_id: 8
x: 1.44921875
y: -0.138671875
z: -0.220703125
range: 1.56877088547
velocity: 0.0
doppler_bin: 8
bearing: -5.46583890915
intensity: 24.0654010773
---
header: 
  seq: 592245
  stamp: 
    secs: 1561682201
    nsecs: 634465066
  frame_id: "ti_mmwave"
point_id: 9
x: 1.46875
y: -0.142578125
z: -0.3359375
range: 1.61234796047
velocity: 0.0
doppler_bin: 8
bearing: -5.54458427429
intensity: 28.767950058
---
header: 
  seq: 592246
  stamp: 
    secs: 1561682201
    nsecs: 634475641
  frame_id: "ti_mmwave"
point_id: 10
x: 1.5
y: -0.146484375
z: -0.376953125
range: 1.65592491627
velocity: 0.0
doppler_bin: 8
bearing: -5.5776052475
intensity: 28.9486961365
---
header: 
  seq: 592247
  stamp: 
    secs: 1561682201
    nsecs: 634485801
  frame_id: "ti_mmwave"
point_id: 11
x: 2.5546875
y: -0.263671875
z: 1.171875
range: 3.00681090355
velocity: 0.0
doppler_bin: 8
bearing: -5.89269018173
intensity: 29.4101428986
---
header: 
  seq: 592248
  stamp: 
    secs: 1561682201
    nsecs: 634498854
  frame_id: "ti_mmwave"
point_id: 12
x: 2.607421875
y: -0.267578125
z: 1.154296875
range: 3.05038785934
velocity: 0.0
doppler_bin: 8
bearing: -5.85928010941
intensity: 32.7276954651
---
header: 
  seq: 592249
  stamp: 
    secs: 1561682201
    nsecs: 634509566
  frame_id: "ti_mmwave"
point_id: 13
x: 2.666015625
y: -0.181640625
z: 1.138671875
range: 3.09396481514
velocity: 0.0
doppler_bin: 8
bearing: -3.89764523506
intensity: 31.9700469971
---
header: 
  seq: 592250
  stamp: 
    secs: 1561682201
    nsecs: 634519400
  frame_id: "ti_mmwave"
point_id: 14
x: 4.421875
y: -0.287109375
z: 1.16015625
range: 4.88062095642
velocity: 0.0
doppler_bin: 8
bearing: -3.7149617672
intensity: 30.8134727478
---
header: 
  seq: 592251
  stamp: 
    secs: 1561682201
    nsecs: 634531019
  frame_id: "ti_mmwave"
point_id: 15
x: 4.47265625
y: -0.2890625
z: 1.130859375
range: 4.9241976738
velocity: 0.0
doppler_bin: 8
bearing: -3.6978161335
intensity: 30.2530593872
---
header: 
  seq: 592252
  stamp: 
    secs: 1561682201
    nsecs: 634541098
  frame_id: "ti_mmwave"
point_id: 16
x: 4.80859375
y: -0.46484375
z: 1.080078125
range: 5.27281332016
velocity: 0.0
doppler_bin: 8
bearing: -5.52159023285
intensity: 30.248960495
---
header: 
  seq: 592253
  stamp: 
    secs: 1561682201
    nsecs: 634554725
  frame_id: "ti_mmwave"
point_id: 18
x: 0.041015625
y: -0.033203125
z: 0.0625
range: 0.0871539413929
velocity: 0.0
doppler_bin: 8
bearing: -38.9909973145
intensity: 30.0860023499
---
header: 
  seq: 592254
  stamp: 
    secs: 1561682201
    nsecs: 634566890
  frame_id: "ti_mmwave"
point_id: 19
x: 0.052734375
y: -0.04296875
z: 0.1015625
range: 0.130730912089
velocity: 0.0
doppler_bin: 8
bearing: -39.1736602783
intensity: 28.9817657471
---
header: 
  seq: 592255
  stamp: 
    secs: 1561682201
    nsecs: 634624764
  frame_id: "ti_mmwave"
point_id: 21
x: 1.119140625
y: -0.515625
z: 0.298828125
range: 1.35088610649
velocity: 0.0
doppler_bin: 8
bearing: -24.7370834351
intensity: 18.864906311
---
header: 
  seq: 592256
  stamp: 
    secs: 1561682201
    nsecs: 634643665
  frame_id: "ti_mmwave"
point_id: 22
x: 1.28125
y: -0.421875
z: 0.060546875
range: 1.43804001808
velocity: 0.0
doppler_bin: 8
bearing: -18.2250766754
intensity: 17.6342792511
---
header: 
  seq: 592257
  stamp: 
    secs: 1561682201
    nsecs: 634659176
  frame_id: "ti_mmwave"
point_id: 23
x: 2.75390625
y: -2.00390625
z: -3.064453125
range: 4.88062095642
velocity: 0.0
doppler_bin: 8
bearing: -36.0418663025
intensity: 27.8247261047
---
header: 
  seq: 592258
  stamp: 
    secs: 1561682201
    nsecs: 634675937
  frame_id: "ti_mmwave"
point_id: 24
x: 2.787109375
y: -2.021484375
z: -3.083984375
range: 4.9241976738
velocity: 0.0
doppler_bin: 8
bearing: -35.9532966614
intensity: 27.2509460449
---
header: 
  seq: 592259
  stamp: 
    secs: 1561682201
    nsecs: 635779462
  frame_id: "ti_mmwave"
point_id: 0
x: 0.01171875
y: -0.0390625
z: -0.0078125
range: 0.0435769706964
velocity: 0.0
doppler_bin: 8
bearing: -73.3007583618
intensity: 30.700378418
---
header: 
  seq: 592260
  stamp: 
    secs: 1561682201
    nsecs: 635852586
  frame_id: "ti_mmwave"
point_id: 1
x: 0.017578125
y: -0.080078125
z: -0.0078125
range: 0.0871539413929
velocity: 0.0
doppler_bin: 8
bearing: -77.6192398071
intensity: 31.945142746
---
header: 
  seq: 592261
  stamp: 
    secs: 1561682201
    nsecs: 635870630
  frame_id: "ti_mmwave"
point_id: 2
x: 0.029296875
y: -0.119140625
z: -0.005859375
range: 0.130730912089
velocity: 0.0
doppler_bin: 8
bearing: -76.1849746704
intensity: 30.2077541351
---
header: 
  seq: 592262
  stamp: 
    secs: 1561682201
    nsecs: 635886628
  frame_id: "ti_mmwave"
point_id: 3
x: 0.056640625
y: -0.154296875
z: 0.005859375
range: 0.174307882786
velocity: 0.0
doppler_bin: 8
bearing: -69.8423843384
intensity: 25.4777469635
---
header: 
  seq: 592263
  stamp: 
    secs: 1561682201
    nsecs: 635956384
  frame_id: "ti_mmwave"
point_id: 4
x: 0.400390625
y: -0.080078125
z: -1.201171875
range: 1.35088610649
velocity: 0.0
doppler_bin: 8
bearing: -11.3099327087
intensity: 21.8469142914
---
header: 
  seq: 592264
  stamp: 
    secs: 1561682201
    nsecs: 635976160
  frame_id: "ti_mmwave"
point_id: 5
x: 0.5390625
y: -0.041015625
z: -1.193359375
range: 1.39446306229
velocity: 0.0
doppler_bin: 8
bearing: -4.35107755661
intensity: 22.6951293945
---
header: 
  seq: 592265
  stamp: 
    secs: 1561682201
    nsecs: 635990104
  frame_id: "ti_mmwave"
point_id: 6
x: 1.423828125
y: -0.134765625
z: 0.072265625
range: 1.52519392967
velocity: 0.0
doppler_bin: 8
bearing: -5.40694952011
intensity: 25.4530715942
---
header: 
  seq: 592266
  stamp: 
    secs: 1561682201
    nsecs: 636003279
  frame_id: "ti_mmwave"
point_id: 7
x: 1.458984375
y: -0.138671875
z: -0.142578125
range: 1.56877088547
velocity: 0.0
doppler_bin: 8
bearing: -5.42947340012
intensity: 27.4036273956
---
header: 
  seq: 592267
  stamp: 
    secs: 1561682201
    nsecs: 636016702
  frame_id: "ti_mmwave"
point_id: 8
x: 1.490234375
y: -0.09375
z: -0.251953125
range: 1.61234796047
velocity: 0.0
doppler_bin: 8
bearing: -3.59970903397
intensity: 30.0560951233
---
header: 
  seq: 592268
  stamp: 
    secs: 1561682201
    nsecs: 636029795
  frame_id: "ti_mmwave"
point_id: 9
x: 1.525390625
y: -0.09765625
z: -0.28125
range: 1.65592491627
velocity: 0.0
doppler_bin: 8
bearing: -3.66310429573
intensity: 30.0732097626
---
header: 
  seq: 592269
  stamp: 
    secs: 1561682201
    nsecs: 636039044
  frame_id: "ti_mmwave"
point_id: 10
x: 1.560546875
y: -0.05078125
z: -0.328125
range: 1.69950187206
velocity: 0.0
doppler_bin: 8
bearing: -1.86378574371
intensity: 27.2181053162
---
header: 
  seq: 592270
  stamp: 
    secs: 1561682201
    nsecs: 636064891
  frame_id: "ti_mmwave"
point_id: 11
x: 2.556640625
y: -0.263671875
z: 1.16796875
range: 3.00681090355
velocity: 0.0
doppler_bin: 8
bearing: -5.88822031021
intensity: 29.3951931
---
header: 
  seq: 592271
  stamp: 
    secs: 1561682201
    nsecs: 636089255
  frame_id: "ti_mmwave"
point_id: 12
x: 2.607421875
y: -0.267578125
z: 1.154296875
range: 3.05038785934
velocity: 0.0
doppler_bin: 8
bearing: -5.85928010941
intensity: 32.7323265076
---
header: 
  seq: 592272
  stamp: 
    secs: 1561682201
    nsecs: 636112345
  frame_id: "ti_mmwave"
point_id: 13
x: 2.662109375
y: -0.181640625
z: 1.146484375
range: 3.09396481514
velocity: 0.0
doppler_bin: 8
bearing: -3.90334677696
intensity: 31.9284610748
---
header: 
  seq: 592273
  stamp: 
    secs: 1561682201
    nsecs: 636134290
  frame_id: "ti_mmwave"
point_id: 14
x: 4.41796875
y: -0.287109375
z: 1.1796875
range: 4.88062095642
velocity: 0.0
doppler_bin: 8
bearing: -3.71823716164
intensity: 30.8742637634
---
header: 
  seq: 592274
  stamp: 
    secs: 1561682201
    nsecs: 636156317
  frame_id: "ti_mmwave"
point_id: 15
x: 4.4609375
y: -0.2890625
z: 1.177734375
range: 4.9241976738
velocity: 0.0
doppler_bin: 8
bearing: -3.70750308037
intensity: 30.2325248718
---
header: 
  seq: 592275
  stamp: 
    secs: 1561682201
    nsecs: 636177907
