header: 
  seq: 606640
  stamp: 
    secs: 1561682224
    nsecs: 284296378
  frame_id: "ti_mmwave"
point_id: 0
x: 0.01171875
y: -0.0390625
z: -0.0078125
range: 0.0435769706964
velocity: 0.0
doppler_bin: 8
bearing: -73.3007583618
intensity: 30.7040729523
---
header: 
  seq: 606641
  stamp: 
    secs: 1561682224
    nsecs: 284371706
  frame_id: "ti_mmwave"
point_id: 1
x: 0.017578125
y: -0.080078125
z: -0.0078125
range: 0.0871539413929
velocity: 0.0
doppler_bin: 8
bearing: -77.6192398071
intensity: 31.9423675537
---
header: 
  seq: 606642
  stamp: 
    secs: 1561682224
    nsecs: 284382797
  frame_id: "ti_mmwave"
point_id: 2
x: 0.029296875
y: -0.119140625
z: -0.005859375
range: 0.130730912089
velocity: 0.0
doppler_bin: 8
bearing: -76.1849746704
intensity: 30.1994667053
---
header: 
  seq: 606643
  stamp: 
    secs: 1561682224
    nsecs: 284391055
  frame_id: "ti_mmwave"
point_id: 3
x: 0.056640625
y: -0.154296875
z: 0.005859375
range: 0.174307882786
velocity: 0.0
doppler_bin: 8
bearing: -69.8423843384
intensity: 25.4654273987
---
header: 
  seq: 606644
  stamp: 
    secs: 1561682224
    nsecs: 284400774
  frame_id: "ti_mmwave"
point_id: 4
x: 0.337890625
y: -0.080078125
z: -1.220703125
range: 1.35088610649
velocity: 0.0
doppler_bin: 8
bearing: -13.332783699
intensity: 21.8469142914
---
header: 
  seq: 606645
  stamp: 
    secs: 1561682224
    nsecs: 284408941
  frame_id: "ti_mmwave"
point_id: 5
x: 0.380859375
y: -0.041015625
z: 1.251953125
range: 1.39446306229
velocity: 0.0
doppler_bin: 8
bearing: -6.1466255188
intensity: 23.4044418335
---
header: 
  seq: 606646
  stamp: 
    secs: 1561682224
    nsecs: 284416763
  frame_id: "ti_mmwave"
point_id: 6
x: 1.46484375
y: -0.091796875
z: -0.11328125
range: 1.56877088547
velocity: 0.0
doppler_bin: 8
bearing: -3.58584666252
intensity: 23.8201713562
---
header: 
  seq: 606647
  stamp: 
    secs: 1561682224
    nsecs: 284424547
  frame_id: "ti_mmwave"
point_id: 7
x: 1.46484375
y: -0.189453125
z: -0.330078125
range: 1.61234796047
velocity: 0.0
doppler_bin: 8
bearing: -7.36934614182
intensity: 26.0638141632
---
header: 
  seq: 606648
  stamp: 
    secs: 1561682224
    nsecs: 284432243
  frame_id: "ti_mmwave"
point_id: 8
x: 1.474609375
y: -0.2421875
z: -0.427734375
range: 1.65592491627
velocity: 0.0
doppler_bin: 8
bearing: -9.32690048218
intensity: 25.965970993
---
header: 
  seq: 606649
  stamp: 
    secs: 1561682224
    nsecs: 284441540
  frame_id: "ti_mmwave"
point_id: 9
x: 2.5546875
y: -0.263671875
z: 1.169921875
range: 3.00681090355
velocity: 0.0
doppler_bin: 8
bearing: -5.89269018173
intensity: 29.4299964905
---
header: 
  seq: 606650
  stamp: 
    secs: 1561682224
    nsecs: 284449302
  frame_id: "ti_mmwave"
point_id: 10
x: 2.603515625
y: -0.267578125
z: 1.1640625
range: 3.05038785934
velocity: 0.0
doppler_bin: 8
bearing: -5.8680100441
intensity: 32.7230567932
---
header: 
  seq: 606651
  stamp: 
    secs: 1561682224
    nsecs: 284458721
  frame_id: "ti_mmwave"
point_id: 11
x: 2.658203125
y: -0.181640625
z: 1.15625
range: 3.09396481514
velocity: 0.0
doppler_bin: 8
bearing: -3.90906453133
intensity: 31.9838218689
---
header: 
  seq: 606652
  stamp: 
    secs: 1561682224
    nsecs: 284466822
  frame_id: "ti_mmwave"
point_id: 12
x: 4.42578125
y: -0.287109375
z: 1.150390625
range: 4.88062095642
velocity: 0.0
doppler_bin: 8
bearing: -3.7116920948
intensity: 30.8849048615
---
header: 
  seq: 606653
  stamp: 
    secs: 1561682224
    nsecs: 284475952
  frame_id: "ti_mmwave"
point_id: 13
x: 4.474609375
y: -0.2890625
z: 1.119140625
range: 4.9241976738
velocity: 0.0
doppler_bin: 8
bearing: -3.69620633125
intensity: 30.3181228638
---
header: 
  seq: 606654
  stamp: 
    secs: 1561682224
    nsecs: 284484149
  frame_id: "ti_mmwave"
point_id: 14
x: 4.87109375
y: -0.30859375
z: 0.822265625
range: 5.27281332016
velocity: 0.0
doppler_bin: 8
bearing: -3.62496066093
intensity: 30.4649524689
---
header: 
  seq: 606655
  stamp: 
    secs: 1561682224
    nsecs: 284492037
  frame_id: "ti_mmwave"
point_id: 15
x: 1.337890625
y: -0.083984375
z: 0.162109375
range: 1.43804001808
velocity: -0.614668667316
doppler_bin: 7
bearing: -3.59195590019
intensity: 23.0749607086
---
header: 
  seq: 606656
  stamp: 
    secs: 1561682224
    nsecs: 284500134
  frame_id: "ti_mmwave"
point_id: 16
x: 1.384765625
y: -0.130859375
z: -0.00390625
range: 1.48161697388
velocity: -0.614668667316
doppler_bin: 7
bearing: -5.3983798027
intensity: 25.550945282
---
header: 
  seq: 606657
  stamp: 
    secs: 1561682224
    nsecs: 284509225
  frame_id: "ti_mmwave"
point_id: 17
x: 1.423828125
y: -0.134765625
z: -0.046875
range: 1.52519392967
velocity: -0.614668667316
doppler_bin: 7
bearing: -5.40694952011
intensity: 25.5750713348
---
header: 
  seq: 606658
  stamp: 
    secs: 1561682224
    nsecs: 284520840
  frame_id: "ti_mmwave"
point_id: 19
x: 0.041015625
y: -0.033203125
z: 0.0625
range: 0.0871539413929
velocity: 0.0
doppler_bin: 8
bearing: -38.9909973145
intensity: 30.0902576447
---
header: 
  seq: 606659
  stamp: 
    secs: 1561682224
    nsecs: 284529151
  frame_id: "ti_mmwave"
point_id: 20
x: 0.052734375
y: -0.04296875
z: 0.1015625
range: 0.130730912089
velocity: 0.0
doppler_bin: 8
bearing: -39.1736602783
intensity: 28.9707698822
---
header: 
  seq: 606660
  stamp: 
    secs: 1561682224
    nsecs: 284547388
  frame_id: "ti_mmwave"
point_id: 22
x: 1.1171875
y: -0.515625
z: 0.3046875
range: 1.35088610649
velocity: 0.0
doppler_bin: 8
bearing: -24.7751407623
intensity: 18.9209461212
---
header: 
  seq: 606661
  stamp: 
    secs: 1561682224
    nsecs: 284558963
  frame_id: "ti_mmwave"
point_id: 25
x: 2.751953125
y: -2.00390625
z: -3.06640625
range: 4.88062095642
velocity: 0.0
doppler_bin: 8
bearing: -36.0612106323
intensity: 27.8816833496
---
header: 
  seq: 606662
  stamp: 
    secs: 1561682224
    nsecs: 285961635
  frame_id: "ti_mmwave"
point_id: 0
x: 0.01171875
y: -0.0390625
z: -0.0078125
range: 0.0435769706964
velocity: 0.0
doppler_bin: 8
bearing: -73.3007583618
intensity: 30.7040729523
---
header: 
  seq: 606663
  stamp: 
    secs: 1561682224
    nsecs: 286018865
  frame_id: "ti_mmwave"
point_id: 1
x: 0.017578125
y: -0.080078125
z: -0.0078125
range: 0.0871539413929
velocity: 0.0
doppler_bin: 8
bearing: -77.6192398071
intensity: 31.9368095398
---
header: 
  seq: 606664
  stamp: 
    secs: 1561682224
    nsecs: 286038638
  frame_id: "ti_mmwave"
point_id: 2
x: 0.029296875
y: -0.119140625
z: -0.005859375
range: 0.130730912089
velocity: 0.0
doppler_bin: 8
bearing: -76.1849746704
intensity: 30.1953163147
---
header: 
  seq: 606665
  stamp: 
    secs: 1561682224
    nsecs: 286051572
  frame_id: "ti_mmwave"
point_id: 3
x: 0.056640625
y: -0.154296875
z: 0.005859375
range: 0.174307882786
velocity: 0.0
doppler_bin: 8
bearing: -69.8423843384
intensity: 25.4530715942
---
header: 
  seq: 606666
  stamp: 
    secs: 1561682224
    nsecs: 286076822
  frame_id: "ti_mmwave"
point_id: 4
x: 0.3515625
y: -0.080078125
z: -1.216796875
range: 1.35088610649
velocity: 0.0
doppler_bin: 8
bearing: -12.83177948
intensity: 21.9589958191
---
header: 
  seq: 606667
  stamp: 
    secs: 1561682224
    nsecs: 286089827
  frame_id: "ti_mmwave"
point_id: 5
x: 0.486328125
y: -0.08203125
z: 1.212890625
range: 1.39446306229
velocity: 0.0
doppler_bin: 8
bearing: -9.57422828674
intensity: 23.5602588654
---
header: 
  seq: 606668
  stamp: 
    secs: 1561682224
    nsecs: 286101108
  frame_id: "ti_mmwave"
point_id: 6
x: 0.806640625
y: -0.04296875
z: 1.080078125
range: 1.43804001808
velocity: 0.0
doppler_bin: 8
bearing: -3.04919338226
intensity: 22.3552837372
---
header: 
  seq: 606669
  stamp: 
    secs: 1561682224
    nsecs: 286112597
  frame_id: "ti_mmwave"
point_id: 7
x: 1.470703125
y: -0.046875
z: -0.048828125
range: 1.56877088547
velocity: 0.0
doppler_bin: 8
bearing: -1.82554244995
intensity: 22.1218757629
---
header: 
  seq: 606670
  stamp: 
    secs: 1561682224
    nsecs: 286124046
  frame_id: "ti_mmwave"
point_id: 8
x: 1.509765625
y: -0.0
z: -0.1015625
range: 1.61234796047
velocity: 0.0
doppler_bin: 8
bearing: -0.0
intensity: 24.800069809
---
header: 
  seq: 606671
  stamp: 
    secs: 1561682224
    nsecs: 286146692
  frame_id: "ti_mmwave"
point_id: 9
x: 2.5546875
y: -0.263671875
z: 1.171875
range: 3.00681090355
velocity: 0.0
doppler_bin: 8
bearing: -5.89269018173
intensity: 29.4101428986
---
header: 
  seq: 606672
  stamp: 
    secs: 1561682224
    nsecs: 286239156
  frame_id: "ti_mmwave"
point_id: 10
x: 2.60546875
y: -0.267578125
z: 1.158203125
range: 3.05038785934
velocity: 0.0
doppler_bin: 8
bearing: -5.86364221573
intensity: 32.7346420288
---
header: 
  seq: 606673
  stamp: 
    secs: 1561682224
    nsecs: 286256392
  frame_id: "ti_mmwave"
point_id: 11
x: 2.662109375
y: -0.181640625
z: 1.14453125
range: 3.09396481514
velocity: 0.0
doppler_bin: 8
bearing: -3.90334677696
intensity: 31.9534606934
---
header: 
  seq: 606674
  stamp: 
    secs: 1561682224
    nsecs: 286268072
  frame_id: "ti_mmwave"
point_id: 12
x: 4.421875
y: -0.287109375
z: 1.1640625
range: 4.88062095642
velocity: 0.0
doppler_bin: 8
bearing: -3.7149617672
intensity: 30.788192749
---
header: 
  seq: 606675
  stamp: 
    secs: 1561682224
    nsecs: 286279559
  frame_id: "ti_mmwave"
point_id: 13
x: 4.453125
y: -0.2890625
z: 1.205078125
range: 4.9241976738
velocity: 0.0
doppler_bin: 8
bearing: -3.71398925781
intensity: 30.0043411255
---
header: 
  seq: 606676
  stamp: 
    secs: 1561682224
    nsecs: 286291452
  frame_id: "ti_mmwave"
point_id: 14
x: 4.837890625
y: -0.46484375
z: 0.939453125
range: 5.27281332016
velocity: 0.0
doppler_bin: 8
bearing: -5.48835754395
intensity: 30.157787323
---
header: 
  seq: 606677
  stamp: 
    secs: 1561682224
    nsecs: 286306399
  frame_id: "ti_mmwave"
point_id: 16
x: 0.041015625
y: -0.033203125
z: 0.0625
range: 0.0871539413929
velocity: 0.0
doppler_bin: 8
bearing: -38.9909973145
intensity: 30.0860023499
---
header: 
  seq: 606678
  stamp: 
    secs: 1561682224
    nsecs: 286319409
  frame_id: "ti_mmwave"
point_id: 17
x: 0.052734375
y: -0.04296875
z: 0.1015625
range: 0.130730912089
velocity: 0.0
doppler_bin: 8
bearing: -39.1736602783
intensity: 28.9652614594
---
header: 
  seq: 606679
  stamp: 
    secs: 1561682224
    nsecs: 286334526
  frame_id: "ti_mmwave"
point_id: 19
x: 1.119140625
y: -0.515625
z: 0.30078125
range: 1.35088610649
velocity: 0.0
doppler_bin: 8
bearing: -24.7370834351
intensity: 19.0308990479
---
header: 
  seq: 606680
  stamp: 
    secs: 1561682224
    nsecs: 286349709
  frame_id: "ti_mmwave"
point_id: 21
x: 2.7890625
y: -2.00390625
z: -3.033203125
range: 4.88062095642
velocity: 0.0
doppler_bin: 8
bearing: -35.6967697144
intensity: 27.8031730652
---
header: 
  seq: 606681
  stamp: 
    secs: 1561682224
    nsecs: 286366131
  frame_id: "ti_mmwave"
point_id: 22
x: 2.9453125
y: -2.021484375
z: -2.93359375
range: 4.9241976738
velocity: 0.0
doppler_bin: 8
bearing: -34.4633483887
intensity: 27.1683769226
---
header: 
  seq: 606682
  stamp: 
    secs: 1561682224
    nsecs: 344408832
  frame_id: "ti_mmwave"
point_id: 0
x: 0.01171875
y: -0.0390625
z: -0.0078125
range: 0.0435769706964
velocity: 0.0
doppler_bin: 8
bearing: -73.3007583618
intensity: 30.7077655792
---
header: 
  seq: 606683
  stamp: 
    secs: 1561682224
    nsecs: 344493467
  frame_id: "ti_mmwave"
point_id: 1
x: 0.017578125
y: -0.080078125
z: -0.0078125
range: 0.0871539413929
velocity: 0.0
doppler_bin: 8
bearing: -77.6192398071
intensity: 31.9395904541
---
header: 
  seq: 606684
  stamp: 
    secs: 1561682224
    nsecs: 344507661
  frame_id: "ti_mmwave"
point_id: 2
x: 0.029296875
y: -0.119140625
z: -0.005859375
range: 0.130730912089
velocity: 0.0
doppler_bin: 8
bearing: -76.1849746704
intensity: 30.1994667053
---
header: 
  seq: 606685
  stamp: 
    secs: 1561682224
    nsecs: 344517213
  frame_id: "ti_mmwave"
point_id: 3
x: 0.056640625
y: -0.154296875
z: 0.005859375
range: 0.174307882786
velocity: 0.0
doppler_bin: 8
bearing: -69.8423843384
intensity: 25.4654273987
---
header: 
  seq: 606686
  stamp: 
    secs: 1561682224
    nsecs: 344525123
  frame_id: "ti_mmwave"
point_id: 4
x: 0.3828125
y: -0.080078125
z: -1.20703125
range: 1.35088610649
velocity: 0.0
doppler_bin: 8
bearing: -11.8149757385
intensity: 21.6435279846
---
header: 
  seq: 606687
  stamp: 
    secs: 1561682224
    nsecs: 344533280
  frame_id: "ti_mmwave"
point_id: 5
x: 0.513671875
y: -0.0
z: 1.205078125
range: 1.39446306229
velocity: 0.0
doppler_bin: 8
bearing: -0.0
intensity: 21.9033164978
---
header: 
  seq: 606688
  stamp: 
    secs: 1561682224
    nsecs: 344541511
  frame_id: "ti_mmwave"
point_id: 6
x: 1.376953125
y: -0.134765625
z: 0.369140625
range: 1.52519392967
velocity: 0.0
doppler_bin: 8
bearing: -5.58986902237
intensity: 24.6686763763
---
header: 
  seq: 606689
  stamp: 
    secs: 1561682224
    nsecs: 344552019
  frame_id: "ti_mmwave"
point_id: 7
x: 1.474609375
y: -0.0
z: -0.34375
range: 1.61234796047
velocity: 0.0
doppler_bin: 8
bearing: -0.0
intensity: 24.4715805054
---
header: 
  seq: 606690
  stamp: 
    secs: 1561682224
    nsecs: 344560815
  frame_id: "ti_mmwave"
point_id: 8
x: 0.572265625
y: 0.630859375
z: 1.30078125
range: 1.65592491627
velocity: 0.0
doppler_bin: 8
bearing: 47.7881774902
intensity: 25.5750713348
---
header: 
  seq: 606691
  stamp: 
    secs: 1561682224
    nsecs: 344570170
  frame_id: "ti_mmwave"
point_id: 9
x: 2.5546875
y: -0.263671875
z: 1.169921875
range: 3.00681090355
velocity: 0.0
doppler_bin: 8
bearing: -5.89269018173
intensity: 29.4151134491
---
header: 
  seq: 606692
  stamp: 
    secs: 1561682224
    nsecs: 344578462
  frame_id: "ti_mmwave"
point_id: 10
x: 2.607421875
y: -0.267578125
z: 1.15234375
range: 3.05038785934
velocity: 0.0
doppler_bin: 8
bearing: -5.85928010941
intensity: 32.7276954651
---
header: 
  seq: 606693
  stamp: 
    secs: 1561682224
    nsecs: 344586552
  frame_id: "ti_mmwave"
point_id: 11
x: 2.6640625
y: -0.181640625
z: 1.140625
range: 3.09396481514
velocity: 0.0
doppler_bin: 8
bearing: -3.90049386024
intensity: 31.9117145538
---
header: 
  seq: 606694
  stamp: 
    secs: 1561682224
    nsecs: 344594561
  frame_id: "ti_mmwave"
point_id: 12
x: 4.421875
y: -0.287109375
z: 1.1640625
range: 4.88062095642
velocity: 0.0
doppler_bin: 8
bearing: -3.7149617672
intensity: 30.7845687866
---
header: 
  seq: 606695
  stamp: 
    secs: 1561682224
    nsecs: 344603753
  frame_id: "ti_mmwave"
point_id: 13
x: 4.470703125
y: -0.2890625
z: 1.142578125
range: 4.9241976738
velocity: 0.0
doppler_bin: 8
bearing: -3.69942688942
intensity: 30.1911621094
---
header: 
  seq: 606696
  stamp: 
    secs: 1561682224
    nsecs: 344612344
  frame_id: "ti_mmwave"
point_id: 14
x: 4.875
y: -0.30859375
z: 0.802734375
range: 5.27281332016
velocity: 0.0
doppler_bin: 8
bearing: -3.62206339836
intensity: 30.5192394257
---
header: 
  seq: 606697
  stamp: 
    secs: 1561682224
    nsecs: 344622340
  frame_id: "ti_mmwave"
point_id: 15
x: 1.33203125
y: -0.2109375
z: 0.0625
range: 1.43804001808
velocity: -0.614668667316
doppler_bin: 7
bearing: -8.99850940704
intensity: 24.5178642273
---
header: 
  seq: 606698
  stamp: 
    secs: 1561682224
    nsecs: 344632649
  frame_id: "ti_mmwave"
point_id: 16
x: 1.373046875
y: -0.216796875
z: 0.048828125
range: 1.48161697388
velocity: -0.614668667316
doppler_bin: 7
bearing: -8.9726266861
intensity: 26.1595001221
---
header: 
  seq: 606699
  stamp: 
    secs: 1561682224
    nsecs: 344683936
  frame_id: "ti_mmwave"
point_id: 18
x: 0.041015625
y: -0.033203125
z: 0.0625
range: 0.0871539413929
velocity: 0.0
doppler_bin: 8
bearing: -38.9909973145
intensity: 30.0860023499
---
header: 
  seq: 606700
  stamp: 
    secs: 1561682224
    nsecs: 344847668
  frame_id: "ti_mmwave"
point_id: 19
x: 0.052734375
y: -0.04296875
z: 0.1015625
range: 0.130730912089
velocity: 0.0
doppler_bin: 8
bearing: -39.1736602783
intensity: 28.9707698822
---
header: 
  seq: 606701
  stamp: 
    secs: 1561682224
    nsecs: 344868023
  frame_id: "ti_mmwave"
point_id: 21
x: 1.205078125
y: 0.357421875
z: 0.16796875
range: 1.35088610649
velocity: 0.0
doppler_bin: 8
bearing: 16.5201683044
intensity: 18.9209461212
---
header: 
  seq: 606702
  stamp: 
    secs: 1561682224
    nsecs: 344876197
  frame_id: "ti_mmwave"
point_id: 22
x: 1.22265625
y: 0.44921875
z: 0.125
range: 1.39446306229
velocity: 0.0
doppler_bin: 8
bearing: 20.1739463806
intensity: 19.3951931
---
header: 
  seq: 606703
  stamp: 
    secs: 1561682224
    nsecs: 344884465
  frame_id: "ti_mmwave"
point_id: 23
x: 0.271484375
y: 0.615234375
z: 1.35546875
range: 1.61234796047
velocity: 0.0
doppler_bin: 8
bearing: 66.1895828247
intensity: 23.9445171356
---
header: 
  seq: 606704
  stamp: 
    secs: 1561682224
    nsecs: 344892077
  frame_id: "ti_mmwave"
point_id: 24
x: 1.494140625
y: 0.09765625
z: -0.416015625
range: 1.65592491627
velocity: 0.0
doppler_bin: 8
bearing: 3.73950338364
intensity: 24.4715805054
---
header: 
  seq: 606705
  stamp: 
    secs: 1561682224
    nsecs: 344903845
  frame_id: "ti_mmwave"
point_id: 25
x: 2.77734375
y: -2.00390625
z: -3.04296875
range: 4.88062095642
velocity: 0.0
doppler_bin: 8
bearing: -35.811164856
intensity: 27.8031730652
---
header: 
  seq: 606706
  stamp: 
    secs: 1561682224
    nsecs: 344912225
  frame_id: "ti_mmwave"
point_id: 26
x: 2.849609375
y: -2.021484375
z: -3.025390625
range: 4.9241976738
velocity: 0.0
doppler_bin: 8
bearing: -35.3515090942
intensity: 27.283536911
---
header: 
  seq: 606707
  stamp: 
    secs: 1561682224
    nsecs: 345927219
  frame_id: "ti_mmwave"
point_id: 0
x: 0.01171875
y: -0.0390625
z: -0.0078125
range: 0.0435769706964
velocity: 0.0
doppler_bin: 8
bearing: -73.3007583618
intensity: 30.7040729523
---
header: 
  seq: 606708
  stamp: 
    secs: 1561682224
    nsecs: 345981202
  frame_id: "ti_mmwave"
point_id: 1
x: 0.017578125
y: -0.080078125
z: -0.0078125
range: 0.0871539413929
velocity: 0.0
doppler_bin: 8
bearing: -77.6192398071
intensity: 31.9395904541
---
header: 
  seq: 606709
  stamp: 
    secs: 1561682224
    nsecs: 346015031
  frame_id: "ti_mmwave"
point_id: 2
x: 0.029296875
y: -0.119140625
z: -0.005859375
range: 0.130730912089
velocity: 0.0
doppler_bin: 8
bearing: -76.1849746704
intensity: 30.1994667053
---
header: 
  seq: 606710
  stamp: 
    secs: 1561682224
    nsecs: 346024243
  frame_id: "ti_mmwave"
point_id: 3
x: 0.056640625
y: -0.154296875
z: 0.005859375
range: 0.174307882786
velocity: 0.0
doppler_bin: 8
bearing: -69.8423843384
intensity: 25.4777469635
---
header: 
  seq: 606711
  stamp: 
    secs: 1561682224
    nsecs: 346069369
  frame_id: "ti_mmwave"
point_id: 4
x: 0.2578125
y: -0.080078125
z: -1.23828125
range: 1.35088610649
velocity: 0.0
doppler_bin: 8
bearing: -17.255109787
intensity: 21.9312458038
---
header: 
  seq: 606712
  stamp: 
    secs: 1561682224
    nsecs: 346078920
  frame_id: "ti_mmwave"
point_id: 5
x: 0.482421875
y: -0.08203125
z: 1.212890625
range: 1.39446306229
velocity: 0.0
doppler_bin: 8
bearing: -9.65030002594
intensity: 23.5218257904
---
header: 
  seq: 606713
  stamp: 
    secs: 1561682224
    nsecs: 346088079
  frame_id: "ti_mmwave"
point_id: 6
x: 0.48828125
y: -0.04296875
z: -1.2578125
range: 1.43804001808
velocity: 0.0
doppler_bin: 8
bearing: -5.02907323837
intensity: 23.031961441
---
header: 
  seq: 606714
  stamp: 
    secs: 1561682224
    nsecs: 346095832
  frame_id: "ti_mmwave"
point_id: 7
x: 0.841796875
y: -0.087890625
z: -1.103515625
range: 1.48161697388
velocity: 0.0
doppler_bin: 8
bearing: -5.96056175232
intensity: 22.5285301208
---
header: 
  seq: 606715
  stamp: 
    secs: 1561682224
    nsecs: 346103137
  frame_id: "ti_mmwave"
point_id: 8
x: 1.4609375
y: -0.091796875
z: -0.158203125
range: 1.56877088547
velocity: 0.0
doppler_bin: 8
bearing: -3.59540891647
intensity: 24.5788192749
---
header: 
  seq: 606716
  stamp: 
    secs: 1561682224
    nsecs: 346110602
  frame_id: "ti_mmwave"
point_id: 9
x: 1.474609375
y: -0.142578125
z: -0.3125
range: 1.61234796047
velocity: 0.0
doppler_bin: 8
bearing: -5.5226893425
intensity: 25.2891674042
---
header: 
  seq: 606717
  stamp: 
    secs: 1561682224
    nsecs: 346117952
  frame_id: "ti_mmwave"
point_id: 10
x: 1.44140625
y: -0.2421875
z: -0.53125
range: 1.65592491627
velocity: 0.0
doppler_bin: 8
bearing: -9.53784370422
intensity: 25.2374649048
---
header: 
  seq: 606718
  stamp: 
    secs: 1561682224
    nsecs: 346124781
  frame_id: "ti_mmwave"
point_id: 11
x: 2.546875
y: -0.263671875
z: 1.1875
range: 3.00681090355
velocity: 0.0
doppler_bin: 8
bearing: -5.91063833237
intensity: 29.4101428986
---
header: 
  seq: 606719
  stamp: 
    secs: 1561682224
    nsecs: 346144690
  frame_id: "ti_mmwave"
point_id: 12
x: 2.60546875
y: -0.267578125
z: 1.158203125
range: 3.05038785934
velocity: 0.0
doppler_bin: 8
bearing: -5.86364221573
intensity: 32.7114448547
---
header: 
  seq: 606720
  stamp: 
    secs: 1561682224
    nsecs: 346159556
  frame_id: "ti_mmwave"
point_id: 13
x: 2.6640625
y: -0.181640625
z: 1.14453125
range: 3.09396481514
velocity: 0.0
doppler_bin: 8
bearing: -3.90049386024
intensity: 31.9256744385
---
header: 
  seq: 606721
  stamp: 
    secs: 1561682224
    nsecs: 346174174
  frame_id: "ti_mmwave"
point_id: 14
x: 4.421875
y: -0.287109375
z: 1.162109375
range: 4.88062095642
velocity: 0.0
doppler_bin: 8
bearing: -3.7149617672
intensity: 30.8278541565
---
header: 
  seq: 606722
  stamp: 
    secs: 1561682224
    nsecs: 346189238
  frame_id: "ti_mmwave"
point_id: 15
x: 4.47265625
y: -0.2890625
z: 1.12890625
range: 4.9241976738
velocity: 0.0
doppler_bin: 8
bearing: -3.6978161335
intensity: 30.3019485474
---
header: 
  seq: 606723
  stamp: 
    secs: 1561682224
    nsecs: 346208061
  frame_id: "ti_mmwave"
point_id: 16
x: 4.86328125
y: -0.30859375
z: 0.87109375
range: 5.27281332016
velocity: 0.0
doppler_bin: 8
bearing: -3.63076806068
intensity: 30.5804615021
---
header: 
  seq: 606724
  stamp: 
    secs: 1561682224
    nsecs: 346230386
  frame_id: "ti_mmwave"
point_id: 18
x: 0.041015625
y: -0.033203125
z: 0.0625
range: 0.0871539413929
velocity: 0.0
doppler_bin: 8
bearing: -38.9909973145
intensity: 30.0860023499
---
header: 
  seq: 606725
  stamp: 
    secs: 1561682224
    nsecs: 346289195
  frame_id: "ti_mmwave"
point_id: 19
x: 0.052734375
y: -0.04296875
z: 0.1015625
range: 0.130730912089
velocity: 0.0
doppler_bin: 8
bearing: -39.1736602783
intensity: 28.9707698822
---
header: 
  seq: 606726
  stamp: 
    secs: 1561682224
    nsecs: 346299655
  frame_id: "ti_mmwave"
point_id: 21
x: 0.177734375
y: 0.568359375
z: 1.392578125
range: 1.61234796047
velocity: 0.0
doppler_bin: 8
bearing: 72.634765625
intensity: 22.8555736542
---
header: 
  seq: 606727
  stamp: 
    secs: 1561682224
    nsecs: 346309602
  frame_id: "ti_mmwave"
point_id: 23
x: 2.748046875
y: -2.00390625
z: -3.0703125
range: 4.88062095642
velocity: 0.0
doppler_bin: 8
bearing: -36.0999488831
intensity: 27.8461723328
---
header: 
  seq: 606728
  stamp: 
    secs: 1561682224
    nsecs: 346317923
  frame_id: "ti_mmwave"
point_id: 24
x: 2.794921875
y: -2.021484375
z: -3.076171875
range: 4.9241976738
velocity: 0.0
doppler_bin: 8
bearing: -35.8771018982
intensity: 27.3158874512
---
header: 
  seq: 606729
  stamp: 
    secs: 1561682224
    nsecs: 405286821
  frame_id: "ti_mmwave"
point_id: 0
x: 0.01171875
y: -0.0390625
z: -0.0078125
range: 0.0435769706964
velocity: 0.0
doppler_bin: 8
bearing: -73.3007583618
intensity: 30.7040729523
---
header: 
  seq: 606730
  stamp: 
    secs: 1561682224
    nsecs: 405388117
  frame_id: "ti_mmwave"
point_id: 1
x: 0.017578125
y: -0.080078125
z: -0.0078125
range: 0.0871539413929
velocity: 0.0
doppler_bin: 8
bearing: -77.6192398071
intensity: 31.9423675537
---
header: 
  seq: 606731
  stamp: 
    secs: 1561682224
    nsecs: 405408391
  frame_id: "ti_mmwave"
point_id: 2
x: 0.029296875
y: -0.119140625
z: -0.005859375
range: 0.130730912089
velocity: 0.0
doppler_bin: 8
bearing: -76.1849746704
intensity: 30.2036132812
---
header: 
  seq: 606732
  stamp: 
    secs: 1561682224
    nsecs: 405422896
  frame_id: "ti_mmwave"
point_id: 3
x: 0.056640625
y: -0.154296875
z: 0.005859375
range: 0.174307882786
velocity: 0.0
doppler_bin: 8
bearing: -69.8423843384
intensity: 25.4777469635
---
header: 
  seq: 606733
  stamp: 
    secs: 1561682224
    nsecs: 405497346
  frame_id: "ti_mmwave"
point_id: 4
x: 0.49609375
y: -0.080078125
z: -1.1640625
range: 1.35088610649
velocity: 0.0
doppler_bin: 8
bearing: -9.16943836212
intensity: 22.5285301208
---
header: 
  seq: 606734
  stamp: 
    secs: 1561682224
    nsecs: 405514385
  frame_id: "ti_mmwave"
point_id: 5
x: 0.9921875
y: -0.08203125
z: -0.849609375
range: 1.39446306229
velocity: 0.0
doppler_bin: 8
bearing: -4.72630310059
intensity: 25.5630245209
---
header: 
  seq: 606735
  stamp: 
    secs: 1561682224
    nsecs: 405529968
  frame_id: "ti_mmwave"
point_id: 6
x: 1.33203125
y: -0.126953125
z: -0.18359375
range: 1.43804001808
velocity: 0.0
doppler_bin: 8
bearing: -5.44429636002
intensity: 26.7024593353
---
header: 
  seq: 606736
  stamp: 
    secs: 1561682224
    nsecs: 405544780
  frame_id: "ti_mmwave"
point_id: 7
x: 1.357421875
y: -0.130859375
z: -0.26953125
range: 1.48161697388
velocity: 0.0
doppler_bin: 8
bearing: -5.50646162033
intensity: 26.0205993652
---
header: 
  seq: 606737
  stamp: 
    secs: 1561682224
    nsecs: 405559180
  frame_id: "ti_mmwave"
point_id: 8
x: 1.365234375
y: -0.134765625
z: -0.408203125
range: 1.52519392967
velocity: 0.0
doppler_bin: 8
bearing: -5.63754272461
intensity: 24.2488155365
---
header: 
  seq: 606738
  stamp: 
    secs: 1561682224
    nsecs: 405574358
  frame_id: "ti_mmwave"
point_id: 9
x: 1.44921875
y: -0.091796875
z: -0.2421875
range: 1.56877088547
velocity: 0.0
doppler_bin: 8
bearing: -3.62440538406
intensity: 24.857213974
---
header: 
  seq: 606739
  stamp: 
    secs: 1561682224
    nsecs: 405605780
  frame_id: "ti_mmwave"
point_id: 10
x: 1.498046875
y: -0.09375
z: -0.201171875
range: 1.61234796047
velocity: 0.0
doppler_bin: 8
bearing: -3.58098506927
intensity: 25.2244415283
---
header: 
  seq: 606740
  stamp: 
    secs: 1561682224
    nsecs: 405676532
  frame_id: "ti_mmwave"
point_id: 11
x: 2.55078125
y: -0.263671875
z: 1.177734375
range: 3.00681090355
velocity: 0.0
doppler_bin: 8
bearing: -5.90165042877
intensity: 29.4200801849
---
header: 
  seq: 606741
  stamp: 
    secs: 1561682224
    nsecs: 405694354
  frame_id: "ti_mmwave"
point_id: 12
x: 2.60546875
y: -0.267578125
z: 1.158203125
range: 3.05038785934
velocity: 0.0
doppler_bin: 8
bearing: -5.86364221573
intensity: 32.73695755
---
header: 
  seq: 606742
  stamp: 
    secs: 1561682224
    nsecs: 405710191
  frame_id: "ti_mmwave"
point_id: 13
x: 2.6640625
y: -0.181640625
z: 1.14453125
range: 3.09396481514
velocity: 0.0
doppler_bin: 8
bearing: -3.90049386024
intensity: 31.9783172607
---
header: 
  seq: 606743
  stamp: 
    secs: 1561682224
    nsecs: 405728093
  frame_id: "ti_mmwave"
point_id: 14
x: 4.41796875
y: -0.287109375
z: 1.181640625
range: 4.88062095642
velocity: 0.0
doppler_bin: 8
bearing: -3.71823716164
intensity: 30.7736797333
---
header: 
  seq: 606744
  stamp: 
    secs: 1561682224
    nsecs: 405742321
  frame_id: "ti_mmwave"
point_id: 15
x: 4.4453125
y: -0.2890625
z: 1.234375
range: 4.9241976738
velocity: 0.0
doppler_bin: 8
bearing: -3.72049832344
intensity: 30.0902576447
---
header: 
  seq: 606745
  stamp: 
    secs: 1561682224
    nsecs: 405758584
  frame_id: "ti_mmwave"
point_id: 16
x: 4.857421875
y: -0.30859375
z: 0.896484375
range: 5.27281332016
velocity: 0.0
doppler_bin: 8
bearing: -3.63513588905
intensity: 30.4336223602
---
header: 
  seq: 606746
  stamp: 
    secs: 1561682224
    nsecs: 405773643
  frame_id: "ti_mmwave"
point_id: 18
x: 0.041015625
y: -0.033203125
z: 0.0625
range: 0.0871539413929
velocity: 0.0
doppler_bin: 8
bearing: -38.9909973145
intensity: 30.0860023499
---
header: 
  seq: 606747
  stamp: 
    secs: 1561682224
    nsecs: 406036897
  frame_id: "ti_mmwave"
point_id: 19
x: 0.052734375
y: -0.04296875
z: 0.1015625
range: 0.130730912089
velocity: 0.0
doppler_bin: 8
bearing: -39.1736602783
intensity: 28.9652614594
---
header: 
  seq: 606748
  stamp: 
    secs: 1561682224
    nsecs: 406062733
  frame_id: "ti_mmwave"
point_id: 21
x: 0.53515625
y: 0.47265625
z: 1.333984375
range: 1.61234796047
velocity: 0.0
doppler_bin: 8
bearing: 41.4513168335
intensity: 23.7657699585
---
header: 
  seq: 606749
  stamp: 
    secs: 1561682224
    nsecs: 406080775
  frame_id: "ti_mmwave"
point_id: 22
x: 2.76171875
y: -2.00390625
z: -3.056640625
range: 4.88062095642
velocity: 0.0
doppler_bin: 8
bearing: -35.9646835327
intensity: 27.8031730652
---
header: 
  seq: 606750
  stamp: 
    secs: 1561682224
    nsecs: 406097499
  frame_id: "ti_mmwave"
point_id: 23
x: 2.89453125
y: -2.021484375
z: -2.982421875
range: 4.9241976738
velocity: 0.0
doppler_bin: 8
bearing: -34.9296989441
intensity: 27.201593399
---
header: 
  seq: 606751
  stamp: 
    secs: 1561682224
    nsecs: 464253062
  frame_id: "ti_mmwave"
point_id: 0
x: 0.01171875
y: -0.0390625
z: -0.0078125
range: 0.0435769706964
velocity: 0.0
doppler_bin: 8
bearing: -73.3007583618
intensity: 30.700378418
---
header: 
  seq: 606752
  stamp: 
    secs: 1561682224
    nsecs: 464326197
  frame_id: "ti_mmwave"
point_id: 1
x: 0.017578125
y: -0.080078125
z: -0.0078125
range: 0.0871539413929
velocity: 0.0
doppler_bin: 8
bearing: -77.6192398071
intensity: 31.9395904541
---
header: 
  seq: 606753
  stamp: 
    secs: 1561682224
    nsecs: 464337568
  frame_id: "ti_mmwave"
point_id: 2
x: 0.029296875
y: -0.119140625
z: -0.005859375
range: 0.130730912089
velocity: 0.0
doppler_bin: 8
bearing: -76.1849746704
intensity: 30.1994667053
---
header: 
  seq: 606754
  stamp: 
    secs: 1561682224
    nsecs: 464347474
  frame_id: "ti_mmwave"
point_id: 3
x: 0.056640625
y: -0.154296875
z: 0.005859375
range: 0.174307882786
velocity: 0.0
doppler_bin: 8
bearing: -69.8423843384
intensity: 25.4654273987
---
header: 
  seq: 606755
  stamp: 
    secs: 1561682224
    nsecs: 464356501
  frame_id: "ti_mmwave"
point_id: 4
x: 0.236328125
y: -0.080078125
z: -1.244140625
range: 1.35088610649
velocity: 0.0
doppler_bin: 8
bearing: -18.7185897827
intensity: 21.875207901
---
header: 
  seq: 606756
  stamp: 
    secs: 1561682224
    nsecs: 464364553
  frame_id: "ti_mmwave"
point_id: 5
x: 0.37890625
y: -0.041015625
z: 1.251953125
range: 1.39446306229
velocity: 0.0
doppler_bin: 8
bearing: -6.17806482315
intensity: 22.8780174255
---
header: 
  seq: 606757
  stamp: 
    secs: 1561682224
    nsecs: 464373674
  frame_id: "ti_mmwave"
point_id: 6
x: 0.5859375
y: 0.04296875
z: -1.21484375
range: 1.43804001808
velocity: 0.0
doppler_bin: 8
bearing: 4.19418287277
intensity: 20.5307846069
---
header: 
  seq: 606758
  stamp: 
    secs: 1561682224
    nsecs: 464383944
  frame_id: "ti_mmwave"
point_id: 7
x: 1.35546875
y: -0.3046875
z: -0.083984375
range: 1.48161697388
velocity: 0.0
doppler_bin: 8
bearing: -12.6685962677
intensity: 18.864906311
---
header: 
  seq: 606759
  stamp: 
    secs: 1561682224
    nsecs: 464393278
  frame_id: "ti_mmwave"
point_id: 8
x: 1.453125
y: -0.138671875
z: -0.19140625
range: 1.56877088547
velocity: 0.0
doppler_bin: 8
bearing: -5.45123434067
intensity: 23.2837963104
---
header: 
  seq: 606760
  stamp: 
    secs: 1561682224
    nsecs: 464401417
  frame_id: "ti_mmwave"
point_id: 9
x: 1.4296875
y: -0.189453125
z: -0.45703125
range: 1.61234796047
velocity: 0.0
doppler_bin: 8
bearing: -7.54849433899
intensity: 26.4345264435
---
header: 
  seq: 606761
  stamp: 
    secs: 1561682224
    nsecs: 464409951
  frame_id: "ti_mmwave"
point_id: 10
x: 1.4140625
y: -0.291015625
z: -0.578125
range: 1.65592491627
velocity: 0.0
doppler_bin: 8
bearing: -11.6291675568
intensity: 27.058637619
---
header: 
  seq: 606762
  stamp: 
    secs: 1561682224
    nsecs: 464417923
  frame_id: "ti_mmwave"
point_id: 11
x: 2.55078125
y: -0.263671875
z: 1.177734375
range: 3.00681090355
velocity: 0.0
doppler_bin: 8
bearing: -5.90165042877
intensity: 29.4299964905
---
header: 
  seq: 606763
  stamp: 
    secs: 1561682224
    nsecs: 464426476
  frame_id: "ti_mmwave"
point_id: 12
x: 2.60546875
y: -0.267578125
z: 1.158203125
range: 3.05038785934
velocity: 0.0
doppler_bin: 8
bearing: -5.86364221573
intensity: 32.7323265076
---
header: 
  seq: 606764
  stamp: 
    secs: 1561682224
    nsecs: 464596030
  frame_id: "ti_mmwave"
point_id: 13
x: 2.662109375
y: -0.181640625
z: 1.14453125
range: 3.09396481514
velocity: 0.0
doppler_bin: 8
bearing: -3.90334677696
intensity: 31.9200954437
---
header: 
  seq: 606765
  stamp: 
    secs: 1561682224
    nsecs: 464621416
  frame_id: "ti_mmwave"
point_id: 14
x: 4.4140625
y: -0.287109375
z: 1.1953125
range: 4.88062095642
velocity: 0.0
doppler_bin: 8
bearing: -3.72151875496
intensity: 30.7918128967
---
header: 
  seq: 606766
  stamp: 
    secs: 1561682224
    nsecs: 464630102
  frame_id: "ti_mmwave"
point_id: 15
x: 4.458984375
y: -0.2890625
z: 1.185546875
range: 4.9241976738
velocity: 0.0
doppler_bin: 8
bearing: -3.70912218094
intensity: 30.1157035828
---
header: 
  seq: 606767
  stamp: 
    secs: 1561682224
    nsecs: 464640375
  frame_id: "ti_mmwave"
point_id: 16
x: 4.8671875
y: -0.30859375
z: 0.84765625
range: 5.27281332016
velocity: 0.0
doppler_bin: 8
bearing: -3.62786221504
intensity: 30.4999294281
---
header: 
  seq: 606768
  stamp: 
    secs: 1561682224
    nsecs: 464648702
  frame_id: "ti_mmwave"
point_id: 18
x: 0.041015625
y: -0.033203125
z: 0.0625
range: 0.0871539413929
velocity: 0.0
doppler_bin: 8
bearing: -38.9909973145
intensity: 30.0902576447
---
header: 
  seq: 606769
  stamp: 
    secs: 1561682224
    nsecs: 464743418
  frame_id: "ti_mmwave"
point_id: 19
x: 0.052734375
y: -0.04296875
z: 0.1015625
range: 0.130730912089
velocity: 0.0
doppler_bin: 8
bearing: -39.1736602783
intensity: 28.9762706757
---
header: 
  seq: 606770
  stamp: 
    secs: 1561682224
    nsecs: 464763098
  frame_id: "ti_mmwave"
point_id: 21
x: 1.283203125
y: -0.421875
z: -0.009765625
range: 1.43804001808
velocity: 0.0
doppler_bin: 8
bearing: -18.1991653442
intensity: 18.1954402924
---
header: 
  seq: 606771
  stamp: 
    secs: 1561682224
    nsecs: 464776755
  frame_id: "ti_mmwave"
point_id: 22
x: 0.8203125
y: 0.130859375
z: -1.115234375
range: 1.48161697388
velocity: 0.0
doppler_bin: 8
bearing: 9.06367301941
intensity: 18.8081359863
---
header: 
  seq: 606772
  stamp: 
    secs: 1561682224
    nsecs: 464792132
  frame_id: "ti_mmwave"
point_id: 24
x: 2.83203125
y: -2.00390625
z: -2.9921875
range: 4.88062095642
velocity: 0.0
doppler_bin: 8
bearing: -35.282699585
intensity: 27.8103694916
---
header: 
  seq: 606773
  stamp: 
    secs: 1561682224
    nsecs: 464803333
  frame_id: "ti_mmwave"
point_id: 25
x: 2.9375
y: -2.021484375
z: -2.939453125
range: 4.9241976738
velocity: 0.0
doppler_bin: 8
bearing: -34.5343856812
intensity: 27.2754135132
---
header: 
  seq: 606774
  stamp: 
    secs: 1561682224
    nsecs: 466015114
  frame_id: "ti_mmwave"
point_id: 0
x: 0.01171875
y: -0.0390625
z: -0.0078125
range: 0.0435769706964
velocity: 0.0
doppler_bin: 8
bearing: -73.3007583618
intensity: 30.700378418
---
header: 
  seq: 606775
  stamp: 
    secs: 1561682224
    nsecs: 466066281
  frame_id: "ti_mmwave"
point_id: 1
x: 0.017578125
y: -0.080078125
z: -0.0078125
range: 0.0871539413929
velocity: 0.0
doppler_bin: 8
bearing: -77.6192398071
intensity: 31.9395904541
---
header: 
  seq: 606776
  stamp: 
    secs: 1561682224
    nsecs: 466077110
  frame_id: "ti_mmwave"
point_id: 2
x: 0.029296875
y: -0.119140625
z: -0.005859375
range: 0.130730912089
velocity: 0.0
doppler_bin: 8
bearing: -76.1849746704
intensity: 30.1994667053
---
header: 
  seq: 606777
  stamp: 
    secs: 1561682224
    nsecs: 466085489
  frame_id: "ti_mmwave"
point_id: 3
x: 0.056640625
y: -0.154296875
z: 0.005859375
range: 0.174307882786
velocity: 0.0
doppler_bin: 8
bearing: -69.8423843384
intensity: 25.4654273987
---
header: 
  seq: 606778
  stamp: 
    secs: 1561682224
    nsecs: 466094984
  frame_id: "ti_mmwave"
point_id: 4
x: 0.583984375
y: -0.080078125
z: 1.123046875
range: 1.35088610649
velocity: 0.0
doppler_bin: 8
bearing: -7.80791807175
intensity: 21.0037059784
---
header: 
  seq: 606779
  stamp: 
    secs: 1561682224
    nsecs: 466102994
  frame_id: "ti_mmwave"
point_id: 5
x: 1.1796875
y: -0.123046875
z: 0.552734375
range: 1.39446306229
velocity: 0.0
doppler_bin: 8
bearing: -5.95468330383
intensity: 23.0102996826
---
header: 
  seq: 606780
  stamp: 
    secs: 1561682224
    nsecs: 466110881
  frame_id: "ti_mmwave"
point_id: 6
x: 1.322265625
y: -0.126953125
z: 0.23828125
range: 1.43804001808
velocity: 0.0
doppler_bin: 8
bearing: -5.48426151276
intensity: 24.6089782715
---
header: 
  seq: 606781
  stamp: 
    secs: 1561682224
    nsecs: 466118839
  frame_id: "ti_mmwave"
point_id: 7
x: 1.380859375
y: -0.087890625
z: 0.140625
range: 1.48161697388
velocity: 0.0
doppler_bin: 8
bearing: -3.64191913605
intensity: 24.9415454865
---
header: 
  seq: 606782
  stamp: 
    secs: 1561682224
    nsecs: 466126743
  frame_id: "ti_mmwave"
point_id: 8
x: 1.42578125
y: -0.044921875
z: 0.111328125
range: 1.52519392967
velocity: 0.0
doppler_bin: 8
bearing: -1.80461239815
intensity: 24.2975234985
---
header: 
  seq: 606783
  stamp: 
    secs: 1561682224
    nsecs: 466137478
  frame_id: "ti_mmwave"
point_id: 9
x: 1.451171875
y: -0.138671875
z: -0.20703125
range: 1.56877088547
velocity: 0.0
doppler_bin: 8
bearing: -5.45852708817
intensity: 23.9619941711
---
header: 
  seq: 606784
  stamp: 
    secs: 1561682224
    nsecs: 466145917
  frame_id: "ti_mmwave"
point_id: 10
x: 1.427734375
y: -0.142578125
z: -0.482421875
range: 1.61234796047
velocity: 0.0
doppler_bin: 8
bearing: -5.70283269882
intensity: 25.7287158966
---
header: 
  seq: 606785
  stamp: 
    secs: 1561682224
    nsecs: 466154903
  frame_id: "ti_mmwave"
point_id: 11
x: 1.44921875
y: -0.146484375
z: -0.54296875
range: 1.65592491627
velocity: 0.0
doppler_bin: 8
bearing: -5.77174949646
intensity: 25.4530715942
---
header: 
  seq: 606786
  stamp: 
    secs: 1561682224
    nsecs: 466163496
  frame_id: "ti_mmwave"
point_id: 12
x: 2.55078125
y: -0.263671875
z: 1.177734375
range: 3.00681090355
velocity: 0.0
doppler_bin: 8
bearing: -5.90165042877
intensity: 29.3951931
---
header: 
  seq: 606787
  stamp: 
    secs: 1561682224
    nsecs: 466172036
  frame_id: "ti_mmwave"
point_id: 13
x: 2.60546875
y: -0.267578125
z: 1.15625
range: 3.05038785934
velocity: 0.0
doppler_bin: 8
bearing: -5.86364221573
intensity: 32.7253761292
---
header: 
  seq: 606788
  stamp: 
    secs: 1561682224
    nsecs: 466180093
  frame_id: "ti_mmwave"
point_id: 14
x: 2.666015625
y: -0.181640625
z: 1.140625
range: 3.09396481514
velocity: 0.0
doppler_bin: 8
bearing: -3.89764523506
intensity: 31.9645252228
---
header: 
  seq: 606789
  stamp: 
    secs: 1561682224
    nsecs: 466244177
  frame_id: "ti_mmwave"
point_id: 15
x: 4.4140625
y: -0.287109375
z: 1.193359375
range: 4.88062095642
velocity: 0.0
doppler_bin: 8
bearing: -3.72151875496
intensity: 30.7809410095
---
header: 
  seq: 606790
  stamp: 
    secs: 1561682224
    nsecs: 466252890
  frame_id: "ti_mmwave"
point_id: 16
x: 4.44140625
y: -0.2890625
z: 1.24609375
range: 4.9241976738
velocity: 0.0
doppler_bin: 8
bearing: -3.7237610817
intensity: 29.9475688934
---
header: 
  seq: 606791
  stamp: 
    secs: 1561682224
    nsecs: 466262969
  frame_id: "ti_mmwave"
point_id: 17
x: 4.869140625
y: -0.30859375
z: 0.83203125
range: 5.27281332016
velocity: 0.0
doppler_bin: 8
bearing: -3.62641048431
intensity: 30.3382568359
---
header: 
  seq: 606792
  stamp: 
    secs: 1561682224
    nsecs: 466274138
  frame_id: "ti_mmwave"
point_id: 19
x: 0.041015625
y: -0.033203125
z: 0.0625
range: 0.0871539413929
velocity: 0.0
doppler_bin: 8
bearing: -38.9909973145
intensity: 30.0860023499
---
header: 
  seq: 606793
  stamp: 
    secs: 1561682224
    nsecs: 466281723
  frame_id: "ti_mmwave"
point_id: 20
x: 0.052734375
y: -0.04296875
z: 0.1015625
range: 0.130730912089
velocity: 0.0
doppler_bin: 8
bearing: -39.1736602783
intensity: 28.9652614594
---
header: 
  seq: 606794
  stamp: 
    secs: 1561682224
    nsecs: 466294585
  frame_id: "ti_mmwave"
point_id: 22
x: 1.216796875
y: 0.357421875
z: 0.03515625
range: 1.35088610649
velocity: 0.0
doppler_bin: 8
bearing: 16.3696231842
intensity: 18.4509811401
---
header: 
  seq: 606795
  stamp: 
    secs: 1561682224
    nsecs: 466310016
  frame_id: "ti_mmwave"
point_id: 24
x: 2.80078125
y: -2.00390625
z: -3.021484375
range: 4.88062095642
velocity: 0.0
doppler_bin: 8
bearing: -35.5830039978
intensity: 27.8175544739
---
header: 
  seq: 606796
  stamp: 
    secs: 1561682224
    nsecs: 466322834
  frame_id: "ti_mmwave"
point_id: 25
x: 2.982421875
y: -2.021484375
z: -2.896484375
range: 4.9241976738
velocity: 0.0
doppler_bin: 8
bearing: -34.1294021606
intensity: 27.1349048615
---
header: 
  seq: 606797
  stamp: 
    secs: 1561682224
    nsecs: 524415299
  frame_id: "ti_mmwave"
point_id: 0
x: 0.01171875
y: -0.0390625
z: -0.0078125
range: 0.0435769706964
velocity: 0.0
doppler_bin: 8
bearing: -73.3007583618
intensity: 30.700378418
---
header: 
  seq: 606798
  stamp: 
    secs: 1561682224
    nsecs: 524512578
  frame_id: "ti_mmwave"
point_id: 1
x: 0.017578125
y: -0.080078125
z: -0.0078125
range: 0.0871539413929
velocity: 0.0
doppler_bin: 8
bearing: -77.6192398071
intensity: 31.9395904541
---
header: 
  seq: 606799
  stamp: 
    secs: 1561682224
    nsecs: 524532896
  frame_id: "ti_mmwave"
point_id: 2
x: 0.029296875
y: -0.119140625
z: -0.005859375
range: 0.130730912089
velocity: 0.0
doppler_bin: 8
bearing: -76.1849746704
intensity: 30.2036132812
---
header: 
  seq: 606800
  stamp: 
    secs: 1561682224
    nsecs: 524546772
  frame_id: "ti_mmwave"
point_id: 3
x: 0.056640625
y: -0.154296875
z: 0.005859375
range: 0.174307882786
velocity: 0.0
doppler_bin: 8
bearing: -69.8423843384
intensity: 25.4777469635
---
header: 
  seq: 606801
  stamp: 
    secs: 1561682224
    nsecs: 524560409
  frame_id: "ti_mmwave"
point_id: 4
x: 1.134765625
y: -0.158203125
z: 0.541015625
range: 1.35088610649
velocity: 0.0
doppler_bin: 8
bearing: -7.93672227859
intensity: 23.8021125793
---
header: 
  seq: 606802
  stamp: 
    secs: 1561682224
    nsecs: 524574819
  frame_id: "ti_mmwave"
point_id: 5
x: 1.298828125
y: -0.123046875
z: 0.095703125
range: 1.39446306229
velocity: 0.0
doppler_bin: 8
bearing: -5.41186904907
intensity: 27.6863803864
---
header: 
  seq: 606803
  stamp: 
    secs: 1561682224
    nsecs: 524588332
  frame_id: "ti_mmwave"
point_id: 6
x: 1.34375
y: -0.126953125
z: -0.033203125
range: 1.43804001808
velocity: 0.0
doppler_bin: 8
bearing: -5.3970990181
intensity: 28.4135951996
---
header: 
  seq: 606804
  stamp: 
    secs: 1561682224
    nsecs: 524602297
  frame_id: "ti_mmwave"
point_id: 7
x: 1.384765625
y: -0.130859375
z: -0.029296875
range: 1.48161697388
velocity: 0.0
doppler_bin: 8
bearing: -5.3983798027
intensity: 26.1172332764
---
header: 
  seq: 606805
  stamp: 
    secs: 1561682224
    nsecs: 524618750
  frame_id: "ti_mmwave"
point_id: 8
x: 1.37890625
y: -0.08984375
z: 0.375
range: 1.52519392967
velocity: 0.0
doppler_bin: 8
bearing: -3.72788310051
intensity: 21.875207901
---
header: 
  seq: 606806
  stamp: 
    secs: 1561682224
    nsecs: 524632133
  frame_id: "ti_mmwave"
point_id: 9
x: 1.458984375
y: -0.091796875
z: -0.169921875
range: 1.56877088547
velocity: 0.0
doppler_bin: 8
bearing: -3.60020971298
intensity: 24.393327713
---
header: 
  seq: 606807
  stamp: 
    secs: 1561682224
    nsecs: 524649131
  frame_id: "ti_mmwave"
point_id: 10
x: 1.4375
y: -0.09375
z: -0.46484375
range: 1.61234796047
velocity: 0.0
doppler_bin: 8
bearing: -3.73139691353
intensity: 26.1384181976
---
header: 
  seq: 606808
  stamp: 
    secs: 1561682224
    nsecs: 524662882
  frame_id: "ti_mmwave"
point_id: 11
x: 1.451171875
y: -0.09765625
z: -0.55078125
range: 1.65592491627
velocity: 0.0
doppler_bin: 8
bearing: -3.84990096092
intensity: 26.6181259155
---
header: 
  seq: 606809
  stamp: 
    secs: 1561682224
    nsecs: 524676370
  frame_id: "ti_mmwave"
point_id: 12
x: 1.505859375
y: -0.05078125
z: -0.525390625
range: 1.69950187206
velocity: 0.0
doppler_bin: 8
bearing: -1.93142151833
intensity: 25.1454772949
---
header: 
  seq: 606810
  stamp: 
    secs: 1561682224
    nsecs: 524765089
  frame_id: "ti_mmwave"
point_id: 13
x: 2.548828125
y: -0.263671875
z: 1.18359375
range: 3.00681090355
velocity: 0.0
doppler_bin: 8
bearing: -5.90614128113
intensity: 29.3951931
---
header: 
  seq: 606811
  stamp: 
    secs: 1561682224
    nsecs: 524782487
  frame_id: "ti_mmwave"
point_id: 14
x: 2.603515625
y: -0.267578125
z: 1.16015625
range: 3.05038785934
velocity: 0.0
doppler_bin: 8
bearing: -5.8680100441
intensity: 32.7091178894
---
header: 
  seq: 606812
  stamp: 
    secs: 1561682224
    nsecs: 524801928
  frame_id: "ti_mmwave"
point_id: 15
x: 2.6640625
y: -0.181640625
z: 1.140625
range: 3.09396481514
velocity: 0.0
doppler_bin: 8
bearing: -3.90049386024
intensity: 31.9838218689
---
header: 
  seq: 606813
  stamp: 
    secs: 1561682224
    nsecs: 524816766
  frame_id: "ti_mmwave"
point_id: 16
x: 4.416015625
y: -0.287109375
z: 1.189453125
range: 4.88062095642
velocity: 0.0
doppler_bin: 8
bearing: -3.71987724304
intensity: 30.7773113251
---
header: 
  seq: 606814
  stamp: 
    secs: 1561682224
    nsecs: 524830357
  frame_id: "ti_mmwave"
point_id: 17
x: 4.427734375
y: -0.2890625
z: 1.298828125
range: 4.9241976738
velocity: 0.0
doppler_bin: 8
bearing: -3.73522686958
intensity: 29.9387683868
---
header: 
  seq: 606815
  stamp: 
    secs: 1561682224
    nsecs: 524845797
  frame_id: "ti_mmwave"
point_id: 18
x: 4.880859375
y: -0.30859375
z: 0.759765625
range: 5.27281332016
velocity: 0.0
doppler_bin: 8
bearing: -3.61772704124
intensity: 30.4649524689
---
header: 
  seq: 606816
  stamp: 
    secs: 1561682224
    nsecs: 524863475
  frame_id: "ti_mmwave"
point_id: 20
x: 0.041015625
y: -0.033203125
z: 0.0625
range: 0.0871539413929
velocity: 0.0
doppler_bin: 8
bearing: -38.9909973145
intensity: 30.0860023499
---
header: 
  seq: 606817
  stamp: 
    secs: 1561682224
    nsecs: 524877307
  frame_id: "ti_mmwave"
point_id: 21
x: 0.052734375
y: -0.04296875
z: 0.1015625
range: 0.130730912089
velocity: 0.0
doppler_bin: 8
bearing: -39.1736602783
intensity: 28.9652614594
---
header: 
  seq: 606818
  stamp: 
    secs: 1561682224
    nsecs: 524891036
  frame_id: "ti_mmwave"
point_id: 23
x: 0.5078125
y: 0.447265625
z: -1.26171875
range: 1.52519392967
velocity: 0.0
doppler_bin: 8
bearing: 41.3726081848
intensity: 19.3449840546
---
header: 
  seq: 606819
  stamp: 
    secs: 1561682224
    nsecs: 524946721
  frame_id: "ti_mmwave"
point_id: 26
x: 2.7890625
y: -2.00390625
z: -3.033203125
range: 4.88062095642
velocity: 0.0
doppler_bin: 8
bearing: -35.6967697144
intensity: 27.8461723328
---
header: 
  seq: 606820
  stamp: 
    secs: 1561682224
    nsecs: 524962161
  frame_id: "ti_mmwave"
point_id: 27
x: 2.97265625
y: -2.021484375
z: -2.90625
range: 4.9241976738
velocity: 0.0
doppler_bin: 8
bearing: -34.2167358398
intensity: 27.1264972687
---
header: 
  seq: 606821
  stamp: 
    secs: 1561682224
    nsecs: 526100344
  frame_id: "ti_mmwave"
point_id: 0
x: 0.01171875
y: -0.0390625
z: -0.0078125
range: 0.0435769706964
velocity: 0.0
doppler_bin: 8
bearing: -73.3007583618
intensity: 30.7040729523
---
header: 
  seq: 606822
  stamp: 
    secs: 1561682224
    nsecs: 526163333
  frame_id: "ti_mmwave"
point_id: 1
x: 0.017578125
y: -0.080078125
z: -0.0078125
range: 0.0871539413929
velocity: 0.0
doppler_bin: 8
bearing: -77.6192398071
intensity: 31.9423675537
---
header: 
  seq: 606823
  stamp: 
    secs: 1561682224
    nsecs: 526182517
  frame_id: "ti_mmwave"
point_id: 2
x: 0.029296875
y: -0.119140625
z: -0.005859375
range: 0.130730912089
velocity: 0.0
doppler_bin: 8
bearing: -76.1849746704
intensity: 30.2036132812
---
header: 
  seq: 606824
  stamp: 
    secs: 1561682224
    nsecs: 526196508
  frame_id: "ti_mmwave"
point_id: 3
x: 0.056640625
y: -0.154296875
z: 0.005859375
range: 0.174307882786
velocity: 0.0
doppler_bin: 8
bearing: -69.8423843384
intensity: 25.4777469635
---
header: 
  seq: 606825
  stamp: 
    secs: 1561682224
    nsecs: 526212909
  frame_id: "ti_mmwave"
point_id: 4
x: 0.998046875
y: -0.080078125
z: -0.779296875
range: 1.35088610649
velocity: 0.0
doppler_bin: 8
bearing: -4.58729028702
intensity: 22.3552837372
---
header: 
  seq: 606826
  stamp: 
    secs: 1561682224
    nsecs: 526226670
  frame_id: "ti_mmwave"
point_id: 5
x: 1.19140625
y: -0.123046875
z: -0.52734375
range: 1.39446306229
velocity: 0.0
doppler_bin: 8
bearing: -5.89652729034
intensity: 25.3147888184
---
header: 
  seq: 606827
  stamp: 
    secs: 1561682224
    nsecs: 526240403
  frame_id: "ti_mmwave"
point_id: 6
x: 1.287109375
y: -0.126953125
z: -0.388671875
range: 1.43804001808
velocity: 0.0
doppler_bin: 8
bearing: -5.63310861588
intensity: 25.5990657806
---
header: 
  seq: 606828
  stamp: 
    secs: 1561682224
    nsecs: 526258127
  frame_id: "ti_mmwave"
point_id: 7
x: 1.326171875
y: -0.173828125
z: -0.380859375
range: 1.48161697388
velocity: 0.0
doppler_bin: 8
bearing: -7.46748018265
intensity: 18.8081359863
---
header: 
  seq: 606829
  stamp: 
    secs: 1561682224
    nsecs: 526329257
  frame_id: "ti_mmwave"
point_id: 8
x: 1.439453125
y: -0.091796875
z: -0.294921875
range: 1.56877088547
velocity: 0.0
doppler_bin: 8
bearing: -3.64892816544
intensity: 23.9269695282
---
header: 
  seq: 606830
  stamp: 
    secs: 1561682224
    nsecs: 526344707
  frame_id: "ti_mmwave"
point_id: 9
x: 1.41796875
y: -0.142578125
z: -0.509765625
range: 1.61234796047
velocity: 0.0
doppler_bin: 8
bearing: -5.74184656143
intensity: 26.4542236328
---
header: 
  seq: 606831
  stamp: 
    secs: 1561682224
    nsecs: 526360707
  frame_id: "ti_mmwave"
point_id: 10
x: 1.46484375
y: -0.09765625
z: -0.51171875
range: 1.65592491627
velocity: 0.0
doppler_bin: 8
bearing: -3.81407499313
intensity: 27.6417617798
---
header: 
  seq: 606832
  stamp: 
    secs: 1561682224
    nsecs: 526375703
  frame_id: "ti_mmwave"
point_id: 11
x: 1.521484375
y: -0.05078125
z: -0.474609375
range: 1.69950187206
velocity: 0.0
doppler_bin: 8
bearing: -1.91160130501
intensity: 25.9769515991
---
header: 
  seq: 606833
  stamp: 
    secs: 1561682224
    nsecs: 526388964
  frame_id: "ti_mmwave"
point_id: 12
x: 2.552734375
y: -0.263671875
z: 1.17578125
range: 3.00681090355
velocity: 0.0
doppler_bin: 8
bearing: -5.89716720581
intensity: 29.4398880005
---
header: 
  seq: 606834
  stamp: 
    secs: 1561682224
    nsecs: 526401966
  frame_id: "ti_mmwave"
point_id: 13
x: 2.60546875
y: -0.267578125
z: 1.158203125
range: 3.05038785934
velocity: 0.0
doppler_bin: 8
bearing: -5.86364221573
intensity: 32.73695755
---
header: 
  seq: 606835
  stamp: 
    secs: 1561682224
    nsecs: 526415453
  frame_id: "ti_mmwave"
point_id: 14
x: 2.666015625
y: -0.181640625
z: 1.138671875
range: 3.09396481514
velocity: 0.0
doppler_bin: 8
bearing: -3.89764523506
intensity: 31.9672870636
---
header: 
  seq: 606836
  stamp: 
    secs: 1561682224
    nsecs: 526470502
  frame_id: "ti_mmwave"
point_id: 15
x: 4.4140625
y: -0.287109375
z: 1.19140625
range: 4.88062095642
velocity: 0.0
doppler_bin: 8
bearing: -3.72151875496
intensity: 30.7664051056
---
header: 
  seq: 606837
  stamp: 
    secs: 1561682224
    nsecs: 526486249
  frame_id: "ti_mmwave"
point_id: 16
x: 4.427734375
y: -0.2890625
z: 1.29296875
range: 4.9241976738
velocity: 0.0
doppler_bin: 8
bearing: -3.73522686958
intensity: 30.0086765289
---
header: 
  seq: 606838
  stamp: 
    secs: 1561682224
    nsecs: 526499828
  frame_id: "ti_mmwave"
point_id: 17
x: 4.88671875
y: -0.30859375
z: 0.720703125
range: 5.27281332016
velocity: 0.0
doppler_bin: 8
bearing: -3.61340069771
intensity: 30.5804615021
---
header: 
  seq: 606839
  stamp: 
    secs: 1561682224
    nsecs: 526521958
  frame_id: "ti_mmwave"
point_id: 19
x: 0.041015625
y: -0.033203125
z: 0.0625
range: 0.0871539413929
velocity: 0.0
doppler_bin: 8
bearing: -38.9909973145
intensity: 30.0945091248
---
header: 
  seq: 606840
  stamp: 
    secs: 1561682224
    nsecs: 526624517
  frame_id: "ti_mmwave"
point_id: 20
x: 0.052734375
y: -0.04296875
z: 0.1015625
range: 0.130730912089
velocity: 0.0
doppler_bin: 8
bearing: -39.1736602783
intensity: 28.9762706757
---
header: 
  seq: 606841
  stamp: 
    secs: 1561682224
    nsecs: 526671684
  frame_id: "ti_mmwave"
point_id: 22
x: 0.984375
y: -0.5546875
z: 0.576171875
range: 1.35088610649
velocity: 0.0
doppler_bin: 8
bearing: -29.4009151459
intensity: 19.3951931
---
header: 
  seq: 606842
  stamp: 
    secs: 1561682224
    nsecs: 526720916
  frame_id: "ti_mmwave"
point_id: 23
x: 0.447265625
y: 1.3046875
z: -0.1875
range: 1.48161697388
velocity: 0.0
doppler_bin: 8
bearing: 71.0775527954
intensity: 17.3239383698
---
header: 
  seq: 606843
  stamp: 
    secs: 1561682224
    nsecs: 526741849
  frame_id: "ti_mmwave"
point_id: 26
x: 2.775390625
y: -2.00390625
z: -3.044921875
range: 4.88062095642
velocity: 0.0
doppler_bin: 8
bearing: -35.830291748
intensity: 27.8390350342
---
header: 
  seq: 606844
  stamp: 
    secs: 1561682224
    nsecs: 526765703
  frame_id: "ti_mmwave"
point_id: 27
x: 2.95703125
y: -2.021484375
z: -2.921875
range: 4.9241976738
velocity: 0.0
doppler_bin: 8
bearing: -34.3572769165
intensity: 27.1516742706
---
header: 
  seq: 606845
  stamp: 
    secs: 1561682224
    nsecs: 584204963
  frame_id: "ti_mmwave"
point_id: 0
x: 0.01171875
y: -0.0390625
z: -0.0078125
range: 0.0435769706964
velocity: 0.0
doppler_bin: 8
bearing: -73.3007583618
intensity: 30.7040729523
---
header: 
  seq: 606846
  stamp: 
    secs: 1561682224
    nsecs: 584291553
  frame_id: "ti_mmwave"
point_id: 1
x: 0.017578125
y: -0.080078125
z: -0.0078125
range: 0.0871539413929
velocity: 0.0
doppler_bin: 8
bearing: -77.6192398071
intensity: 31.9395904541
---
header: 
  seq: 606847
  stamp: 
    secs: 1561682224
    nsecs: 584307450
  frame_id: "ti_mmwave"
point_id: 2
x: 0.029296875
y: -0.119140625
z: -0.005859375
range: 0.130730912089
velocity: 0.0
doppler_bin: 8
bearing: -76.1849746704
intensity: 30.1994667053
---
header: 
  seq: 606848
  stamp: 
    secs: 1561682224
    nsecs: 584316443
  frame_id: "ti_mmwave"
point_id: 3
x: 0.056640625
y: -0.154296875
z: 0.00390625
range: 0.174307882786
velocity: 0.0
doppler_bin: 8
bearing: -69.8423843384
intensity: 25.4530715942
---
header: 
  seq: 606849
  stamp: 
    secs: 1561682224
    nsecs: 584324986
  frame_id: "ti_mmwave"
point_id: 4
x: 0.37109375
y: -0.080078125
z: 1.2109375
range: 1.35088610649
velocity: 0.0
doppler_bin: 8
bearing: -12.177107811
intensity: 23.2221927643
---
header: 
  seq: 606850
  stamp: 
    secs: 1561682224
    nsecs: 584333797
  frame_id: "ti_mmwave"
point_id: 5
x: 1.234375
y: -0.08203125
z: 0.4296875
range: 1.39446306229
velocity: 0.0
doppler_bin: 8
bearing: -3.80204057693
intensity: 25.4406795502
---
header: 
  seq: 606851
  stamp: 
    secs: 1561682224
    nsecs: 584342213
  frame_id: "ti_mmwave"
point_id: 6
x: 1.341796875
y: -0.083984375
z: 0.12109375
range: 1.43804001808
velocity: 0.0
doppler_bin: 8
bearing: -3.58152627945
intensity: 24.727563858
---
header: 
  seq: 606852
  stamp: 
    secs: 1561682224
    nsecs: 584353704
  frame_id: "ti_mmwave"
point_id: 7
x: 1.49609375
y: -0.048828125
z: -0.41796875
range: 1.65592491627
velocity: 0.0
doppler_bin: 8
bearing: -1.86930298805
intensity: 25.5870857239
---
header: 
  seq: 606853
  stamp: 
    secs: 1561682224
    nsecs: 584362012
  frame_id: "ti_mmwave"
point_id: 8
x: 2.5546875
y: -0.263671875
z: 1.169921875
range: 3.00681090355
velocity: 0.0
doppler_bin: 8
bearing: -5.89269018173
intensity: 29.4051647186
---
header: 
  seq: 606854
  stamp: 
    secs: 1561682224
    nsecs: 584370892
  frame_id: "ti_mmwave"
point_id: 9
x: 2.60546875
y: -0.267578125
z: 1.154296875
range: 3.05038785934
velocity: 0.0
doppler_bin: 8
bearing: -5.86364221573
intensity: 32.716091156
---
header: 
  seq: 606855
  stamp: 
    secs: 1561682224
    nsecs: 584380946
  frame_id: "ti_mmwave"
point_id: 10
x: 2.666015625
y: -0.181640625
z: 1.138671875
range: 3.09396481514
velocity: 0.0
doppler_bin: 8
bearing: -3.89764523506
intensity: 31.8977088928
---
header: 
  seq: 606856
  stamp: 
    secs: 1561682224
    nsecs: 584393977
  frame_id: "ti_mmwave"
point_id: 11
x: 4.41796875
y: -0.287109375
z: 1.181640625
range: 4.88062095642
velocity: 0.0
doppler_bin: 8
bearing: -3.71823716164
intensity: 30.7591171265
---
header: 
  seq: 606857
  stamp: 
    secs: 1561682224
    nsecs: 584408401
  frame_id: "ti_mmwave"
point_id: 12
x: 4.4453125
y: -0.2890625
z: 1.236328125
range: 4.9241976738
velocity: 0.0
doppler_bin: 8
bearing: -3.72049832344
intensity: 30.0945091248
---
header: 
  seq: 606858
  stamp: 
    secs: 1561682224
    nsecs: 584578308
  frame_id: "ti_mmwave"
point_id: 13
x: 4.875
y: -0.30859375
z: 0.798828125
range: 5.27281332016
velocity: 0.0
doppler_bin: 8
bearing: -3.62206339836
intensity: 30.6632595062
---
header: 
  seq: 606859
  stamp: 
    secs: 1561682224
    nsecs: 584615537
  frame_id: "ti_mmwave"
point_id: 15
x: 0.041015625
y: -0.033203125
z: 0.0625
range: 0.0871539413929
velocity: 0.0
doppler_bin: 8
bearing: -38.9909973145
intensity: 30.081741333
---
header: 
  seq: 606860
  stamp: 
    secs: 1561682224
    nsecs: 584648263
  frame_id: "ti_mmwave"
point_id: 16
x: 0.052734375
y: -0.04296875
z: 0.1015625
range: 0.130730912089
velocity: 0.0
doppler_bin: 8
bearing: -39.1736602783
intensity: 28.9652614594
---
header: 
  seq: 606861
  stamp: 
    secs: 1561682224
    nsecs: 584706069
  frame_id: "ti_mmwave"
point_id: 19
x: 2.79296875
y: -2.00390625
z: -3.02734375
range: 4.88062095642
velocity: 0.0
doppler_bin: 8
bearing: -35.6587791443
intensity: 27.7815132141
---
header: 
  seq: 606862
  stamp: 
    secs: 1561682224
    nsecs: 584724850
  frame_id: "ti_mmwave"
point_id: 20
x: 2.923828125
y: -2.021484375
z: -2.955078125
range: 4.9241976738
velocity: 0.0
doppler_bin: 8
bearing: -34.6593132019
intensity: 27.2098579407
---
header: 
  seq: 606863
  stamp: 
    secs: 1561682224
    nsecs: 585720118
  frame_id: "ti_mmwave"
point_id: 0
x: 0.01171875
y: -0.0390625
z: -0.0078125
range: 0.0435769706964
velocity: 0.0
doppler_bin: 8
bearing: -73.3007583618
intensity: 30.700378418
---
header: 
  seq: 606864
  stamp: 
    secs: 1561682224
    nsecs: 585766782
  frame_id: "ti_mmwave"
point_id: 1
x: 0.017578125
y: -0.080078125
z: -0.0078125
range: 0.0871539413929
velocity: 0.0
doppler_bin: 8
bearing: -77.6192398071
intensity: 31.9368095398
---
header: 
  seq: 606865
  stamp: 
    secs: 1561682224
    nsecs: 585783617
  frame_id: "ti_mmwave"
point_id: 2
x: 0.029296875
y: -0.119140625
z: -0.005859375
range: 0.130730912089
velocity: 0.0
doppler_bin: 8
bearing: -76.1849746704
intensity: 30.1994667053
---
header: 
  seq: 606866
  stamp: 
    secs: 1561682224
    nsecs: 585797264
  frame_id: "ti_mmwave"
point_id: 3
x: 0.056640625
y: -0.154296875
z: 0.005859375
range: 0.174307882786
velocity: 0.0
doppler_bin: 8
bearing: -69.8423843384
intensity: 25.4777469635
---
header: 
  seq: 606867
  stamp: 
    secs: 1561682224
    nsecs: 585815655
  frame_id: "ti_mmwave"
point_id: 4
x: 1.03125
y: -0.119140625
z: 0.728515625
range: 1.35088610649
velocity: 0.0
doppler_bin: 8
bearing: -6.59018230438
intensity: 22.2010803223
---
header: 
  seq: 606868
  stamp: 
    secs: 1561682224
    nsecs: 585833174
  frame_id: "ti_mmwave"
point_id: 5
x: 1.255859375
y: -0.123046875
z: 0.349609375
range: 1.39446306229
velocity: 0.0
doppler_bin: 8
bearing: -5.59587860107
intensity: 24.7421627045
---
header: 
  seq: 606869
  stamp: 
    secs: 1561682224
    nsecs: 585850735
  frame_id: "ti_mmwave"
point_id: 6
x: 1.3359375
y: -0.126953125
z: 0.1484375
range: 1.43804001808
velocity: 0.0
doppler_bin: 8
bearing: -5.42847299576
intensity: 24.7421627045
---
header: 
  seq: 606870
  stamp: 
    secs: 1561682224
    nsecs: 585868750
  frame_id: "ti_mmwave"
point_id: 7
x: 1.373046875
y: -0.130859375
z: 0.181640625
range: 1.48161697388
velocity: 0.0
doppler_bin: 8
bearing: -5.4441781044
intensity: 23.8381538391
---
header: 
  seq: 606871
  stamp: 
    secs: 1561682224
    nsecs: 585937803
  frame_id: "ti_mmwave"
point_id: 8
x: 1.421875
y: -0.044921875
z: 0.16796875
range: 1.52519392967
velocity: 0.0
doppler_bin: 8
bearing: -1.80956709385
intensity: 24.1161975861
---
header: 
