header: 
  seq: 1158019
  stamp: 
    secs: 1561865282
    nsecs: 187577571
  frame_id: "ti_mmwave"
point_id: 0
x: 0.01171875
y: -0.0390625
z: -0.0078125
range: 0.0435769706964
velocity: 0.0
doppler_bin: 8
bearing: -73.3007583618
intensity: 30.6483230591
---
header: 
  seq: 1158020
  stamp: 
    secs: 1561865282
    nsecs: 187651923
  frame_id: "ti_mmwave"
point_id: 1
x: 0.017578125
y: -0.080078125
z: -0.0078125
range: 0.0871539413929
velocity: 0.0
doppler_bin: 8
bearing: -77.6192398071
intensity: 31.9005146027
---
header: 
  seq: 1158021
  stamp: 
    secs: 1561865282
    nsecs: 187667780
  frame_id: "ti_mmwave"
point_id: 2
x: 0.029296875
y: -0.119140625
z: -0.005859375
range: 0.130730912089
velocity: 0.0
doppler_bin: 8
bearing: -76.1849746704
intensity: 30.1452045441
---
header: 
  seq: 1158022
  stamp: 
    secs: 1561865282
    nsecs: 187683412
  frame_id: "ti_mmwave"
point_id: 3
x: 0.056640625
y: -0.154296875
z: 0.005859375
range: 0.174307882786
velocity: 0.0
doppler_bin: 8
bearing: -69.8423843384
intensity: 25.4530715942
---
header: 
  seq: 1158023
  stamp: 
    secs: 1561865282
    nsecs: 187765889
  frame_id: "ti_mmwave"
point_id: 4
x: 1.125
y: -0.119140625
z: 0.57421875
range: 1.35088610649
velocity: 0.0
doppler_bin: 8
bearing: -6.04524946213
intensity: 23.9967365265
---
header: 
  seq: 1158024
  stamp: 
    secs: 1561865282
    nsecs: 187783798
  frame_id: "ti_mmwave"
point_id: 5
x: 1.220703125
y: -0.08203125
z: 0.466796875
range: 1.39446306229
velocity: 0.0
doppler_bin: 8
bearing: -3.84449625015
intensity: 26.839471817
---
header: 
  seq: 1158025
  stamp: 
    secs: 1561865282
    nsecs: 187796839
  frame_id: "ti_mmwave"
point_id: 6
x: 1.33984375
y: -0.04296875
z: -0.158203125
range: 1.43804001808
velocity: 0.0
doppler_bin: 8
bearing: -1.83684444427
intensity: 26.2736587524
---
header: 
  seq: 1158026
  stamp: 
    secs: 1561865282
    nsecs: 187807906
  frame_id: "ti_mmwave"
point_id: 7
x: 1.212890625
y: -0.04296875
z: -0.677734375
range: 1.48161697388
velocity: 0.0
doppler_bin: 8
bearing: -2.02895379066
intensity: 25.0515003204
---
header: 
  seq: 1158027
  stamp: 
    secs: 1561865282
    nsecs: 187819078
  frame_id: "ti_mmwave"
point_id: 8
x: 1.27734375
y: -0.0
z: -0.646484375
range: 1.52519392967
velocity: 0.0
doppler_bin: 8
bearing: -0.0
intensity: 24.3775062561
---
header: 
  seq: 1158028
  stamp: 
    secs: 1561865282
    nsecs: 187831351
  frame_id: "ti_mmwave"
point_id: 9
x: 2.6171875
y: -0.17578125
z: 1.041015625
range: 3.00681090355
velocity: 0.0
doppler_bin: 8
bearing: -3.84245300293
intensity: 29.0579586029
---
header: 
  seq: 1158029
  stamp: 
    secs: 1561865282
    nsecs: 187844605
  frame_id: "ti_mmwave"
point_id: 10
x: 2.689453125
y: -0.08984375
z: 0.9765625
range: 3.05038785934
velocity: 0.0
doppler_bin: 8
bearing: -1.91330885887
intensity: 32.2063102722
---
header: 
  seq: 1158030
  stamp: 
    secs: 1561865282
    nsecs: 187861521
  frame_id: "ti_mmwave"
point_id: 11
x: 2.73046875
y: -0.181640625
z: 0.97265625
range: 3.09396481514
velocity: 0.0
doppler_bin: 8
bearing: -3.80591416359
intensity: 31.1793384552
---
header: 
  seq: 1158031
  stamp: 
    secs: 1561865282
    nsecs: 187874932
  frame_id: "ti_mmwave"
point_id: 12
x: 4.41796875
y: -0.142578125
z: 1.205078125
range: 4.88062095642
velocity: 0.0
doppler_bin: 8
bearing: -1.84842634201
intensity: 31.2872219086
---
header: 
  seq: 1158032
  stamp: 
    secs: 1561865282
    nsecs: 187887769
  frame_id: "ti_mmwave"
point_id: 13
x: 4.453125
y: -0.14453125
z: 1.234375
range: 4.9241976738
velocity: 0.0
doppler_bin: 8
bearing: -1.85894739628
intensity: 30.8635978699
---
header: 
  seq: 1158033
  stamp: 
    secs: 1561865282
    nsecs: 187901053
  frame_id: "ti_mmwave"
point_id: 14
x: 4.798828125
y: -0.306640625
z: 0.984375
range: 5.22923660278
velocity: 0.0
doppler_bin: 8
bearing: -3.65617585182
intensity: 29.7954845428
---
header: 
  seq: 1158034
  stamp: 
    secs: 1561865282
    nsecs: 187916251
  frame_id: "ti_mmwave"
point_id: 15
x: 4.884765625
y: -0.30859375
z: 0.734375
range: 5.27281332016
velocity: 0.0
doppler_bin: 8
bearing: -3.6148416996
intensity: 31.0105934143
---
header: 
  seq: 1158035
  stamp: 
    secs: 1561865282
    nsecs: 187930442
  frame_id: "ti_mmwave"
point_id: 16
x: 4.951171875
y: -0.623046875
z: 0.052734375
range: 5.31639051437
velocity: 0.0
doppler_bin: 8
bearing: -7.17230129242
intensity: 29.5856380463
---
header: 
  seq: 1158036
  stamp: 
    secs: 1561865282
    nsecs: 187983745
  frame_id: "ti_mmwave"
point_id: 17
x: 0.009765625
y: 0.03125
z: 0.025390625
range: 0.0435769706964
velocity: 0.0
doppler_bin: 8
bearing: 72.6459732056
intensity: 29.3094902039
---
header: 
  seq: 1158037
  stamp: 
    secs: 1561865282
    nsecs: 188069901
  frame_id: "ti_mmwave"
point_id: 18
x: 0.041015625
y: -0.033203125
z: 0.0625
range: 0.0871539413929
velocity: 0.0
doppler_bin: 8
bearing: -38.9909973145
intensity: 30.0902576447
---
header: 
  seq: 1158038
  stamp: 
    secs: 1561865282
    nsecs: 188091663
  frame_id: "ti_mmwave"
point_id: 19
x: 0.044921875
y: -0.046875
z: 0.103515625
range: 0.130730912089
velocity: 0.0
doppler_bin: 8
bearing: -46.218875885
intensity: 28.9762706757
---
header: 
  seq: 1158039
  stamp: 
    secs: 1561865282
    nsecs: 188107260
  frame_id: "ti_mmwave"
point_id: 21
x: 1.32421875
y: -0.126953125
z: -0.224609375
range: 1.43804001808
velocity: 0.0
doppler_bin: 8
bearing: -5.47622156143
intensity: 26.2531242371
---
header: 
  seq: 1158040
  stamp: 
    secs: 1561865282
    nsecs: 188121662
  frame_id: "ti_mmwave"
point_id: 22
x: 2.771484375
y: -0.0
z: 0.8671875
range: 3.09396481514
velocity: 0.0
doppler_bin: 8
bearing: -0.0
intensity: 31.1693973541
---
header: 
  seq: 1158041
  stamp: 
    secs: 1561865282
    nsecs: 189200133
  frame_id: "ti_mmwave"
point_id: 0
x: 0.01171875
y: -0.0390625
z: -0.0078125
range: 0.0435769706964
velocity: 0.0
doppler_bin: 8
bearing: -73.3007583618
intensity: 30.6483230591
---
header: 
  seq: 1158042
  stamp: 
    secs: 1561865282
    nsecs: 189252055
  frame_id: "ti_mmwave"
point_id: 1
x: 0.017578125
y: -0.080078125
z: -0.0078125
range: 0.0871539413929
velocity: 0.0
doppler_bin: 8
bearing: -77.6192398071
intensity: 31.9005146027
---
header: 
  seq: 1158043
  stamp: 
    secs: 1561865282
    nsecs: 189270547
  frame_id: "ti_mmwave"
point_id: 2
x: 0.029296875
y: -0.119140625
z: -0.005859375
range: 0.130730912089
velocity: 0.0
doppler_bin: 8
bearing: -76.1849746704
intensity: 30.1452045441
---
header: 
  seq: 1158044
  stamp: 
    secs: 1561865282
    nsecs: 189283642
  frame_id: "ti_mmwave"
point_id: 3
x: 0.056640625
y: -0.154296875
z: 0.005859375
range: 0.174307882786
velocity: 0.0
doppler_bin: 8
bearing: -69.8423843384
intensity: 25.4406795502
---
header: 
  seq: 1158045
  stamp: 
    secs: 1561865282
    nsecs: 189344138
  frame_id: "ti_mmwave"
point_id: 4
x: 1.162109375
y: -0.0390625
z: -0.39453125
range: 1.3073091507
velocity: 0.0
doppler_bin: 8
bearing: -1.92518377304
intensity: 20.0432128906
---
header: 
  seq: 1158046
  stamp: 
    secs: 1561865282
    nsecs: 189357412
  frame_id: "ti_mmwave"
point_id: 5
x: 1.2421875
y: -0.0390625
z: -0.25
range: 1.35088610649
velocity: 0.0
doppler_bin: 8
bearing: -1.80116057396
intensity: 22.810333252
---
header: 
  seq: 1158047
  stamp: 
    secs: 1561865282
    nsecs: 189368821
  frame_id: "ti_mmwave"
point_id: 6
x: 1.302734375
y: -0.123046875
z: -0.005859375
range: 1.39446306229
velocity: 0.0
doppler_bin: 8
bearing: -5.39573764801
intensity: 24.563659668
---
header: 
  seq: 1158048
  stamp: 
    secs: 1561865282
    nsecs: 189380138
  frame_id: "ti_mmwave"
point_id: 7
x: 1.30859375
y: -0.16796875
z: 0.2890625
range: 1.43804001808
velocity: 0.0
doppler_bin: 8
bearing: -7.31438875198
intensity: 22.8555736542
---
header: 
  seq: 1158049
  stamp: 
    secs: 1561865282
    nsecs: 189391201
  frame_id: "ti_mmwave"
point_id: 8
x: 0.845703125
y: -0.04296875
z: -1.103515625
range: 1.48161697388
velocity: 0.0
doppler_bin: 8
bearing: -2.90860080719
intensity: 22.8330116272
---
header: 
  seq: 1158050
  stamp: 
    secs: 1561865282
    nsecs: 189403677
  frame_id: "ti_mmwave"
point_id: 9
x: 1.263671875
y: -0.0
z: -0.673828125
range: 1.52519392967
velocity: 0.0
doppler_bin: 8
bearing: -0.0
intensity: 24.3775062561
---
header: 
  seq: 1158051
  stamp: 
    secs: 1561865282
    nsecs: 189416006
  frame_id: "ti_mmwave"
point_id: 10
x: 1.416015625
y: 0.046875
z: -0.40234375
range: 1.56877088547
velocity: 0.0
doppler_bin: 8
bearing: 1.89599537849
intensity: 24.0823993683
---
header: 
  seq: 1158052
  stamp: 
    secs: 1561865282
    nsecs: 189428751
  frame_id: "ti_mmwave"
point_id: 11
x: 1.48828125
y: 0.09375
z: -0.259765625
range: 1.61234796047
velocity: 0.0
doppler_bin: 8
bearing: 3.60442066193
intensity: 25.2374649048
---
header: 
  seq: 1158053
  stamp: 
    secs: 1561865282
    nsecs: 189455038
  frame_id: "ti_mmwave"
point_id: 12
x: 2.6171875
y: -0.17578125
z: 1.041015625
range: 3.00681090355
velocity: 0.0
doppler_bin: 8
bearing: -3.84245300293
intensity: 29.0579586029
---
header: 
  seq: 1158054
  stamp: 
    secs: 1561865282
    nsecs: 189522442
  frame_id: "ti_mmwave"
point_id: 13
x: 2.69140625
y: -0.08984375
z: 0.97265625
range: 3.05038785934
velocity: 0.0
doppler_bin: 8
bearing: -1.91192126274
intensity: 32.1958465576
---
header: 
  seq: 1158055
  stamp: 
    secs: 1561865282
    nsecs: 189539002
  frame_id: "ti_mmwave"
point_id: 14
x: 2.73046875
y: -0.181640625
z: 0.970703125
range: 3.09396481514
velocity: 0.0
doppler_bin: 8
bearing: -3.80591416359
intensity: 31.1494445801
---
header: 
  seq: 1158056
  stamp: 
    secs: 1561865282
    nsecs: 189551076
  frame_id: "ti_mmwave"
point_id: 15
x: 4.4140625
y: -0.142578125
z: 1.21875
range: 4.88062095642
velocity: 0.0
doppler_bin: 8
bearing: -1.850061059
intensity: 31.2188796997
---
header: 
  seq: 1158057
  stamp: 
    secs: 1561865282
    nsecs: 189566188
  frame_id: "ti_mmwave"
point_id: 16
x: 4.447265625
y: -0.14453125
z: 1.251953125
range: 4.9241976738
velocity: 0.0
doppler_bin: 8
bearing: -1.86139500141
intensity: 30.7954292297
---
header: 
  seq: 1158058
  stamp: 
    secs: 1561865282
    nsecs: 189578526
  frame_id: "ti_mmwave"
point_id: 17
x: 4.876953125
y: -0.30859375
z: 0.79296875
range: 5.27281332016
velocity: 0.0
doppler_bin: 8
bearing: -3.62061715126
intensity: 30.8134727478
---
header: 
  seq: 1158059
  stamp: 
    secs: 1561865282
    nsecs: 189591268
  frame_id: "ti_mmwave"
point_id: 18
x: 4.94921875
y: -0.623046875
z: 0.138671875
range: 5.31639051437
velocity: 0.0
doppler_bin: 8
bearing: -7.17510271072
intensity: 29.4743366241
---
header: 
  seq: 1158060
  stamp: 
    secs: 1561865282
    nsecs: 189603755
  frame_id: "ti_mmwave"
point_id: 19
x: 0.009765625
y: 0.03125
z: 0.025390625
range: 0.0435769706964
velocity: 0.0
doppler_bin: 8
bearing: 72.6459732056
intensity: 29.3043956757
---
header: 
  seq: 1158061
  stamp: 
    secs: 1561865282
    nsecs: 189647556
  frame_id: "ti_mmwave"
point_id: 20
x: 0.041015625
y: -0.033203125
z: 0.0625
range: 0.0871539413929
velocity: 0.0
doppler_bin: 8
bearing: -38.9909973145
intensity: 30.0902576447
---
header: 
  seq: 1158062
  stamp: 
    secs: 1561865282
    nsecs: 189665396
  frame_id: "ti_mmwave"
point_id: 21
x: 0.044921875
y: -0.046875
z: 0.103515625
range: 0.130730912089
velocity: 0.0
doppler_bin: 8
bearing: -46.218875885
intensity: 28.9762706757
---
header: 
  seq: 1158063
  stamp: 
    secs: 1561865282
    nsecs: 189678631
  frame_id: "ti_mmwave"
point_id: 23
x: 2.7734375
y: -0.0
z: 0.86328125
range: 3.09396481514
velocity: 0.0
doppler_bin: 8
bearing: -0.0
intensity: 31.1394329071
---
header: 
  seq: 1158064
  stamp: 
    secs: 1561865282
    nsecs: 247659352
  frame_id: "ti_mmwave"
point_id: 0
x: 0.01171875
y: -0.0390625
z: -0.0078125
range: 0.0435769706964
velocity: 0.0
doppler_bin: 8
bearing: -73.3007583618
intensity: 30.6408348083
---
header: 
  seq: 1158065
  stamp: 
    secs: 1561865282
    nsecs: 247751215
  frame_id: "ti_mmwave"
point_id: 1
x: 0.017578125
y: -0.080078125
z: -0.0078125
range: 0.0871539413929
velocity: 0.0
doppler_bin: 8
bearing: -77.6192398071
intensity: 31.9005146027
---
header: 
  seq: 1158066
  stamp: 
    secs: 1561865282
    nsecs: 247765007
  frame_id: "ti_mmwave"
point_id: 2
x: 0.029296875
y: -0.119140625
z: -0.005859375
range: 0.130730912089
velocity: 0.0
doppler_bin: 8
bearing: -76.1849746704
intensity: 30.1452045441
---
header: 
  seq: 1158067
  stamp: 
    secs: 1561865282
    nsecs: 247774417
  frame_id: "ti_mmwave"
point_id: 3
x: 0.056640625
y: -0.154296875
z: 0.005859375
range: 0.174307882786
velocity: 0.0
doppler_bin: 8
bearing: -69.8423843384
intensity: 25.4406795502
---
header: 
  seq: 1158068
  stamp: 
    secs: 1561865282
    nsecs: 247782387
  frame_id: "ti_mmwave"
point_id: 4
x: 1.228515625
y: -0.197265625
z: 0.244140625
range: 1.35088610649
velocity: 0.0
doppler_bin: 8
bearing: -9.12224769592
intensity: 21.0720996857
---
header: 
  seq: 1158069
  stamp: 
    secs: 1561865282
    nsecs: 247790827
  frame_id: "ti_mmwave"
point_id: 5
x: 1.275390625
y: -0.1640625
z: 0.24609375
range: 1.39446306229
velocity: 0.0
doppler_bin: 8
bearing: -7.33010625839
intensity: 25.5022830963
---
header: 
  seq: 1158070
  stamp: 
    secs: 1561865282
    nsecs: 247803786
  frame_id: "ti_mmwave"
point_id: 6
x: 1.333984375
y: -0.083984375
z: 0.18359375
range: 1.43804001808
velocity: 0.0
doppler_bin: 8
bearing: -3.60244655609
intensity: 26.1066017151
---
header: 
  seq: 1158071
  stamp: 
    secs: 1561865282
    nsecs: 247815698
  frame_id: "ti_mmwave"
point_id: 7
x: 1.31640625
y: -0.087890625
z: 0.439453125
range: 1.48161697388
velocity: 0.0
doppler_bin: 8
bearing: -3.81971669197
intensity: 23.6921577454
---
header: 
  seq: 1158072
  stamp: 
    secs: 1561865282
    nsecs: 247842344
  frame_id: "ti_mmwave"
point_id: 8
x: 2.62109375
y: -0.17578125
z: 1.03125
range: 3.00681090355
velocity: 0.0
doppler_bin: 8
bearing: -3.83674383163
intensity: 29.0254669189
---
header: 
  seq: 1158073
  stamp: 
    secs: 1561865282
    nsecs: 247865048
  frame_id: "ti_mmwave"
point_id: 9
x: 2.693359375
y: -0.08984375
z: 0.966796875
range: 3.05038785934
velocity: 0.0
doppler_bin: 8
bearing: -1.91053581238
intensity: 32.1879806519
---
header: 
  seq: 1158074
  stamp: 
    secs: 1561865282
    nsecs: 248012886
  frame_id: "ti_mmwave"
point_id: 10
x: 2.7734375
y: -0.0
z: 0.86328125
range: 3.09396481514
velocity: 0.0
doppler_bin: 8
bearing: -0.0
intensity: 31.1126251221
---
header: 
  seq: 1158075
  stamp: 
    secs: 1561865282
    nsecs: 248034639
  frame_id: "ti_mmwave"
point_id: 11
x: 4.412109375
y: -0.142578125
z: 1.0625
range: 4.83704376221
velocity: 0.0
doppler_bin: 8
bearing: -1.85087943077
intensity: 27.9657440186
---
header: 
  seq: 1158076
  stamp: 
    secs: 1561865282
    nsecs: 248048062
  frame_id: "ti_mmwave"
point_id: 12
x: 4.419921875
y: -0.142578125
z: 1.201171875
range: 4.88062095642
velocity: 0.0
doppler_bin: 8
bearing: -1.847610116
intensity: 31.3129787445
---
header: 
  seq: 1158077
  stamp: 
    secs: 1561865282
    nsecs: 248067702
  frame_id: "ti_mmwave"
point_id: 13
x: 4.44921875
y: -0.14453125
z: 1.24609375
range: 4.9241976738
velocity: 0.0
doppler_bin: 8
bearing: -1.86057829857
intensity: 30.8919830322
---
header: 
  seq: 1158078
  stamp: 
    secs: 1561865282
    nsecs: 248087656
  frame_id: "ti_mmwave"
point_id: 14
x: 4.8828125
y: -0.30859375
z: 0.751953125
range: 5.27281332016
velocity: 0.0
doppler_bin: 8
bearing: -3.61628341675
intensity: 30.979511261
---
header: 
  seq: 1158079
  stamp: 
    secs: 1561865282
    nsecs: 248103378
  frame_id: "ti_mmwave"
point_id: 15
x: 4.96484375
y: -0.46875
z: 0.19140625
range: 5.31639051437
velocity: 0.0
doppler_bin: 8
bearing: -5.39352655411
intensity: 29.2788333893
---
header: 
  seq: 1158080
  stamp: 
    secs: 1561865282
    nsecs: 248132946
  frame_id: "ti_mmwave"
point_id: 16
x: 0.009765625
y: 0.03125
z: 0.025390625
range: 0.0435769706964
velocity: 0.0
doppler_bin: 8
bearing: 72.6459732056
intensity: 29.3094902039
---
header: 
  seq: 1158081
  stamp: 
    secs: 1561865282
    nsecs: 248161936
  frame_id: "ti_mmwave"
point_id: 17
x: 0.041015625
y: -0.033203125
z: 0.0625
range: 0.0871539413929
velocity: 0.0
doppler_bin: 8
bearing: -38.9909973145
intensity: 30.0902576447
---
header: 
  seq: 1158082
  stamp: 
    secs: 1561865282
    nsecs: 248178482
  frame_id: "ti_mmwave"
point_id: 18
x: 0.044921875
y: -0.046875
z: 0.103515625
range: 0.130730912089
velocity: 0.0
doppler_bin: 8
bearing: -46.218875885
intensity: 28.9762706757
---
header: 
  seq: 1158083
  stamp: 
    secs: 1561865282
    nsecs: 248263960
  frame_id: "ti_mmwave"
point_id: 20
x: 2.732421875
y: -0.181640625
z: 0.96875
range: 3.09396481514
velocity: 0.0
doppler_bin: 8
bearing: -3.80320167542
intensity: 31.1126251221
---
header: 
  seq: 1158084
  stamp: 
    secs: 1561865282
    nsecs: 249207097
  frame_id: "ti_mmwave"
point_id: 0
x: 0.01171875
y: -0.0390625
z: -0.0078125
range: 0.0435769706964
velocity: 0.0
doppler_bin: 8
bearing: -73.3007583618
intensity: 30.6483230591
---
header: 
  seq: 1158085
  stamp: 
    secs: 1561865282
    nsecs: 249256787
  frame_id: "ti_mmwave"
point_id: 1
x: 0.017578125
y: -0.080078125
z: -0.0078125
range: 0.0871539413929
velocity: 0.0
doppler_bin: 8
bearing: -77.6192398071
intensity: 31.9005146027
---
header: 
  seq: 1158086
  stamp: 
    secs: 1561865282
    nsecs: 249279103
  frame_id: "ti_mmwave"
point_id: 2
x: 0.029296875
y: -0.119140625
z: -0.005859375
range: 0.130730912089
velocity: 0.0
doppler_bin: 8
bearing: -76.1849746704
intensity: 30.141002655
---
header: 
  seq: 1158087
  stamp: 
    secs: 1561865282
    nsecs: 249294673
  frame_id: "ti_mmwave"
point_id: 3
x: 0.056640625
y: -0.154296875
z: 0.005859375
range: 0.174307882786
velocity: 0.0
doppler_bin: 8
bearing: -69.8423843384
intensity: 25.4406795502
---
header: 
  seq: 1158088
  stamp: 
    secs: 1561865282
    nsecs: 249307110
  frame_id: "ti_mmwave"
point_id: 4
x: 1.11328125
y: -0.119140625
z: 0.595703125
range: 1.35088610649
velocity: 0.0
doppler_bin: 8
bearing: -6.10840511322
intensity: 23.1806335449
---
header: 
  seq: 1158089
  stamp: 
    secs: 1561865282
    nsecs: 249319567
  frame_id: "ti_mmwave"
point_id: 5
x: 1.2578125
y: -0.123046875
z: 0.33984375
range: 1.39446306229
velocity: 0.0
doppler_bin: 8
bearing: -5.58724355698
intensity: 27.0671787262
---
header: 
  seq: 1158090
  stamp: 
    secs: 1561865282
    nsecs: 249335386
  frame_id: "ti_mmwave"
point_id: 6
x: 1.341796875
y: -0.083984375
z: 0.111328125
range: 1.43804001808
velocity: 0.0
doppler_bin: 8
bearing: -3.58152627945
intensity: 27.8604125977
---
header: 
  seq: 1158091
  stamp: 
    secs: 1561865282
    nsecs: 249410523
  frame_id: "ti_mmwave"
point_id: 7
x: 1.388671875
y: -0.087890625
z: 0.00390625
range: 1.48161697388
velocity: 0.0
doppler_bin: 8
bearing: -3.62148451805
intensity: 26.6275787354
---
header: 
  seq: 1158092
  stamp: 
    secs: 1561865282
    nsecs: 249425983
  frame_id: "ti_mmwave"
point_id: 8
x: 1.400390625
y: -0.044921875
z: -0.291015625
range: 1.52519392967
velocity: 0.0
doppler_bin: 8
bearing: -1.83730983734
intensity: 25.3275432587
---
header: 
  seq: 1158093
  stamp: 
    secs: 1561865282
    nsecs: 249438303
  frame_id: "ti_mmwave"
point_id: 9
x: 1.4296875
y: -0.0
z: -0.35546875
range: 1.56877088547
velocity: 0.0
doppler_bin: 8
bearing: -0.0
intensity: 24.6389293671
---
header: 
  seq: 1158094
  stamp: 
    secs: 1561865282
    nsecs: 249454715
  frame_id: "ti_mmwave"
point_id: 10
x: 1.494140625
y: -0.142578125
z: -0.1875
range: 1.61234796047
velocity: 0.0
doppler_bin: 8
bearing: -5.45093536377
intensity: 24.9968700409
---
header: 
  seq: 1158095
  stamp: 
    secs: 1561865282
    nsecs: 249463803
  frame_id: "ti_mmwave"
point_id: 11
x: 2.61328125
y: -0.17578125
z: 1.052734375
range: 3.00681090355
velocity: 0.0
doppler_bin: 8
bearing: -3.84817934036
intensity: 29.0579586029
---
header: 
  seq: 1158096
  stamp: 
    secs: 1561865282
    nsecs: 249524162
  frame_id: "ti_mmwave"
point_id: 12
x: 2.689453125
y: -0.08984375
z: 0.9765625
range: 3.05038785934
velocity: 0.0
doppler_bin: 8
bearing: -1.91330885887
intensity: 32.2115325928
---
header: 
  seq: 1158097
  stamp: 
    secs: 1561865282
    nsecs: 249542767
  frame_id: "ti_mmwave"
point_id: 13
x: 2.728515625
y: -0.181640625
z: 0.9765625
range: 3.09396481514
velocity: 0.0
doppler_bin: 8
bearing: -3.80863046646
intensity: 31.1226978302
---
header: 
  seq: 1158098
  stamp: 
    secs: 1561865282
    nsecs: 249555573
  frame_id: "ti_mmwave"
point_id: 14
x: 4.408203125
y: -0.142578125
z: 1.08203125
range: 4.83704376221
velocity: 0.0
doppler_bin: 8
bearing: -1.85251843929
intensity: 27.9518451691
---
header: 
  seq: 1158099
  stamp: 
    secs: 1561865282
    nsecs: 249570175
  frame_id: "ti_mmwave"
point_id: 15
x: 4.4140625
y: -0.142578125
z: 1.216796875
range: 4.88062095642
velocity: 0.0
doppler_bin: 8
bearing: -1.850061059
intensity: 31.2710475922
---
header: 
  seq: 1158100
  stamp: 
    secs: 1561865282
    nsecs: 249583977
  frame_id: "ti_mmwave"
point_id: 16
x: 4.443359375
y: -0.14453125
z: 1.267578125
range: 4.9241976738
velocity: 0.0
doppler_bin: 8
bearing: -1.86303019524
intensity: 30.7918128967
---
header: 
  seq: 1158101
  stamp: 
    secs: 1561865282
    nsecs: 249591940
  frame_id: "ti_mmwave"
point_id: 17
x: 4.892578125
y: -0.30859375
z: 0.6875
range: 5.27281332016
velocity: 0.0
doppler_bin: 8
bearing: -3.60908436775
intensity: 30.9166698456
---
header: 
  seq: 1158102
  stamp: 
    secs: 1561865282
    nsecs: 249650657
  frame_id: "ti_mmwave"
point_id: 18
x: 4.951171875
y: -0.623046875
z: 0.064453125
range: 5.31639051437
velocity: 0.0
doppler_bin: 8
bearing: -7.17230129242
intensity: 29.4101428986
---
header: 
  seq: 1158103
  stamp: 
    secs: 1561865282
    nsecs: 249666392
  frame_id: "ti_mmwave"
point_id: 19
x: 0.009765625
y: 0.03125
z: 0.025390625
range: 0.0435769706964
velocity: 0.0
doppler_bin: 8
bearing: 72.6459732056
intensity: 29.3094902039
---
header: 
  seq: 1158104
  stamp: 
    secs: 1561865282
    nsecs: 249685203
  frame_id: "ti_mmwave"
point_id: 20
x: 0.041015625
y: -0.033203125
z: 0.0625
range: 0.0871539413929
velocity: 0.0
doppler_bin: 8
bearing: -38.9909973145
intensity: 30.0860023499
---
header: 
  seq: 1158105
  stamp: 
    secs: 1561865282
    nsecs: 249699661
  frame_id: "ti_mmwave"
point_id: 21
x: 0.044921875
y: -0.046875
z: 0.103515625
range: 0.130730912089
velocity: 0.0
doppler_bin: 8
bearing: -46.218875885
intensity: 28.9707698822
---
header: 
  seq: 1158106
  stamp: 
    secs: 1561865282
    nsecs: 249749485
  frame_id: "ti_mmwave"
point_id: 24
x: 2.771484375
y: -0.0
z: 0.87109375
range: 3.09396481514
velocity: 0.0
doppler_bin: 8
bearing: -0.0
intensity: 31.119342804
---
header: 
  seq: 1158107
  stamp: 
    secs: 1561865282
    nsecs: 307596412
  frame_id: "ti_mmwave"
point_id: 0
x: 0.01171875
y: -0.0390625
z: -0.0078125
range: 0.0435769706964
velocity: 0.0
doppler_bin: 8
bearing: -73.3007583618
intensity: 30.6483230591
---
header: 
  seq: 1158108
  stamp: 
    secs: 1561865282
    nsecs: 307670862
  frame_id: "ti_mmwave"
point_id: 1
x: 0.017578125
y: -0.080078125
z: -0.0078125
range: 0.0871539413929
velocity: 0.0
doppler_bin: 8
bearing: -77.6192398071
intensity: 31.9005146027
---
header: 
  seq: 1158109
  stamp: 
    secs: 1561865282
    nsecs: 307681867
  frame_id: "ti_mmwave"
point_id: 2
x: 0.029296875
y: -0.119140625
z: -0.005859375
range: 0.130730912089
velocity: 0.0
doppler_bin: 8
bearing: -76.1849746704
intensity: 30.141002655
---
header: 
  seq: 1158110
  stamp: 
    secs: 1561865282
    nsecs: 307694167
  frame_id: "ti_mmwave"
point_id: 3
x: 0.056640625
y: -0.154296875
z: 0.005859375
range: 0.174307882786
velocity: 0.0
doppler_bin: 8
bearing: -69.8423843384
intensity: 25.4406795502
---
header: 
  seq: 1158111
  stamp: 
    secs: 1561865282
    nsecs: 307702380
  frame_id: "ti_mmwave"
point_id: 4
x: 0.662109375
y: -0.080078125
z: 1.078125
range: 1.35088610649
velocity: 0.0
doppler_bin: 8
bearing: -6.89608430862
intensity: 24.5484485626
---
header: 
  seq: 1158112
  stamp: 
    secs: 1561865282
    nsecs: 307710525
  frame_id: "ti_mmwave"
point_id: 5
x: 0.291015625
y: -0.08203125
z: -1.2734375
range: 1.39446306229
velocity: 0.0
doppler_bin: 8
bearing: -15.7420387268
intensity: 27.0243053436
---
header: 
  seq: 1158113
  stamp: 
    secs: 1561865282
    nsecs: 307719204
  frame_id: "ti_mmwave"
point_id: 6
x: 1.212890625
y: -0.04296875
z: -0.591796875
range: 1.43804001808
velocity: 0.0
doppler_bin: 8
bearing: -2.02895379066
intensity: 26.3245735168
---
header: 
  seq: 1158114
  stamp: 
    secs: 1561865282
    nsecs: 307728347
  frame_id: "ti_mmwave"
point_id: 7
x: 0.921875
y: -0.04296875
z: -1.041015625
range: 1.48161697388
velocity: 0.0
doppler_bin: 8
bearing: -2.66863441467
intensity: 23.3243846893
---
header: 
  seq: 1158115
  stamp: 
    secs: 1561865282
    nsecs: 307736563
  frame_id: "ti_mmwave"
point_id: 8
x: 1.451171875
y: -0.046875
z: -0.248046875
range: 1.56877088547
velocity: 0.0
doppler_bin: 8
bearing: -1.85009527206
intensity: 26.4836006165
---
header: 
  seq: 1158116
  stamp: 
    secs: 1561865282
    nsecs: 307744046
  frame_id: "ti_mmwave"
point_id: 9
x: 1.494140625
y: -0.046875
z: -0.240234375
range: 1.61234796047
velocity: 0.0
doppler_bin: 8
bearing: -1.79692542553
intensity: 27.2997436523
---
header: 
  seq: 1158117
  stamp: 
    secs: 1561865282
    nsecs: 307868517
  frame_id: "ti_mmwave"
point_id: 10
x: 2.61328125
y: -0.17578125
z: 1.05078125
range: 3.00681090355
velocity: 0.0
doppler_bin: 8
bearing: -3.84817934036
intensity: 29.0417442322
---
header: 
  seq: 1158118
  stamp: 
    secs: 1561865282
    nsecs: 307880346
  frame_id: "ti_mmwave"
point_id: 11
x: 2.69140625
y: -0.08984375
z: 0.9765625
range: 3.05038785934
velocity: 0.0
doppler_bin: 8
bearing: -1.91192126274
intensity: 32.1906051636
---
header: 
  seq: 1158119
  stamp: 
    secs: 1561865282
    nsecs: 307888079
  frame_id: "ti_mmwave"
point_id: 12
x: 2.73046875
y: -0.181640625
z: 0.97265625
range: 3.09396481514
velocity: 0.0
doppler_bin: 8
bearing: -3.80591416359
intensity: 31.1126251221
---
header: 
  seq: 1158120
  stamp: 
    secs: 1561865282
    nsecs: 307895883
  frame_id: "ti_mmwave"
point_id: 13
x: 4.4140625
y: -0.142578125
z: 1.216796875
range: 4.88062095642
velocity: 0.0
doppler_bin: 8
bearing: -1.850061059
intensity: 31.3001194
---
header: 
  seq: 1158121
  stamp: 
    secs: 1561865282
    nsecs: 307903416
  frame_id: "ti_mmwave"
point_id: 14
x: 4.447265625
y: -0.14453125
z: 1.251953125
range: 4.9241976738
velocity: 0.0
doppler_bin: 8
bearing: -1.86139500141
intensity: 30.8134727478
---
header: 
  seq: 1158122
  stamp: 
    secs: 1561865282
    nsecs: 307910971
  frame_id: "ti_mmwave"
point_id: 15
x: 4.8046875
y: -0.154296875
z: 0.998046875
range: 5.22923660278
velocity: 0.0
doppler_bin: 8
bearing: -1.83935415745
intensity: 30.1072387695
---
header: 
  seq: 1158123
  stamp: 
    secs: 1561865282
    nsecs: 307918465
  frame_id: "ti_mmwave"
point_id: 16
x: 4.875
y: -0.30859375
z: 0.798828125
range: 5.27281332016
velocity: 0.0
doppler_bin: 8
bearing: -3.62206339836
intensity: 31.1859531403
---
header: 
  seq: 1158124
  stamp: 
    secs: 1561865282
    nsecs: 307928114
  frame_id: "ti_mmwave"
point_id: 17
x: 4.96484375
y: -0.46875
z: 0.16796875
range: 5.31639051437
velocity: 0.0
doppler_bin: 8
bearing: -5.39352655411
intensity: 29.0902080536
---
header: 
  seq: 1158125
  stamp: 
    secs: 1561865282
    nsecs: 307935738
  frame_id: "ti_mmwave"
point_id: 18
x: 0.009765625
y: 0.03125
z: 0.025390625
range: 0.0435769706964
velocity: 0.0
doppler_bin: 8
bearing: 72.6459732056
intensity: 29.3094902039
---
header: 
  seq: 1158126
  stamp: 
    secs: 1561865282
    nsecs: 307976716
  frame_id: "ti_mmwave"
point_id: 19
x: 0.041015625
y: -0.033203125
z: 0.0625
range: 0.0871539413929
velocity: 0.0
doppler_bin: 8
bearing: -38.9909973145
intensity: 30.0860023499
---
header: 
  seq: 1158127
  stamp: 
    secs: 1561865282
    nsecs: 307986188
  frame_id: "ti_mmwave"
point_id: 20
x: 0.044921875
y: -0.046875
z: 0.103515625
range: 0.130730912089
velocity: 0.0
doppler_bin: 8
bearing: -46.218875885
intensity: 28.9707698822
---
header: 
  seq: 1158128
  stamp: 
    secs: 1561865282
    nsecs: 309001393
  frame_id: "ti_mmwave"
point_id: 0
x: 0.01171875
y: -0.0390625
z: -0.0078125
range: 0.0435769706964
velocity: 0.0
doppler_bin: 8
bearing: -73.3007583618
intensity: 30.6520614624
---
header: 
  seq: 1158129
  stamp: 
    secs: 1561865282
    nsecs: 309063544
  frame_id: "ti_mmwave"
point_id: 1
x: 0.017578125
y: -0.080078125
z: -0.0078125
range: 0.0871539413929
velocity: 0.0
doppler_bin: 8
bearing: -77.6192398071
intensity: 31.9033164978
---
header: 
  seq: 1158130
  stamp: 
    secs: 1561865282
    nsecs: 309085818
  frame_id: "ti_mmwave"
point_id: 2
x: 0.029296875
y: -0.119140625
z: -0.005859375
range: 0.130730912089
velocity: 0.0
doppler_bin: 8
bearing: -76.1849746704
intensity: 30.1494026184
---
header: 
  seq: 1158131
  stamp: 
    secs: 1561865282
    nsecs: 309100110
  frame_id: "ti_mmwave"
point_id: 3
x: 0.056640625
y: -0.154296875
z: 0.005859375
range: 0.174307882786
velocity: 0.0
doppler_bin: 8
bearing: -69.8423843384
intensity: 25.4530715942
---
header: 
  seq: 1158132
  stamp: 
    secs: 1561865282
    nsecs: 309114279
  frame_id: "ti_mmwave"
point_id: 4
x: 0.267578125
y: -0.080078125
z: 1.236328125
range: 1.35088610649
velocity: 0.0
doppler_bin: 8
bearing: -16.660867691
intensity: 22.4797325134
---
header: 
  seq: 1158133
  stamp: 
    secs: 1561865282
    nsecs: 309125750
  frame_id: "ti_mmwave"
point_id: 5
x: 0.27734375
y: -0.08203125
z: 1.27734375
range: 1.39446306229
velocity: 0.0
doppler_bin: 8
bearing: -16.4768810272
intensity: 24.3136367798
---
header: 
  seq: 1158134
  stamp: 
    secs: 1561865282
    nsecs: 309139355
  frame_id: "ti_mmwave"
point_id: 6
x: 0.896484375
y: -0.083984375
z: -1.005859375
range: 1.43804001808
velocity: 0.0
doppler_bin: 8
bearing: -5.35195827484
intensity: 24.2488155365
---
header: 
  seq: 1158135
  stamp: 
    secs: 1561865282
    nsecs: 309153626
  frame_id: "ti_mmwave"
point_id: 7
x: 1.16015625
y: -0.04296875
z: -0.765625
range: 1.48161697388
velocity: 0.0
doppler_bin: 8
bearing: -2.1210963726
intensity: 23.2837963104
---
header: 
  seq: 1158136
  stamp: 
    secs: 1561865282
    nsecs: 309166513
  frame_id: "ti_mmwave"
point_id: 8
x: 1.4609375
y: -0.046875
z: -0.177734375
range: 1.56877088547
velocity: 0.0
doppler_bin: 8
bearing: -1.83773672581
intensity: 26.3042793274
---
header: 
  seq: 1158137
  stamp: 
    secs: 1561865282
    nsecs: 309181491
  frame_id: "ti_mmwave"
point_id: 9
x: 1.49609375
y: -0.0
z: -0.228515625
range: 1.61234796047
velocity: 0.0
doppler_bin: 8
bearing: -0.0
intensity: 26.8841991425
---
header: 
  seq: 1158138
  stamp: 
    secs: 1561865282
    nsecs: 309193465
  frame_id: "ti_mmwave"
point_id: 10
x: 2.619140625
y: -0.17578125
z: 1.0390625
range: 3.00681090355
velocity: 0.0
doppler_bin: 8
bearing: -3.83959650993
intensity: 29.0363254547
---
header: 
  seq: 1158139
  stamp: 
    secs: 1561865282
    nsecs: 309206772
  frame_id: "ti_mmwave"
point_id: 11
x: 2.693359375
y: -0.08984375
z: 0.970703125
range: 3.05038785934
velocity: 0.0
doppler_bin: 8
bearing: -1.91053581238
intensity: 32.1932258606
---
header: 
  seq: 1158140
  stamp: 
    secs: 1561865282
    nsecs: 309220930
  frame_id: "ti_mmwave"
point_id: 12
x: 2.732421875
y: -0.181640625
z: 0.96875
range: 3.09396481514
velocity: 0.0
doppler_bin: 8
bearing: -3.80320167542
intensity: 31.1627559662
---
header: 
  seq: 1158141
  stamp: 
    secs: 1561865282
    nsecs: 309234162
  frame_id: "ti_mmwave"
point_id: 13
x: 4.41015625
y: -0.142578125
z: 1.23046875
range: 4.88062095642
velocity: 0.0
doppler_bin: 8
bearing: -1.85169863701
intensity: 30.8990516663
---
header: 
  seq: 1158142
  stamp: 
    secs: 1561865282
    nsecs: 309247655
  frame_id: "ti_mmwave"
point_id: 14
x: 4.44140625
y: -0.14453125
z: 1.2734375
range: 4.9241976738
velocity: 0.0
doppler_bin: 8
bearing: -1.86384868622
intensity: 30.358297348
---
header: 
  seq: 1158143
  stamp: 
    secs: 1561865282
    nsecs: 309260673
  frame_id: "ti_mmwave"
point_id: 15
x: 4.8828125
y: -0.30859375
z: 0.748046875
range: 5.27281332016
velocity: 0.0
doppler_bin: 8
bearing: -3.61628341675
intensity: 30.6855697632
---
header: 
  seq: 1158144
  stamp: 
    secs: 1561865282
    nsecs: 309275888
  frame_id: "ti_mmwave"
point_id: 16
x: 4.951171875
y: -0.623046875
z: 0.095703125
range: 5.31639051437
velocity: 0.0
doppler_bin: 8
bearing: -7.17230129242
intensity: 29.5327625275
---
header: 
  seq: 1158145
  stamp: 
    secs: 1561865282
    nsecs: 309289905
  frame_id: "ti_mmwave"
point_id: 17
x: 0.009765625
y: 0.03125
z: 0.025390625
range: 0.0435769706964
velocity: 0.0
doppler_bin: 8
bearing: 72.6459732056
intensity: 29.3043956757
---
header: 
  seq: 1158146
  stamp: 
    secs: 1561865282
    nsecs: 309302138
  frame_id: "ti_mmwave"
point_id: 18
x: 0.041015625
y: -0.033203125
z: 0.0625
range: 0.0871539413929
velocity: 0.0
doppler_bin: 8
bearing: -38.9909973145
intensity: 30.0860023499
---
header: 
  seq: 1158147
  stamp: 
    secs: 1561865282
    nsecs: 309314709
  frame_id: "ti_mmwave"
point_id: 19
x: 0.044921875
y: -0.046875
z: 0.103515625
range: 0.130730912089
velocity: 0.0
doppler_bin: 8
bearing: -46.218875885
intensity: 28.9707698822
---
header: 
  seq: 1158148
  stamp: 
    secs: 1561865282
    nsecs: 309330618
  frame_id: "ti_mmwave"
point_id: 21
x: 2.7734375
y: -0.0
z: 0.86328125
range: 3.09396481514
velocity: 0.0
doppler_bin: 8
bearing: -0.0
intensity: 31.1494445801
---
header: 
  seq: 1158149
  stamp: 
    secs: 1561865282
    nsecs: 367703368
  frame_id: "ti_mmwave"
point_id: 0
x: 0.01171875
y: -0.0390625
z: -0.0078125
range: 0.0435769706964
velocity: 0.0
doppler_bin: 8
bearing: -73.3007583618
intensity: 30.6483230591
---
header: 
  seq: 1158150
  stamp: 
    secs: 1561865282
    nsecs: 367797931
  frame_id: "ti_mmwave"
point_id: 1
x: 0.017578125
y: -0.080078125
z: -0.0078125
range: 0.0871539413929
velocity: 0.0
doppler_bin: 8
bearing: -77.6192398071
intensity: 31.9005146027
---
header: 
  seq: 1158151
  stamp: 
    secs: 1561865282
    nsecs: 367815637
  frame_id: "ti_mmwave"
point_id: 2
x: 0.029296875
y: -0.119140625
z: -0.005859375
range: 0.130730912089
velocity: 0.0
doppler_bin: 8
bearing: -76.1849746704
intensity: 30.1452045441
---
header: 
  seq: 1158152
  stamp: 
    secs: 1561865282
    nsecs: 367828820
  frame_id: "ti_mmwave"
point_id: 3
x: 0.056640625
y: -0.154296875
z: 0.005859375
range: 0.174307882786
velocity: 0.0
doppler_bin: 8
bearing: -69.8423843384
intensity: 25.4282550812
---
header: 
  seq: 1158153
  stamp: 
    secs: 1561865282
    nsecs: 367842728
  frame_id: "ti_mmwave"
point_id: 4
x: 0.640625
y: -0.080078125
z: -1.091796875
range: 1.35088610649
velocity: 0.0
doppler_bin: 8
bearing: -7.12501621246
intensity: 24.6686763763
---
header: 
  seq: 1158154
  stamp: 
    secs: 1561865282
    nsecs: 367856839
  frame_id: "ti_mmwave"
point_id: 5
x: 1.220703125
y: -0.08203125
z: -0.462890625
range: 1.39446306229
velocity: 0.0
doppler_bin: 8
bearing: -3.84449625015
intensity: 28.2736930847
---
header: 
  seq: 1158155
  stamp: 
    secs: 1561865282
    nsecs: 367987017
  frame_id: "ti_mmwave"
point_id: 6
x: 1.328125
y: -0.083984375
z: -0.2265625
range: 1.43804001808
velocity: 0.0
doppler_bin: 8
bearing: -3.61829781532
intensity: 29.4151134491
---
header: 
  seq: 1158156
  stamp: 
    secs: 1561865282
    nsecs: 368009522
  frame_id: "ti_mmwave"
point_id: 7
x: 1.3671875
y: -0.04296875
z: -0.255859375
range: 1.48161697388
velocity: 0.0
doppler_bin: 8
bearing: -1.80013203621
intensity: 28.2607479095
---
header: 
  seq: 1158157
  stamp: 
    secs: 1561865282
    nsecs: 368027543
  frame_id: "ti_mmwave"
point_id: 8
x: 1.390625
y: -0.044921875
z: -0.3359375
range: 1.52519392967
velocity: 0.0
doppler_bin: 8
bearing: -1.8502035141
intensity: 27.1349048615
---
header: 
  seq: 1158158
  stamp: 
    secs: 1561865282
    nsecs: 368041981
  frame_id: "ti_mmwave"
point_id: 9
x: 1.451171875
y: -0.046875
z: -0.248046875
range: 1.56877088547
velocity: 0.0
doppler_bin: 8
bearing: -1.85009527206
intensity: 29.4890174866
---
header: 
  seq: 1158159
  stamp: 
    secs: 1561865282
    nsecs: 368055179
  frame_id: "ti_mmwave"
point_id: 10
x: 1.49609375
y: -0.046875
z: -0.23046875
range: 1.61234796047
velocity: 0.0
doppler_bin: 8
bearing: -1.79458093643
intensity: 30.064661026
---
header: 
  seq: 1158160
  stamp: 
    secs: 1561865282
    nsecs: 368068258
  frame_id: "ti_mmwave"
point_id: 11
x: 1.541015625
y: -0.0
z: -0.201171875
range: 1.65592491627
velocity: 0.0
doppler_bin: 8
bearing: -0.0
intensity: 27.6192779541
---
header: 
  seq: 1158161
  stamp: 
    secs: 1561865282
    nsecs: 368081300
  frame_id: "ti_mmwave"
point_id: 12
x: 2.611328125
y: -0.17578125
z: 1.0546875
range: 3.00681090355
velocity: 0.0
doppler_bin: 8
bearing: -3.85104894638
intensity: 28.9927310944
---
header: 
  seq: 1158162
  stamp: 
    secs: 1561865282
    nsecs: 368094362
  frame_id: "ti_mmwave"
point_id: 13
x: 2.689453125
y: -0.08984375
z: 0.98046875
range: 3.05038785934
velocity: 0.0
doppler_bin: 8
bearing: -1.91330885887
intensity: 32.1404876709
---
header: 
  seq: 1158163
  stamp: 
    secs: 1561865282
    nsecs: 368107373
  frame_id: "ti_mmwave"
point_id: 14
x: 2.76953125
y: -0.0
z: 0.873046875
range: 3.09396481514
velocity: 0.0
doppler_bin: 8
bearing: -0.0
intensity: 31.0140342712
---
header: 
  seq: 1158164
  stamp: 
    secs: 1561865282
    nsecs: 368118822
  frame_id: "ti_mmwave"
point_id: 15
x: 4.41015625
y: -0.142578125
z: 1.236328125
range: 4.88062095642
velocity: 0.0
doppler_bin: 8
bearing: -1.85169863701
intensity: 30.9656238556
---
header: 
  seq: 1158165
  stamp: 
    secs: 1561865282
    nsecs: 368146027
  frame_id: "ti_mmwave"
point_id: 16
x: 4.4375
y: -0.14453125
z: 1.28515625
range: 4.9241976738
velocity: 0.0
doppler_bin: 8
bearing: -1.86548817158
intensity: 30.4727478027
---
header: 
  seq: 1158166
  stamp: 
    secs: 1561865282
    nsecs: 368170423
  frame_id: "ti_mmwave"
point_id: 17
x: 4.810546875
y: -0.306640625
z: 0.923828125
range: 5.22923660278
velocity: 0.0
doppler_bin: 8
bearing: -3.64729380608
intensity: 29.8721923828
---
header: 
  seq: 1158167
  stamp: 
    secs: 1561865282
    nsecs: 368193528
  frame_id: "ti_mmwave"
point_id: 18
x: 4.888671875
y: -0.30859375
z: 0.71484375
range: 5.27281332016
velocity: 0.0
doppler_bin: 8
bearing: -3.61196112633
intensity: 31.2710475922
---
header: 
  seq: 1158168
  stamp: 
    secs: 1561865282
    nsecs: 368216460
  frame_id: "ti_mmwave"
point_id: 19
x: 4.947265625
y: -0.623046875
z: 0.220703125
range: 5.31639051437
velocity: 0.0
doppler_bin: 8
bearing: -7.17790555954
intensity: 29.854265213
---
header: 
  seq: 1158169
  stamp: 
    secs: 1561865282
    nsecs: 368360585
  frame_id: "ti_mmwave"
point_id: 20
x: 0.009765625
y: 0.03125
z: 0.025390625
range: 0.0435769706964
velocity: 0.0
doppler_bin: 8
bearing: 72.6459732056
intensity: 29.3094902039
---
header: 
  seq: 1158170
  stamp: 
    secs: 1561865282
    nsecs: 368388751
  frame_id: "ti_mmwave"
point_id: 21
x: 0.041015625
y: -0.033203125
z: 0.0625
range: 0.0871539413929
velocity: 0.0
doppler_bin: 8
bearing: -38.9909973145
intensity: 30.0945091248
---
header: 
  seq: 1158171
  stamp: 
    secs: 1561865282
    nsecs: 368405047
  frame_id: "ti_mmwave"
point_id: 22
x: 0.046875
y: -0.046875
z: 0.103515625
range: 0.130730912089
velocity: 0.0
doppler_bin: 8
bearing: -45.0
intensity: 28.9762706757
---
header: 
  seq: 1158172
  stamp: 
    secs: 1561865282
    nsecs: 368423022
  frame_id: "ti_mmwave"
point_id: 24
x: 2.7265625
y: -0.181640625
z: 0.98046875
range: 3.09396481514
velocity: 0.0
doppler_bin: 8
bearing: -3.81135106087
intensity: 31.00715065
---
header: 
  seq: 1158173
  stamp: 
    secs: 1561865282
    nsecs: 369331576
  frame_id: "ti_mmwave"
point_id: 0
x: 0.01171875
y: -0.0390625
z: -0.0078125
range: 0.0435769706964
velocity: 0.0
doppler_bin: 8
bearing: -73.3007583618
intensity: 30.6445808411
---
header: 
  seq: 1158174
  stamp: 
    secs: 1561865282
    nsecs: 369375482
  frame_id: "ti_mmwave"
point_id: 1
x: 0.017578125
y: -0.080078125
z: -0.0078125
range: 0.0871539413929
velocity: 0.0
doppler_bin: 8
bearing: -77.6192398071
intensity: 31.9033164978
---
header: 
  seq: 1158175
  stamp: 
    secs: 1561865282
    nsecs: 369391942
  frame_id: "ti_mmwave"
point_id: 2
x: 0.029296875
y: -0.119140625
z: -0.005859375
range: 0.130730912089
velocity: 0.0
doppler_bin: 8
bearing: -76.1849746704
intensity: 30.1452045441
---
header: 
  seq: 1158176
  stamp: 
    secs: 1561865282
    nsecs: 369407944
  frame_id: "ti_mmwave"
point_id: 3
x: 0.056640625
y: -0.154296875
z: 0.005859375
range: 0.174307882786
velocity: 0.0
doppler_bin: 8
bearing: -69.8423843384
intensity: 25.4406795502
---
header: 
  seq: 1158177
  stamp: 
    secs: 1561865282
    nsecs: 369424626
  frame_id: "ti_mmwave"
point_id: 4
x: 0.166015625
y: -0.080078125
z: 1.25390625
range: 1.35088610649
velocity: 0.0
doppler_bin: 8
bearing: -25.7504749298
intensity: 23.9794006348
---
header: 
  seq: 1158178
  stamp: 
    secs: 1561865282
    nsecs: 369499506
  frame_id: "ti_mmwave"
point_id: 5
x: 1.396484375
y: -0.08984375
z: -0.306640625
range: 1.52519392967
velocity: 0.0
doppler_bin: 8
bearing: -3.68108916283
intensity: 27.0671787262
---
header: 
  seq: 1158179
  stamp: 
    secs: 1561865282
    nsecs: 369515590
  frame_id: "ti_mmwave"
point_id: 6
x: 1.44921875
y: -0.091796875
z: -0.24609375
range: 1.56877088547
velocity: 0.0
doppler_bin: 8
bearing: -3.62440538406
intensity: 27.5663604736
---
header: 
  seq: 1158180
  stamp: 
    secs: 1561865282
    nsecs: 369529160
  frame_id: "ti_mmwave"
point_id: 7
x: 1.484375
y: -0.09375
z: -0.279296875
range: 1.61234796047
velocity: 0.0
doppler_bin: 8
bearing: -3.61388087273
intensity: 27.1600341797
---
header: 
  seq: 1158181
  stamp: 
    secs: 1561865282
    nsecs: 369542210
  frame_id: "ti_mmwave"
point_id: 8
x: 2.619140625
y: -0.17578125
z: 1.03515625
range: 3.00681090355
velocity: 0.0
doppler_bin: 8
bearing: -3.83959650993
intensity: 28.9927310944
---
header: 
  seq: 1158182
  stamp: 
    secs: 1561865282
    nsecs: 369556710
  frame_id: "ti_mmwave"
point_id: 9
x: 2.69140625
y: -0.08984375
z: 0.97265625
range: 3.05038785934
velocity: 0.0
doppler_bin: 8
bearing: -1.91192126274
intensity: 32.1484375
---
header: 
  seq: 1158183
  stamp: 
    secs: 1561865282
    nsecs: 369569554
  frame_id: "ti_mmwave"
point_id: 10
x: 2.73046875
y: -0.181640625
z: 0.97265625
range: 3.09396481514
velocity: 0.0
doppler_bin: 8
bearing: -3.80591416359
intensity: 31.0788803101
---
header: 
  seq: 1158184
  stamp: 
    secs: 1561865282
    nsecs: 369584976
  frame_id: "ti_mmwave"
point_id: 11
x: 4.408203125
y: -0.142578125
z: 1.080078125
range: 4.83704376221
velocity: 0.0
doppler_bin: 8
bearing: -1.85251843929
intensity: 28.2672252655
---
header: 
  seq: 1158185
  stamp: 
    secs: 1561865282
    nsecs: 369602649
  frame_id: "ti_mmwave"
point_id: 12
x: 4.4140625
y: -0.142578125
z: 1.22265625
range: 4.88062095642
velocity: 0.0
doppler_bin: 8
bearing: -1.850061059
intensity: 31.4457416534
---
header: 
  seq: 1158186
  stamp: 
    secs: 1561865282
    nsecs: 369665256
  frame_id: "ti_mmwave"
point_id: 13
x: 4.44140625
y: -0.14453125
z: 1.271484375
range: 4.9241976738
velocity: 0.0
doppler_bin: 8
bearing: -1.86384868622
intensity: 30.8170719147
---
header: 
  seq: 1158187
  stamp: 
    secs: 1561865282
    nsecs: 369682406
  frame_id: "ti_mmwave"
point_id: 14
x: 1.306640625
y: -0.08203125
z: -0.021484375
range: 1.39446306229
velocity: 0.614668667316
doppler_bin: 9
bearing: -3.59232997894
intensity: 26.7486114502
---
header: 
  seq: 1158188
  stamp: 
    secs: 1561865282
    nsecs: 369696168
  frame_id: "ti_mmwave"
point_id: 15
x: 1.34765625
y: -0.083984375
z: 0.01953125
range: 1.43804001808
velocity: 0.614668667316
doppler_bin: 9
bearing: -3.56599473953
intensity: 28.767950058
---
header: 
  seq: 1158189
  stamp: 
    secs: 1561865282
    nsecs: 369709043
  frame_id: "ti_mmwave"
point_id: 16
x: 1.388671875
y: -0.087890625
z: -0.01171875
range: 1.48161697388
velocity: 0.614668667316
doppler_bin: 9
bearing: -3.62148451805
intensity: 28.4385547638
---
header: 
  seq: 1158190
  stamp: 
    secs: 1561865282
    nsecs: 369724756
  frame_id: "ti_mmwave"
point_id: 17
x: 0.009765625
y: 0.03125
z: 0.025390625
range: 0.0435769706964
velocity: 0.0
doppler_bin: 8
bearing: 72.6459732056
intensity: 29.3043956757
---
header: 
  seq: 1158191
  stamp: 
    secs: 1561865282
    nsecs: 369740203
  frame_id: "ti_mmwave"
point_id: 18
x: 0.041015625
y: -0.033203125
z: 0.0625
range: 0.0871539413929
velocity: 0.0
doppler_bin: 8
bearing: -38.9909973145
intensity: 30.0902576447
---
header: 
  seq: 1158192
  stamp: 
    secs: 1561865282
    nsecs: 369754311
  frame_id: "ti_mmwave"
point_id: 19
x: 0.044921875
y: -0.046875
z: 0.103515625
range: 0.130730912089
velocity: 0.0
doppler_bin: 8
bearing: -46.218875885
intensity: 28.9762706757
---
header: 
  seq: 1158193
  stamp: 
    secs: 1561865282
    nsecs: 369769661
  frame_id: "ti_mmwave"
point_id: 21
x: 2.771484375
y: -0.0
z: 0.865234375
range: 3.09396481514
velocity: 0.0
doppler_bin: 8
bearing: -0.0
intensity: 31.0687046051
---
header: 
  seq: 1158194
  stamp: 
    secs: 1561865282
    nsecs: 427528291
  frame_id: "ti_mmwave"
point_id: 0
x: 0.01171875
y: -0.0390625
z: -0.0078125
range: 0.0435769706964
velocity: 0.0
doppler_bin: 8
bearing: -73.3007583618
intensity: 30.6445808411
---
header: 
  seq: 1158195
  stamp: 
    secs: 1561865282
    nsecs: 427599935
  frame_id: "ti_mmwave"
point_id: 1
x: 0.017578125
y: -0.080078125
z: -0.0078125
range: 0.0871539413929
velocity: 0.0
doppler_bin: 8
bearing: -77.6192398071
intensity: 31.9005146027
---
header: 
  seq: 1158196
  stamp: 
    secs: 1561865282
    nsecs: 427611821
  frame_id: "ti_mmwave"
point_id: 2
x: 0.029296875
y: -0.119140625
z: -0.005859375
range: 0.130730912089
velocity: 0.0
doppler_bin: 8
bearing: -76.1849746704
intensity: 30.1452045441
---
header: 
  seq: 1158197
  stamp: 
    secs: 1561865282
    nsecs: 427623136
  frame_id: "ti_mmwave"
point_id: 3
x: 0.056640625
y: -0.154296875
z: 0.005859375
range: 0.174307882786
velocity: 0.0
doppler_bin: 8
bearing: -69.8423843384
intensity: 25.4282550812
---
header: 
  seq: 1158198
  stamp: 
    secs: 1561865282
    nsecs: 427633505
  frame_id: "ti_mmwave"
point_id: 4
x: 0.154296875
y: -0.080078125
z: 1.255859375
range: 1.35088610649
velocity: 0.0
doppler_bin: 8
bearing: -27.4287414551
intensity: 22.8330116272
---
header: 
  seq: 1158199
  stamp: 
    secs: 1561865282
    nsecs: 427641784
  frame_id: "ti_mmwave"
point_id: 5
x: 0.546875
y: -0.08203125
z: 1.1875
range: 1.39446306229
velocity: 0.0
doppler_bin: 8
bearing: -8.53076648712
intensity: 23.9619941711
---
header: 
  seq: 1158200
  stamp: 
    secs: 1561865282
    nsecs: 427650320
  frame_id: "ti_mmwave"
point_id: 6
x: 1.04296875
y: -0.08984375
z: -0.9765625
range: 1.52519392967
velocity: 0.0
doppler_bin: 8
bearing: -4.92343711853
intensity: 22.9666519165
---
header: 
  seq: 1158201
  stamp: 
    secs: 1561865282
    nsecs: 427657790
  frame_id: "ti_mmwave"
point_id: 7
x: 1.439453125
y: -0.138671875
z: -0.28125
range: 1.56877088547
velocity: 0.0
doppler_bin: 8
bearing: -5.50269365311
intensity: 28.8024177551
---
header: 
  seq: 1158202
  stamp: 
    secs: 1561865282
    nsecs: 427807924
  frame_id: "ti_mmwave"
point_id: 8
x: 1.494140625
y: -0.09375
z: -0.220703125
range: 1.61234796047
velocity: 0.0
doppler_bin: 8
bearing: -3.59032273293
intensity: 29.1434307098
---
header: 
  seq: 1158203
  stamp: 
    secs: 1561865282
    nsecs: 427827511
  frame_id: "ti_mmwave"
point_id: 9
x: 2.609375
y: -0.17578125
z: 1.05859375
range: 3.00681090355
velocity: 0.0
doppler_bin: 8
bearing: -3.85392260551
intensity: 29.0254669189
---
header: 
  seq: 1158204
  stamp: 
    secs: 1561865282
    nsecs: 427838762
  frame_id: "ti_mmwave"
point_id: 10
x: 2.6875
y: -0.08984375
z: 0.984375
range: 3.05038785934
velocity: 0.0
doppler_bin: 8
bearing: -1.91469812393
intensity: 32.1695709229
---
header: 
  seq: 1158205
  stamp: 
    secs: 1561865282
    nsecs: 427847375
  frame_id: "ti_mmwave"
point_id: 11
x: 2.751953125
y: -0.08984375
z: 0.921875
range: 3.09396481514
velocity: 0.0
doppler_bin: 8
bearing: -1.86988639832
intensity: 31.0856494904
---
header: 
  seq: 1158206
  stamp: 
    secs: 1561865282
    nsecs: 427857095
  frame_id: "ti_mmwave"
point_id: 12
x: 4.412109375
y: -0.142578125
z: 1.06640625
range: 4.83704376221
velocity: 0.0
doppler_bin: 8
bearing: -1.85087943077
intensity: 28.1090431213
---
header: 
  seq: 1158207
  stamp: 
    secs: 1561865282
    nsecs: 427865278
  frame_id: "ti_mmwave"
point_id: 13
x: 4.41015625
y: -0.142578125
z: 1.232421875
range: 4.88062095642
velocity: 0.0
doppler_bin: 8
bearing: -1.85169863701
intensity: 31.3735408783
---
header: 
  seq: 1158208
  stamp: 
    secs: 1561865282
    nsecs: 427870487
  frame_id: "ti_mmwave"
point_id: 14
x: 4.4375
y: -0.14453125
z: 1.283203125
range: 4.9241976738
velocity: 0.0
doppler_bin: 8
bearing: -1.86548817158
intensity: 30.9096298218
---
header: 
  seq: 1158209
  stamp: 
    secs: 1561865282
    nsecs: 427881732
  frame_id: "ti_mmwave"
point_id: 15
x: 1.283203125
y: -0.083984375
z: 0.408203125
range: 1.43804001808
velocity: 0.614668667316
doppler_bin: 9
bearing: -3.74461150169
intensity: 25.0785579681
---
header: 
  seq: 1158210
  stamp: 
    secs: 1561865282
    nsecs: 427928353
  frame_id: "ti_mmwave"
point_id: 16
x: 1.37109375
y: -0.04296875
z: 0.2265625
range: 1.48161697388
velocity: 0.614668667316
doppler_bin: 9
bearing: -1.79500675201
intensity: 27.3878059387
---
header: 
  seq: 1158211
  stamp: 
    secs: 1561865282
    nsecs: 427940262
  frame_id: "ti_mmwave"
point_id: 17
x: 0.009765625
y: 0.03125
z: 0.025390625
range: 0.0435769706964
velocity: 0.0
doppler_bin: 8
bearing: 72.6459732056
intensity: 29.3094902039
---
header: 
  seq: 1158212
  stamp: 
    secs: 1561865282
    nsecs: 427992231
  frame_id: "ti_mmwave"
point_id: 18
x: 0.041015625
y: -0.033203125
z: 0.0625
range: 0.0871539413929
velocity: 0.0
doppler_bin: 8
bearing: -38.9909973145
intensity: 30.0902576447
---
header: 
  seq: 1158213
  stamp: 
    secs: 1561865282
    nsecs: 428005993
  frame_id: "ti_mmwave"
point_id: 19
x: 0.044921875
y: -0.046875
z: 0.103515625
range: 0.130730912089
velocity: 0.0
doppler_bin: 8
bearing: -46.218875885
intensity: 28.9762706757
---
header: 
  seq: 1158214
  stamp: 
    secs: 1561865282
    nsecs: 487589162
  frame_id: "ti_mmwave"
point_id: 0
x: 0.01171875
y: -0.0390625
z: -0.0078125
range: 0.0435769706964
velocity: 0.0
doppler_bin: 8
bearing: -73.3007583618
intensity: 30.6445808411
---
header: 
  seq: 1158215
  stamp: 
    secs: 1561865282
    nsecs: 487664747
  frame_id: "ti_mmwave"
point_id: 1
x: 0.017578125
y: -0.080078125
z: -0.0078125
range: 0.0871539413929
velocity: 0.0
doppler_bin: 8
bearing: -77.6192398071
intensity: 31.8977088928
---
header: 
  seq: 1158216
  stamp: 
    secs: 1561865282
    nsecs: 487680868
  frame_id: "ti_mmwave"
point_id: 2
x: 0.029296875
y: -0.119140625
z: -0.005859375
range: 0.130730912089
velocity: 0.0
doppler_bin: 8
bearing: -76.1849746704
intensity: 30.141002655
---
header: 
  seq: 1158217
  stamp: 
    secs: 1561865282
    nsecs: 487696476
  frame_id: "ti_mmwave"
point_id: 3
x: 0.056640625
y: -0.154296875
z: 0.005859375
range: 0.174307882786
velocity: 0.0
doppler_bin: 8
bearing: -69.8423843384
intensity: 25.4282550812
---
header: 
  seq: 1158218
  stamp: 
    secs: 1561865282
    nsecs: 487711251
  frame_id: "ti_mmwave"
point_id: 4
x: 0.255859375
y: -0.080078125
z: 1.240234375
range: 1.35088610649
velocity: 0.0
doppler_bin: 8
bearing: -17.3789253235
intensity: 23.138671875
---
header: 
  seq: 1158219
  stamp: 
    secs: 1561865282
    nsecs: 487723747
  frame_id: "ti_mmwave"
point_id: 5
x: 0.20703125
y: -0.08203125
z: 1.2890625
range: 1.39446306229
velocity: 0.0
doppler_bin: 8
bearing: -21.6147785187
intensity: 24.857213974
---
header: 
  seq: 1158220
  stamp: 
    secs: 1561865282
    nsecs: 487867475
  frame_id: "ti_mmwave"
point_id: 6
x: 0.908203125
y: -0.083984375
z: -0.99609375
range: 1.43804001808
velocity: 0.0
doppler_bin: 8
bearing: -5.28329372406
intensity: 24.6389293671
---
header: 
  seq: 1158221
  stamp: 
    secs: 1561865282
    nsecs: 487878029
  frame_id: "ti_mmwave"
point_id: 7
x: 1.4140625
y: -0.044921875
z: -0.21484375
range: 1.52519392967
velocity: 0.0
doppler_bin: 8
bearing: -1.8195579052
intensity: 30.0173377991
---
header: 
  seq: 1158222
  stamp: 
    secs: 1561865282
    nsecs: 487888213
  frame_id: "ti_mmwave"
point_id: 8
x: 1.455078125
y: -0.046875
z: -0.22265625
range: 1.56877088547
velocity: 0.0
doppler_bin: 8
bearing: -1.84513187408
intensity: 34.4901542664
---
header: 
  seq: 1158223
  stamp: 
    secs: 1561865282
    nsecs: 487896855
  frame_id: "ti_mmwave"
point_id: 9
x: 1.49609375
y: -0.046875
z: -0.22265625
range: 1.61234796047
velocity: 0.0
doppler_bin: 8
bearing: -1.79458093643
intensity: 34.4153785706
---
header: 
  seq: 1158224
  stamp: 
    secs: 1561865282
    nsecs: 487910461
  frame_id: "ti_mmwave"
point_id: 10
x: 1.54296875
y: -0.0
z: -0.1953125
range: 1.65592491627
velocity: 0.0
doppler_bin: 8
bearing: -0.0
intensity: 30.3901729584
---
header: 
  seq: 1158225
  stamp: 
    secs: 1561865282
    nsecs: 487922232
  frame_id: "ti_mmwave"
point_id: 11
x: 2.62109375
y: -0.17578125
z: 1.033203125
range: 3.00681090355
velocity: 0.0
doppler_bin: 8
bearing: -3.83674383163
intensity: 29.1803035736
---
header: 
  seq: 1158226
  stamp: 
    secs: 1561865282
    nsecs: 487933922
  frame_id: "ti_mmwave"
point_id: 12
x: 2.69140625
y: -0.08984375
z: 0.974609375
range: 3.05038785934
velocity: 0.0
doppler_bin: 8
bearing: -1.91192126274
intensity: 32.2505073547
---
header: 
  seq: 1158227
  stamp: 
    secs: 1561865282
    nsecs: 487976430
  frame_id: "ti_mmwave"
point_id: 13
x: 2.7265625
y: -0.181640625
z: 0.982421875
range: 3.09396481514
velocity: 0.0
doppler_bin: 8
bearing: -3.81135106087
intensity: 31.1793384552
---
header: 
  seq: 1158228
  stamp: 
    secs: 1561865282
    nsecs: 487986680
  frame_id: "ti_mmwave"
point_id: 14
x: 4.4140625
y: -0.142578125
z: 1.056640625
range: 4.83704376221
velocity: 0.0
doppler_bin: 8
bearing: -1.850061059
intensity: 28.1557769775
---
header: 
  seq: 1158229
  stamp: 
    secs: 1561865282
    nsecs: 488013150
  frame_id: "ti_mmwave"
point_id: 15
x: 4.423828125
y: -0.142578125
z: 1.181640625
range: 4.88062095642
velocity: 0.0
doppler_bin: 8
bearing: -1.84597980976
intensity: 31.7782497406
---
header: 
  seq: 1158230
  stamp: 
    secs: 1561865282
    nsecs: 488032855
  frame_id: "ti_mmwave"
point_id: 16
x: 4.462890625
y: -0.14453125
z: 1.1953125
range: 4.9241976738
velocity: 0.0
doppler_bin: 8
bearing: -1.85488259792
intensity: 31.5866394043
---
header: 
  seq: 1158231
  stamp: 
    secs: 1561865282
    nsecs: 488052263
  frame_id: "ti_mmwave"
point_id: 17
x: 1.38671875
y: -0.087890625
z: -0.041015625
range: 1.48161697388
velocity: 0.614668667316
doppler_bin: 9
bearing: -3.62657165527
intensity: 24.440448761
---
header: 
  seq: 1158232
  stamp: 
    secs: 1561865282
    nsecs: 488070422
  frame_id: "ti_mmwave"
point_id: 18
x: 0.009765625
y: 0.03125
z: 0.025390625
range: 0.0435769706964
velocity: 0.0
doppler_bin: 8
bearing: 72.6459732056
intensity: 29.3043956757
---
header: 
  seq: 1158233
  stamp: 
    secs: 1561865282
    nsecs: 488142210
  frame_id: "ti_mmwave"
point_id: 19
x: 0.041015625
y: -0.033203125
z: 0.0625
range: 0.0871539413929
velocity: 0.0
doppler_bin: 8
bearing: -38.9909973145
intensity: 30.0860023499
---
header: 
  seq: 1158234
  stamp: 
    secs: 1561865282
    nsecs: 488157048
  frame_id: "ti_mmwave"
point_id: 20
x: 0.044921875
y: -0.046875
z: 0.103515625
range: 0.130730912089
velocity: 0.0
doppler_bin: 8
bearing: -46.218875885
intensity: 28.9762706757
---
header: 
  seq: 1158235
  stamp: 
    secs: 1561865282
    nsecs: 488171613
  frame_id: "ti_mmwave"
point_id: 22
x: 2.76953125
y: -0.0
z: 0.876953125
range: 3.09396481514
velocity: 0.0
doppler_bin: 8
bearing: -0.0
intensity: 31.1594314575
---
header: 
  seq: 1158236
  stamp: 
    secs: 1561865282
    nsecs: 489208818
  frame_id: "ti_mmwave"
point_id: 0
x: 0.01171875
y: -0.0390625
z: -0.0078125
range: 0.0435769706964
velocity: 0.0
doppler_bin: 8
bearing: -73.3007583618
intensity: 30.6370849609
---
header: 
  seq: 1158237
  stamp: 
    secs: 1561865282
    nsecs: 489292747
  frame_id: "ti_mmwave"
point_id: 1
x: 0.017578125
y: -0.080078125
z: -0.0078125
range: 0.0871539413929
velocity: 0.0
doppler_bin: 8
bearing: -77.6192398071
intensity: 31.8977088928
---
header: 
  seq: 1158238
  stamp: 
    secs: 1561865282
    nsecs: 489311434
  frame_id: "ti_mmwave"
point_id: 2
x: 0.029296875
y: -0.119140625
z: -0.005859375
range: 0.130730912089
velocity: 0.0
doppler_bin: 8
bearing: -76.1849746704
intensity: 30.1452045441
---
header: 
  seq: 1158239
  stamp: 
    secs: 1561865282
    nsecs: 489327539
  frame_id: "ti_mmwave"
point_id: 3
x: 0.056640625
y: -0.154296875
z: 0.005859375
range: 0.174307882786
velocity: 0.0
doppler_bin: 8
bearing: -69.8423843384
intensity: 25.4406795502
---
header: 
  seq: 1158240
  stamp: 
    secs: 1561865282
    nsecs: 489347399
  frame_id: "ti_mmwave"
point_id: 4
x: 0.109375
y: -0.080078125
z: 1.26171875
range: 1.35088610649
velocity: 0.0
doppler_bin: 8
bearing: -36.2094573975
intensity: 23.0963020325
---
header: 
  seq: 1158241
  stamp: 
    secs: 1561865282
    nsecs: 489410043
  frame_id: "ti_mmwave"
point_id: 5
x: 0.310546875
y: -0.08203125
z: -1.26953125
range: 1.39446306229
velocity: 0.0
doppler_bin: 8
bearing: -14.7967634201
intensity: 24.6239795685
---
header: 
  seq: 1158242
  stamp: 
    secs: 1561865282
    nsecs: 489425734
  frame_id: "ti_mmwave"
point_id: 6
x: 0.951171875
y: -0.0
z: -0.95703125
range: 1.43804001808
velocity: 0.0
doppler_bin: 8
bearing: -0.0
intensity: 20.9691009521
---
header: 
  seq: 1158243
  stamp: 
    secs: 1561865282
    nsecs: 489439643
  frame_id: "ti_mmwave"
point_id: 7
x: 1.421875
y: -0.0
z: -0.16796875
range: 1.52519392967
velocity: 0.0
doppler_bin: 8
bearing: -0.0
intensity: 25.9879055023
---
header: 
  seq: 1158244
  stamp: 
    secs: 1561865282
    nsecs: 489455221
  frame_id: "ti_mmwave"
point_id: 8
x: 1.45703125
y: -0.046875
z: -0.203125
range: 1.56877088547
velocity: 0.0
doppler_bin: 8
bearing: -1.84266018867
intensity: 30.0945091248
---
header: 
  seq: 1158245
  stamp: 
    secs: 1561865282
    nsecs: 489468274
  frame_id: "ti_mmwave"
point_id: 9
x: 1.50390625
y: -0.046875
z: -0.171875
range: 1.61234796047
velocity: 0.0
doppler_bin: 8
bearing: -1.78526449203
intensity: 30.6032009125
---
header: 
  seq: 1158246
  stamp: 
    secs: 1561865282
    nsecs: 489486263
  frame_id: "ti_mmwave"
point_id: 10
x: 1.546875
y: -0.048828125
z: -0.142578125
range: 1.65592491627
velocity: 0.0
doppler_bin: 8
bearing: -1.80797839165
intensity: 28.0140361786
---
header: 
  seq: 1158247
  stamp: 
    secs: 1561865282
    nsecs: 489510923
  frame_id: "ti_mmwave"
point_id: 11
x: 2.62109375
y: -0.17578125
z: 1.03125
range: 3.00681090355
velocity: 0.0
doppler_bin: 8
bearing: -3.83674383163
intensity: 29.1434307098
---
header: 
  seq: 1158248
  stamp: 
    secs: 1561865282
    nsecs: 489563954
  frame_id: "ti_mmwave"
point_id: 12
x: 2.689453125
y: -0.08984375
z: 0.9765625
range: 3.05038785934
velocity: 0.0
doppler_bin: 8
bearing: -1.91330885887
intensity: 32.2141418457
---
header: 
  seq: 1158249
  stamp: 
    secs: 1561865282
    nsecs: 489578790
  frame_id: "ti_mmwave"
point_id: 13
x: 2.72265625
y: -0.181640625
z: 0.9921875
range: 3.09396481514
velocity: 0.0
doppler_bin: 8
bearing: -3.8168027401
intensity: 31.0856494904
---
header: 
  seq: 1158250
  stamp: 
    secs: 1561865282
    nsecs: 489593206
  frame_id: "ti_mmwave"
point_id: 14
x: 4.41015625
y: -0.287109375
z: 1.2109375
range: 4.88062095642
velocity: 0.0
doppler_bin: 8
bearing: -3.72480559349
intensity: 30.5499591827
---
header: 
  seq: 1158251
  stamp: 
    secs: 1561865282
