header: 
  seq: 1185526
  stamp: 
    secs: 1561865325
    nsecs: 747813555
  frame_id: "ti_mmwave"
point_id: 0
x: 0.01171875
y: -0.0390625
z: -0.0078125
range: 0.0435769706964
velocity: 0.0
doppler_bin: 8
bearing: -73.3007583618
intensity: 30.6557979584
---
header: 
  seq: 1185527
  stamp: 
    secs: 1561865325
    nsecs: 747889492
  frame_id: "ti_mmwave"
point_id: 1
x: 0.017578125
y: -0.080078125
z: -0.0078125
range: 0.0871539413929
velocity: 0.0
doppler_bin: 8
bearing: -77.6192398071
intensity: 31.9005146027
---
header: 
  seq: 1185528
  stamp: 
    secs: 1561865325
    nsecs: 747901233
  frame_id: "ti_mmwave"
point_id: 2
x: 0.029296875
y: -0.119140625
z: -0.005859375
range: 0.130730912089
velocity: 0.0
doppler_bin: 8
bearing: -76.1849746704
intensity: 30.1367969513
---
header: 
  seq: 1185529
  stamp: 
    secs: 1561865325
    nsecs: 747909906
  frame_id: "ti_mmwave"
point_id: 3
x: 0.056640625
y: -0.154296875
z: 0.005859375
range: 0.174307882786
velocity: 0.0
doppler_bin: 8
bearing: -69.8423843384
intensity: 25.4282550812
---
header: 
  seq: 1185530
  stamp: 
    secs: 1561865325
    nsecs: 747918524
  frame_id: "ti_mmwave"
point_id: 4
x: 0.298828125
y: -0.080078125
z: -1.23046875
range: 1.35088610649
velocity: 0.0
doppler_bin: 8
bearing: -15.0013189316
intensity: 23.3041381836
---
header: 
  seq: 1185531
  stamp: 
    secs: 1561865325
    nsecs: 747928897
  frame_id: "ti_mmwave"
point_id: 5
x: 0.619140625
y: -0.041015625
z: -1.15234375
range: 1.39446306229
velocity: 0.0
doppler_bin: 8
bearing: -3.79008126259
intensity: 24.9136161804
---
header: 
  seq: 1185532
  stamp: 
    secs: 1561865325
    nsecs: 747939250
  frame_id: "ti_mmwave"
point_id: 6
x: 0.884765625
y: -0.04296875
z: -1.017578125
range: 1.43804001808
velocity: 0.0
doppler_bin: 8
bearing: -2.78039193153
intensity: 23.0102996826
---
header: 
  seq: 1185533
  stamp: 
    secs: 1561865325
    nsecs: 747992030
  frame_id: "ti_mmwave"
point_id: 7
x: 2.62109375
y: -0.17578125
z: 1.029296875
range: 3.00681090355
velocity: 0.0
doppler_bin: 8
bearing: -3.83674383163
intensity: 29.0308990479
---
header: 
  seq: 1185534
  stamp: 
    secs: 1561865325
    nsecs: 748006406
  frame_id: "ti_mmwave"
point_id: 8
x: 2.69140625
y: -0.08984375
z: 0.970703125
range: 3.05038785934
velocity: 0.0
doppler_bin: 8
bearing: -1.91192126274
intensity: 32.2245635986
---
header: 
  seq: 1185535
  stamp: 
    secs: 1561865325
    nsecs: 748125721
  frame_id: "ti_mmwave"
point_id: 9
x: 2.732421875
y: -0.181640625
z: 0.970703125
range: 3.09396481514
velocity: 0.0
doppler_bin: 8
bearing: -3.80320167542
intensity: 31.1991539001
---
header: 
  seq: 1185536
  stamp: 
    secs: 1561865325
    nsecs: 748135805
  frame_id: "ti_mmwave"
point_id: 10
x: 4.40625
y: -0.142578125
z: 1.087890625
range: 4.83704376221
velocity: 0.0
doppler_bin: 8
bearing: -1.85333895683
intensity: 27.9448795319
---
header: 
  seq: 1185537
  stamp: 
    secs: 1561865325
    nsecs: 748143742
  frame_id: "ti_mmwave"
point_id: 11
x: 4.41796875
y: -0.142578125
z: 1.208984375
range: 4.88062095642
velocity: 0.0
doppler_bin: 8
bearing: -1.84842634201
intensity: 31.3640346527
---
header: 
  seq: 1185538
  stamp: 
    secs: 1561865325
    nsecs: 748151487
  frame_id: "ti_mmwave"
point_id: 12
x: 4.44921875
y: -0.14453125
z: 1.2421875
range: 4.9241976738
velocity: 0.0
doppler_bin: 8
bearing: -1.86057829857
intensity: 31.235250473
---
header: 
  seq: 1185539
  stamp: 
    secs: 1561865325
    nsecs: 748162373
  frame_id: "ti_mmwave"
point_id: 13
x: 4.65625
y: -0.0
z: 0.26953125
range: 4.96777486801
velocity: 0.0
doppler_bin: 8
bearing: -0.0
intensity: 29.6567192078
---
header: 
  seq: 1185540
  stamp: 
    secs: 1561865325
    nsecs: 748170878
  frame_id: "ti_mmwave"
point_id: 14
x: 4.740234375
y: -0.298828125
z: -0.58984375
range: 5.09850549698
velocity: 0.0
doppler_bin: 8
bearing: -3.60719799995
intensity: 32.4772796631
---
header: 
  seq: 1185541
  stamp: 
    secs: 1561865325
    nsecs: 748179412
  frame_id: "ti_mmwave"
point_id: 15
x: 4.77734375
y: -0.30078125
z: -0.62109375
range: 5.14208269119
velocity: 0.0
doppler_bin: 8
bearing: -3.60258316994
intensity: 32.9819793701
---
header: 
  seq: 1185542
  stamp: 
    secs: 1561865325
    nsecs: 748188189
  frame_id: "ti_mmwave"
point_id: 16
x: 4.890625
y: -0.30859375
z: 0.693359375
range: 5.27281332016
velocity: 0.0
doppler_bin: 8
bearing: -3.61052203178
intensity: 31.0551013947
---
header: 
  seq: 1185543
  stamp: 
    secs: 1561865325
    nsecs: 748196043
  frame_id: "ti_mmwave"
point_id: 17
x: 4.951171875
y: -0.623046875
z: 0.0625
range: 5.31639051437
velocity: 0.0
doppler_bin: 8
bearing: -7.17230129242
intensity: 29.8272342682
---
header: 
  seq: 1185544
  stamp: 
    secs: 1561865325
    nsecs: 748203988
  frame_id: "ti_mmwave"
point_id: 18
x: 0.009765625
y: 0.03125
z: 0.025390625
range: 0.0435769706964
velocity: 0.0
doppler_bin: 8
bearing: 72.6459732056
intensity: 29.3094902039
---
header: 
  seq: 1185545
  stamp: 
    secs: 1561865325
    nsecs: 748215725
  frame_id: "ti_mmwave"
point_id: 19
x: 0.041015625
y: -0.033203125
z: 0.0625
range: 0.0871539413929
velocity: 0.0
doppler_bin: 8
bearing: -38.9909973145
intensity: 30.0902576447
---
header: 
  seq: 1185546
  stamp: 
    secs: 1561865325
    nsecs: 748230386
  frame_id: "ti_mmwave"
point_id: 20
x: 0.044921875
y: -0.046875
z: 0.103515625
range: 0.130730912089
velocity: 0.0
doppler_bin: 8
bearing: -46.218875885
intensity: 28.9762706757
---
header: 
  seq: 1185547
  stamp: 
    secs: 1561865325
    nsecs: 748247322
  frame_id: "ti_mmwave"
point_id: 22
x: 2.7734375
y: -0.0
z: 0.865234375
range: 3.09396481514
velocity: 0.0
doppler_bin: 8
bearing: -0.0
intensity: 31.1892566681
---
header: 
  seq: 1185548
  stamp: 
    secs: 1561865325
    nsecs: 749512456
  frame_id: "ti_mmwave"
point_id: 0
x: 0.01171875
y: -0.0390625
z: -0.0078125
range: 0.0435769706964
velocity: 0.0
doppler_bin: 8
bearing: -73.3007583618
intensity: 30.6483230591
---
header: 
  seq: 1185549
  stamp: 
    secs: 1561865325
    nsecs: 749575371
  frame_id: "ti_mmwave"
point_id: 1
x: 0.017578125
y: -0.080078125
z: -0.0078125
range: 0.0871539413929
velocity: 0.0
doppler_bin: 8
bearing: -77.6192398071
intensity: 31.9005146027
---
header: 
  seq: 1185550
  stamp: 
    secs: 1561865325
    nsecs: 749593089
  frame_id: "ti_mmwave"
point_id: 2
x: 0.029296875
y: -0.119140625
z: -0.005859375
range: 0.130730912089
velocity: 0.0
doppler_bin: 8
bearing: -76.1849746704
intensity: 30.1452045441
---
header: 
  seq: 1185551
  stamp: 
    secs: 1561865325
    nsecs: 749610013
  frame_id: "ti_mmwave"
point_id: 3
x: 0.056640625
y: -0.154296875
z: 0.005859375
range: 0.174307882786
velocity: 0.0
doppler_bin: 8
bearing: -69.8423843384
intensity: 25.4406795502
---
header: 
  seq: 1185552
  stamp: 
    secs: 1561865325
    nsecs: 749638714
  frame_id: "ti_mmwave"
point_id: 4
x: 0.5703125
y: -0.0390625
z: -1.1328125
range: 1.35088610649
velocity: 0.0
doppler_bin: 8
bearing: -3.91824889183
intensity: 22.6481781006
---
header: 
  seq: 1185553
  stamp: 
    secs: 1561865325
    nsecs: 749662373
  frame_id: "ti_mmwave"
point_id: 5
x: 0.5703125
y: -0.041015625
z: -1.177734375
range: 1.39446306229
velocity: 0.0
doppler_bin: 8
bearing: -4.11350488663
intensity: 23.3845653534
---
header: 
  seq: 1185554
  stamp: 
    secs: 1561865325
    nsecs: 749684006
  frame_id: "ti_mmwave"
point_id: 6
x: 0.640625
y: -0.16796875
z: 1.17578125
range: 1.43804001808
velocity: 0.0
doppler_bin: 8
bearing: -14.6919603348
intensity: 21.2385158539
---
header: 
  seq: 1185555
  stamp: 
    secs: 1561865325
    nsecs: 749708739
  frame_id: "ti_mmwave"
point_id: 7
x: 0.576171875
y: -0.087890625
z: 1.263671875
range: 1.48161697388
velocity: 0.0
doppler_bin: 8
bearing: -8.67317390442
intensity: 20.9691009521
---
header: 
  seq: 1185556
  stamp: 
    secs: 1561865325
    nsecs: 749784979
  frame_id: "ti_mmwave"
point_id: 8
x: 2.626953125
y: -0.17578125
z: 1.017578125
range: 3.00681090355
velocity: 0.0
doppler_bin: 8
bearing: -3.82821130753
intensity: 28.9872512817
---
header: 
  seq: 1185557
  stamp: 
    secs: 1561865325
    nsecs: 749800702
  frame_id: "ti_mmwave"
point_id: 9
x: 2.693359375
y: -0.08984375
z: 0.970703125
range: 3.05038785934
velocity: 0.0
doppler_bin: 8
bearing: -1.91053581238
intensity: 32.1827278137
---
header: 
  seq: 1185558
  stamp: 
    secs: 1561865325
    nsecs: 749815024
  frame_id: "ti_mmwave"
point_id: 10
x: 2.728515625
y: -0.181640625
z: 0.978515625
range: 3.09396481514
velocity: 0.0
doppler_bin: 8
bearing: -3.80863046646
intensity: 31.1360912323
---
header: 
  seq: 1185559
  stamp: 
    secs: 1561865325
    nsecs: 749829160
  frame_id: "ti_mmwave"
point_id: 11
x: 4.40625
y: -0.142578125
z: 1.08984375
range: 4.83704376221
velocity: 0.0
doppler_bin: 8
bearing: -1.85333895683
intensity: 27.9518451691
---
header: 
  seq: 1185560
  stamp: 
    secs: 1561865325
    nsecs: 749841821
  frame_id: "ti_mmwave"
point_id: 12
x: 4.41796875
y: -0.142578125
z: 1.205078125
range: 4.88062095642
velocity: 0.0
doppler_bin: 8
bearing: -1.84842634201
intensity: 31.3385810852
---
header: 
  seq: 1185561
  stamp: 
    secs: 1561865325
    nsecs: 749852869
  frame_id: "ti_mmwave"
point_id: 13
x: 4.462890625
y: -0.14453125
z: 1.1953125
range: 4.9241976738
velocity: 0.0
doppler_bin: 8
bearing: -1.85488259792
intensity: 31.205739975
---
header: 
  seq: 1185562
  stamp: 
    secs: 1561865325
    nsecs: 749877892
  frame_id: "ti_mmwave"
point_id: 14
x: 4.712890625
y: -0.1484375
z: -0.5390625
range: 5.0549287796
velocity: 0.0
doppler_bin: 8
bearing: -1.80399513245
intensity: 30.1661548615
---
header: 
  seq: 1185563
  stamp: 
    secs: 1561865325
    nsecs: 749902914
  frame_id: "ti_mmwave"
point_id: 15
x: 4.736328125
y: -0.298828125
z: -0.61328125
range: 5.09850549698
velocity: 0.0
doppler_bin: 8
bearing: -3.61016488075
intensity: 34.6149864197
---
header: 
  seq: 1185564
  stamp: 
    secs: 1561865325
    nsecs: 749918706
  frame_id: "ti_mmwave"
point_id: 16
x: 4.775390625
y: -0.30078125
z: -0.634765625
range: 5.14208269119
velocity: 0.0
doppler_bin: 8
bearing: -3.60405302048
intensity: 35.2074546814
---
header: 
  seq: 1185565
  stamp: 
    secs: 1561865325
    nsecs: 749980430
  frame_id: "ti_mmwave"
point_id: 17
x: 4.794921875
y: -0.15234375
z: -0.830078125
range: 5.18565940857
velocity: 0.0
doppler_bin: 8
bearing: -1.81978332996
intensity: 31.7026176453
---
header: 
  seq: 1185566
  stamp: 
    secs: 1561865325
    nsecs: 749997921
  frame_id: "ti_mmwave"
point_id: 18
x: 4.88671875
y: -0.30859375
z: 0.71875
range: 5.27281332016
velocity: 0.0
doppler_bin: 8
bearing: -3.61340069771
intensity: 30.99335289
---
header: 
  seq: 1185567
  stamp: 
    secs: 1561865325
    nsecs: 750012294
  frame_id: "ti_mmwave"
point_id: 19
x: 4.951171875
y: -0.623046875
z: 0.046875
range: 5.31639051437
velocity: 0.0
doppler_bin: 8
bearing: -7.17230129242
intensity: 29.7680835724
---
header: 
  seq: 1185568
  stamp: 
    secs: 1561865325
    nsecs: 750026138
  frame_id: "ti_mmwave"
point_id: 20
x: 0.009765625
y: 0.03125
z: 0.025390625
range: 0.0435769706964
velocity: 0.0
doppler_bin: 8
bearing: 72.6459732056
intensity: 29.3043956757
---
header: 
  seq: 1185569
  stamp: 
    secs: 1561865325
    nsecs: 750038555
  frame_id: "ti_mmwave"
point_id: 21
x: 0.041015625
y: -0.033203125
z: 0.0625
range: 0.0871539413929
velocity: 0.0
doppler_bin: 8
bearing: -38.9909973145
intensity: 30.0860023499
---
header: 
  seq: 1185570
  stamp: 
    secs: 1561865325
    nsecs: 750051770
  frame_id: "ti_mmwave"
point_id: 22
x: 0.044921875
y: -0.046875
z: 0.103515625
range: 0.130730912089
velocity: 0.0
doppler_bin: 8
bearing: -46.218875885
intensity: 28.9707698822
---
header: 
  seq: 1185571
  stamp: 
    secs: 1561865325
    nsecs: 750067780
  frame_id: "ti_mmwave"
point_id: 24
x: 1.2109375
y: 0.46484375
z: 0.376953125
range: 1.43804001808
velocity: 0.0
doppler_bin: 8
bearing: 21.0003452301
intensity: 18.3884906769
---
header: 
  seq: 1185572
  stamp: 
    secs: 1561865325
    nsecs: 750081055
  frame_id: "ti_mmwave"
point_id: 25
x: 2.76953125
y: -0.0
z: 0.87109375
range: 3.09396481514
velocity: 0.0
doppler_bin: 8
bearing: -0.0
intensity: 31.1294002533
---
header: 
  seq: 1185573
  stamp: 
    secs: 1561865325
    nsecs: 807647633
  frame_id: "ti_mmwave"
point_id: 0
x: 0.01171875
y: -0.0390625
z: -0.0078125
range: 0.0435769706964
velocity: 0.0
doppler_bin: 8
bearing: -73.3007583618
intensity: 30.6520614624
---
header: 
  seq: 1185574
  stamp: 
    secs: 1561865325
    nsecs: 807732340
  frame_id: "ti_mmwave"
point_id: 1
x: 0.017578125
y: -0.080078125
z: -0.0078125
range: 0.0871539413929
velocity: 0.0
doppler_bin: 8
bearing: -77.6192398071
intensity: 31.9033164978
---
header: 
  seq: 1185575
  stamp: 
    secs: 1561865325
    nsecs: 807744231
  frame_id: "ti_mmwave"
point_id: 2
x: 0.029296875
y: -0.119140625
z: -0.005859375
range: 0.130730912089
velocity: 0.0
doppler_bin: 8
bearing: -76.1849746704
intensity: 30.1494026184
---
header: 
  seq: 1185576
  stamp: 
    secs: 1561865325
    nsecs: 807752594
  frame_id: "ti_mmwave"
point_id: 3
x: 0.056640625
y: -0.154296875
z: 0.005859375
range: 0.174307882786
velocity: 0.0
doppler_bin: 8
bearing: -69.8423843384
intensity: 25.4406795502
---
header: 
  seq: 1185577
  stamp: 
    secs: 1561865325
    nsecs: 807761223
  frame_id: "ti_mmwave"
point_id: 4
x: 0.666015625
y: -0.080078125
z: 1.076171875
range: 1.35088610649
velocity: 0.0
doppler_bin: 8
bearing: -6.85602378845
intensity: 23.9093513489
---
header: 
  seq: 1185578
  stamp: 
    secs: 1561865325
    nsecs: 807769778
  frame_id: "ti_mmwave"
point_id: 5
x: 0.248046875
y: -0.08203125
z: -1.283203125
range: 1.39446306229
velocity: 0.0
doppler_bin: 8
bearing: -18.2994976044
intensity: 26.3848934174
---
header: 
  seq: 1185579
  stamp: 
    secs: 1561865325
    nsecs: 807782613
  frame_id: "ti_mmwave"
point_id: 6
x: 1.095703125
y: -0.04296875
z: -0.787109375
range: 1.43804001808
velocity: 0.0
doppler_bin: 8
bearing: -2.24574279785
intensity: 25.4777469635
---
header: 
  seq: 1185580
  stamp: 
    secs: 1561865325
    nsecs: 807792421
  frame_id: "ti_mmwave"
point_id: 7
x: 1.1796875
y: -0.0
z: -0.736328125
range: 1.48161697388
velocity: 0.0
doppler_bin: 8
bearing: -0.0
intensity: 23.4635295868
---
header: 
  seq: 1185581
  stamp: 
    secs: 1561865325
    nsecs: 807800756
  frame_id: "ti_mmwave"
point_id: 8
x: 2.619140625
y: -0.17578125
z: 1.037109375
range: 3.00681090355
velocity: 0.0
doppler_bin: 8
bearing: -3.83959650993
intensity: 29.0363254547
---
header: 
  seq: 1185582
  stamp: 
    secs: 1561865325
    nsecs: 807809109
  frame_id: "ti_mmwave"
point_id: 9
x: 2.69140625
y: -0.08984375
z: 0.974609375
range: 3.05038785934
velocity: 0.0
doppler_bin: 8
bearing: -1.91192126274
intensity: 32.1984634399
---
header: 
  seq: 1185583
  stamp: 
    secs: 1561865325
    nsecs: 807820070
  frame_id: "ti_mmwave"
point_id: 10
x: 2.728515625
y: -0.181640625
z: 0.9765625
range: 3.09396481514
velocity: 0.0
doppler_bin: 8
bearing: -3.80863046646
intensity: 31.1260509491
---
header: 
  seq: 1185584
  stamp: 
    secs: 1561865325
    nsecs: 807907912
  frame_id: "ti_mmwave"
point_id: 11
x: 4.404296875
y: -0.142578125
z: 1.095703125
range: 4.83704376221
velocity: 0.0
doppler_bin: 8
bearing: -1.85416030884
intensity: 27.9309158325
---
header: 
  seq: 1185585
  stamp: 
    secs: 1561865325
    nsecs: 807918907
  frame_id: "ti_mmwave"
point_id: 12
x: 4.4140625
y: -0.142578125
z: 1.220703125
range: 4.88062095642
velocity: 0.0
doppler_bin: 8
bearing: -1.850061059
intensity: 31.2839927673
---
header: 
  seq: 1185586
  stamp: 
    secs: 1561865325
    nsecs: 807929058
  frame_id: "ti_mmwave"
point_id: 13
x: 4.43359375
y: -0.14453125
z: 1.296875
range: 4.9241976738
velocity: 0.0
doppler_bin: 8
bearing: -1.86713063717
intensity: 30.8350257874
---
header: 
  seq: 1185587
  stamp: 
    secs: 1561865325
    nsecs: 807937712
  frame_id: "ti_mmwave"
point_id: 14
x: 4.7421875
y: -0.298828125
z: -0.578125
range: 5.09850549698
velocity: 0.0
doppler_bin: 8
bearing: -3.60571622849
intensity: 32.884727478
---
header: 
  seq: 1185588
  stamp: 
    secs: 1561865325
    nsecs: 807980738
  frame_id: "ti_mmwave"
point_id: 15
x: 4.7734375
y: -0.30078125
z: -0.65234375
range: 5.14208269119
velocity: 0.0
doppler_bin: 8
bearing: -3.60552406311
intensity: 33.384563446
---
header: 
  seq: 1185589
  stamp: 
    secs: 1561865325
    nsecs: 807998077
  frame_id: "ti_mmwave"
point_id: 16
x: 4.88671875
y: -0.30859375
z: 0.728515625
range: 5.27281332016
velocity: 0.0
doppler_bin: 8
bearing: -3.61340069771
intensity: 30.9447116852
---
header: 
  seq: 1185590
  stamp: 
    secs: 1561865325
    nsecs: 808009248
  frame_id: "ti_mmwave"
point_id: 17
x: 4.951171875
y: -0.623046875
z: 0.056640625
range: 5.31639051437
velocity: 0.0
doppler_bin: 8
bearing: -7.17230129242
intensity: 29.6284275055
---
header: 
  seq: 1185591
  stamp: 
    secs: 1561865325
    nsecs: 808020530
  frame_id: "ti_mmwave"
point_id: 18
x: 0.009765625
y: 0.03125
z: 0.025390625
range: 0.0435769706964
velocity: 0.0
doppler_bin: 8
bearing: 72.6459732056
intensity: 29.3043956757
---
header: 
  seq: 1185592
  stamp: 
    secs: 1561865325
    nsecs: 808032429
  frame_id: "ti_mmwave"
point_id: 19
x: 0.041015625
y: -0.033203125
z: 0.0625
range: 0.0871539413929
velocity: 0.0
doppler_bin: 8
bearing: -38.9909973145
intensity: 30.0860023499
---
header: 
  seq: 1185593
  stamp: 
    secs: 1561865325
    nsecs: 808043133
  frame_id: "ti_mmwave"
point_id: 20
x: 0.044921875
y: -0.046875
z: 0.103515625
range: 0.130730912089
velocity: 0.0
doppler_bin: 8
bearing: -46.218875885
intensity: 28.9762706757
---
header: 
  seq: 1185594
  stamp: 
    secs: 1561865325
    nsecs: 808927999
  frame_id: "ti_mmwave"
point_id: 0
x: 0.01171875
y: -0.0390625
z: -0.0078125
range: 0.0435769706964
velocity: 0.0
doppler_bin: 8
bearing: -73.3007583618
intensity: 30.6445808411
---
header: 
  seq: 1185595
  stamp: 
    secs: 1561865325
    nsecs: 808981928
  frame_id: "ti_mmwave"
point_id: 1
x: 0.017578125
y: -0.080078125
z: -0.0078125
range: 0.0871539413929
velocity: 0.0
doppler_bin: 8
bearing: -77.6192398071
intensity: 31.8977088928
---
header: 
  seq: 1185596
  stamp: 
    secs: 1561865325
    nsecs: 808998401
  frame_id: "ti_mmwave"
point_id: 2
x: 0.029296875
y: -0.119140625
z: -0.005859375
range: 0.130730912089
velocity: 0.0
doppler_bin: 8
bearing: -76.1849746704
intensity: 30.141002655
---
header: 
  seq: 1185597
  stamp: 
    secs: 1561865325
    nsecs: 809012556
  frame_id: "ti_mmwave"
point_id: 3
x: 0.056640625
y: -0.154296875
z: 0.005859375
range: 0.174307882786
velocity: 0.0
doppler_bin: 8
bearing: -69.8423843384
intensity: 25.4406795502
---
header: 
  seq: 1185598
  stamp: 
    secs: 1561865325
    nsecs: 809043291
  frame_id: "ti_mmwave"
point_id: 4
x: 0.853515625
y: -0.119140625
z: 0.931640625
range: 1.35088610649
velocity: 0.0
doppler_bin: 8
bearing: -7.94646215439
intensity: 22.2271652222
---
header: 
  seq: 1185599
  stamp: 
    secs: 1561865325
    nsecs: 809058238
  frame_id: "ti_mmwave"
point_id: 5
x: 1.189453125
y: -0.123046875
z: 0.533203125
range: 1.39446306229
velocity: 0.0
doppler_bin: 8
bearing: -5.90614128113
intensity: 25.4777469635
---
header: 
  seq: 1185600
  stamp: 
    secs: 1561865325
    nsecs: 809092878
  frame_id: "ti_mmwave"
point_id: 6
x: 1.341796875
y: -0.083984375
z: 0.130859375
range: 1.43804001808
velocity: 0.0
doppler_bin: 8
bearing: -3.58152627945
intensity: 26.812412262
---
header: 
  seq: 1185601
  stamp: 
    secs: 1561865325
    nsecs: 809114671
  frame_id: "ti_mmwave"
point_id: 7
x: 1.388671875
y: -0.087890625
z: 0.0
range: 1.48161697388
velocity: 0.0
doppler_bin: 8
bearing: -3.62148451805
intensity: 25.7518787384
---
header: 
  seq: 1185602
  stamp: 
    secs: 1561865325
    nsecs: 809134837
  frame_id: "ti_mmwave"
point_id: 8
x: 2.61328125
y: -0.17578125
z: 1.052734375
range: 3.00681090355
velocity: 0.0
doppler_bin: 8
bearing: -3.84817934036
intensity: 29.0091304779
---
header: 
  seq: 1185603
  stamp: 
    secs: 1561865325
    nsecs: 809150423
  frame_id: "ti_mmwave"
point_id: 9
x: 2.69140625
y: -0.08984375
z: 0.97265625
range: 3.05038785934
velocity: 0.0
doppler_bin: 8
bearing: -1.91192126274
intensity: 32.1958465576
---
header: 
  seq: 1185604
  stamp: 
    secs: 1561865325
    nsecs: 809249373
  frame_id: "ti_mmwave"
point_id: 10
x: 2.732421875
y: -0.181640625
z: 0.966796875
range: 3.09396481514
velocity: 0.0
doppler_bin: 8
bearing: -3.80320167542
intensity: 31.1693973541
---
header: 
  seq: 1185605
  stamp: 
    secs: 1561865325
    nsecs: 809264823
  frame_id: "ti_mmwave"
point_id: 11
x: 4.4140625
y: -0.142578125
z: 1.22265625
range: 4.88062095642
velocity: 0.0
doppler_bin: 8
bearing: -1.850061059
intensity: 31.2319812775
---
header: 
  seq: 1185606
  stamp: 
    secs: 1561865325
    nsecs: 809281148
  frame_id: "ti_mmwave"
point_id: 12
x: 4.435546875
y: -0.14453125
z: 1.296875
range: 4.9241976738
velocity: 0.0
doppler_bin: 8
bearing: -1.86630904675
intensity: 30.5766601562
---
header: 
  seq: 1185607
  stamp: 
    secs: 1561865325
    nsecs: 809294774
  frame_id: "ti_mmwave"
point_id: 13
x: 4.884765625
y: -0.30859375
z: 0.740234375
range: 5.27281332016
velocity: 0.0
doppler_bin: 8
bearing: -3.6148416996
intensity: 31.027765274
---
header: 
  seq: 1185608
  stamp: 
    secs: 1561865325
    nsecs: 809308316
  frame_id: "ti_mmwave"
point_id: 14
x: 4.951171875
y: -0.623046875
z: 0.109375
range: 5.31639051437
velocity: 0.0
doppler_bin: 8
bearing: -7.17230129242
intensity: 29.8000335693
---
header: 
  seq: 1185609
  stamp: 
    secs: 1561865325
    nsecs: 809321927
  frame_id: "ti_mmwave"
point_id: 15
x: 0.009765625
y: 0.03125
z: 0.025390625
range: 0.0435769706964
velocity: 0.0
doppler_bin: 8
bearing: 72.6459732056
intensity: 29.3094902039
---
header: 
  seq: 1185610
  stamp: 
    secs: 1561865325
    nsecs: 809336532
  frame_id: "ti_mmwave"
point_id: 16
x: 0.041015625
y: -0.033203125
z: 0.0625
range: 0.0871539413929
velocity: 0.0
doppler_bin: 8
bearing: -38.9909973145
intensity: 30.0860023499
---
header: 
  seq: 1185611
  stamp: 
    secs: 1561865325
    nsecs: 809365816
  frame_id: "ti_mmwave"
point_id: 17
x: 0.044921875
y: -0.046875
z: 0.103515625
range: 0.130730912089
velocity: 0.0
doppler_bin: 8
bearing: -46.218875885
intensity: 28.9707698822
---
header: 
  seq: 1185612
  stamp: 
    secs: 1561865325
    nsecs: 809389548
  frame_id: "ti_mmwave"
point_id: 19
x: 2.7734375
y: -0.0
z: 0.861328125
range: 3.09396481514
velocity: 0.0
doppler_bin: 8
bearing: -0.0
intensity: 31.1627559662
---
header: 
  seq: 1185613
  stamp: 
    secs: 1561865325
    nsecs: 867901797
  frame_id: "ti_mmwave"
point_id: 0
x: 0.01171875
y: -0.0390625
z: -0.0078125
range: 0.0435769706964
velocity: 0.0
doppler_bin: 8
bearing: -73.3007583618
intensity: 30.6557979584
---
header: 
  seq: 1185614
  stamp: 
    secs: 1561865325
    nsecs: 868053629
  frame_id: "ti_mmwave"
point_id: 1
x: 0.017578125
y: -0.080078125
z: -0.0078125
range: 0.0871539413929
velocity: 0.0
doppler_bin: 8
bearing: -77.6192398071
intensity: 31.9061183929
---
header: 
  seq: 1185615
  stamp: 
    secs: 1561865325
    nsecs: 868074224
  frame_id: "ti_mmwave"
point_id: 2
x: 0.029296875
y: -0.119140625
z: -0.005859375
range: 0.130730912089
velocity: 0.0
doppler_bin: 8
bearing: -76.1849746704
intensity: 30.1494026184
---
header: 
  seq: 1185616
  stamp: 
    secs: 1561865325
    nsecs: 868089536
  frame_id: "ti_mmwave"
point_id: 3
x: 0.056640625
y: -0.154296875
z: 0.005859375
range: 0.174307882786
velocity: 0.0
doppler_bin: 8
bearing: -69.8423843384
intensity: 25.4530715942
---
header: 
  seq: 1185617
  stamp: 
    secs: 1561865325
    nsecs: 868103225
  frame_id: "ti_mmwave"
point_id: 4
x: 0.685546875
y: -0.080078125
z: -1.064453125
range: 1.35088610649
velocity: 0.0
doppler_bin: 8
bearing: -6.66247701645
intensity: 23.0535144806
---
header: 
  seq: 1185618
  stamp: 
    secs: 1561865325
    nsecs: 868116900
  frame_id: "ti_mmwave"
point_id: 5
x: 0.904296875
y: -0.041015625
z: -0.9453125
range: 1.39446306229
velocity: 0.0
doppler_bin: 8
bearing: -2.59694862366
intensity: 23.9619941711
---
header: 
  seq: 1185619
  stamp: 
    secs: 1561865325
    nsecs: 868135847
  frame_id: "ti_mmwave"
point_id: 6
x: 1.095703125
y: -0.0
z: -0.787109375
range: 1.43804001808
velocity: 0.0
doppler_bin: 8
bearing: -0.0
intensity: 21.3353881836
---
header: 
  seq: 1185620
  stamp: 
    secs: 1561865325
    nsecs: 868218650
  frame_id: "ti_mmwave"
point_id: 7
x: 2.6171875
y: -0.17578125
z: 1.044921875
range: 3.00681090355
velocity: 0.0
doppler_bin: 8
bearing: -3.84245300293
intensity: 28.9927310944
---
header: 
  seq: 1185621
  stamp: 
    secs: 1561865325
    nsecs: 868233446
  frame_id: "ti_mmwave"
point_id: 8
x: 2.69140625
y: -0.08984375
z: 0.97265625
range: 3.05038785934
velocity: 0.0
doppler_bin: 8
bearing: -1.91192126274
intensity: 32.1774711609
---
header: 
  seq: 1185622
  stamp: 
    secs: 1561865325
    nsecs: 868247855
  frame_id: "ti_mmwave"
point_id: 9
x: 2.732421875
y: -0.181640625
z: 0.96875
range: 3.09396481514
velocity: 0.0
doppler_bin: 8
bearing: -3.80320167542
intensity: 31.1394329071
---
header: 
  seq: 1185623
  stamp: 
    secs: 1561865325
    nsecs: 868261566
  frame_id: "ti_mmwave"
point_id: 10
x: 4.4140625
y: -0.142578125
z: 1.216796875
range: 4.88062095642
velocity: 0.0
doppler_bin: 8
bearing: -1.850061059
intensity: 31.2775249481
---
header: 
  seq: 1185624
  stamp: 
    secs: 1561865325
    nsecs: 868279392
  frame_id: "ti_mmwave"
point_id: 11
x: 4.44921875
y: -0.14453125
z: 1.24609375
range: 4.9241976738
velocity: 0.0
doppler_bin: 8
bearing: -1.86057829857
intensity: 30.8778133392
---
header: 
  seq: 1185625
  stamp: 
    secs: 1561865325
    nsecs: 868293476
  frame_id: "ti_mmwave"
point_id: 12
x: 4.88671875
y: -0.30859375
z: 0.71875
range: 5.27281332016
velocity: 0.0
doppler_bin: 8
bearing: -3.61340069771
intensity: 30.788192749
---
header: 
  seq: 1185626
  stamp: 
    secs: 1561865325
    nsecs: 868309975
  frame_id: "ti_mmwave"
point_id: 13
x: 4.951171875
y: -0.623046875
z: 0.0
range: 5.31639051437
velocity: 0.0
doppler_bin: 8
bearing: -7.17230129242
intensity: 29.31457901
---
header: 
  seq: 1185627
  stamp: 
    secs: 1561865325
    nsecs: 868323431
  frame_id: "ti_mmwave"
point_id: 14
x: 0.009765625
y: 0.03125
z: 0.025390625
range: 0.0435769706964
velocity: 0.0
doppler_bin: 8
bearing: 72.6459732056
intensity: 29.3043956757
---
header: 
  seq: 1185628
  stamp: 
    secs: 1561865325
    nsecs: 868391740
  frame_id: "ti_mmwave"
point_id: 15
x: 0.041015625
y: -0.033203125
z: 0.0625
range: 0.0871539413929
velocity: 0.0
doppler_bin: 8
bearing: -38.9909973145
intensity: 30.0902576447
---
header: 
  seq: 1185629
  stamp: 
    secs: 1561865325
    nsecs: 868409754
  frame_id: "ti_mmwave"
point_id: 16
x: 0.044921875
y: -0.046875
z: 0.103515625
range: 0.130730912089
velocity: 0.0
doppler_bin: 8
bearing: -46.218875885
intensity: 28.9762706757
---
header: 
  seq: 1185630
  stamp: 
    secs: 1561865325
    nsecs: 868428004
  frame_id: "ti_mmwave"
point_id: 18
x: 1.083984375
y: 0.46484375
z: 0.65625
range: 1.43804001808
velocity: 0.0
doppler_bin: 8
bearing: 23.2110481262
intensity: 20.0432128906
---
header: 
  seq: 1185631
  stamp: 
    secs: 1561865325
    nsecs: 868443012
  frame_id: "ti_mmwave"
point_id: 19
x: 2.7734375
y: -0.0
z: 0.861328125
range: 3.09396481514
velocity: 0.0
doppler_bin: 8
bearing: -0.0
intensity: 31.1360912323
---
header: 
  seq: 1185632
  stamp: 
    secs: 1561865325
    nsecs: 869441674
  frame_id: "ti_mmwave"
point_id: 0
x: 0.01171875
y: -0.0390625
z: -0.0078125
range: 0.0435769706964
velocity: 0.0
doppler_bin: 8
bearing: -73.3007583618
intensity: 30.6520614624
---
header: 
  seq: 1185633
  stamp: 
    secs: 1561865325
    nsecs: 869507471
  frame_id: "ti_mmwave"
point_id: 1
x: 0.017578125
y: -0.080078125
z: -0.0078125
range: 0.0871539413929
velocity: 0.0
doppler_bin: 8
bearing: -77.6192398071
intensity: 31.9033164978
---
header: 
  seq: 1185634
  stamp: 
    secs: 1561865325
    nsecs: 869524888
  frame_id: "ti_mmwave"
point_id: 2
x: 0.029296875
y: -0.119140625
z: -0.005859375
range: 0.130730912089
velocity: 0.0
doppler_bin: 8
bearing: -76.1849746704
intensity: 30.1452045441
---
header: 
  seq: 1185635
  stamp: 
    secs: 1561865325
    nsecs: 869539797
  frame_id: "ti_mmwave"
point_id: 3
x: 0.056640625
y: -0.154296875
z: 0.005859375
range: 0.174307882786
velocity: 0.0
doppler_bin: 8
bearing: -69.8423843384
intensity: 25.4406795502
---
header: 
  seq: 1185636
  stamp: 
    secs: 1561865325
    nsecs: 869552721
  frame_id: "ti_mmwave"
point_id: 4
x: 0.685546875
y: -0.119140625
z: 1.060546875
range: 1.35088610649
velocity: 0.0
doppler_bin: 8
bearing: -9.85891819
intensity: 24.2160396576
---
header: 
  seq: 1185637
  stamp: 
    secs: 1561865325
    nsecs: 869596964
  frame_id: "ti_mmwave"
point_id: 5
x: 0.876953125
y: -0.08203125
z: -0.96875
range: 1.39446306229
velocity: 0.0
doppler_bin: 8
bearing: -5.34396600723
intensity: 27.2427577972
---
header: 
  seq: 1185638
  stamp: 
    secs: 1561865325
    nsecs: 869622176
  frame_id: "ti_mmwave"
point_id: 6
x: 1.236328125
y: -0.04296875
z: -0.54296875
range: 1.43804001808
velocity: 0.0
doppler_bin: 8
bearing: -1.99052119255
intensity: 26.9635639191
---
header: 
  seq: 1185639
  stamp: 
    secs: 1561865325
    nsecs: 869647661
  frame_id: "ti_mmwave"
point_id: 7
x: 1.2265625
y: -0.04296875
z: -0.654296875
range: 1.48161697388
velocity: 0.0
doppler_bin: 8
bearing: -2.00635647774
intensity: 25.1054496765
---
header: 
  seq: 1185640
  stamp: 
    secs: 1561865325
    nsecs: 869741542
  frame_id: "ti_mmwave"
point_id: 8
x: 1.263671875
y: -0.0
z: -0.671875
range: 1.52519392967
velocity: 0.0
doppler_bin: 8
bearing: -0.0
intensity: 24.393327713
---
header: 
  seq: 1185641
  stamp: 
    secs: 1561865325
    nsecs: 869758661
  frame_id: "ti_mmwave"
point_id: 9
x: 1.41796875
y: -0.046875
z: -0.3984375
range: 1.56877088547
velocity: 0.0
doppler_bin: 8
bearing: -1.89338588715
intensity: 24.3136367798
---
header: 
  seq: 1185642
  stamp: 
    secs: 1561865325
    nsecs: 869771525
  frame_id: "ti_mmwave"
point_id: 10
x: 2.615234375
y: -0.17578125
z: 1.048828125
range: 3.00681090355
velocity: 0.0
doppler_bin: 8
bearing: -3.84531402588
intensity: 28.9817657471
---
header: 
  seq: 1185643
  stamp: 
    secs: 1561865325
    nsecs: 869784833
  frame_id: "ti_mmwave"
point_id: 11
x: 2.689453125
y: -0.08984375
z: 0.9765625
range: 3.05038785934
velocity: 0.0
doppler_bin: 8
bearing: -1.91330885887
intensity: 32.1879806519
---
header: 
  seq: 1185644
  stamp: 
    secs: 1561865325
    nsecs: 869795691
  frame_id: "ti_mmwave"
point_id: 12
x: 2.728515625
y: -0.181640625
z: 0.9765625
range: 3.09396481514
velocity: 0.0
doppler_bin: 8
bearing: -3.80863046646
intensity: 31.1394329071
---
header: 
  seq: 1185645
  stamp: 
    secs: 1561865325
    nsecs: 869806941
  frame_id: "ti_mmwave"
point_id: 13
x: 4.412109375
y: -0.142578125
z: 1.2265625
range: 4.88062095642
velocity: 0.0
doppler_bin: 8
bearing: -1.85087943077
intensity: 31.235250473
---
header: 
  seq: 1185646
  stamp: 
    secs: 1561865325
    nsecs: 869820760
  frame_id: "ti_mmwave"
point_id: 14
x: 4.4375
y: -0.14453125
z: 1.283203125
range: 4.9241976738
velocity: 0.0
doppler_bin: 8
bearing: -1.86548817158
intensity: 30.7371826172
---
header: 
  seq: 1185647
  stamp: 
    secs: 1561865325
    nsecs: 869828566
  frame_id: "ti_mmwave"
point_id: 15
x: 4.880859375
y: -0.30859375
z: 0.7578125
range: 5.27281332016
velocity: 0.0
doppler_bin: 8
bearing: -3.61772704124
intensity: 30.9864368439
---
header: 
  seq: 1185648
  stamp: 
    secs: 1561865325
    nsecs: 869854691
  frame_id: "ti_mmwave"
point_id: 16
x: 4.951171875
y: -0.623046875
z: 0.099609375
range: 5.31639051437
velocity: 0.0
doppler_bin: 8
bearing: -7.17230129242
intensity: 29.5472488403
---
header: 
  seq: 1185649
  stamp: 
    secs: 1561865325
    nsecs: 869933488
  frame_id: "ti_mmwave"
point_id: 17
x: 0.009765625
y: 0.03125
z: 0.025390625
range: 0.0435769706964
velocity: 0.0
doppler_bin: 8
bearing: 72.6459732056
intensity: 29.3043956757
---
header: 
  seq: 1185650
  stamp: 
    secs: 1561865325
    nsecs: 869951566
  frame_id: "ti_mmwave"
point_id: 18
x: 0.041015625
y: -0.033203125
z: 0.0625
range: 0.0871539413929
velocity: 0.0
doppler_bin: 8
bearing: -38.9909973145
intensity: 30.0902576447
---
header: 
  seq: 1185651
  stamp: 
    secs: 1561865325
    nsecs: 869964971
  frame_id: "ti_mmwave"
point_id: 19
x: 0.044921875
y: -0.046875
z: 0.103515625
range: 0.130730912089
velocity: 0.0
doppler_bin: 8
bearing: -46.218875885
intensity: 28.9762706757
---
header: 
  seq: 1185652
  stamp: 
    secs: 1561865325
    nsecs: 869978534
  frame_id: "ti_mmwave"
point_id: 21
x: 2.771484375
y: -0.0
z: 0.869140625
range: 3.09396481514
velocity: 0.0
doppler_bin: 8
bearing: -0.0
intensity: 31.1327476501
---
header: 
  seq: 1185653
  stamp: 
    secs: 1561865325
    nsecs: 927611780
  frame_id: "ti_mmwave"
point_id: 0
x: 0.01171875
y: -0.0390625
z: -0.0078125
range: 0.0435769706964
velocity: 0.0
doppler_bin: 8
bearing: -73.3007583618
intensity: 30.6557979584
---
header: 
  seq: 1185654
  stamp: 
    secs: 1561865325
    nsecs: 927686815
  frame_id: "ti_mmwave"
point_id: 1
x: 0.017578125
y: -0.080078125
z: -0.0078125
range: 0.0871539413929
velocity: 0.0
doppler_bin: 8
bearing: -77.6192398071
intensity: 31.9033164978
---
header: 
  seq: 1185655
  stamp: 
    secs: 1561865325
    nsecs: 927698434
  frame_id: "ti_mmwave"
point_id: 2
x: 0.029296875
y: -0.119140625
z: -0.005859375
range: 0.130730912089
velocity: 0.0
doppler_bin: 8
bearing: -76.1849746704
intensity: 30.1452045441
---
header: 
  seq: 1185656
  stamp: 
    secs: 1561865325
    nsecs: 927707204
  frame_id: "ti_mmwave"
point_id: 3
x: 0.056640625
y: -0.154296875
z: 0.005859375
range: 0.174307882786
velocity: 0.0
doppler_bin: 8
bearing: -69.8423843384
intensity: 25.4406795502
---
header: 
  seq: 1185657
  stamp: 
    secs: 1561865325
    nsecs: 927715752
  frame_id: "ti_mmwave"
point_id: 4
x: 0.341796875
y: -0.080078125
z: 1.21875
range: 1.35088610649
velocity: 0.0
doppler_bin: 8
bearing: -13.1857614517
intensity: 22.3299617767
---
header: 
  seq: 1185658
  stamp: 
    secs: 1561865325
    nsecs: 927723697
  frame_id: "ti_mmwave"
point_id: 5
x: 0.447265625
y: -0.08203125
z: 1.2265625
range: 1.39446306229
velocity: 0.0
doppler_bin: 8
bearing: -10.3928918839
intensity: 23.1806335449
---
header: 
  seq: 1185659
  stamp: 
    secs: 1561865325
    nsecs: 927735667
  frame_id: "ti_mmwave"
point_id: 6
x: 0.478515625
y: -0.083984375
z: -1.259765625
range: 1.43804001808
velocity: 0.0
doppler_bin: 8
bearing: -9.95460605621
intensity: 21.3353881836
---
header: 
  seq: 1185660
  stamp: 
    secs: 1561865325
    nsecs: 927743938
  frame_id: "ti_mmwave"
point_id: 7
x: 0.984375
y: -0.04296875
z: -0.982421875
range: 1.48161697388
velocity: 0.0
doppler_bin: 8
bearing: -2.49941968918
intensity: 20.6818580627
---
header: 
  seq: 1185661
  stamp: 
    secs: 1561865325
    nsecs: 927752659
  frame_id: "ti_mmwave"
point_id: 8
x: 1.4921875
y: -0.046875
z: -0.25390625
range: 1.61234796047
velocity: 0.0
doppler_bin: 8
bearing: -1.79927563667
intensity: 26.3042793274
---
header: 
  seq: 1185662
  stamp: 
    secs: 1561865325
    nsecs: 927762565
  frame_id: "ti_mmwave"
point_id: 9
x: 1.53125
y: -0.0
z: -0.267578125
range: 1.65592491627
velocity: 0.0
doppler_bin: 8
bearing: -0.0
intensity: 27.6863803864
---
header: 
  seq: 1185663
  stamp: 
    secs: 1561865325
    nsecs: 927774151
  frame_id: "ti_mmwave"
point_id: 10
x: 1.568359375
y: -0.0
z: -0.291015625
range: 1.69950187206
velocity: 0.0
doppler_bin: 8
bearing: -0.0
intensity: 26.0959434509
---
header: 
  seq: 1185664
  stamp: 
    secs: 1561865325
    nsecs: 927786000
  frame_id: "ti_mmwave"
point_id: 11
x: 2.61328125
y: -0.17578125
z: 1.0546875
range: 3.00681090355
velocity: 0.0
doppler_bin: 8
bearing: -3.84817934036
intensity: 29.0741138458
---
header: 
  seq: 1185665
  stamp: 
    secs: 1561865325
    nsecs: 927796083
  frame_id: "ti_mmwave"
point_id: 12
x: 2.6875
y: -0.08984375
z: 0.986328125
range: 3.05038785934
velocity: 0.0
doppler_bin: 8
bearing: -1.91469812393
intensity: 32.1932258606
---
header: 
  seq: 1185666
  stamp: 
    secs: 1561865325
    nsecs: 927810131
  frame_id: "ti_mmwave"
point_id: 13
x: 2.767578125
y: -0.0
z: 0.87890625
range: 3.09396481514
velocity: 0.0
doppler_bin: 8
bearing: -0.0
intensity: 31.0653076172
---
header: 
  seq: 1185667
  stamp: 
    secs: 1561865325
    nsecs: 927889429
  frame_id: "ti_mmwave"
point_id: 14
x: 4.412109375
y: -0.142578125
z: 1.2265625
range: 4.88062095642
velocity: 0.0
doppler_bin: 8
bearing: -1.85087943077
intensity: 31.235250473
---
header: 
  seq: 1185668
  stamp: 
    secs: 1561865325
    nsecs: 927903871
  frame_id: "ti_mmwave"
point_id: 15
x: 4.43359375
y: -0.14453125
z: 1.298828125
range: 4.9241976738
velocity: 0.0
doppler_bin: 8
bearing: -1.86713063717
intensity: 30.700378418
---
header: 
  seq: 1185669
  stamp: 
    secs: 1561865325
    nsecs: 927915376
  frame_id: "ti_mmwave"
point_id: 16
x: 4.798828125
y: -0.306640625
z: 0.9921875
range: 5.22923660278
velocity: 0.0
doppler_bin: 8
bearing: -3.65617585182
intensity: 29.9563522339
---
header: 
  seq: 1185670
  stamp: 
    secs: 1561865325
    nsecs: 927927309
  frame_id: "ti_mmwave"
point_id: 17
x: 4.880859375
y: -0.30859375
z: 0.763671875
range: 5.27281332016
velocity: 0.0
doppler_bin: 8
bearing: -3.61772704124
intensity: 31.2968997955
---
header: 
  seq: 1185671
  stamp: 
    secs: 1561865325
    nsecs: 927938713
  frame_id: "ti_mmwave"
point_id: 18
x: 4.94921875
y: -0.623046875
z: 0.138671875
range: 5.31639051437
velocity: 0.0
doppler_bin: 8
bearing: -7.17510271072
intensity: 29.9122600555
---
header: 
  seq: 1185672
  stamp: 
    secs: 1561865325
    nsecs: 927987041
  frame_id: "ti_mmwave"
point_id: 19
x: 0.009765625
y: 0.03125
z: 0.025390625
range: 0.0435769706964
velocity: 0.0
doppler_bin: 8
bearing: 72.6459732056
intensity: 29.3043956757
---
header: 
  seq: 1185673
  stamp: 
    secs: 1561865325
    nsecs: 928003280
  frame_id: "ti_mmwave"
point_id: 20
x: 0.041015625
y: -0.033203125
z: 0.0625
range: 0.0871539413929
velocity: 0.0
doppler_bin: 8
bearing: -38.9909973145
intensity: 30.0860023499
---
header: 
  seq: 1185674
  stamp: 
    secs: 1561865325
    nsecs: 928014344
  frame_id: "ti_mmwave"
point_id: 21
x: 0.044921875
y: -0.046875
z: 0.103515625
range: 0.130730912089
velocity: 0.0
doppler_bin: 8
bearing: -46.218875885
intensity: 28.9762706757
---
header: 
  seq: 1185675
  stamp: 
    secs: 1561865325
    nsecs: 928029239
  frame_id: "ti_mmwave"
point_id: 23
x: 1.18359375
y: 0.46484375
z: 0.455078125
range: 1.43804001808
velocity: 0.0
doppler_bin: 8
bearing: 21.4418849945
intensity: 18.4509811401
---
header: 
  seq: 1185676
  stamp: 
    secs: 1561865325
    nsecs: 928042668
  frame_id: "ti_mmwave"
point_id: 25
x: 2.7265625
y: -0.181640625
z: 0.986328125
range: 3.09396481514
velocity: 0.0
doppler_bin: 8
bearing: -3.81135106087
intensity: 31.0653076172
---
header: 
  seq: 1185677
  stamp: 
    secs: 1561865325
    nsecs: 987578328
  frame_id: "ti_mmwave"
point_id: 0
x: 0.01171875
y: -0.0390625
z: -0.0078125
range: 0.0435769706964
velocity: 0.0
doppler_bin: 8
bearing: -73.3007583618
intensity: 30.6445808411
---
header: 
  seq: 1185678
  stamp: 
    secs: 1561865325
    nsecs: 987658386
  frame_id: "ti_mmwave"
point_id: 1
x: 0.017578125
y: -0.080078125
z: -0.0078125
range: 0.0871539413929
velocity: 0.0
doppler_bin: 8
bearing: -77.6192398071
intensity: 31.8977088928
---
header: 
  seq: 1185679
  stamp: 
    secs: 1561865325
    nsecs: 987672232
  frame_id: "ti_mmwave"
point_id: 2
x: 0.029296875
y: -0.119140625
z: -0.005859375
range: 0.130730912089
velocity: 0.0
doppler_bin: 8
bearing: -76.1849746704
intensity: 30.1452045441
---
header: 
  seq: 1185680
  stamp: 
    secs: 1561865325
    nsecs: 987680578
  frame_id: "ti_mmwave"
point_id: 3
x: 0.056640625
y: -0.154296875
z: 0.005859375
range: 0.174307882786
velocity: 0.0
doppler_bin: 8
bearing: -69.8423843384
intensity: 25.4406795502
---
header: 
  seq: 1185681
  stamp: 
    secs: 1561865325
    nsecs: 987688641
  frame_id: "ti_mmwave"
point_id: 4
x: 0.787109375
y: -0.080078125
z: -0.990234375
range: 1.35088610649
velocity: 0.0
doppler_bin: 8
bearing: -5.80911159515
intensity: 24.1830120087
---
header: 
  seq: 1185682
  stamp: 
    secs: 1561865325
    nsecs: 987696782
  frame_id: "ti_mmwave"
point_id: 5
x: 1.177734375
y: -0.041015625
z: -0.572265625
range: 1.39446306229
velocity: 0.0
doppler_bin: 8
bearing: -1.9945691824
intensity: 27.1432971954
---
header: 
  seq: 1185683
  stamp: 
    secs: 1561865325
    nsecs: 987706998
  frame_id: "ti_mmwave"
point_id: 6
x: 1.3125
y: -0.04296875
z: -0.314453125
range: 1.43804001808
velocity: 0.0
doppler_bin: 8
bearing: -1.87508499622
intensity: 28.2216815948
---
header: 
  seq: 1185684
  stamp: 
    secs: 1561865325
    nsecs: 987715283
  frame_id: "ti_mmwave"
point_id: 7
x: 1.361328125
y: -0.04296875
z: -0.28125
range: 1.48161697388
velocity: 0.0
doppler_bin: 8
bearing: -1.80787491798
intensity: 26.4542236328
---
header: 
  seq: 1185685
  stamp: 
    secs: 1561865325
    nsecs: 987723460
  frame_id: "ti_mmwave"
point_id: 8
x: 2.623046875
y: -0.17578125
z: 1.029296875
range: 3.00681090355
velocity: 0.0
doppler_bin: 8
bearing: -3.83389568329
intensity: 29.0308990479
---
header: 
  seq: 1185686
  stamp: 
    secs: 1561865325
    nsecs: 987732619
  frame_id: "ti_mmwave"
point_id: 9
x: 2.69140625
y: -0.08984375
z: 0.974609375
range: 3.05038785934
velocity: 0.0
doppler_bin: 8
bearing: -1.91192126274
intensity: 32.1748390198
---
header: 
  seq: 1185687
  stamp: 
    secs: 1561865325
    nsecs: 987740411
  frame_id: "ti_mmwave"
point_id: 10
x: 2.76953125
y: -0.0
z: 0.87109375
range: 3.09396481514
velocity: 0.0
doppler_bin: 8
bearing: -0.0
intensity: 31.095785141
---
header: 
  seq: 1185688
  stamp: 
    secs: 1561865325
    nsecs: 987748470
  frame_id: "ti_mmwave"
point_id: 11
x: 4.41015625
y: -0.142578125
z: 1.23046875
range: 4.88062095642
velocity: 0.0
doppler_bin: 8
bearing: -1.85169863701
intensity: 31.2155990601
---
header: 
  seq: 1185689
  stamp: 
    secs: 1561865325
    nsecs: 987756678
  frame_id: "ti_mmwave"
point_id: 12
x: 4.439453125
y: -0.14453125
z: 1.283203125
range: 4.9241976738
velocity: 0.0
doppler_bin: 8
bearing: -1.86466813087
intensity: 30.696680069
---
header: 
  seq: 1185690
  stamp: 
    secs: 1561865325
    nsecs: 987764737
  frame_id: "ti_mmwave"
point_id: 13
x: 4.888671875
y: -0.30859375
z: 0.705078125
range: 5.27281332016
velocity: 0.0
doppler_bin: 8
bearing: -3.61196112633
intensity: 31.0174713135
---
header: 
  seq: 1185691
  stamp: 
    secs: 1561865325
    nsecs: 987774133
  frame_id: "ti_mmwave"
point_id: 14
x: 4.951171875
y: -0.623046875
z: 0.080078125
range: 5.31639051437
velocity: 0.0
doppler_bin: 8
bearing: -7.17230129242
intensity: 29.6284275055
---
header: 
  seq: 1185692
  stamp: 
    secs: 1561865325
    nsecs: 987782937
  frame_id: "ti_mmwave"
point_id: 15
x: 0.009765625
y: 0.03125
z: 0.025390625
range: 0.0435769706964
velocity: 0.0
doppler_bin: 8
bearing: 72.6459732056
intensity: 29.3094902039
---
header: 
  seq: 1185693
  stamp: 
    secs: 1561865325
    nsecs: 987792494
  frame_id: "ti_mmwave"
point_id: 16
x: 0.041015625
y: -0.033203125
z: 0.0625
range: 0.0871539413929
velocity: 0.0
doppler_bin: 8
bearing: -38.9909973145
intensity: 30.0860023499
---
header: 
  seq: 1185694
  stamp: 
    secs: 1561865325
    nsecs: 987803062
  frame_id: "ti_mmwave"
point_id: 17
x: 0.044921875
y: -0.046875
z: 0.103515625
range: 0.130730912089
velocity: 0.0
doppler_bin: 8
bearing: -46.218875885
intensity: 28.9707698822
---
header: 
  seq: 1185695
  stamp: 
    secs: 1561865325
    nsecs: 987882749
  frame_id: "ti_mmwave"
point_id: 19
x: 2.728515625
y: -0.181640625
z: 0.978515625
range: 3.09396481514
velocity: 0.0
doppler_bin: 8
bearing: -3.80863046646
intensity: 31.095785141
---
header: 
  seq: 1185696
  stamp: 
    secs: 1561865325
    nsecs: 989012666
  frame_id: "ti_mmwave"
point_id: 0
x: 0.01171875
y: -0.0390625
z: -0.0078125
range: 0.0435769706964
velocity: 0.0
doppler_bin: 8
bearing: -73.3007583618
intensity: 30.6483230591
---
header: 
  seq: 1185697
  stamp: 
    secs: 1561865325
    nsecs: 989071620
  frame_id: "ti_mmwave"
point_id: 1
x: 0.017578125
y: -0.080078125
z: -0.0078125
range: 0.0871539413929
velocity: 0.0
doppler_bin: 8
bearing: -77.6192398071
intensity: 31.8977088928
---
header: 
  seq: 1185698
  stamp: 
    secs: 1561865325
    nsecs: 989085703
  frame_id: "ti_mmwave"
point_id: 2
x: 0.029296875
y: -0.119140625
z: -0.005859375
range: 0.130730912089
velocity: 0.0
doppler_bin: 8
bearing: -76.1849746704
intensity: 30.141002655
---
header: 
  seq: 1185699
  stamp: 
    secs: 1561865325
    nsecs: 989096953
  frame_id: "ti_mmwave"
point_id: 3
x: 0.056640625
y: -0.154296875
z: 0.005859375
range: 0.174307882786
velocity: 0.0
doppler_bin: 8
bearing: -69.8423843384
intensity: 25.4282550812
---
header: 
  seq: 1185700
  stamp: 
    secs: 1561865325
    nsecs: 989105632
  frame_id: "ti_mmwave"
point_id: 4
x: 0.61328125
y: -0.080078125
z: -1.107421875
range: 1.35088610649
velocity: 0.0
doppler_bin: 8
bearing: -7.4392080307
intensity: 23.8201713562
---
header: 
  seq: 1185701
  stamp: 
    secs: 1561865325
    nsecs: 989113797
  frame_id: "ti_mmwave"
point_id: 5
x: 1.17578125
y: -0.041015625
z: -0.57421875
range: 1.39446306229
velocity: 0.0
doppler_bin: 8
bearing: -1.99787986279
intensity: 26.9372692108
---
header: 
  seq: 1185702
  stamp: 
    secs: 1561865325
    nsecs: 989124808
  frame_id: "ti_mmwave"
point_id: 6
x: 2.61328125
y: -0.17578125
z: 1.05078125
range: 3.00681090355
velocity: 0.0
doppler_bin: 8
bearing: -3.84817934036
intensity: 29.020029068
---
header: 
  seq: 1185703
  stamp: 
    secs: 1561865325
    nsecs: 989292464
  frame_id: "ti_mmwave"
point_id: 7
x: 2.689453125
y: -0.08984375
z: 0.98046875
range: 3.05038785934
velocity: 0.0
doppler_bin: 8
bearing: -1.91330885887
intensity: 32.1827278137
---
header: 
  seq: 1185704
  stamp: 
    secs: 1561865325
    nsecs: 989314536
  frame_id: "ti_mmwave"
point_id: 8
x: 2.728515625
y: -0.181640625
z: 0.978515625
range: 3.09396481514
velocity: 0.0
doppler_bin: 8
bearing: -3.80863046646
intensity: 31.1159858704
---
header: 
  seq: 1185705
  stamp: 
    secs: 1561865325
    nsecs: 989346391
  frame_id: "ti_mmwave"
point_id: 9
x: 4.4140625
y: -0.142578125
z: 1.220703125
range: 4.88062095642
velocity: 0.0
doppler_bin: 8
bearing: -1.850061059
intensity: 31.2645606995
---
header: 
  seq: 1185706
  stamp: 
    secs: 1561865325
    nsecs: 989405446
  frame_id: "ti_mmwave"
point_id: 10
x: 4.4453125
y: -0.14453125
z: 1.2578125
range: 4.9241976738
velocity: 0.0
doppler_bin: 8
bearing: -1.86221218109
intensity: 30.7481651306
---
header: 
  seq: 1185707
  stamp: 
    secs: 1561865325
    nsecs: 989424150
  frame_id: "ti_mmwave"
point_id: 11
x: 4.8828125
y: -0.30859375
z: 0.75
range: 5.27281332016
velocity: 0.0
doppler_bin: 8
bearing: -3.61628341675
intensity: 31.1958580017
---
header: 
  seq: 1185708
  stamp: 
    secs: 1561865325
    nsecs: 989436370
  frame_id: "ti_mmwave"
point_id: 12
x: 4.947265625
y: -0.623046875
z: 0.20703125
range: 5.31639051437
velocity: 0.0
doppler_bin: 8
bearing: -7.17790555954
intensity: 29.6848297119
---
header: 
  seq: 1185709
  stamp: 
    secs: 1561865325
    nsecs: 989450132
  frame_id: "ti_mmwave"
point_id: 13
x: 1.34765625
y: -0.04296875
z: -0.056640625
range: 1.43804001808
velocity: 0.614668667316
doppler_bin: 9
bearing: -1.82620322704
intensity: 29.1115760803
---
header: 
  seq: 1185710
  stamp: 
    secs: 1561865325
    nsecs: 989463344
  frame_id: "ti_mmwave"
point_id: 14
x: 1.390625
y: -0.04296875
z: -0.037109375
range: 1.48161697388
velocity: 0.614668667316
doppler_bin: 9
bearing: -1.76981210709
intensity: 28.2151355743
---
header: 
  seq: 1185711
  stamp: 
    secs: 1561865325
    nsecs: 989531166
  frame_id: "ti_mmwave"
point_id: 15
x: 1.427734375
y: -0.044921875
z: -0.10546875
range: 1.52519392967
velocity: 0.614668667316
doppler_bin: 9
bearing: -1.80214560032
intensity: 23.9794006348
---
header: 
  seq: 1185712
  stamp: 
    secs: 1561865325
    nsecs: 989546937
  frame_id: "ti_mmwave"
point_id: 16
x: 0.009765625
y: 0.03125
z: 0.025390625
range: 0.0435769706964
velocity: 0.0
doppler_bin: 8
bearing: 72.6459732056
intensity: 29.3043956757
---
header: 
  seq: 1185713
  stamp: 
    secs: 1561865325
    nsecs: 989562208
  frame_id: "ti_mmwave"
point_id: 17
x: 0.041015625
y: -0.033203125
z: 0.0625
range: 0.0871539413929
velocity: 0.0
doppler_bin: 8
bearing: -38.9909973145
intensity: 30.0860023499
---
header: 
  seq: 1185714
  stamp: 
    secs: 1561865325
    nsecs: 989576036
  frame_id: "ti_mmwave"
point_id: 18
x: 0.044921875
y: -0.046875
z: 0.103515625
range: 0.130730912089
velocity: 0.0
doppler_bin: 8
bearing: -46.218875885
intensity: 28.9762706757
---
header: 
  seq: 1185715
  stamp: 
    secs: 1561865325
    nsecs: 989594547
  frame_id: "ti_mmwave"
point_id: 20
x: 2.771484375
y: -0.0
z: 0.87109375
range: 3.09396481514
velocity: 0.0
doppler_bin: 8
bearing: -0.0
intensity: 31.1126251221
---
header: 
  seq: 1185716
  stamp: 
    secs: 1561865326
    nsecs:  47680713
  frame_id: "ti_mmwave"
point_id: 0
x: 0.01171875
y: -0.0390625
z: -0.0078125
range: 0.0435769706964
velocity: 0.0
doppler_bin: 8
bearing: -73.3007583618
intensity: 30.6445808411
---
header: 
  seq: 1185717
  stamp: 
    secs: 1561865326
    nsecs:  47756438
  frame_id: "ti_mmwave"
point_id: 1
x: 0.017578125
y: -0.080078125
z: -0.0078125
range: 0.0871539413929
velocity: 0.0
doppler_bin: 8
bearing: -77.6192398071
intensity: 31.9005146027
---
header: 
  seq: 1185718
  stamp: 
    secs: 1561865326
    nsecs:  47767818
  frame_id: "ti_mmwave"
point_id: 2
x: 0.029296875
y: -0.119140625
z: -0.005859375
range: 0.130730912089
velocity: 0.0
doppler_bin: 8
bearing: -76.1849746704
intensity: 30.1452045441
---
header: 
  seq: 1185719
  stamp: 
    secs: 1561865326
    nsecs:  47778137
  frame_id: "ti_mmwave"
point_id: 3
x: 0.056640625
y: -0.154296875
z: 0.005859375
range: 0.174307882786
velocity: 0.0
doppler_bin: 8
bearing: -69.8423843384
intensity: 25.4406795502
---
header: 
  seq: 1185720
  stamp: 
    secs: 1561865326
    nsecs:  47787024
  frame_id: "ti_mmwave"
point_id: 4
x: 0.193359375
y: -0.080078125
z: -1.25
range: 1.35088610649
velocity: 0.0
doppler_bin: 8
bearing: -22.496471405
intensity: 23.2633590698
---
header: 
  seq: 1185721
  stamp: 
    secs: 1561865326
    nsecs:  47795308
  frame_id: "ti_mmwave"
point_id: 5
x: 0.888671875
y: -0.08203125
z: -0.958984375
range: 1.39446306229
velocity: 0.0
doppler_bin: 8
bearing: -5.27389621735
intensity: 25.3529415131
---
header: 
  seq: 1185722
  stamp: 
    secs: 1561865326
    nsecs:  47803198
  frame_id: "ti_mmwave"
point_id: 6
x: 2.61328125
y: -0.17578125
z: 1.052734375
range: 3.00681090355
velocity: 0.0
doppler_bin: 8
bearing: -3.84817934036
intensity: 29.0471553802
---
header: 
  seq: 1185723
  stamp: 
    secs: 1561865326
    nsecs:  47816220
  frame_id: "ti_mmwave"
point_id: 7
x: 2.689453125
y: -0.08984375
z: 0.978515625
range: 3.05038785934
velocity: 0.0
doppler_bin: 8
bearing: -1.91330885887
intensity: 32.1616592407
---
header: 
  seq: 1185724
  stamp: 
    secs: 1561865326
    nsecs:  47892845
  frame_id: "ti_mmwave"
point_id: 8
x: 2.732421875
y: -0.181640625
z: 0.96875
range: 3.09396481514
velocity: 0.0
doppler_bin: 8
bearing: -3.80320167542
intensity: 31.0890312195
---
header: 
  seq: 1185725
  stamp: 
    secs: 1561865326
    nsecs:  47902856
  frame_id: "ti_mmwave"
point_id: 9
x: 4.4140625
y: -0.142578125
z: 1.220703125
range: 4.88062095642
velocity: 0.0
doppler_bin: 8
bearing: -1.850061059
intensity: 31.2155990601
---
header: 
  seq: 1185726
  stamp: 
    secs: 1561865326
    nsecs:  47912386
  frame_id: "ti_mmwave"
point_id: 10
x: 4.455078125
y: -0.14453125
z: 1.2265625
range: 4.9241976738
velocity: 0.0
doppler_bin: 8
bearing: -1.85813295841
intensity: 30.8386077881
---
header: 
  seq: 1185727
  stamp: 
    secs: 1561865326
    nsecs:  47919917
  frame_id: "ti_mmwave"
point_id: 11
x: 4.8203125
y: -0.154296875
z: 0.91796875
range: 5.22923660278
velocity: 0.0
doppler_bin: 8
bearing: -1.83339607716
intensity: 30.3901729584
---
header: 
  seq: 1185728
  stamp: 
    secs: 1561865326
    nsecs:  47927476
  frame_id: "ti_mmwave"
point_id: 12
x: 4.884765625
y: -0.30859375
z: 0.734375
range: 5.27281332016
velocity: 0.0
doppler_bin: 8
bearing: -3.6148416996
intensity: 31.6286296844
---
header: 
  seq: 1185729
  stamp: 
    secs: 1561865326
    nsecs:  47935093
  frame_id: "ti_mmwave"
point_id: 13
x: 4.96484375
y: -0.46875
z: 0.197265625
range: 5.31639051437
velocity: 0.0
doppler_bin: 8
bearing: -5.39352655411
intensity: 29.9299507141
---
header: 
  seq: 1185730
  stamp: 
    secs: 1561865326
    nsecs:  48002799
  frame_id: "ti_mmwave"
point_id: 14
x: 1.34765625
y: -0.04296875
z: -0.083984375
range: 1.43804001808
velocity: 0.614668667316
doppler_bin: 9
bearing: -1.82620322704
intensity: 26.4048137665
---
header: 
  seq: 1185731
  stamp: 
    secs: 1561865326
    nsecs:  48017113
  frame_id: "ti_mmwave"
point_id: 15
x: 1.388671875
y: -0.087890625
z: -0.009765625
range: 1.48161697388
velocity: 0.614668667316
doppler_bin: 9
bearing: -3.62148451805
intensity: 25.7978363037
---
header: 
  seq: 1185732
  stamp: 
    secs: 1561865326
    nsecs:  48029089
  frame_id: "ti_mmwave"
point_id: 16
x: 0.009765625
y: 0.03125
z: 0.025390625
range: 0.0435769706964
velocity: 0.0
doppler_bin: 8
bearing: 72.6459732056
intensity: 29.3094902039
---
header: 
  seq: 1185733
  stamp: 
    secs: 1561865326
    nsecs:  48041912
  frame_id: "ti_mmwave"
point_id: 17
x: 0.041015625
y: -0.033203125
z: 0.0625
range: 0.0871539413929
velocity: 0.0
doppler_bin: 8
bearing: -38.9909973145
intensity: 30.0860023499
---
header: 
  seq: 1185734
  stamp: 
    secs: 1561865326
    nsecs:  48053069
  frame_id: "ti_mmwave"
point_id: 18
x: 0.044921875
y: -0.046875
z: 0.103515625
range: 0.130730912089
velocity: 0.0
doppler_bin: 8
bearing: -46.218875885
intensity: 28.9707698822
---
header: 
  seq: 1185735
  stamp: 
    secs: 1561865326
    nsecs:  48066797
  frame_id: "ti_mmwave"
point_id: 20
x: 2.7734375
y: -0.0
z: 0.861328125
range: 3.09396481514
velocity: 0.0
doppler_bin: 8
bearing: -0.0
intensity: 31.0856494904
---
header: 
  seq: 1185736
  stamp: 
    secs: 1561865326
    nsecs:  49277922
  frame_id: "ti_mmwave"
point_id: 0
x: 0.01171875
y: -0.0390625
z: -0.0078125
range: 0.0435769706964
velocity: 0.0
doppler_bin: 8
bearing: -73.3007583618
intensity: 30.6557979584
---
header: 
  seq: 1185737
  stamp: 
    secs: 1561865326
    nsecs:  49326527
  frame_id: "ti_mmwave"
point_id: 1
x: 0.017578125
y: -0.080078125
z: -0.0078125
range: 0.0871539413929
velocity: 0.0
doppler_bin: 8
bearing: -77.6192398071
intensity: 31.9061183929
---
header: 
  seq: 1185738
  stamp: 
    secs: 1561865326
    nsecs:  49337289
  frame_id: "ti_mmwave"
point_id: 2
x: 0.029296875
y: -0.119140625
z: -0.005859375
range: 0.130730912089
velocity: 0.0
doppler_bin: 8
bearing: -76.1849746704
intensity: 30.1494026184
---
header: 
  seq: 1185739
  stamp: 
    secs: 1561865326
    nsecs:  49348674
  frame_id: "ti_mmwave"
point_id: 3
x: 0.056640625
y: -0.154296875
z: 0.005859375
range: 0.174307882786
velocity: 0.0
doppler_bin: 8
bearing: -69.8423843384
intensity: 25.4530715942
---
header: 
  seq: 1185740
  stamp: 
    secs: 1561865326
    nsecs:  49358194
  frame_id: "ti_mmwave"
point_id: 4
x: 0.11328125
y: -0.080078125
z: -1.259765625
range: 1.35088610649
velocity: 0.0
doppler_bin: 8
bearing: -35.2563591003
intensity: 23.1597042084
---
header: 
  seq: 1185741
  stamp: 
    secs: 1561865326
    nsecs:  49366584
  frame_id: "ti_mmwave"
point_id: 5
x: 0.5390625
y: -0.041015625
z: -1.193359375
range: 1.39446306229
velocity: 0.0
doppler_bin: 8
bearing: -4.35107755661
intensity: 23.5024795532
---
header: 
  seq: 1185742
  stamp: 
    secs: 1561865326
    nsecs:  49375011
  frame_id: "ti_mmwave"
point_id: 6
x: 1.4921875
y: -0.0
z: -0.255859375
range: 1.61234796047
velocity: 0.0
doppler_bin: 8
bearing: -0.0
intensity: 27.6641292572
---
header: 
  seq: 1185743
  stamp: 
    secs: 1561865326
    nsecs:  49383248
  frame_id: "ti_mmwave"
point_id: 7
x: 1.533203125
y: -0.0
z: -0.259765625
range: 1.65592491627
velocity: 0.0
doppler_bin: 8
bearing: -0.0
intensity: 28.2865982056
---
header: 
  seq: 1185744
  stamp: 
    secs: 1561865326
    nsecs:  49577421
  frame_id: "ti_mmwave"
point_id: 8
x: 2.615234375
y: -0.17578125
z: 1.044921875
range: 3.00681090355
velocity: 0.0
doppler_bin: 8
bearing: -3.84531402588
intensity: 29.0471553802
---
header: 
  seq: 1185745
  stamp: 
    secs: 1561865326
    nsecs:  49608361
  frame_id: "ti_mmwave"
point_id: 9
x: 2.689453125
y: -0.08984375
z: 0.98046875
range: 3.05038785934
velocity: 0.0
doppler_bin: 8
bearing: -1.91330885887
intensity: 32.2063102722
---
header: 
  seq: 1185746
  stamp: 
    secs: 1561865326
    nsecs:  49626698
  frame_id: "ti_mmwave"
point_id: 10
x: 2.7265625
y: -0.181640625
z: 0.982421875
range: 3.09396481514
velocity: 0.0
doppler_bin: 8
bearing: -3.81135106087
intensity: 31.1693973541
---
header: 
  seq: 1185747
  stamp: 
    secs: 1561865326
    nsecs:  49640534
  frame_id: "ti_mmwave"
point_id: 11
x: 4.400390625
y: -0.142578125
z: 1.265625
range: 4.88062095642
velocity: 0.0
doppler_bin: 8
bearing: -1.85580503941
intensity: 30.9377174377
---
header: 
  seq: 1185748
  stamp: 
    secs: 1561865326
    nsecs:  49652301
  frame_id: "ti_mmwave"
point_id: 12
x: 4.43359375
y: -0.14453125
z: 1.296875
range: 4.9241976738
velocity: 0.0
doppler_bin: 8
bearing: -1.86713063717
intensity: 30.4375514984
---
header: 
  seq: 1185749
  stamp: 
    secs: 1561865326
    nsecs:  49660424
  frame_id: "ti_mmwave"
point_id: 13
x: 4.88671875
y: -0.30859375
z: 0.728515625
range: 5.27281332016
velocity: 0.0
doppler_bin: 8
bearing: -3.61340069771
intensity: 31.0140342712
---
header: 
  seq: 1185750
  stamp: 
    secs: 1561865326
    nsecs:  49683720
  frame_id: "ti_mmwave"
point_id: 14
x: 4.94921875
y: -0.623046875
z: 0.130859375
range: 5.31639051437
velocity: 0.0
doppler_bin: 8
bearing: -7.17510271072
intensity: 30.0
---
header: 
  seq: 1185751
  stamp: 
    secs: 1561865326
    nsecs:  49705072
  frame_id: "ti_mmwave"
point_id: 15
x: 1.333984375
y: -0.083984375
z: 0.189453125
range: 1.43804001808
velocity: 0.614668667316
doppler_bin: 9
bearing: -3.60244655609
intensity: 25.0785579681
---
header: 
  seq: 1185752
  stamp: 
    secs: 1561865326
    nsecs:  49727136
  frame_id: "ti_mmwave"
point_id: 16
x: 1.37890625
y: -0.087890625
z: 0.158203125
range: 1.48161697388
velocity: 0.614668667316
doppler_bin: 9
bearing: -3.64706349373
intensity: 28.2151355743
---
header: 
  seq: 1185753
  stamp: 
    secs: 1561865326
    nsecs:  49807476
  frame_id: "ti_mmwave"
point_id: 17
x: 1.41796875
y: -0.08984375
z: 0.17578125
range: 1.52519392967
velocity: 0.614668667316
doppler_bin: 9
bearing: -3.62546491623
intensity: 27.2997436523
---
header: 
  seq: 1185754
  stamp: 
    secs: 1561865326
    nsecs:  49823852
  frame_id: "ti_mmwave"
point_id: 18
x: 0.009765625
y: 0.03125
z: 0.025390625
range: 0.0435769706964
velocity: 0.0
doppler_bin: 8
bearing: 72.6459732056
intensity: 29.3043956757
---
header: 
  seq: 1185755
  stamp: 
    secs: 1561865326
    nsecs:  49839500
  frame_id: "ti_mmwave"
point_id: 19
x: 0.041015625
y: -0.033203125
z: 0.0625
range: 0.0871539413929
velocity: 0.0
doppler_bin: 8
bearing: -38.9909973145
intensity: 30.0945091248
---
header: 
  seq: 1185756
  stamp: 
    secs: 1561865326
    nsecs:  49854297
  frame_id: "ti_mmwave"
point_id: 20
x: 0.046875
y: -0.046875
z: 0.103515625
range: 0.130730912089
velocity: 0.0
doppler_bin: 8
bearing: -45.0
intensity: 28.9817657471
---
header: 
  seq: 1185757
  stamp: 
    secs: 1561865326
    nsecs:  49870221
  frame_id: "ti_mmwave"
point_id: 22
x: 2.76953125
y: -0.0
z: 0.876953125
range: 3.09396481514
velocity: 0.0
doppler_bin: 8
bearing: -0.0
intensity: 31.1594314575
---
header: 
  seq: 1185758
  stamp: 
