header: 
  seq: 1198829
  stamp: 
    secs: 1561865347
    nsecs: 467632955
  frame_id: "ti_mmwave"
point_id: 0
x: 0.01171875
y: -0.0390625
z: -0.0078125
range: 0.0435769706964
velocity: 0.0
doppler_bin: 8
bearing: -73.3007583618
intensity: 30.6483230591
---
header: 
  seq: 1198830
  stamp: 
    secs: 1561865347
    nsecs: 467707605
  frame_id: "ti_mmwave"
point_id: 1
x: 0.017578125
y: -0.080078125
z: -0.0078125
range: 0.0871539413929
velocity: 0.0
doppler_bin: 8
bearing: -77.6192398071
intensity: 31.9005146027
---
header: 
  seq: 1198831
  stamp: 
    secs: 1561865347
    nsecs: 467720968
  frame_id: "ti_mmwave"
point_id: 2
x: 0.029296875
y: -0.119140625
z: -0.005859375
range: 0.130730912089
velocity: 0.0
doppler_bin: 8
bearing: -76.1849746704
intensity: 30.1452045441
---
header: 
  seq: 1198832
  stamp: 
    secs: 1561865347
    nsecs: 467729860
  frame_id: "ti_mmwave"
point_id: 3
x: 0.056640625
y: -0.154296875
z: 0.005859375
range: 0.174307882786
velocity: 0.0
doppler_bin: 8
bearing: -69.8423843384
intensity: 25.4406795502
---
header: 
  seq: 1198833
  stamp: 
    secs: 1561865347
    nsecs: 467738538
  frame_id: "ti_mmwave"
point_id: 4
x: 0.701171875
y: -0.0390625
z: -1.056640625
range: 1.35088610649
velocity: 0.0
doppler_bin: 8
bearing: -3.18866944313
intensity: 23.6172790527
---
header: 
  seq: 1198834
  stamp: 
    secs: 1561865347
    nsecs: 467749730
  frame_id: "ti_mmwave"
point_id: 5
x: 0.609375
y: -0.041015625
z: -1.158203125
range: 1.39446306229
velocity: 0.0
doppler_bin: 8
bearing: -3.85063910484
intensity: 24.1497325897
---
header: 
  seq: 1198835
  stamp: 
    secs: 1561865347
    nsecs: 467758855
  frame_id: "ti_mmwave"
point_id: 6
x: 0.521484375
y: -0.083984375
z: 1.2421875
range: 1.43804001808
velocity: 0.0
doppler_bin: 8
bearing: -9.148853302
intensity: 21.8184356689
---
header: 
  seq: 1198836
  stamp: 
    secs: 1561865347
    nsecs: 467769788
  frame_id: "ti_mmwave"
point_id: 7
x: 0.826171875
y: -0.04296875
z: -1.1171875
range: 1.48161697388
velocity: 0.0
doppler_bin: 8
bearing: -2.97723984718
intensity: 22.8780174255
---
header: 
  seq: 1198837
  stamp: 
    secs: 1561865347
    nsecs: 467778556
  frame_id: "ti_mmwave"
point_id: 8
x: 1.185546875
y: 0.044921875
z: -0.80078125
range: 1.52519392967
velocity: 0.0
doppler_bin: 8
bearing: 2.16997170448
intensity: 23.7839794159
---
header: 
  seq: 1198838
  stamp: 
    secs: 1561865347
    nsecs: 467788126
  frame_id: "ti_mmwave"
point_id: 9
x: 2.62109375
y: -0.17578125
z: 1.03125
range: 3.00681090355
velocity: 0.0
doppler_bin: 8
bearing: -3.83674383163
intensity: 29.0145835876
---
header: 
  seq: 1198839
  stamp: 
    secs: 1561865347
    nsecs: 467796210
  frame_id: "ti_mmwave"
point_id: 10
x: 2.69140625
y: -0.08984375
z: 0.9765625
range: 3.05038785934
velocity: 0.0
doppler_bin: 8
bearing: -1.91192126274
intensity: 32.1879806519
---
header: 
  seq: 1198840
  stamp: 
    secs: 1561865347
    nsecs: 467878131
  frame_id: "ti_mmwave"
point_id: 11
x: 2.751953125
y: -0.08984375
z: 0.923828125
range: 3.09396481514
velocity: 0.0
doppler_bin: 8
bearing: -1.86988639832
intensity: 31.1494445801
---
header: 
  seq: 1198841
  stamp: 
    secs: 1561865347
    nsecs: 467889027
  frame_id: "ti_mmwave"
point_id: 12
x: 4.41796875
y: -0.142578125
z: 1.203125
range: 4.88062095642
velocity: 0.0
doppler_bin: 8
bearing: -1.84842634201
intensity: 31.332195282
---
header: 
  seq: 1198842
  stamp: 
    secs: 1561865347
    nsecs: 467899056
  frame_id: "ti_mmwave"
point_id: 13
x: 4.4609375
y: -0.14453125
z: 1.205078125
range: 4.9241976738
velocity: 0.0
doppler_bin: 8
bearing: -1.85569405556
intensity: 31.1627559662
---
header: 
  seq: 1198843
  stamp: 
    secs: 1561865347
    nsecs: 467907404
  frame_id: "ti_mmwave"
point_id: 14
x: 4.705078125
y: -0.296875
z: -0.54296875
range: 5.0549287796
velocity: 0.0
doppler_bin: 8
bearing: -3.61038923264
intensity: 30.1283721924
---
header: 
  seq: 1198844
  stamp: 
    secs: 1561865347
    nsecs: 467915039
  frame_id: "ti_mmwave"
point_id: 15
x: 4.73828125
y: -0.298828125
z: -0.599609375
range: 5.09850549698
velocity: 0.0
doppler_bin: 8
bearing: -3.60868048668
intensity: 34.5712471008
---
header: 
  seq: 1198845
  stamp: 
    secs: 1561865347
    nsecs: 467923818
  frame_id: "ti_mmwave"
point_id: 16
x: 4.77734375
y: -0.30078125
z: -0.62890625
range: 5.14208269119
velocity: 0.0
doppler_bin: 8
bearing: -3.60258316994
intensity: 35.1732788086
---
header: 
  seq: 1198846
  stamp: 
    secs: 1561865347
    nsecs: 467931230
  frame_id: "ti_mmwave"
point_id: 17
x: 4.78125
y: -0.3046875
z: -0.865234375
range: 5.18565940857
velocity: 0.0
doppler_bin: 8
bearing: -3.64627122879
intensity: 31.7260284424
---
header: 
  seq: 1198847
  stamp: 
    secs: 1561865347
    nsecs: 467938563
  frame_id: "ti_mmwave"
point_id: 18
x: 4.8828125
y: -0.30859375
z: 0.74609375
range: 5.27281332016
velocity: 0.0
doppler_bin: 8
bearing: -3.61628341675
intensity: 30.9447116852
---
header: 
  seq: 1198848
  stamp: 
    secs: 1561865347
    nsecs: 467984151
  frame_id: "ti_mmwave"
point_id: 19
x: 4.951171875
y: -0.623046875
z: 0.091796875
range: 5.31639051437
velocity: 0.0
doppler_bin: 8
bearing: -7.17230129242
intensity: 29.5712814331
---
header: 
  seq: 1198849
  stamp: 
    secs: 1561865347
    nsecs: 467995014
  frame_id: "ti_mmwave"
point_id: 20
x: 0.009765625
y: 0.03125
z: 0.025390625
range: 0.0435769706964
velocity: 0.0
doppler_bin: 8
bearing: 72.6459732056
intensity: 29.3094902039
---
header: 
  seq: 1198850
  stamp: 
    secs: 1561865347
    nsecs: 468004485
  frame_id: "ti_mmwave"
point_id: 21
x: 0.041015625
y: -0.033203125
z: 0.0625
range: 0.0871539413929
velocity: 0.0
doppler_bin: 8
bearing: -38.9909973145
intensity: 30.0860023499
---
header: 
  seq: 1198851
  stamp: 
    secs: 1561865347
    nsecs: 468012362
  frame_id: "ti_mmwave"
point_id: 22
x: 0.044921875
y: -0.046875
z: 0.103515625
range: 0.130730912089
velocity: 0.0
doppler_bin: 8
bearing: -46.218875885
intensity: 28.9762706757
---
header: 
  seq: 1198852
  stamp: 
    secs: 1561865347
    nsecs: 469201866
  frame_id: "ti_mmwave"
point_id: 0
x: 0.01171875
y: -0.0390625
z: -0.0078125
range: 0.0435769706964
velocity: 0.0
doppler_bin: 8
bearing: -73.3007583618
intensity: 30.6408348083
---
header: 
  seq: 1198853
  stamp: 
    secs: 1561865347
    nsecs: 469252956
  frame_id: "ti_mmwave"
point_id: 1
x: 0.017578125
y: -0.080078125
z: -0.0078125
range: 0.0871539413929
velocity: 0.0
doppler_bin: 8
bearing: -77.6192398071
intensity: 31.9005146027
---
header: 
  seq: 1198854
  stamp: 
    secs: 1561865347
    nsecs: 469268159
  frame_id: "ti_mmwave"
point_id: 2
x: 0.029296875
y: -0.119140625
z: -0.005859375
range: 0.130730912089
velocity: 0.0
doppler_bin: 8
bearing: -76.1849746704
intensity: 30.1452045441
---
header: 
  seq: 1198855
  stamp: 
    secs: 1561865347
    nsecs: 469283610
  frame_id: "ti_mmwave"
point_id: 3
x: 0.056640625
y: -0.154296875
z: 0.005859375
range: 0.174307882786
velocity: 0.0
doppler_bin: 8
bearing: -69.8423843384
intensity: 25.4530715942
---
header: 
  seq: 1198856
  stamp: 
    secs: 1561865347
    nsecs: 469335859
  frame_id: "ti_mmwave"
point_id: 4
x: 1.07421875
y: -0.0390625
z: -0.673828125
range: 1.35088610649
velocity: 0.0
doppler_bin: 8
bearing: -2.08256530762
intensity: 25.6937389374
---
header: 
  seq: 1198857
  stamp: 
    secs: 1561865347
    nsecs: 469350919
  frame_id: "ti_mmwave"
point_id: 5
x: 1.138671875
y: -0.0
z: -0.646484375
range: 1.39446306229
velocity: 0.0
doppler_bin: 8
bearing: -0.0
intensity: 26.4345264435
---
header: 
  seq: 1198858
  stamp: 
    secs: 1561865347
    nsecs: 469366472
  frame_id: "ti_mmwave"
point_id: 6
x: 1.240234375
y: 0.083984375
z: -0.525390625
range: 1.43804001808
velocity: 0.0
doppler_bin: 8
bearing: 3.87395787239
intensity: 22.9885311127
---
header: 
  seq: 1198859
  stamp: 
    secs: 1561865347
    nsecs: 469378847
  frame_id: "ti_mmwave"
point_id: 7
x: 2.609375
y: -0.17578125
z: 1.0625
range: 3.00681090355
velocity: 0.0
doppler_bin: 8
bearing: -3.85392260551
intensity: 29.0145835876
---
header: 
  seq: 1198860
  stamp: 
    secs: 1561865347
    nsecs: 469391265
  frame_id: "ti_mmwave"
point_id: 8
x: 2.685546875
y: -0.08984375
z: 0.9921875
range: 3.05038785934
velocity: 0.0
doppler_bin: 8
bearing: -1.91608965397
intensity: 32.1984634399
---
header: 
  seq: 1198861
  stamp: 
    secs: 1561865347
    nsecs: 469414757
  frame_id: "ti_mmwave"
point_id: 9
x: 2.748046875
y: -0.08984375
z: 0.935546875
range: 3.09396481514
velocity: 0.0
doppler_bin: 8
bearing: -1.8725425005
intensity: 31.1826477051
---
header: 
  seq: 1198862
  stamp: 
    secs: 1561865347
    nsecs: 469435205
  frame_id: "ti_mmwave"
point_id: 10
x: 4.412109375
y: -0.142578125
z: 1.228515625
range: 4.88062095642
velocity: 0.0
doppler_bin: 8
bearing: -1.85087943077
intensity: 31.2710475922
---
header: 
  seq: 1198863
  stamp: 
    secs: 1561865347
    nsecs: 469453075
  frame_id: "ti_mmwave"
point_id: 11
x: 4.423828125
y: -0.14453125
z: 1.3359375
range: 4.9241976738
velocity: 0.0
doppler_bin: 8
bearing: -1.87124967575
intensity: 30.7481651306
---
header: 
  seq: 1198864
  stamp: 
    secs: 1561865347
    nsecs: 469515372
  frame_id: "ti_mmwave"
point_id: 12
x: 4.740234375
y: -0.298828125
z: -0.58984375
range: 5.09850549698
velocity: 0.0
doppler_bin: 8
bearing: -3.60719799995
intensity: 32.0276069641
---
header: 
  seq: 1198865
  stamp: 
    secs: 1561865347
    nsecs: 469534105
  frame_id: "ti_mmwave"
point_id: 13
x: 4.77734375
y: -0.150390625
z: -0.677734375
range: 5.14208269119
velocity: 0.0
doppler_bin: 8
bearing: -1.80307364464
intensity: 32.4821853638
---
header: 
  seq: 1198866
  stamp: 
    secs: 1561865347
    nsecs: 469547485
  frame_id: "ti_mmwave"
point_id: 14
x: 4.890625
y: -0.30859375
z: 0.701171875
range: 5.27281332016
velocity: 0.0
doppler_bin: 8
bearing: -3.61052203178
intensity: 31.0243377686
---
header: 
  seq: 1198867
  stamp: 
    secs: 1561865347
    nsecs: 469559215
  frame_id: "ti_mmwave"
point_id: 15
x: 4.951171875
y: -0.623046875
z: 0.033203125
range: 5.31639051437
velocity: 0.0
doppler_bin: 8
bearing: -7.17230129242
intensity: 29.7358970642
---
header: 
  seq: 1198868
  stamp: 
    secs: 1561865347
    nsecs: 469571502
  frame_id: "ti_mmwave"
point_id: 16
x: 0.009765625
y: 0.03125
z: 0.025390625
range: 0.0435769706964
velocity: 0.0
doppler_bin: 8
bearing: 72.6459732056
intensity: 29.3043956757
---
header: 
  seq: 1198869
  stamp: 
    secs: 1561865347
    nsecs: 469583730
  frame_id: "ti_mmwave"
point_id: 17
x: 0.041015625
y: -0.033203125
z: 0.0625
range: 0.0871539413929
velocity: 0.0
doppler_bin: 8
bearing: -38.9909973145
intensity: 30.0860023499
---
header: 
  seq: 1198870
  stamp: 
    secs: 1561865347
    nsecs: 469597173
  frame_id: "ti_mmwave"
point_id: 18
x: 0.044921875
y: -0.046875
z: 0.103515625
range: 0.130730912089
velocity: 0.0
doppler_bin: 8
bearing: -46.218875885
intensity: 28.9762706757
---
header: 
  seq: 1198871
  stamp: 
    secs: 1561865347
    nsecs: 469610965
  frame_id: "ti_mmwave"
point_id: 20
x: 0.978515625
y: -0.46484375
z: 0.806640625
range: 1.43804001808
velocity: 0.0
doppler_bin: 8
bearing: -25.4100513458
intensity: 20.7554702759
---
header: 
  seq: 1198872
  stamp: 
    secs: 1561865347
    nsecs: 527470544
  frame_id: "ti_mmwave"
point_id: 0
x: 0.01171875
y: -0.0390625
z: -0.0078125
range: 0.0435769706964
velocity: 0.0
doppler_bin: 8
bearing: -73.3007583618
intensity: 30.6370849609
---
header: 
  seq: 1198873
  stamp: 
    secs: 1561865347
    nsecs: 527537265
  frame_id: "ti_mmwave"
point_id: 1
x: 0.017578125
y: -0.080078125
z: -0.0078125
range: 0.0871539413929
velocity: 0.0
doppler_bin: 8
bearing: -77.6192398071
intensity: 31.8977088928
---
header: 
  seq: 1198874
  stamp: 
    secs: 1561865347
    nsecs: 527555387
  frame_id: "ti_mmwave"
point_id: 2
x: 0.029296875
y: -0.119140625
z: -0.005859375
range: 0.130730912089
velocity: 0.0
doppler_bin: 8
bearing: -76.1849746704
intensity: 30.141002655
---
header: 
  seq: 1198875
  stamp: 
    secs: 1561865347
    nsecs: 527568721
  frame_id: "ti_mmwave"
point_id: 3
x: 0.056640625
y: -0.154296875
z: 0.005859375
range: 0.174307882786
velocity: 0.0
doppler_bin: 8
bearing: -69.8423843384
intensity: 25.4406795502
---
header: 
  seq: 1198876
  stamp: 
    secs: 1561865347
    nsecs: 527658679
  frame_id: "ti_mmwave"
point_id: 4
x: 1.26171875
y: -0.080078125
z: 0.09765625
range: 1.35088610649
velocity: 0.0
doppler_bin: 8
bearing: -3.63154888153
intensity: 27.2916469574
---
header: 
  seq: 1198877
  stamp: 
    secs: 1561865347
    nsecs: 527673365
  frame_id: "ti_mmwave"
point_id: 5
x: 1.3046875
y: -0.041015625
z: -0.103515625
range: 1.39446306229
velocity: 0.0
doppler_bin: 8
bearing: -1.80062162876
intensity: 29.1907806396
---
header: 
  seq: 1198878
  stamp: 
    secs: 1561865347
    nsecs: 527686403
  frame_id: "ti_mmwave"
point_id: 6
x: 1.28515625
y: -0.04296875
z: -0.412109375
range: 1.43804001808
velocity: 0.0
doppler_bin: 8
bearing: -1.91495108604
intensity: 27.4973640442
---
header: 
  seq: 1198879
  stamp: 
    secs: 1561865347
    nsecs: 527697740
  frame_id: "ti_mmwave"
point_id: 7
x: 0.8984375
y: -0.04296875
z: -1.060546875
range: 1.48161697388
velocity: 0.0
doppler_bin: 8
bearing: -2.7381465435
intensity: 21.4612808228
---
header: 
  seq: 1198880
  stamp: 
    secs: 1561865347
    nsecs: 527709879
  frame_id: "ti_mmwave"
point_id: 8
x: 2.619140625
y: -0.17578125
z: 1.0390625
range: 3.00681090355
velocity: 0.0
doppler_bin: 8
bearing: -3.83959650993
intensity: 29.020029068
---
header: 
  seq: 1198881
  stamp: 
    secs: 1561865347
    nsecs: 527721554
  frame_id: "ti_mmwave"
point_id: 9
x: 2.69140625
y: -0.08984375
z: 0.97265625
range: 3.05038785934
velocity: 0.0
doppler_bin: 8
bearing: -1.91192126274
intensity: 32.1853561401
---
header: 
  seq: 1198882
  stamp: 
    secs: 1561865347
    nsecs: 527735486
  frame_id: "ti_mmwave"
point_id: 10
x: 2.73046875
y: -0.181640625
z: 0.974609375
range: 3.09396481514
velocity: 0.0
doppler_bin: 8
bearing: -3.80591416359
intensity: 31.1594314575
---
header: 
  seq: 1198883
  stamp: 
    secs: 1561865347
    nsecs: 527758287
  frame_id: "ti_mmwave"
point_id: 11
x: 4.412109375
y: -0.142578125
z: 1.228515625
range: 4.88062095642
velocity: 0.0
doppler_bin: 8
bearing: -1.85087943077
intensity: 31.2483005524
---
header: 
  seq: 1198884
  stamp: 
    secs: 1561865347
    nsecs: 527776622
  frame_id: "ti_mmwave"
point_id: 12
x: 4.44921875
y: -0.14453125
z: 1.244140625
range: 4.9241976738
velocity: 0.0
doppler_bin: 8
bearing: -1.86057829857
intensity: 30.7188205719
---
header: 
  seq: 1198885
  stamp: 
    secs: 1561865347
    nsecs: 527838289
  frame_id: "ti_mmwave"
point_id: 13
x: 4.884765625
y: -0.30859375
z: 0.732421875
range: 5.27281332016
velocity: 0.0
doppler_bin: 8
bearing: -3.6148416996
intensity: 31.0002574921
---
header: 
  seq: 1198886
  stamp: 
    secs: 1561865347
    nsecs: 527855622
  frame_id: "ti_mmwave"
point_id: 14
x: 4.951171875
y: -0.623046875
z: 0.078125
range: 5.31639051437
velocity: 0.0
doppler_bin: 8
bearing: -7.17230129242
intensity: 29.7081165314
---
header: 
  seq: 1198887
  stamp: 
    secs: 1561865347
    nsecs: 527867374
  frame_id: "ti_mmwave"
point_id: 15
x: 0.009765625
y: 0.03125
z: 0.025390625
range: 0.0435769706964
velocity: 0.0
doppler_bin: 8
bearing: 72.6459732056
intensity: 29.3043956757
---
header: 
  seq: 1198888
  stamp: 
    secs: 1561865347
    nsecs: 527879455
  frame_id: "ti_mmwave"
point_id: 16
x: 0.041015625
y: -0.033203125
z: 0.0625
range: 0.0871539413929
velocity: 0.0
doppler_bin: 8
bearing: -38.9909973145
intensity: 30.0902576447
---
header: 
  seq: 1198889
  stamp: 
    secs: 1561865347
    nsecs: 527892657
  frame_id: "ti_mmwave"
point_id: 17
x: 0.046875
y: -0.046875
z: 0.103515625
range: 0.130730912089
velocity: 0.0
doppler_bin: 8
bearing: -45.0
intensity: 28.9762706757
---
header: 
  seq: 1198890
  stamp: 
    secs: 1561865347
    nsecs: 527910290
  frame_id: "ti_mmwave"
point_id: 19
x: 1.19921875
y: -0.609375
z: 0.353515625
range: 1.48161697388
velocity: 0.0
doppler_bin: 8
bearing: -26.9370956421
intensity: 18.7506122589
---
header: 
  seq: 1198891
  stamp: 
    secs: 1561865347
    nsecs: 587521662
  frame_id: "ti_mmwave"
point_id: 0
x: 0.01171875
y: -0.0390625
z: -0.0078125
range: 0.0435769706964
velocity: 0.0
doppler_bin: 8
bearing: -73.3007583618
intensity: 30.6483230591
---
header: 
  seq: 1198892
  stamp: 
    secs: 1561865347
    nsecs: 587590163
  frame_id: "ti_mmwave"
point_id: 1
x: 0.017578125
y: -0.080078125
z: -0.0078125
range: 0.0871539413929
velocity: 0.0
doppler_bin: 8
bearing: -77.6192398071
intensity: 31.9005146027
---
header: 
  seq: 1198893
  stamp: 
    secs: 1561865347
    nsecs: 587606955
  frame_id: "ti_mmwave"
point_id: 2
x: 0.029296875
y: -0.119140625
z: -0.005859375
range: 0.130730912089
velocity: 0.0
doppler_bin: 8
bearing: -76.1849746704
intensity: 30.141002655
---
header: 
  seq: 1198894
  stamp: 
    secs: 1561865347
    nsecs: 587619669
  frame_id: "ti_mmwave"
point_id: 3
x: 0.056640625
y: -0.154296875
z: 0.005859375
range: 0.174307882786
velocity: 0.0
doppler_bin: 8
bearing: -69.8423843384
intensity: 25.4406795502
---
header: 
  seq: 1198895
  stamp: 
    secs: 1561865347
    nsecs: 587638192
  frame_id: "ti_mmwave"
point_id: 4
x: 1.091796875
y: -0.0
z: -0.646484375
range: 1.35088610649
velocity: 0.0
doppler_bin: 8
bearing: -0.0
intensity: 20.5307846069
---
header: 
  seq: 1198896
  stamp: 
    secs: 1561865347
    nsecs: 587655521
  frame_id: "ti_mmwave"
point_id: 5
x: 1.119140625
y: 0.08203125
z: -0.67578125
range: 1.39446306229
velocity: 0.0
doppler_bin: 8
bearing: 4.19219398499
intensity: 20.4921798706
---
header: 
  seq: 1198897
  stamp: 
    secs: 1561865347
    nsecs: 587672814
  frame_id: "ti_mmwave"
point_id: 6
x: 1.107421875
y: -0.37890625
z: 0.673828125
range: 1.43804001808
velocity: 0.0
doppler_bin: 8
bearing: -18.8884677887
intensity: 18.864906311
---
header: 
  seq: 1198898
  stamp: 
    secs: 1561865347
    nsecs: 587749921
  frame_id: "ti_mmwave"
point_id: 7
x: 2.623046875
y: -0.17578125
z: 1.02734375
range: 3.00681090355
velocity: 0.0
doppler_bin: 8
bearing: -3.83389568329
intensity: 29.0579586029
---
header: 
  seq: 1198899
  stamp: 
    secs: 1561865347
    nsecs: 587764483
  frame_id: "ti_mmwave"
point_id: 8
x: 2.69140625
y: -0.08984375
z: 0.974609375
range: 3.05038785934
velocity: 0.0
doppler_bin: 8
bearing: -1.91192126274
intensity: 32.2036972046
---
header: 
  seq: 1198900
  stamp: 
    secs: 1561865347
    nsecs: 587775772
  frame_id: "ti_mmwave"
point_id: 9
x: 2.75390625
y: -0.08984375
z: 0.91796875
range: 3.09396481514
velocity: 0.0
doppler_bin: 8
bearing: -1.86856126785
intensity: 31.1693973541
---
header: 
  seq: 1198901
  stamp: 
    secs: 1561865347
    nsecs: 587786961
  frame_id: "ti_mmwave"
point_id: 10
x: 4.41015625
y: -0.142578125
z: 1.232421875
range: 4.88062095642
velocity: 0.0
doppler_bin: 8
bearing: -1.85169863701
intensity: 31.2872219086
---
header: 
  seq: 1198902
  stamp: 
    secs: 1561865347
    nsecs: 587798283
  frame_id: "ti_mmwave"
point_id: 11
x: 4.419921875
y: -0.14453125
z: 1.34375
range: 4.9241976738
velocity: 0.0
doppler_bin: 8
bearing: -1.87290215492
intensity: 30.6632595062
---
header: 
  seq: 1198903
  stamp: 
    secs: 1561865347
    nsecs: 587809663
  frame_id: "ti_mmwave"
point_id: 12
x: 4.884765625
y: -0.30859375
z: 0.73046875
range: 5.27281332016
velocity: 0.0
doppler_bin: 8
bearing: -3.6148416996
intensity: 30.9201850891
---
header: 
  seq: 1198904
  stamp: 
    secs: 1561865347
    nsecs: 587821479
  frame_id: "ti_mmwave"
point_id: 13
x: 4.951171875
y: -0.623046875
z: 0.041015625
range: 5.31639051437
velocity: 0.0
doppler_bin: 8
bearing: -7.17230129242
intensity: 29.4890174866
---
header: 
  seq: 1198905
  stamp: 
    secs: 1561865347
    nsecs: 587835071
  frame_id: "ti_mmwave"
point_id: 14
x: 0.009765625
y: 0.03125
z: 0.025390625
range: 0.0435769706964
velocity: 0.0
doppler_bin: 8
bearing: 72.6459732056
intensity: 29.3043956757
---
header: 
  seq: 1198906
  stamp: 
    secs: 1561865347
    nsecs: 587849417
  frame_id: "ti_mmwave"
point_id: 15
x: 0.041015625
y: -0.033203125
z: 0.0625
range: 0.0871539413929
velocity: 0.0
doppler_bin: 8
bearing: -38.9909973145
intensity: 30.0860023499
---
header: 
  seq: 1198907
  stamp: 
    secs: 1561865347
    nsecs: 587861580
  frame_id: "ti_mmwave"
point_id: 16
x: 0.044921875
y: -0.046875
z: 0.103515625
range: 0.130730912089
velocity: 0.0
doppler_bin: 8
bearing: -46.218875885
intensity: 28.9762706757
---
header: 
  seq: 1198908
  stamp: 
    secs: 1561865347
    nsecs: 587873379
  frame_id: "ti_mmwave"
point_id: 18
x: 1.037109375
y: -0.474609375
z: 0.552734375
range: 1.35088610649
velocity: 0.0
doppler_bin: 8
bearing: -24.5901165009
intensity: 18.0618000031
---
header: 
  seq: 1198909
  stamp: 
    secs: 1561865347
    nsecs: 587925496
  frame_id: "ti_mmwave"
point_id: 19
x: 1.111328125
y: -0.408203125
z: 0.556640625
range: 1.39446306229
velocity: 0.0
doppler_bin: 8
bearing: -20.1688423157
intensity: 19.8677177429
---
header: 
  seq: 1198910
  stamp: 
    secs: 1561865347
    nsecs: 587940919
  frame_id: "ti_mmwave"
point_id: 20
x: 0.94140625
y: 0.548828125
z: 0.796875
range: 1.43804001808
velocity: 0.0
doppler_bin: 8
bearing: 30.2416534424
intensity: 18.864906311
---
header: 
  seq: 1198911
  stamp: 
    secs: 1561865347
    nsecs: 588891235
  frame_id: "ti_mmwave"
point_id: 0
x: 0.01171875
y: -0.0390625
z: -0.0078125
range: 0.0435769706964
velocity: 0.0
doppler_bin: 8
bearing: -73.3007583618
intensity: 30.6445808411
---
header: 
  seq: 1198912
  stamp: 
    secs: 1561865347
    nsecs: 588966004
  frame_id: "ti_mmwave"
point_id: 1
x: 0.017578125
y: -0.080078125
z: -0.0078125
range: 0.0871539413929
velocity: 0.0
doppler_bin: 8
bearing: -77.6192398071
intensity: 31.8977088928
---
header: 
  seq: 1198913
  stamp: 
    secs: 1561865347
    nsecs: 588983727
  frame_id: "ti_mmwave"
point_id: 2
x: 0.029296875
y: -0.119140625
z: -0.005859375
range: 0.130730912089
velocity: 0.0
doppler_bin: 8
bearing: -76.1849746704
intensity: 30.141002655
---
header: 
  seq: 1198914
  stamp: 
    secs: 1561865347
    nsecs: 589001044
  frame_id: "ti_mmwave"
point_id: 3
x: 0.056640625
y: -0.154296875
z: 0.005859375
range: 0.174307882786
velocity: 0.0
doppler_bin: 8
bearing: -69.8423843384
intensity: 25.4406795502
---
header: 
  seq: 1198915
  stamp: 
    secs: 1561865347
    nsecs: 589072417
  frame_id: "ti_mmwave"
point_id: 4
x: 1.0
y: -0.115234375
z: -0.701171875
range: 1.3073091507
velocity: 0.0
doppler_bin: 8
bearing: -6.57344961166
intensity: 21.4612808228
---
header: 
  seq: 1198916
  stamp: 
    secs: 1561865347
    nsecs: 589086930
  frame_id: "ti_mmwave"
point_id: 5
x: 1.12890625
y: -0.0390625
z: -0.578125
range: 1.35088610649
velocity: 0.0
doppler_bin: 8
bearing: -1.98176229
intensity: 26.4542236328
---
header: 
  seq: 1198917
  stamp: 
    secs: 1561865347
    nsecs: 589101198
  frame_id: "ti_mmwave"
point_id: 6
x: 1.2109375
y: -0.041015625
z: -0.494140625
range: 1.39446306229
velocity: 0.0
doppler_bin: 8
bearing: -1.93992185593
intensity: 27.8031730652
---
header: 
  seq: 1198918
  stamp: 
    secs: 1561865347
    nsecs: 589115884
  frame_id: "ti_mmwave"
point_id: 7
x: 1.30078125
y: -0.04296875
z: -0.361328125
range: 1.43804001808
velocity: 0.0
doppler_bin: 8
bearing: -1.89196538925
intensity: 25.9439258575
---
header: 
  seq: 1198919
  stamp: 
    secs: 1561865347
    nsecs: 589130467
  frame_id: "ti_mmwave"
point_id: 8
x: 1.375
y: -0.0
z: -0.212890625
range: 1.48161697388
velocity: 0.0
doppler_bin: 8
bearing: -0.0
intensity: 19.4939002991
---
header: 
  seq: 1198920
  stamp: 
    secs: 1561865347
    nsecs: 589184075
  frame_id: "ti_mmwave"
point_id: 9
x: 2.6171875
y: -0.17578125
z: 1.041015625
range: 3.00681090355
velocity: 0.0
doppler_bin: 8
bearing: -3.84245300293
intensity: 29.0308990479
---
header: 
  seq: 1198921
  stamp: 
    secs: 1561865347
    nsecs: 589199513
  frame_id: "ti_mmwave"
point_id: 10
x: 2.69140625
y: -0.08984375
z: 0.97265625
range: 3.05038785934
velocity: 0.0
doppler_bin: 8
bearing: -1.91192126274
intensity: 32.2089233398
---
header: 
  seq: 1198922
  stamp: 
    secs: 1561865347
    nsecs: 589218592
  frame_id: "ti_mmwave"
point_id: 11
x: 2.73046875
y: -0.181640625
z: 0.974609375
range: 3.09396481514
velocity: 0.0
doppler_bin: 8
bearing: -3.80591416359
intensity: 31.1461105347
---
header: 
  seq: 1198923
  stamp: 
    secs: 1561865347
    nsecs: 589263942
  frame_id: "ti_mmwave"
point_id: 12
x: 4.41015625
y: -0.142578125
z: 1.232421875
range: 4.88062095642
velocity: 0.0
doppler_bin: 8
bearing: -1.85169863701
intensity: 31.2678050995
---
header: 
  seq: 1198924
  stamp: 
    secs: 1561865347
    nsecs: 589277841
  frame_id: "ti_mmwave"
point_id: 13
x: 4.435546875
y: -0.14453125
z: 1.29296875
range: 4.9241976738
velocity: 0.0
doppler_bin: 8
bearing: -1.86630904675
intensity: 30.7664051056
---
header: 
  seq: 1198925
  stamp: 
    secs: 1561865347
    nsecs: 589292521
  frame_id: "ti_mmwave"
point_id: 14
x: 4.876953125
y: -0.30859375
z: 0.787109375
range: 5.27281332016
velocity: 0.0
doppler_bin: 8
bearing: -3.62061715126
intensity: 30.9236965179
---
header: 
  seq: 1198926
  stamp: 
    secs: 1561865347
    nsecs: 589305471
  frame_id: "ti_mmwave"
point_id: 15
x: 4.951171875
y: -0.623046875
z: 0.087890625
range: 5.31639051437
velocity: 0.0
doppler_bin: 8
bearing: -7.17230129242
intensity: 29.4497585297
---
header: 
  seq: 1198927
  stamp: 
    secs: 1561865347
    nsecs: 589320247
  frame_id: "ti_mmwave"
point_id: 16
x: 0.009765625
y: 0.03125
z: 0.025390625
range: 0.0435769706964
velocity: 0.0
doppler_bin: 8
bearing: 72.6459732056
intensity: 29.3094902039
---
header: 
  seq: 1198928
  stamp: 
    secs: 1561865347
    nsecs: 589329916
  frame_id: "ti_mmwave"
point_id: 17
x: 0.041015625
y: -0.033203125
z: 0.0625
range: 0.0871539413929
velocity: 0.0
doppler_bin: 8
bearing: -38.9909973145
intensity: 30.0860023499
---
header: 
  seq: 1198929
  stamp: 
    secs: 1561865347
    nsecs: 589354247
  frame_id: "ti_mmwave"
point_id: 18
x: 0.044921875
y: -0.046875
z: 0.103515625
range: 0.130730912089
velocity: 0.0
doppler_bin: 8
bearing: -46.218875885
intensity: 28.9762706757
---
header: 
  seq: 1198930
  stamp: 
    secs: 1561865347
    nsecs: 589380268
  frame_id: "ti_mmwave"
point_id: 20
x: 0.80078125
y: 0.564453125
z: 0.986328125
range: 1.48161697388
velocity: 0.0
doppler_bin: 8
bearing: 35.1791687012
intensity: 19.1381378174
---
header: 
  seq: 1198931
  stamp: 
    secs: 1561865347
    nsecs: 589473341
  frame_id: "ti_mmwave"
point_id: 21
x: 2.771484375
y: -0.0
z: 0.87109375
range: 3.09396481514
velocity: 0.0
doppler_bin: 8
bearing: -0.0
intensity: 31.1360912323
---
header: 
  seq: 1198932
  stamp: 
    secs: 1561865347
    nsecs: 647536502
  frame_id: "ti_mmwave"
point_id: 0
x: 0.01171875
y: -0.0390625
z: -0.0078125
range: 0.0435769706964
velocity: 0.0
doppler_bin: 8
bearing: -73.3007583618
intensity: 30.6408348083
---
header: 
  seq: 1198933
  stamp: 
    secs: 1561865347
    nsecs: 647645533
  frame_id: "ti_mmwave"
point_id: 1
x: 0.017578125
y: -0.080078125
z: -0.0078125
range: 0.0871539413929
velocity: 0.0
doppler_bin: 8
bearing: -77.6192398071
intensity: 31.8977088928
---
header: 
  seq: 1198934
  stamp: 
    secs: 1561865347
    nsecs: 647663598
  frame_id: "ti_mmwave"
point_id: 2
x: 0.029296875
y: -0.119140625
z: -0.005859375
range: 0.130730912089
velocity: 0.0
doppler_bin: 8
bearing: -76.1849746704
intensity: 30.141002655
---
header: 
  seq: 1198935
  stamp: 
    secs: 1561865347
    nsecs: 647678565
  frame_id: "ti_mmwave"
point_id: 3
x: 0.056640625
y: -0.154296875
z: 0.005859375
range: 0.174307882786
velocity: 0.0
doppler_bin: 8
bearing: -69.8423843384
intensity: 25.4406795502
---
header: 
  seq: 1198936
  stamp: 
    secs: 1561865347
    nsecs: 647692561
  frame_id: "ti_mmwave"
point_id: 4
x: 1.20703125
y: 0.0390625
z: -0.220703125
range: 1.3073091507
velocity: 0.0
doppler_bin: 8
bearing: 1.85358548164
intensity: 19.0848503113
---
header: 
  seq: 1198937
  stamp: 
    secs: 1561865347
    nsecs: 647705978
  frame_id: "ti_mmwave"
point_id: 5
x: 1.296875
y: -0.123046875
z: 0.12890625
range: 1.39446306229
velocity: 0.0
doppler_bin: 8
bearing: -5.41997098923
intensity: 28.6213130951
---
header: 
  seq: 1198938
  stamp: 
    secs: 1561865347
    nsecs: 647724133
  frame_id: "ti_mmwave"
point_id: 6
x: 1.341796875
y: -0.083984375
z: 0.1171875
range: 1.43804001808
velocity: 0.0
doppler_bin: 8
bearing: -3.58152627945
intensity: 28.1224460602
---
header: 
  seq: 1198939
  stamp: 
    secs: 1561865347
    nsecs: 647741751
  frame_id: "ti_mmwave"
point_id: 7
x: 1.2890625
y: -0.087890625
z: 0.515625
range: 1.48161697388
velocity: 0.0
doppler_bin: 8
bearing: -3.90049386024
intensity: 24.6239795685
---
header: 
  seq: 1198940
  stamp: 
    secs: 1561865347
    nsecs: 647817188
  frame_id: "ti_mmwave"
point_id: 8
x: 1.4140625
y: -0.138671875
z: -0.38671875
range: 1.56877088547
velocity: 0.0
doppler_bin: 8
bearing: -5.60087633133
intensity: 24.5788192749
---
header: 
  seq: 1198941
  stamp: 
    secs: 1561865347
    nsecs: 647831050
  frame_id: "ti_mmwave"
point_id: 9
x: 1.4765625
y: -0.142578125
z: -0.298828125
range: 1.61234796047
velocity: 0.0
doppler_bin: 8
bearing: -5.51542949677
intensity: 26.294095993
---
header: 
  seq: 1198942
  stamp: 
    secs: 1561865347
    nsecs: 647844669
  frame_id: "ti_mmwave"
point_id: 10
x: 2.615234375
y: -0.17578125
z: 1.044921875
range: 3.00681090355
velocity: 0.0
doppler_bin: 8
bearing: -3.84531402588
intensity: 29.0036716461
---
header: 
  seq: 1198943
  stamp: 
    secs: 1561865347
    nsecs: 647857956
  frame_id: "ti_mmwave"
point_id: 11
x: 2.6875
y: -0.08984375
z: 0.982421875
range: 3.05038785934
velocity: 0.0
doppler_bin: 8
bearing: -1.91469812393
intensity: 32.1537322998
---
header: 
  seq: 1198944
  stamp: 
    secs: 1561865347
    nsecs: 647870930
  frame_id: "ti_mmwave"
point_id: 12
x: 2.724609375
y: -0.181640625
z: 0.9921875
range: 3.09396481514
velocity: 0.0
doppler_bin: 8
bearing: -3.81407499313
intensity: 31.1126251221
---
header: 
  seq: 1198945
  stamp: 
    secs: 1561865347
    nsecs: 647886385
  frame_id: "ti_mmwave"
point_id: 13
x: 4.412109375
y: -0.142578125
z: 1.2265625
range: 4.88062095642
velocity: 0.0
doppler_bin: 8
bearing: -1.85087943077
intensity: 31.319393158
---
header: 
  seq: 1198946
  stamp: 
    secs: 1561865347
    nsecs: 647902126
  frame_id: "ti_mmwave"
point_id: 14
x: 4.435546875
y: -0.14453125
z: 1.29296875
range: 4.9241976738
velocity: 0.0
doppler_bin: 8
bearing: -1.86630904675
intensity: 30.7845687866
---
header: 
  seq: 1198947
  stamp: 
    secs: 1561865347
    nsecs: 647916020
  frame_id: "ti_mmwave"
point_id: 15
x: 4.876953125
y: -0.30859375
z: 0.78515625
range: 5.27281332016
velocity: 0.0
doppler_bin: 8
bearing: -3.62061715126
intensity: 30.7261753082
---
header: 
  seq: 1198948
  stamp: 
    secs: 1561865347
    nsecs: 648002751
  frame_id: "ti_mmwave"
point_id: 16
x: 4.951171875
y: -0.623046875
z: 0.10546875
range: 5.31639051437
velocity: 0.0
doppler_bin: 8
bearing: -7.17230129242
intensity: 29.0848503113
---
header: 
  seq: 1198949
  stamp: 
    secs: 1561865347
    nsecs: 648019338
  frame_id: "ti_mmwave"
point_id: 17
x: 1.263671875
y: -0.080078125
z: 0.080078125
range: 1.35088610649
velocity: 0.614668667316
doppler_bin: 9
bearing: -3.62595057487
intensity: 25.8206329346
---
header: 
  seq: 1198950
  stamp: 
    secs: 1561865347
    nsecs: 648033035
  frame_id: "ti_mmwave"
point_id: 18
x: 1.37109375
y: -0.04296875
z: 0.224609375
range: 1.48161697388
velocity: 0.614668667316
doppler_bin: 9
bearing: -1.79500675201
intensity: 24.1830120087
---
header: 
  seq: 1198951
  stamp: 
    secs: 1561865347
    nsecs: 648046414
  frame_id: "ti_mmwave"
point_id: 19
x: 0.009765625
y: 0.03125
z: 0.025390625
range: 0.0435769706964
velocity: 0.0
doppler_bin: 8
bearing: 72.6459732056
intensity: 29.3043956757
---
header: 
  seq: 1198952
  stamp: 
    secs: 1561865347
    nsecs: 648062741
  frame_id: "ti_mmwave"
point_id: 20
x: 0.041015625
y: -0.033203125
z: 0.0625
range: 0.0871539413929
velocity: 0.0
doppler_bin: 8
bearing: -38.9909973145
intensity: 30.0860023499
---
header: 
  seq: 1198953
  stamp: 
    secs: 1561865347
    nsecs: 648090441
  frame_id: "ti_mmwave"
point_id: 21
x: 0.044921875
y: -0.046875
z: 0.103515625
range: 0.130730912089
velocity: 0.0
doppler_bin: 8
bearing: -46.218875885
intensity: 28.9707698822
---
header: 
  seq: 1198954
  stamp: 
    secs: 1561865347
    nsecs: 648117718
  frame_id: "ti_mmwave"
point_id: 23
x: 0.62890625
y: -0.421875
z: 0.966796875
range: 1.3073091507
velocity: 0.0
doppler_bin: 8
bearing: -33.8540039062
intensity: 16.2324924469
---
header: 
  seq: 1198955
  stamp: 
    secs: 1561865347
    nsecs: 649172956
  frame_id: "ti_mmwave"
point_id: 0
x: 0.01171875
y: -0.0390625
z: -0.0078125
range: 0.0435769706964
velocity: 0.0
doppler_bin: 8
bearing: -73.3007583618
intensity: 30.6445808411
---
header: 
  seq: 1198956
  stamp: 
    secs: 1561865347
    nsecs: 649227819
  frame_id: "ti_mmwave"
point_id: 1
x: 0.017578125
y: -0.080078125
z: -0.0078125
range: 0.0871539413929
velocity: 0.0
doppler_bin: 8
bearing: -77.6192398071
intensity: 31.8977088928
---
header: 
  seq: 1198957
  stamp: 
    secs: 1561865347
    nsecs: 649245152
  frame_id: "ti_mmwave"
point_id: 2
x: 0.029296875
y: -0.119140625
z: -0.005859375
range: 0.130730912089
velocity: 0.0
doppler_bin: 8
bearing: -76.1849746704
intensity: 30.141002655
---
header: 
  seq: 1198958
  stamp: 
    secs: 1561865347
    nsecs: 649263947
  frame_id: "ti_mmwave"
point_id: 3
x: 0.056640625
y: -0.154296875
z: 0.005859375
range: 0.174307882786
velocity: 0.0
doppler_bin: 8
bearing: -69.8423843384
intensity: 25.4406795502
---
header: 
  seq: 1198959
  stamp: 
    secs: 1561865347
    nsecs: 649337400
  frame_id: "ti_mmwave"
point_id: 4
x: 1.1796875
y: -0.158203125
z: 0.435546875
range: 1.35088610649
velocity: 0.0
doppler_bin: 8
bearing: -7.63813400269
intensity: 22.9666519165
---
header: 
  seq: 1198960
  stamp: 
    secs: 1561865347
    nsecs: 649353070
  frame_id: "ti_mmwave"
point_id: 5
x: 1.287109375
y: -0.08203125
z: 0.2265625
range: 1.39446306229
velocity: 0.0
doppler_bin: 8
bearing: -3.64669561386
intensity: 27.8675136566
---
header: 
  seq: 1198961
  stamp: 
    secs: 1561865347
    nsecs: 649367378
  frame_id: "ti_mmwave"
point_id: 6
x: 1.34375
y: -0.083984375
z: 0.083984375
range: 1.43804001808
velocity: 0.0
doppler_bin: 8
bearing: -3.57633447647
intensity: 28.8592624664
---
header: 
  seq: 1198962
  stamp: 
    secs: 1561865347
    nsecs: 649382353
  frame_id: "ti_mmwave"
point_id: 7
x: 1.384765625
y: -0.087890625
z: 0.0859375
range: 1.48161697388
velocity: 0.0
doppler_bin: 8
bearing: -3.63167357445
intensity: 27.1011734009
---
header: 
  seq: 1198963
  stamp: 
    secs: 1561865347
    nsecs: 649394835
  frame_id: "ti_mmwave"
point_id: 8
x: 1.408203125
y: -0.044921875
z: 0.251953125
range: 1.52519392967
velocity: 0.0
doppler_bin: 8
bearing: -1.82712364197
intensity: 24.8144264221
---
header: 
  seq: 1198964
  stamp: 
    secs: 1561865347
    nsecs: 649403305
  frame_id: "ti_mmwave"
point_id: 9
x: 2.615234375
y: -0.17578125
z: 1.044921875
range: 3.00681090355
velocity: 0.0
doppler_bin: 8
bearing: -3.84531402588
intensity: 28.9982051849
---
header: 
  seq: 1198965
  stamp: 
    secs: 1561865347
    nsecs: 649430065
  frame_id: "ti_mmwave"
point_id: 10
x: 2.69140625
y: -0.08984375
z: 0.974609375
range: 3.05038785934
velocity: 0.0
doppler_bin: 8
bearing: -1.91192126274
intensity: 32.1774711609
---
header: 
  seq: 1198966
  stamp: 
    secs: 1561865347
    nsecs: 649493831
  frame_id: "ti_mmwave"
point_id: 11
x: 2.75390625
y: -0.08984375
z: 0.919921875
range: 3.09396481514
velocity: 0.0
doppler_bin: 8
bearing: -1.86856126785
intensity: 31.1360912323
---
header: 
  seq: 1198967
  stamp: 
    secs: 1561865347
    nsecs: 649509570
  frame_id: "ti_mmwave"
point_id: 12
x: 4.40625
y: -0.142578125
z: 1.087890625
range: 4.83704376221
velocity: 0.0
doppler_bin: 8
bearing: -1.85333895683
intensity: 28.0002937317
---
header: 
  seq: 1198968
  stamp: 
    secs: 1561865347
    nsecs: 649521461
  frame_id: "ti_mmwave"
point_id: 13
x: 4.416015625
y: -0.142578125
z: 1.212890625
range: 4.88062095642
velocity: 0.0
doppler_bin: 8
bearing: -1.84924340248
intensity: 31.2968997955
---
header: 
  seq: 1198969
  stamp: 
    secs: 1561865347
    nsecs: 649546628
  frame_id: "ti_mmwave"
point_id: 14
x: 4.4453125
y: -0.14453125
z: 1.255859375
range: 4.9241976738
velocity: 0.0
doppler_bin: 8
bearing: -1.86221218109
intensity: 30.7954292297
---
header: 
  seq: 1198970
  stamp: 
    secs: 1561865347
    nsecs: 649569620
  frame_id: "ti_mmwave"
point_id: 15
x: 4.810546875
y: -0.154296875
z: 0.970703125
range: 5.22923660278
velocity: 0.0
doppler_bin: 8
bearing: -1.83711528778
intensity: 30.0475120544
---
header: 
  seq: 1198971
  stamp: 
    secs: 1561865347
    nsecs: 649591092
  frame_id: "ti_mmwave"
point_id: 16
x: 4.884765625
y: -0.30859375
z: 0.73828125
range: 5.27281332016
velocity: 0.0
doppler_bin: 8
bearing: -3.6148416996
intensity: 31.3924922943
---
header: 
  seq: 1198972
  stamp: 
    secs: 1561865347
    nsecs: 649736294
  frame_id: "ti_mmwave"
point_id: 17
x: 4.96484375
y: -0.46875
z: 0.197265625
range: 5.31639051437
velocity: 0.0
doppler_bin: 8
bearing: -5.39352655411
intensity: 29.8811283112
---
header: 
  seq: 1198973
  stamp: 
    secs: 1561865347
    nsecs: 649764483
  frame_id: "ti_mmwave"
point_id: 18
x: 1.232421875
y: -0.119140625
z: 0.26953125
range: 1.35088610649
velocity: 0.614668667316
doppler_bin: 9
bearing: -5.52173614502
intensity: 23.4830493927
---
header: 
  seq: 1198974
  stamp: 
    secs: 1561865347
    nsecs: 649779787
  frame_id: "ti_mmwave"
point_id: 19
x: 1.296875
y: -0.08203125
z: 0.158203125
range: 1.39446306229
velocity: 0.614668667316
doppler_bin: 9
bearing: -3.61930918694
intensity: 28.0753498077
---
header: 
  seq: 1198975
  stamp: 
    secs: 1561865347
    nsecs: 649805983
  frame_id: "ti_mmwave"
point_id: 20
x: 0.009765625
y: 0.03125
z: 0.025390625
range: 0.0435769706964
velocity: 0.0
doppler_bin: 8
bearing: 72.6459732056
intensity: 29.3094902039
---
header: 
  seq: 1198976
  stamp: 
    secs: 1561865347
    nsecs: 649901880
  frame_id: "ti_mmwave"
point_id: 21
x: 0.041015625
y: -0.033203125
z: 0.0625
range: 0.0871539413929
velocity: 0.0
doppler_bin: 8
bearing: -38.9909973145
intensity: 30.0902576447
---
header: 
  seq: 1198977
  stamp: 
    secs: 1561865347
    nsecs: 649917810
  frame_id: "ti_mmwave"
point_id: 22
x: 0.044921875
y: -0.046875
z: 0.103515625
range: 0.130730912089
velocity: 0.0
doppler_bin: 8
bearing: -46.218875885
intensity: 28.9762706757
---
header: 
  seq: 1198978
  stamp: 
    secs: 1561865347
    nsecs: 707659092
  frame_id: "ti_mmwave"
point_id: 0
x: 0.01171875
y: -0.0390625
z: -0.0078125
range: 0.0435769706964
velocity: 0.0
doppler_bin: 8
bearing: -73.3007583618
intensity: 30.6408348083
---
header: 
  seq: 1198979
  stamp: 
    secs: 1561865347
    nsecs: 707733681
  frame_id: "ti_mmwave"
point_id: 1
x: 0.017578125
y: -0.080078125
z: -0.0078125
range: 0.0871539413929
velocity: 0.0
doppler_bin: 8
bearing: -77.6192398071
intensity: 31.8977088928
---
header: 
  seq: 1198980
  stamp: 
    secs: 1561865347
    nsecs: 707744950
  frame_id: "ti_mmwave"
point_id: 2
x: 0.029296875
y: -0.119140625
z: -0.005859375
range: 0.130730912089
velocity: 0.0
doppler_bin: 8
bearing: -76.1849746704
intensity: 30.141002655
---
header: 
  seq: 1198981
  stamp: 
    secs: 1561865347
    nsecs: 707753841
  frame_id: "ti_mmwave"
point_id: 3
x: 0.056640625
y: -0.154296875
z: 0.005859375
range: 0.174307882786
velocity: 0.0
doppler_bin: 8
bearing: -69.8423843384
intensity: 25.4282550812
---
header: 
  seq: 1198982
  stamp: 
    secs: 1561865347
    nsecs: 707762199
  frame_id: "ti_mmwave"
point_id: 4
x: 0.521484375
y: -0.080078125
z: 1.15234375
range: 1.35088610649
velocity: 0.0
doppler_bin: 8
bearing: -8.73003578186
intensity: 24.9831047058
---
header: 
  seq: 1198983
  stamp: 
    secs: 1561865347
    nsecs: 707772876
  frame_id: "ti_mmwave"
point_id: 5
x: 1.47265625
y: -0.0
z: -0.048828125
range: 1.56877088547
velocity: 0.0
doppler_bin: 8
bearing: -0.0
intensity: 23.9967365265
---
header: 
  seq: 1198984
  stamp: 
    secs: 1561865347
    nsecs: 707784878
  frame_id: "ti_mmwave"
point_id: 6
x: 2.619140625
y: -0.17578125
z: 1.037109375
range: 3.00681090355
velocity: 0.0
doppler_bin: 8
bearing: -3.83959650993
intensity: 29.0363254547
---
header: 
  seq: 1198985
  stamp: 
    secs: 1561865347
    nsecs: 707798282
  frame_id: "ti_mmwave"
point_id: 7
x: 2.693359375
y: -0.08984375
z: 0.966796875
range: 3.05038785934
velocity: 0.0
doppler_bin: 8
bearing: -1.91053581238
intensity: 32.2193565369
---
header: 
  seq: 1198986
  stamp: 
    secs: 1561865347
    nsecs: 707875519
  frame_id: "ti_mmwave"
point_id: 8
x: 2.732421875
y: -0.181640625
z: 0.966796875
range: 3.09396481514
velocity: 0.0
doppler_bin: 8
bearing: -3.80320167542
intensity: 31.2188796997
---
header: 
  seq: 1198987
  stamp: 
    secs: 1561865347
    nsecs: 707884984
  frame_id: "ti_mmwave"
point_id: 9
x: 4.41015625
y: -0.142578125
z: 1.232421875
range: 4.88062095642
velocity: 0.0
doppler_bin: 8
bearing: -1.85169863701
intensity: 31.2024478912
---
header: 
  seq: 1198988
  stamp: 
    secs: 1561865347
    nsecs: 707893484
  frame_id: "ti_mmwave"
point_id: 10
x: 4.44140625
y: -0.14453125
z: 1.2734375
range: 4.9241976738
velocity: 0.0
doppler_bin: 8
bearing: -1.86384868622
intensity: 30.7261753082
---
header: 
  seq: 1198989
  stamp: 
    secs: 1561865347
    nsecs: 707901529
  frame_id: "ti_mmwave"
point_id: 11
x: 4.880859375
y: -0.30859375
z: 0.76171875
range: 5.27281332016
velocity: 0.0
doppler_bin: 8
bearing: -3.61772704124
intensity: 30.4257545471
---
header: 
  seq: 1198990
  stamp: 
    secs: 1561865347
    nsecs: 707909770
  frame_id: "ti_mmwave"
point_id: 12
x: 4.951171875
y: -0.623046875
z: -0.0078125
range: 5.31639051437
velocity: 0.0
doppler_bin: 8
bearing: -7.17230129242
intensity: 29.020029068
---
header: 
  seq: 1198991
  stamp: 
    secs: 1561865347
    nsecs: 707917790
  frame_id: "ti_mmwave"
point_id: 13
x: 1.306640625
y: -0.041015625
z: 0.046875
range: 1.39446306229
velocity: 0.614668667316
doppler_bin: 9
bearing: -1.79793179035
intensity: 27.8175544739
---
header: 
  seq: 1198992
  stamp: 
    secs: 1561865347
    nsecs: 707930771
  frame_id: "ti_mmwave"
point_id: 14
x: 1.34765625
y: -0.083984375
z: -0.01171875
range: 1.43804001808
velocity: 0.614668667316
doppler_bin: 9
bearing: -3.56599473953
intensity: 28.2801513672
---
header: 
  seq: 1198993
  stamp: 
    secs: 1561865347
    nsecs: 707982633
  frame_id: "ti_mmwave"
point_id: 15
x: 1.384765625
y: -0.04296875
z: -0.12890625
range: 1.48161697388
velocity: 0.614668667316
doppler_bin: 9
bearing: -1.77729594707
intensity: 25.7054290771
---
header: 
  seq: 1198994
  stamp: 
    secs: 1561865347
    nsecs: 707999170
  frame_id: "ti_mmwave"
point_id: 16
x: 0.009765625
y: 0.03125
z: 0.025390625
range: 0.0435769706964
velocity: 0.0
doppler_bin: 8
bearing: 72.6459732056
intensity: 29.3043956757
---
header: 
  seq: 1198995
  stamp: 
    secs: 1561865347
    nsecs: 708008306
  frame_id: "ti_mmwave"
point_id: 17
x: 0.041015625
y: -0.033203125
z: 0.0625
range: 0.0871539413929
velocity: 0.0
doppler_bin: 8
bearing: -38.9909973145
intensity: 30.0902576447
---
header: 
  seq: 1198996
  stamp: 
    secs: 1561865347
    nsecs: 708016616
  frame_id: "ti_mmwave"
point_id: 18
x: 0.046875
y: -0.046875
z: 0.103515625
range: 0.130730912089
velocity: 0.0
doppler_bin: 8
bearing: -45.0
intensity: 28.9762706757
---
header: 
  seq: 1198997
  stamp: 
    secs: 1561865347
    nsecs: 708024217
  frame_id: "ti_mmwave"
point_id: 20
x: 0.259765625
y: -0.505859375
z: -1.357421875
range: 1.56877088547
velocity: 0.0
doppler_bin: 8
bearing: -62.8188896179
intensity: 21.0720996857
---
header: 
  seq: 1198998
  stamp: 
    secs: 1561865347
    nsecs: 709127411
  frame_id: "ti_mmwave"
point_id: 0
x: 0.01171875
y: -0.0390625
z: -0.0078125
range: 0.0435769706964
velocity: 0.0
doppler_bin: 8
bearing: -73.3007583618
intensity: 30.6408348083
---
header: 
  seq: 1198999
  stamp: 
    secs: 1561865347
    nsecs: 709215632
  frame_id: "ti_mmwave"
point_id: 1
x: 0.017578125
y: -0.080078125
z: -0.0078125
range: 0.0871539413929
velocity: 0.0
doppler_bin: 8
bearing: -77.6192398071
intensity: 31.9005146027
---
header: 
  seq: 1199000
  stamp: 
    secs: 1561865347
    nsecs: 709226120
  frame_id: "ti_mmwave"
point_id: 2
x: 0.029296875
y: -0.119140625
z: -0.005859375
range: 0.130730912089
velocity: 0.0
doppler_bin: 8
bearing: -76.1849746704
intensity: 30.1452045441
---
header: 
  seq: 1199001
  stamp: 
    secs: 1561865347
    nsecs: 709234978
  frame_id: "ti_mmwave"
point_id: 3
x: 0.056640625
y: -0.154296875
z: 0.005859375
range: 0.174307882786
velocity: 0.0
doppler_bin: 8
bearing: -69.8423843384
intensity: 25.4406795502
---
header: 
  seq: 1199002
  stamp: 
    secs: 1561865347
    nsecs: 709246425
  frame_id: "ti_mmwave"
point_id: 4
x: 0.693359375
y: -0.119140625
z: 1.0546875
range: 1.35088610649
velocity: 0.0
doppler_bin: 8
bearing: -9.74997520447
intensity: 22.8330116272
---
header: 
  seq: 1199003
  stamp: 
    secs: 1561865347
    nsecs: 709254677
  frame_id: "ti_mmwave"
point_id: 5
x: 1.4453125
y: -0.046875
z: -0.27734375
range: 1.56877088547
velocity: 0.0
doppler_bin: 8
bearing: -1.85759031773
intensity: 28.8252449036
---
header: 
  seq: 1199004
  stamp: 
    secs: 1561865347
    nsecs: 709263446
  frame_id: "ti_mmwave"
point_id: 6
x: 1.48046875
y: -0.09375
z: -0.298828125
range: 1.61234796047
velocity: 0.0
doppler_bin: 8
bearing: -3.62339091301
intensity: 30.7700424194
---
header: 
  seq: 1199005
  stamp: 
    secs: 1561865347
    nsecs: 709273916
  frame_id: "ti_mmwave"
point_id: 7
x: 1.52734375
y: -0.048828125
z: -0.287109375
range: 1.65592491627
velocity: 0.0
doppler_bin: 8
bearing: -1.83108282089
intensity: 28.8592624664
---
header: 
  seq: 1199006
  stamp: 
    secs: 1561865347
    nsecs: 709295469
  frame_id: "ti_mmwave"
point_id: 8
x: 2.609375
y: -0.17578125
z: 1.0625
range: 3.00681090355
velocity: 0.0
doppler_bin: 8
bearing: -3.85392260551
intensity: 29.0036716461
---
header: 
  seq: 1199007
  stamp: 
    secs: 1561865347
    nsecs: 709305594
  frame_id: "ti_mmwave"
point_id: 9
x: 2.6875
y: -0.08984375
z: 0.984375
range: 3.05038785934
velocity: 0.0
doppler_bin: 8
bearing: -1.91469812393
intensity: 32.1906051636
---
header: 
  seq: 1199008
  stamp: 
    secs: 1561865347
    nsecs: 709381491
  frame_id: "ti_mmwave"
point_id: 10
x: 2.75
y: -0.08984375
z: 0.931640625
range: 3.09396481514
velocity: 0.0
doppler_bin: 8
bearing: -1.87121355534
intensity: 31.1693973541
---
header: 
  seq: 1199009
  stamp: 
    secs: 1561865347
    nsecs: 709391363
  frame_id: "ti_mmwave"
point_id: 11
x: 4.412109375
y: -0.142578125
z: 1.228515625
range: 4.88062095642
velocity: 0.0
doppler_bin: 8
bearing: -1.85087943077
intensity: 31.4176330566
---
header: 
  seq: 1199010
  stamp: 
    secs: 1561865347
    nsecs: 709402182
  frame_id: "ti_mmwave"
point_id: 12
x: 4.44140625
y: -0.14453125
z: 1.26953125
range: 4.9241976738
velocity: 0.0
doppler_bin: 8
bearing: -1.86384868622
intensity: 30.9760437012
---
header: 
  seq: 1199011
  stamp: 
    secs: 1561865347
    nsecs: 709412639
  frame_id: "ti_mmwave"
point_id: 13
x: 4.892578125
y: -0.30859375
z: 0.6796875
range: 5.27281332016
velocity: 0.0
doppler_bin: 8
bearing: -3.60908436775
intensity: 31.1494445801
---
header: 
  seq: 1199012
  stamp: 
    secs: 1561865347
    nsecs: 709422473
  frame_id: "ti_mmwave"
point_id: 14
x: 4.951171875
y: -0.623046875
z: 0.08203125
range: 5.31639051437
velocity: 0.0
doppler_bin: 8
bearing: -7.17230129242
intensity: 29.8900470734
---
header: 
  seq: 1199013
  stamp: 
    secs: 1561865347
    nsecs: 709430233
  frame_id: "ti_mmwave"
point_id: 15
x: 1.25
y: -0.08203125
z: 0.376953125
range: 1.39446306229
velocity: 0.614668667316
doppler_bin: 9
bearing: -3.75465154648
intensity: 25.9328613281
---
header: 
  seq: 1199014
  stamp: 
    secs: 1561865347
    nsecs: 709438322
  frame_id: "ti_mmwave"
point_id: 16
x: 1.3359375
y: -0.083984375
z: 0.169921875
range: 1.43804001808
velocity: 0.614668667316
doppler_bin: 9
bearing: -3.59719371796
intensity: 28.633228302
---
header: 
  seq: 1199015
  stamp: 
    secs: 1561865347
    nsecs: 709445864
  frame_id: "ti_mmwave"
point_id: 17
x: 1.380859375
y: -0.087890625
z: 0.142578125
range: 1.48161697388
velocity: 0.614668667316
doppler_bin: 9
bearing: -3.64191913605
intensity: 27.9518451691
---
header: 
  seq: 1199016
  stamp: 
    secs: 1561865347
    nsecs: 709453821
  frame_id: "ti_mmwave"
point_id: 18
x: 1.287109375
y: -0.134765625
z: 0.61328125
range: 1.52519392967
velocity: 0.614668667316
doppler_bin: 9
bearing: -5.9773235321
intensity: 22.0951499939
---
header: 
  seq: 1199017
  stamp: 
    secs: 1561865347
    nsecs: 709461821
  frame_id: "ti_mmwave"
point_id: 19
x: 0.009765625
y: 0.03125
z: 0.025390625
range: 0.0435769706964
velocity: 0.0
doppler_bin: 8
bearing: 72.6459732056
intensity: 29.3094902039
---
header: 
  seq: 1199018
  stamp: 
    secs: 1561865347
    nsecs: 709472025
  frame_id: "ti_mmwave"
point_id: 20
x: 0.041015625
y: -0.033203125
z: 0.0625
range: 0.0871539413929
velocity: 0.0
doppler_bin: 8
bearing: -38.9909973145
intensity: 30.0860023499
---
header: 
  seq: 1199019
  stamp: 
    secs: 1561865347
    nsecs: 709482473
  frame_id: "ti_mmwave"
point_id: 21
x: 0.044921875
y: -0.046875
z: 0.103515625
range: 0.130730912089
velocity: 0.0
doppler_bin: 8
bearing: -46.218875885
intensity: 28.9707698822
---
header: 
  seq: 1199020
  stamp: 
    secs: 1561865347
    nsecs: 767586918
  frame_id: "ti_mmwave"
point_id: 0
x: 0.01171875
y: -0.0390625
z: -0.0078125
range: 0.0435769706964
velocity: 0.0
doppler_bin: 8
bearing: -73.3007583618
intensity: 30.6408348083
---
header: 
  seq: 1199021
  stamp: 
    secs: 1561865347
    nsecs: 767661104
  frame_id: "ti_mmwave"
point_id: 1
x: 0.017578125
y: -0.080078125
z: -0.0078125
range: 0.0871539413929
velocity: 0.0
doppler_bin: 8
bearing: -77.6192398071
intensity: 31.9005146027
---
header: 
  seq: 1199022
  stamp: 
    secs: 1561865347
    nsecs: 767672994
  frame_id: "ti_mmwave"
point_id: 2
x: 0.029296875
y: -0.119140625
z: -0.005859375
range: 0.130730912089
velocity: 0.0
doppler_bin: 8
bearing: -76.1849746704
intensity: 30.1452045441
---
header: 
  seq: 1199023
  stamp: 
    secs: 1561865347
    nsecs: 767681359
  frame_id: "ti_mmwave"
point_id: 3
x: 0.056640625
y: -0.154296875
z: 0.005859375
range: 0.174307882786
velocity: 0.0
doppler_bin: 8
bearing: -69.8423843384
intensity: 25.4406795502
---
header: 
  seq: 1199024
  stamp: 
    secs: 1561865347
    nsecs: 767690889
  frame_id: "ti_mmwave"
point_id: 4
x: 0.2890625
y: -0.080078125
z: -1.232421875
range: 1.35088610649
velocity: 0.0
doppler_bin: 8
bearing: -15.48416996
intensity: 22.810333252
---
header: 
  seq: 1199025
  stamp: 
    secs: 1561865347
    nsecs: 767700889
  frame_id: "ti_mmwave"
point_id: 5
x: 0.29296875
y: -0.041015625
z: -1.275390625
range: 1.39446306229
velocity: 0.0
doppler_bin: 8
bearing: -7.96961069107
intensity: 21.9865703583
---
header: 
  seq: 1199026
  stamp: 
    secs: 1561865347
    nsecs: 767710688
  frame_id: "ti_mmwave"
point_id: 6
x: 2.609375
y: -0.17578125
z: 1.060546875
range: 3.00681090355
velocity: 0.0
doppler_bin: 8
bearing: -3.85392260551
intensity: 29.0687351227
---
header: 
  seq: 1199027
  stamp: 
    secs: 1561865347
    nsecs: 767722114
  frame_id: "ti_mmwave"
point_id: 7
x: 2.6875
y: -0.08984375
z: 0.986328125
range: 3.05038785934
velocity: 0.0
doppler_bin: 8
bearing: -1.91469812393
intensity: 32.2063102722
---
header: 
  seq: 1199028
  stamp: 
    secs: 1561865347
    nsecs: 767749139
  frame_id: "ti_mmwave"
point_id: 8
x: 2.75
y: -0.08984375
z: 0.9296875
range: 3.09396481514
velocity: 0.0
doppler_bin: 8
bearing: -1.87121355534
intensity: 31.1494445801
---
header: 
  seq: 1199029
  stamp: 
    secs: 1561865347
    nsecs: 767833743
  frame_id: "ti_mmwave"
point_id: 9
x: 4.408203125
y: -0.142578125
z: 1.078125
range: 4.83704376221
velocity: 0.0
doppler_bin: 8
bearing: -1.85251843929
intensity: 28.2412586212
---
header: 
  seq: 1199030
  stamp: 
    secs: 1561865347
    nsecs: 767843864
  frame_id: "ti_mmwave"
point_id: 10
x: 4.421875
y: -0.142578125
z: 1.19140625
range: 4.88062095642
velocity: 0.0
doppler_bin: 8
bearing: -1.84679484367
intensity: 31.5956726074
---
header: 
  seq: 1199031
  stamp: 
    secs: 1561865347
    nsecs: 767851937
  frame_id: "ti_mmwave"
point_id: 11
x: 4.45703125
y: -0.14453125
z: 1.21484375
range: 4.9241976738
velocity: 0.0
doppler_bin: 8
bearing: -1.8573192358
intensity: 31.1859531403
---
header: 
  seq: 1199032
  stamp: 
    secs: 1561865347
    nsecs: 767861113
  frame_id: "ti_mmwave"
point_id: 12
x: 4.8671875
y: -0.30859375
z: 0.84375
range: 5.27281332016
velocity: 0.0
doppler_bin: 8
bearing: -3.62786221504
intensity: 31.2775249481
---
header: 
  seq: 1199033
  stamp: 
    secs: 1561865347
    nsecs: 767868676
  frame_id: "ti_mmwave"
point_id: 13
x: 4.95703125
y: -0.46875
z: 0.337890625
range: 5.31639051437
velocity: 0.0
doppler_bin: 8
bearing: -5.40197753906
intensity: 29.6520175934
---
header: 
  seq: 1199034
  stamp: 
    secs: 1561865347
    nsecs: 767877592
  frame_id: "ti_mmwave"
point_id: 14
x: 1.333984375
y: -0.126953125
z: 0.162109375
range: 1.43804001808
velocity: 0.614668667316
doppler_bin: 9
bearing: -5.4363732338
intensity: 25.3907604218
---
header: 
  seq: 1199035
  stamp: 
    secs: 1561865347
    nsecs: 767885233
  frame_id: "ti_mmwave"
point_id: 15
x: 1.37890625
y: -0.087890625
z: 0.15625
range: 1.48161697388
velocity: 0.614668667316
doppler_bin: 9
bearing: -3.64706349373
intensity: 25.7287158966
---
header: 
  seq: 1199036
  stamp: 
    secs: 1561865347
    nsecs: 767892735
  frame_id: "ti_mmwave"
point_id: 16
x: 0.009765625
y: 0.03125
z: 0.025390625
range: 0.0435769706964
velocity: 0.0
doppler_bin: 8
bearing: 72.6459732056
intensity: 29.3094902039
---
header: 
  seq: 1199037
  stamp: 
    secs: 1561865347
    nsecs: 767900535
  frame_id: "ti_mmwave"
point_id: 17
x: 0.041015625
y: -0.033203125
z: 0.0625
range: 0.0871539413929
velocity: 0.0
doppler_bin: 8
bearing: -38.9909973145
intensity: 30.0860023499
---
header: 
  seq: 1199038
  stamp: 
    secs: 1561865347
    nsecs: 767908101
  frame_id: "ti_mmwave"
point_id: 18
x: 0.044921875
y: -0.046875
z: 0.103515625
range: 0.130730912089
velocity: 0.0
doppler_bin: 8
bearing: -46.218875885
intensity: 28.9707698822
---
header: 
  seq: 1199039
  stamp: 
    secs: 1561865347
    nsecs: 767919426
  frame_id: "ti_mmwave"
point_id: 20
x: 1.205078125
y: 0.44921875
z: 0.240234375
range: 1.39446306229
velocity: 0.0
doppler_bin: 8
bearing: 20.4440193176
intensity: 19.0308990479
---
header: 
  seq: 1199040
  stamp: 
    secs: 1561865347
    nsecs: 768984181
  frame_id: "ti_mmwave"
point_id: 0
x: 0.01171875
y: -0.0390625
z: -0.0078125
range: 0.0435769706964
velocity: 0.0
doppler_bin: 8
bearing: -73.3007583618
intensity: 30.6408348083
---
header: 
  seq: 1199041
  stamp: 
    secs: 1561865347
    nsecs: 769049210
  frame_id: "ti_mmwave"
point_id: 1
x: 0.017578125
y: -0.080078125
z: -0.0078125
range: 0.0871539413929
velocity: 0.0
doppler_bin: 8
bearing: -77.6192398071
intensity: 31.8977088928
---
header: 
  seq: 1199042
  stamp: 
    secs: 1561865347
    nsecs: 769067569
  frame_id: "ti_mmwave"
point_id: 2
x: 0.029296875
y: -0.119140625
z: -0.005859375
range: 0.130730912089
velocity: 0.0
doppler_bin: 8
bearing: -76.1849746704
intensity: 30.141002655
---
header: 
  seq: 1199043
  stamp: 
    secs: 1561865347
    nsecs: 769086181
  frame_id: "ti_mmwave"
point_id: 3
x: 0.056640625
y: -0.154296875
z: 0.005859375
range: 0.174307882786
velocity: 0.0
doppler_bin: 8
bearing: -69.8423843384
intensity: 25.4282550812
---
header: 
  seq: 1199044
  stamp: 
    secs: 1561865347
    nsecs: 769148656
  frame_id: "ti_mmwave"
point_id: 4
x: 0.173828125
y: -0.080078125
z: 1.25390625
range: 1.35088610649
velocity: 0.0
doppler_bin: 8
bearing: -24.7343044281
intensity: 23.0535144806
---
header: 
  seq: 1199045
  stamp: 
    secs: 1561865347
    nsecs: 769165592
  frame_id: "ti_mmwave"
point_id: 5
x: 0.1015625
y: -0.08203125
z: -1.302734375
range: 1.39446306229
velocity: 0.0
doppler_bin: 8
bearing: -38.9275436401
intensity: 24.7129173279
---
header: 
  seq: 1199046
  stamp: 
    secs: 1561865347
    nsecs: 769179376
  frame_id: "ti_mmwave"
point_id: 6
x: 1.419921875
y: -0.044921875
z: -0.1796875
range: 1.52519392967
velocity: 0.0
doppler_bin: 8
bearing: -1.81205427647
intensity: 27.2098579407
---
header: 
  seq: 1199047
  stamp: 
    secs: 1561865347
    nsecs: 769192597
  frame_id: "ti_mmwave"
point_id: 7
x: 1.453125
y: -0.046875
z: -0.232421875
range: 1.56877088547
velocity: 0.0
doppler_bin: 8
bearing: -1.847610116
intensity: 31.8497524261
---
header: 
  seq: 1199048
  stamp: 
    secs: 1561865347
    nsecs: 769201585
  frame_id: "ti_mmwave"
point_id: 8
x: 1.494140625
y: -0.046875
z: -0.240234375
range: 1.61234796047
velocity: 0.0
doppler_bin: 8
bearing: -1.79692542553
intensity: 32.9292030334
---
header: 
  seq: 1199049
  stamp: 
    secs: 1561865347
    nsecs: 769228477
  frame_id: "ti_mmwave"
point_id: 9
x: 1.53515625
y: -0.048828125
z: -0.23828125
range: 1.65592491627
velocity: 0.0
doppler_bin: 8
bearing: -1.82177066803
intensity: 30.2694168091
---
header: 
  seq: 1199050
  stamp: 
    secs: 1561865347
    nsecs: 769252471
  frame_id: "ti_mmwave"
point_id: 10
x: 2.615234375
y: -0.17578125
z: 1.044921875
range: 3.00681090355
velocity: 0.0
doppler_bin: 8
bearing: -3.84531402588
intensity: 28.9652614594
---
header: 
  seq: 1199051
  stamp: 
    secs: 1561865347
    nsecs: 769275104
  frame_id: "ti_mmwave"
point_id: 11
x: 2.689453125
y: -0.08984375
z: 0.9765625
range: 3.05038785934
velocity: 0.0
doppler_bin: 8
bearing: -1.91330885887
intensity: 32.1748390198
---
header: 
  seq: 1199052
  stamp: 
    secs: 1561865347
    nsecs: 769300723
  frame_id: "ti_mmwave"
point_id: 12
x: 2.732421875
y: -0.181640625
z: 0.966796875
range: 3.09396481514
velocity: 0.0
doppler_bin: 8
bearing: -3.80320167542
intensity: 31.1693973541
---
header: 
  seq: 1199053
  stamp: 
    secs: 1561865347
    nsecs: 769317146
  frame_id: "ti_mmwave"
point_id: 13
x: 4.404296875
y: -0.142578125
z: 1.25390625
range: 4.88062095642
velocity: 0.0
doppler_bin: 8
bearing: -1.85416030884
intensity: 31.1627559662
---
header: 
  seq: 1199054
  stamp: 
    secs: 1561865347
    nsecs: 769387980
  frame_id: "ti_mmwave"
point_id: 14
x: 4.439453125
y: -0.14453125
z: 1.279296875
range: 4.9241976738
velocity: 0.0
doppler_bin: 8
bearing: -1.86466813087
intensity: 30.8206691742
---
header: 
  seq: 1199055
  stamp: 
    secs: 1561865347
    nsecs: 769403569
  frame_id: "ti_mmwave"
point_id: 15
x: 4.8984375
y: -0.30859375
z: 0.634765625
range: 5.27281332016
velocity: 0.0
doppler_bin: 8
bearing: -3.60477876663
intensity: 29.8900470734
---
header: 
  seq: 1199056
  stamp: 
    secs: 1561865347
    nsecs: 769418533
  frame_id: "ti_mmwave"
point_id: 16
x: 1.337890625
y: -0.04296875
z: -0.1796875
range: 1.43804001808
velocity: 0.614668667316
doppler_bin: 9
bearing: -1.8395242691
intensity: 25.0920257568
---
header: 
  seq: 1199057
  stamp: 
    secs: 1561865347
    nsecs: 769431771
  frame_id: "ti_mmwave"
point_id: 17
x: 1.388671875
y: -0.087890625
z: -0.01171875
range: 1.48161697388
velocity: 0.614668667316
doppler_bin: 9
bearing: -3.62148451805
intensity: 27.0243053436
---
header: 
  seq: 1199058
  stamp: 
    secs: 1561865347
    nsecs: 769447193
  frame_id: "ti_mmwave"
point_id: 18
x: 0.009765625
y: 0.03125
z: 0.025390625
range: 0.0435769706964
velocity: 0.0
doppler_bin: 8
bearing: 72.6459732056
intensity: 29.3094902039
---
header: 
  seq: 1199059
  stamp: 
    secs: 1561865347
    nsecs: 769463676
  frame_id: "ti_mmwave"
point_id: 19
x: 0.041015625
y: -0.033203125
z: 0.0625
range: 0.0871539413929
velocity: 0.0
doppler_bin: 8
bearing: -38.9909973145
intensity: 30.081741333
---
header: 
  seq: 1199060
  stamp: 
