header: 
  seq: 1144356
  stamp: 
    secs: 1561865260
    nsecs: 407610957
  frame_id: "ti_mmwave"
point_id: 0
x: 0.01171875
y: -0.0390625
z: -0.0078125
range: 0.0435769706964
velocity: 0.0
doppler_bin: 8
bearing: -73.3007583618
intensity: 30.6408348083
---
header: 
  seq: 1144357
  stamp: 
    secs: 1561865260
    nsecs: 407691196
  frame_id: "ti_mmwave"
point_id: 1
x: 0.017578125
y: -0.080078125
z: -0.0078125
range: 0.0871539413929
velocity: 0.0
doppler_bin: 8
bearing: -77.6192398071
intensity: 31.8977088928
---
header: 
  seq: 1144358
  stamp: 
    secs: 1561865260
    nsecs: 407705945
  frame_id: "ti_mmwave"
point_id: 2
x: 0.029296875
y: -0.119140625
z: -0.005859375
range: 0.130730912089
velocity: 0.0
doppler_bin: 8
bearing: -76.1849746704
intensity: 30.141002655
---
header: 
  seq: 1144359
  stamp: 
    secs: 1561865260
    nsecs: 407714579
  frame_id: "ti_mmwave"
point_id: 3
x: 0.056640625
y: -0.154296875
z: 0.005859375
range: 0.174307882786
velocity: 0.0
doppler_bin: 8
bearing: -69.8423843384
intensity: 25.4406795502
---
header: 
  seq: 1144360
  stamp: 
    secs: 1561865260
    nsecs: 407722657
  frame_id: "ti_mmwave"
point_id: 4
x: 0.7578125
y: -0.0390625
z: -1.015625
range: 1.35088610649
velocity: 0.0
doppler_bin: 8
bearing: -2.95077896118
intensity: 24.014005661
---
header: 
  seq: 1144361
  stamp: 
    secs: 1561865260
    nsecs: 407731753
  frame_id: "ti_mmwave"
point_id: 5
x: 0.869140625
y: -0.041015625
z: -0.9765625
range: 1.39446306229
velocity: 0.0
doppler_bin: 8
bearing: -2.70184135437
intensity: 24.9276046753
---
header: 
  seq: 1144362
  stamp: 
    secs: 1561865260
    nsecs: 407741060
  frame_id: "ti_mmwave"
point_id: 6
x: 0.978515625
y: -0.0
z: -0.9296875
range: 1.43804001808
velocity: 0.0
doppler_bin: 8
bearing: -0.0
intensity: 21.430147171
---
header: 
  seq: 1144363
  stamp: 
    secs: 1561865260
    nsecs: 407749754
  frame_id: "ti_mmwave"
point_id: 7
x: 2.623046875
y: -0.17578125
z: 1.025390625
range: 3.00681090355
velocity: 0.0
doppler_bin: 8
bearing: -3.83389568329
intensity: 29.0687351227
---
header: 
  seq: 1144364
  stamp: 
    secs: 1561865260
    nsecs: 407758649
  frame_id: "ti_mmwave"
point_id: 8
x: 2.69140625
y: -0.08984375
z: 0.974609375
range: 3.05038785934
velocity: 0.0
doppler_bin: 8
bearing: -1.91192126274
intensity: 32.2141418457
---
header: 
  seq: 1144365
  stamp: 
    secs: 1561865260
    nsecs: 407767454
  frame_id: "ti_mmwave"
point_id: 9
x: 2.728515625
y: -0.181640625
z: 0.9765625
range: 3.09396481514
velocity: 0.0
doppler_bin: 8
bearing: -3.80863046646
intensity: 31.1294002533
---
header: 
  seq: 1144366
  stamp: 
    secs: 1561865260
    nsecs: 407776601
  frame_id: "ti_mmwave"
point_id: 10
x: 4.41796875
y: -0.142578125
z: 1.20703125
range: 4.88062095642
velocity: 0.0
doppler_bin: 8
bearing: -1.84842634201
intensity: 31.3225975037
---
header: 
  seq: 1144367
  stamp: 
    secs: 1561865260
    nsecs: 407784878
  frame_id: "ti_mmwave"
point_id: 11
x: 4.455078125
y: -0.14453125
z: 1.224609375
range: 4.9241976738
velocity: 0.0
doppler_bin: 8
bearing: -1.85813295841
intensity: 31.0890312195
---
header: 
  seq: 1144368
  stamp: 
    secs: 1561865260
    nsecs: 407794265
  frame_id: "ti_mmwave"
point_id: 12
x: 4.705078125
y: -0.296875
z: -0.546875
range: 5.0549287796
velocity: 0.0
doppler_bin: 8
bearing: -3.61038923264
intensity: 29.8811283112
---
header: 
  seq: 1144369
  stamp: 
    secs: 1561865260
    nsecs: 407803518
  frame_id: "ti_mmwave"
point_id: 13
x: 4.728515625
y: -0.44921875
z: -0.591796875
range: 5.09850549698
velocity: 0.0
doppler_bin: 8
bearing: -5.42692995071
intensity: 34.3232765198
---
header: 
  seq: 1144370
  stamp: 
    secs: 1561865260
    nsecs: 407812820
  frame_id: "ti_mmwave"
point_id: 14
x: 4.775390625
y: -0.30078125
z: -0.6328125
range: 5.14208269119
velocity: 0.0
doppler_bin: 8
bearing: -3.60405302048
intensity: 35.0051078796
---
header: 
  seq: 1144371
  stamp: 
    secs: 1561865260
    nsecs: 407822075
  frame_id: "ti_mmwave"
point_id: 15
x: 4.76953125
y: -0.3046875
z: -0.923828125
range: 5.18565940857
velocity: 0.0
doppler_bin: 8
bearing: -3.65520572662
intensity: 31.4643821716
---
header: 
  seq: 1144372
  stamp: 
    secs: 1561865260
    nsecs: 407842986
  frame_id: "ti_mmwave"
point_id: 16
x: 4.88671875
y: -0.30859375
z: 0.724609375
range: 5.27281332016
velocity: 0.0
doppler_bin: 8
bearing: -3.61340069771
intensity: 30.9829750061
---
header: 
  seq: 1144373
  stamp: 
    secs: 1561865260
    nsecs: 407859895
  frame_id: "ti_mmwave"
point_id: 17
x: 4.951171875
y: -0.623046875
z: 0.033203125
range: 5.31639051437
velocity: 0.0
doppler_bin: 8
bearing: -7.17230129242
intensity: 29.7127590179
---
header: 
  seq: 1144374
  stamp: 
    secs: 1561865260
    nsecs: 407874386
  frame_id: "ti_mmwave"
point_id: 18
x: 0.009765625
y: 0.03125
z: 0.025390625
range: 0.0435769706964
velocity: 0.0
doppler_bin: 8
bearing: 72.6459732056
intensity: 29.3094902039
---
header: 
  seq: 1144375
  stamp: 
    secs: 1561865260
    nsecs: 407889601
  frame_id: "ti_mmwave"
point_id: 19
x: 0.041015625
y: -0.033203125
z: 0.0625
range: 0.0871539413929
velocity: 0.0
doppler_bin: 8
bearing: -38.9909973145
intensity: 30.0902576447
---
header: 
  seq: 1144376
  stamp: 
    secs: 1561865260
    nsecs: 407904505
  frame_id: "ti_mmwave"
point_id: 20
x: 0.046875
y: -0.046875
z: 0.103515625
range: 0.130730912089
velocity: 0.0
doppler_bin: 8
bearing: -45.0
intensity: 28.9707698822
---
header: 
  seq: 1144377
  stamp: 
    secs: 1561865260
    nsecs: 407921004
  frame_id: "ti_mmwave"
point_id: 22
x: 1.01171875
y: 0.505859375
z: 0.73828125
range: 1.43804001808
velocity: 0.0
doppler_bin: 8
bearing: 26.5650501251
intensity: 19.4939002991
---
header: 
  seq: 1144378
  stamp: 
    secs: 1561865260
    nsecs: 407934830
  frame_id: "ti_mmwave"
point_id: 23
x: 2.771484375
y: -0.0
z: 0.87109375
range: 3.09396481514
velocity: 0.0
doppler_bin: 8
bearing: -0.0
intensity: 31.1260509491
---
header: 
  seq: 1144379
  stamp: 
    secs: 1561865260
    nsecs: 408966402
  frame_id: "ti_mmwave"
point_id: 0
x: 0.01171875
y: -0.0390625
z: -0.0078125
range: 0.0435769706964
velocity: 0.0
doppler_bin: 8
bearing: -73.3007583618
intensity: 30.6520614624
---
header: 
  seq: 1144380
  stamp: 
    secs: 1561865260
    nsecs: 409040876
  frame_id: "ti_mmwave"
point_id: 1
x: 0.017578125
y: -0.080078125
z: -0.0078125
range: 0.0871539413929
velocity: 0.0
doppler_bin: 8
bearing: -77.6192398071
intensity: 31.9033164978
---
header: 
  seq: 1144381
  stamp: 
    secs: 1561865260
    nsecs: 409058504
  frame_id: "ti_mmwave"
point_id: 2
x: 0.029296875
y: -0.119140625
z: -0.005859375
range: 0.130730912089
velocity: 0.0
doppler_bin: 8
bearing: -76.1849746704
intensity: 30.1452045441
---
header: 
  seq: 1144382
  stamp: 
    secs: 1561865260
    nsecs: 409072084
  frame_id: "ti_mmwave"
point_id: 3
x: 0.056640625
y: -0.154296875
z: 0.005859375
range: 0.174307882786
velocity: 0.0
doppler_bin: 8
bearing: -69.8423843384
intensity: 25.4406795502
---
header: 
  seq: 1144383
  stamp: 
    secs: 1561865260
    nsecs: 409086503
  frame_id: "ti_mmwave"
point_id: 4
x: 0.41015625
y: -0.080078125
z: 1.197265625
range: 1.35088610649
velocity: 0.0
doppler_bin: 8
bearing: -11.0473499298
intensity: 24.727563858
---
header: 
  seq: 1144384
  stamp: 
    secs: 1561865260
    nsecs: 409099671
  frame_id: "ti_mmwave"
point_id: 5
x: 0.453125
y: -0.08203125
z: -1.2265625
range: 1.39446306229
velocity: 0.0
doppler_bin: 8
bearing: -10.2613735199
intensity: 26.541765213
---
header: 
  seq: 1144385
  stamp: 
    secs: 1561865260
    nsecs: 409112884
  frame_id: "ti_mmwave"
point_id: 6
x: 0.904296875
y: -0.083984375
z: -1.0
range: 1.43804001808
velocity: 0.0
doppler_bin: 8
bearing: -5.30598592758
intensity: 25.0379066467
---
header: 
  seq: 1144386
  stamp: 
    secs: 1561865260
    nsecs: 409126183
  frame_id: "ti_mmwave"
point_id: 7
x: 0.880859375
y: -0.04296875
z: -1.07421875
range: 1.48161697388
velocity: 0.0
doppler_bin: 8
bearing: -2.79270243645
intensity: 22.6717166901
---
header: 
  seq: 1144387
  stamp: 
    secs: 1561865260
    nsecs: 409141225
  frame_id: "ti_mmwave"
point_id: 8
x: 2.625
y: -0.17578125
z: 1.0234375
range: 3.00681090355
velocity: 0.0
doppler_bin: 8
bearing: -3.83105134964
intensity: 29.1062431335
---
header: 
  seq: 1144388
  stamp: 
    secs: 1561865260
    nsecs: 409157053
  frame_id: "ti_mmwave"
point_id: 9
x: 2.69140625
y: -0.08984375
z: 0.9765625
range: 3.05038785934
velocity: 0.0
doppler_bin: 8
bearing: -1.91192126274
intensity: 32.1932258606
---
header: 
  seq: 1144389
  stamp: 
    secs: 1561865260
    nsecs: 409170871
  frame_id: "ti_mmwave"
point_id: 10
x: 2.751953125
y: -0.08984375
z: 0.923828125
range: 3.09396481514
velocity: 0.0
doppler_bin: 8
bearing: -1.86988639832
intensity: 31.1394329071
---
header: 
  seq: 1144390
  stamp: 
    secs: 1561865260
    nsecs: 409204992
  frame_id: "ti_mmwave"
point_id: 11
x: 4.4140625
y: -0.142578125
z: 1.220703125
range: 4.88062095642
velocity: 0.0
doppler_bin: 8
bearing: -1.850061059
intensity: 31.2645606995
---
header: 
  seq: 1144391
  stamp: 
    secs: 1561865260
    nsecs: 409226241
  frame_id: "ti_mmwave"
point_id: 12
x: 4.431640625
y: -0.14453125
z: 1.30859375
range: 4.9241976738
velocity: 0.0
doppler_bin: 8
bearing: -1.86795306206
intensity: 30.7990455627
---
header: 
  seq: 1144392
  stamp: 
    secs: 1561865260
    nsecs: 409247897
  frame_id: "ti_mmwave"
point_id: 13
x: 4.7421875
y: -0.298828125
z: -0.572265625
range: 5.09850549698
velocity: 0.0
doppler_bin: 8
bearing: -3.60571622849
intensity: 32.688117981
---
header: 
  seq: 1144393
  stamp: 
    secs: 1561865260
    nsecs: 409260879
  frame_id: "ti_mmwave"
point_id: 14
x: 4.7734375
y: -0.30078125
z: -0.64453125
range: 5.14208269119
velocity: 0.0
doppler_bin: 8
bearing: -3.60552406311
intensity: 33.1576042175
---
header: 
  seq: 1144394
  stamp: 
    secs: 1561865260
    nsecs: 409285944
  frame_id: "ti_mmwave"
point_id: 15
x: 4.888671875
y: -0.30859375
z: 0.71484375
range: 5.27281332016
velocity: 0.0
doppler_bin: 8
bearing: -3.61196112633
intensity: 30.9447116852
---
header: 
  seq: 1144395
  stamp: 
    secs: 1561865260
    nsecs: 409302292
  frame_id: "ti_mmwave"
point_id: 16
x: 4.951171875
y: -0.623046875
z: 0.060546875
range: 5.31639051437
velocity: 0.0
doppler_bin: 8
bearing: -7.17230129242
intensity: 29.7034683228
---
header: 
  seq: 1144396
  stamp: 
    secs: 1561865260
    nsecs: 409424687
  frame_id: "ti_mmwave"
point_id: 17
x: 0.009765625
y: 0.03125
z: 0.025390625
range: 0.0435769706964
velocity: 0.0
doppler_bin: 8
bearing: 72.6459732056
intensity: 29.3043956757
---
header: 
  seq: 1144397
  stamp: 
    secs: 1561865260
    nsecs: 409452261
  frame_id: "ti_mmwave"
point_id: 18
x: 0.041015625
y: -0.033203125
z: 0.0625
range: 0.0871539413929
velocity: 0.0
doppler_bin: 8
bearing: -38.9909973145
intensity: 30.0860023499
---
header: 
  seq: 1144398
  stamp: 
    secs: 1561865260
    nsecs: 409466494
  frame_id: "ti_mmwave"
point_id: 19
x: 0.044921875
y: -0.046875
z: 0.103515625
range: 0.130730912089
velocity: 0.0
doppler_bin: 8
bearing: -46.218875885
intensity: 28.9762706757
---
header: 
  seq: 1144399
  stamp: 
    secs: 1561865260
    nsecs: 467905243
  frame_id: "ti_mmwave"
point_id: 0
x: 0.01171875
y: -0.0390625
z: -0.0078125
range: 0.0435769706964
velocity: 0.0
doppler_bin: 8
bearing: -73.3007583618
intensity: 30.6520614624
---
header: 
  seq: 1144400
  stamp: 
    secs: 1561865260
    nsecs: 468025695
  frame_id: "ti_mmwave"
point_id: 1
x: 0.017578125
y: -0.080078125
z: -0.0078125
range: 0.0871539413929
velocity: 0.0
doppler_bin: 8
bearing: -77.6192398071
intensity: 31.9033164978
---
header: 
  seq: 1144401
  stamp: 
    secs: 1561865260
    nsecs: 468046195
  frame_id: "ti_mmwave"
point_id: 2
x: 0.029296875
y: -0.119140625
z: -0.005859375
range: 0.130730912089
velocity: 0.0
doppler_bin: 8
bearing: -76.1849746704
intensity: 30.1452045441
---
header: 
  seq: 1144402
  stamp: 
    secs: 1561865260
    nsecs: 468060797
  frame_id: "ti_mmwave"
point_id: 3
x: 0.056640625
y: -0.154296875
z: 0.005859375
range: 0.174307882786
velocity: 0.0
doppler_bin: 8
bearing: -69.8423843384
intensity: 25.4530715942
---
header: 
  seq: 1144403
  stamp: 
    secs: 1561865260
    nsecs: 468073189
  frame_id: "ti_mmwave"
point_id: 4
x: 0.951171875
y: -0.197265625
z: 0.81640625
range: 1.35088610649
velocity: 0.0
doppler_bin: 8
bearing: -11.7165994644
intensity: 19.9563522339
---
header: 
  seq: 1144404
  stamp: 
    secs: 1561865260
    nsecs: 468086758
  frame_id: "ti_mmwave"
point_id: 5
x: 1.185546875
y: -0.123046875
z: 0.5390625
range: 1.39446306229
velocity: 0.0
doppler_bin: 8
bearing: -5.92546319962
intensity: 23.6735591888
---
header: 
  seq: 1144405
  stamp: 
    secs: 1561865260
    nsecs: 468161951
  frame_id: "ti_mmwave"
point_id: 6
x: 1.267578125
y: -0.083984375
z: 0.458984375
range: 1.43804001808
velocity: 0.0
doppler_bin: 8
bearing: -3.79063630104
intensity: 24.5484485626
---
header: 
  seq: 1144406
  stamp: 
    secs: 1561865260
    nsecs: 468176439
  frame_id: "ti_mmwave"
point_id: 7
x: 0.66796875
y: -0.04296875
z: -1.21875
range: 1.48161697388
velocity: 0.0
doppler_bin: 8
bearing: -3.68062210083
intensity: 23.2633590698
---
header: 
  seq: 1144407
  stamp: 
    secs: 1561865260
    nsecs: 468189225
  frame_id: "ti_mmwave"
point_id: 8
x: 1.125
y: -0.0
z: -0.88671875
range: 1.52519392967
velocity: 0.0
doppler_bin: 8
bearing: -0.0
intensity: 22.3804607391
---
header: 
  seq: 1144408
  stamp: 
    secs: 1561865260
    nsecs: 468199813
  frame_id: "ti_mmwave"
point_id: 9
x: 2.615234375
y: -0.17578125
z: 1.044921875
range: 3.00681090355
velocity: 0.0
doppler_bin: 8
bearing: -3.84531402588
intensity: 29.0794849396
---
header: 
  seq: 1144409
  stamp: 
    secs: 1561865260
    nsecs: 468211441
  frame_id: "ti_mmwave"
point_id: 10
x: 2.689453125
y: -0.08984375
z: 0.978515625
range: 3.05038785934
velocity: 0.0
doppler_bin: 8
bearing: -1.91330885887
intensity: 32.1958465576
---
header: 
  seq: 1144410
  stamp: 
    secs: 1561865260
    nsecs: 468221764
  frame_id: "ti_mmwave"
point_id: 11
x: 2.73046875
y: -0.181640625
z: 0.970703125
range: 3.09396481514
velocity: 0.0
doppler_bin: 8
bearing: -3.80591416359
intensity: 31.1427726746
---
header: 
  seq: 1144411
  stamp: 
    secs: 1561865260
    nsecs: 468232001
  frame_id: "ti_mmwave"
point_id: 12
x: 4.41015625
y: -0.142578125
z: 1.234375
range: 4.88062095642
velocity: 0.0
doppler_bin: 8
bearing: -1.85169863701
intensity: 31.25806427
---
header: 
  seq: 1144412
  stamp: 
    secs: 1561865260
    nsecs: 468243538
  frame_id: "ti_mmwave"
point_id: 13
x: 4.4296875
y: -0.14453125
z: 1.31640625
range: 4.9241976738
velocity: 0.0
doppler_bin: 8
bearing: -1.86877608299
intensity: 30.6069774628
---
header: 
  seq: 1144413
  stamp: 
    secs: 1561865260
    nsecs: 468254571
  frame_id: "ti_mmwave"
point_id: 14
x: 4.892578125
y: -0.30859375
z: 0.68359375
range: 5.27281332016
velocity: 0.0
doppler_bin: 8
bearing: -3.60908436775
intensity: 30.9691009521
---
header: 
  seq: 1144414
  stamp: 
    secs: 1561865260
    nsecs: 468269098
  frame_id: "ti_mmwave"
point_id: 15
x: 4.951171875
y: -0.623046875
z: 0.01171875
range: 5.31639051437
velocity: 0.0
doppler_bin: 8
bearing: -7.17230129242
intensity: 29.6284275055
---
header: 
  seq: 1144415
  stamp: 
    secs: 1561865260
    nsecs: 468281986
  frame_id: "ti_mmwave"
point_id: 16
x: 0.009765625
y: 0.03125
z: 0.025390625
range: 0.0435769706964
velocity: 0.0
doppler_bin: 8
bearing: 72.6459732056
intensity: 29.3043956757
---
header: 
  seq: 1144416
  stamp: 
    secs: 1561865260
    nsecs: 468291767
  frame_id: "ti_mmwave"
point_id: 17
x: 0.041015625
y: -0.033203125
z: 0.0625
range: 0.0871539413929
velocity: 0.0
doppler_bin: 8
bearing: -38.9909973145
intensity: 30.0902576447
---
header: 
  seq: 1144417
  stamp: 
    secs: 1561865260
    nsecs: 468358242
  frame_id: "ti_mmwave"
point_id: 18
x: 0.044921875
y: -0.046875
z: 0.103515625
range: 0.130730912089
velocity: 0.0
doppler_bin: 8
bearing: -46.218875885
intensity: 28.9762706757
---
header: 
  seq: 1144418
  stamp: 
    secs: 1561865260
    nsecs: 468379100
  frame_id: "ti_mmwave"
point_id: 20
x: 1.212890625
y: 0.27734375
z: -0.2421875
range: 1.35088610649
velocity: 0.0
doppler_bin: 8
bearing: 12.8800125122
intensity: 17.481880188
---
header: 
  seq: 1144419
  stamp: 
    secs: 1561865260
    nsecs: 468390431
  frame_id: "ti_mmwave"
point_id: 21
x: 2.7734375
y: -0.0
z: 0.865234375
range: 3.09396481514
velocity: 0.0
doppler_bin: 8
bearing: -0.0
intensity: 31.1360912323
---
header: 
  seq: 1144420
  stamp: 
    secs: 1561865260
    nsecs: 469128050
  frame_id: "ti_mmwave"
point_id: 0
x: 0.01171875
y: -0.0390625
z: -0.0078125
range: 0.0435769706964
velocity: 0.0
doppler_bin: 8
bearing: -73.3007583618
intensity: 30.6445808411
---
header: 
  seq: 1144421
  stamp: 
    secs: 1561865260
    nsecs: 469187767
  frame_id: "ti_mmwave"
point_id: 1
x: 0.017578125
y: -0.080078125
z: -0.0078125
range: 0.0871539413929
velocity: 0.0
doppler_bin: 8
bearing: -77.6192398071
intensity: 31.9033164978
---
header: 
  seq: 1144422
  stamp: 
    secs: 1561865260
    nsecs: 469210188
  frame_id: "ti_mmwave"
point_id: 2
x: 0.029296875
y: -0.119140625
z: -0.005859375
range: 0.130730912089
velocity: 0.0
doppler_bin: 8
bearing: -76.1849746704
intensity: 30.1452045441
---
header: 
  seq: 1144423
  stamp: 
    secs: 1561865260
    nsecs: 469241522
  frame_id: "ti_mmwave"
point_id: 3
x: 0.056640625
y: -0.154296875
z: 0.005859375
range: 0.174307882786
velocity: 0.0
doppler_bin: 8
bearing: -69.8423843384
intensity: 25.4406795502
---
header: 
  seq: 1144424
  stamp: 
    secs: 1561865260
    nsecs: 469267288
  frame_id: "ti_mmwave"
point_id: 4
x: 0.712890625
y: -0.080078125
z: -1.046875
range: 1.35088610649
velocity: 0.0
doppler_bin: 8
bearing: -6.40909814835
intensity: 24.9968700409
---
header: 
  seq: 1144425
  stamp: 
    secs: 1561865260
    nsecs: 469356256
  frame_id: "ti_mmwave"
point_id: 5
x: 0.95703125
y: -0.08203125
z: -0.888671875
range: 1.39446306229
velocity: 0.0
doppler_bin: 8
bearing: -4.89909267426
intensity: 26.875289917
---
header: 
  seq: 1144426
  stamp: 
    secs: 1561865260
    nsecs: 469375126
  frame_id: "ti_mmwave"
point_id: 6
x: 1.078125
y: -0.083984375
z: -0.806640625
range: 1.43804001808
velocity: 0.0
doppler_bin: 8
bearing: -4.45426273346
intensity: 25.3019962311
---
header: 
  seq: 1144427
  stamp: 
    secs: 1561865260
    nsecs: 469391313
  frame_id: "ti_mmwave"
point_id: 7
x: 1.51953125
y: -0.048828125
z: -0.322265625
range: 1.65592491627
velocity: 0.0
doppler_bin: 8
bearing: -1.84049069881
intensity: 25.7863922119
---
header: 
  seq: 1144428
  stamp: 
    secs: 1561865260
    nsecs: 469403725
  frame_id: "ti_mmwave"
point_id: 8
x: 2.615234375
y: -0.17578125
z: 1.048828125
range: 3.00681090355
velocity: 0.0
doppler_bin: 8
bearing: -3.84531402588
intensity: 29.0794849396
---
header: 
  seq: 1144429
  stamp: 
    secs: 1561865260
    nsecs: 469415767
  frame_id: "ti_mmwave"
point_id: 9
x: 2.689453125
y: -0.08984375
z: 0.978515625
range: 3.05038785934
velocity: 0.0
doppler_bin: 8
bearing: -1.91330885887
intensity: 32.1984634399
---
header: 
  seq: 1144430
  stamp: 
    secs: 1561865260
    nsecs: 469425600
  frame_id: "ti_mmwave"
point_id: 10
x: 2.73046875
y: -0.181640625
z: 0.970703125
range: 3.09396481514
velocity: 0.0
doppler_bin: 8
bearing: -3.80591416359
intensity: 31.1561050415
---
header: 
  seq: 1144431
  stamp: 
    secs: 1561865260
    nsecs: 469449461
  frame_id: "ti_mmwave"
point_id: 11
x: 4.412109375
y: -0.142578125
z: 1.2265625
range: 4.88062095642
velocity: 0.0
doppler_bin: 8
bearing: -1.85087943077
intensity: 31.2775249481
---
header: 
  seq: 1144432
  stamp: 
    secs: 1561865260
    nsecs: 469514612
  frame_id: "ti_mmwave"
point_id: 12
x: 4.451171875
y: -0.14453125
z: 1.236328125
range: 4.9241976738
velocity: 0.0
doppler_bin: 8
bearing: -1.8597625494
intensity: 30.9025802612
---
header: 
  seq: 1144433
  stamp: 
    secs: 1561865260
    nsecs: 469532028
  frame_id: "ti_mmwave"
point_id: 13
x: 4.8203125
y: -0.306640625
z: 0.880859375
range: 5.22923660278
velocity: 0.0
doppler_bin: 8
bearing: -3.6399242878
intensity: 29.9431724548
---
header: 
  seq: 1144434
  stamp: 
    secs: 1561865260
    nsecs: 469548004
  frame_id: "ti_mmwave"
point_id: 14
x: 4.890625
y: -0.30859375
z: 0.701171875
range: 5.27281332016
velocity: 0.0
doppler_bin: 8
bearing: -3.61052203178
intensity: 31.0856494904
---
header: 
  seq: 1144435
  stamp: 
    secs: 1561865260
    nsecs: 469562218
  frame_id: "ti_mmwave"
point_id: 15
x: 4.951171875
y: -0.623046875
z: 0.03515625
range: 5.31639051437
velocity: 0.0
doppler_bin: 8
bearing: -7.17230129242
intensity: 29.8407707214
---
header: 
  seq: 1144436
  stamp: 
    secs: 1561865260
    nsecs: 469575425
  frame_id: "ti_mmwave"
point_id: 16
x: 0.009765625
y: 0.03125
z: 0.025390625
range: 0.0435769706964
velocity: 0.0
doppler_bin: 8
bearing: 72.6459732056
intensity: 29.3094902039
---
header: 
  seq: 1144437
  stamp: 
    secs: 1561865260
    nsecs: 469584975
  frame_id: "ti_mmwave"
point_id: 17
x: 0.041015625
y: -0.033203125
z: 0.0625
range: 0.0871539413929
velocity: 0.0
doppler_bin: 8
bearing: -38.9909973145
intensity: 30.0945091248
---
header: 
  seq: 1144438
  stamp: 
    secs: 1561865260
    nsecs: 469608467
  frame_id: "ti_mmwave"
point_id: 18
x: 0.044921875
y: -0.046875
z: 0.103515625
range: 0.130730912089
velocity: 0.0
doppler_bin: 8
bearing: -46.218875885
intensity: 28.9817657471
---
header: 
  seq: 1144439
  stamp: 
    secs: 1561865260
    nsecs: 527760933
  frame_id: "ti_mmwave"
point_id: 0
x: 0.01171875
y: -0.0390625
z: -0.0078125
range: 0.0435769706964
velocity: 0.0
doppler_bin: 8
bearing: -73.3007583618
intensity: 30.6483230591
---
header: 
  seq: 1144440
  stamp: 
    secs: 1561865260
    nsecs: 527837076
  frame_id: "ti_mmwave"
point_id: 1
x: 0.017578125
y: -0.080078125
z: -0.0078125
range: 0.0871539413929
velocity: 0.0
doppler_bin: 8
bearing: -77.6192398071
intensity: 31.9033164978
---
header: 
  seq: 1144441
  stamp: 
    secs: 1561865260
    nsecs: 527849456
  frame_id: "ti_mmwave"
point_id: 2
x: 0.029296875
y: -0.119140625
z: -0.005859375
range: 0.130730912089
velocity: 0.0
doppler_bin: 8
bearing: -76.1849746704
intensity: 30.1452045441
---
header: 
  seq: 1144442
  stamp: 
    secs: 1561865260
    nsecs: 527857786
  frame_id: "ti_mmwave"
point_id: 3
x: 0.056640625
y: -0.154296875
z: 0.005859375
range: 0.174307882786
velocity: 0.0
doppler_bin: 8
bearing: -69.8423843384
intensity: 25.4406795502
---
header: 
  seq: 1144443
  stamp: 
    secs: 1561865260
    nsecs: 527865722
  frame_id: "ti_mmwave"
point_id: 4
x: 0.66796875
y: -0.0390625
z: -1.078125
range: 1.35088610649
velocity: 0.0
doppler_bin: 8
bearing: -3.34681868553
intensity: 19.0848503113
---
header: 
  seq: 1144444
  stamp: 
    secs: 1561865260
    nsecs: 527873802
  frame_id: "ti_mmwave"
point_id: 5
x: 1.251953125
y: -0.205078125
z: 0.322265625
range: 1.39446306229
velocity: 0.0
doppler_bin: 8
bearing: -9.30280590057
intensity: 20.934217453
---
header: 
  seq: 1144445
  stamp: 
    secs: 1561865260
    nsecs: 527882314
  frame_id: "ti_mmwave"
point_id: 6
x: 1.33203125
y: -0.126953125
z: 0.173828125
range: 1.43804001808
velocity: 0.0
doppler_bin: 8
bearing: -5.44429636002
intensity: 24.4247970581
---
header: 
  seq: 1144446
  stamp: 
    secs: 1561865260
    nsecs: 527890091
  frame_id: "ti_mmwave"
point_id: 7
x: 1.30078125
y: -0.087890625
z: 0.484375
range: 1.48161697388
velocity: 0.0
doppler_bin: 8
bearing: -3.86546111107
intensity: 23.5024795532
---
header: 
  seq: 1144447
  stamp: 
    secs: 1561865260
    nsecs: 527902302
  frame_id: "ti_mmwave"
point_id: 8
x: 2.61328125
y: -0.17578125
z: 1.052734375
range: 3.00681090355
velocity: 0.0
doppler_bin: 8
bearing: -3.84817934036
intensity: 29.020029068
---
header: 
  seq: 1144448
  stamp: 
    secs: 1561865260
    nsecs: 527910367
  frame_id: "ti_mmwave"
point_id: 9
x: 2.689453125
y: -0.08984375
z: 0.978515625
range: 3.05038785934
velocity: 0.0
doppler_bin: 8
bearing: -1.91330885887
intensity: 32.2010803223
---
header: 
  seq: 1144449
  stamp: 
    secs: 1561865260
    nsecs: 527920675
  frame_id: "ti_mmwave"
point_id: 10
x: 2.73046875
y: -0.181640625
z: 0.9765625
range: 3.09396481514
velocity: 0.0
doppler_bin: 8
bearing: -3.80591416359
intensity: 31.1693973541
---
header: 
  seq: 1144450
  stamp: 
    secs: 1561865260
    nsecs: 527929069
  frame_id: "ti_mmwave"
point_id: 11
x: 4.4140625
y: -0.142578125
z: 1.21875
range: 4.88062095642
velocity: 0.0
doppler_bin: 8
bearing: -1.850061059
intensity: 31.2645606995
---
header: 
  seq: 1144451
  stamp: 
    secs: 1561865260
    nsecs: 527937610
  frame_id: "ti_mmwave"
point_id: 12
x: 4.453125
y: -0.14453125
z: 1.23046875
range: 4.9241976738
velocity: 0.0
doppler_bin: 8
bearing: -1.85894739628
intensity: 30.8206691742
---
header: 
  seq: 1144452
  stamp: 
    secs: 1561865260
    nsecs: 527997575
  frame_id: "ti_mmwave"
point_id: 13
x: 4.888671875
y: -0.30859375
z: 0.7109375
range: 5.27281332016
velocity: 0.0
doppler_bin: 8
bearing: -3.61196112633
intensity: 30.99335289
---
header: 
  seq: 1144453
  stamp: 
    secs: 1561865260
    nsecs: 528175936
  frame_id: "ti_mmwave"
point_id: 14
x: 4.951171875
y: -0.623046875
z: 0.015625
range: 5.31639051437
velocity: 0.0
doppler_bin: 8
bearing: -7.17230129242
intensity: 29.5760726929
---
header: 
  seq: 1144454
  stamp: 
    secs: 1561865260
    nsecs: 528197090
  frame_id: "ti_mmwave"
point_id: 15
x: 0.009765625
y: 0.03125
z: 0.025390625
range: 0.0435769706964
velocity: 0.0
doppler_bin: 8
bearing: 72.6459732056
intensity: 29.3094902039
---
header: 
  seq: 1144455
  stamp: 
    secs: 1561865260
    nsecs: 528209802
  frame_id: "ti_mmwave"
point_id: 16
x: 0.041015625
y: -0.033203125
z: 0.0625
range: 0.0871539413929
velocity: 0.0
doppler_bin: 8
bearing: -38.9909973145
intensity: 30.0902576447
---
header: 
  seq: 1144456
  stamp: 
    secs: 1561865260
    nsecs: 528248340
  frame_id: "ti_mmwave"
point_id: 17
x: 0.044921875
y: -0.046875
z: 0.103515625
range: 0.130730912089
velocity: 0.0
doppler_bin: 8
bearing: -46.218875885
intensity: 28.9762706757
---
header: 
  seq: 1144457
  stamp: 
    secs: 1561865260
    nsecs: 528262407
  frame_id: "ti_mmwave"
point_id: 19
x: 1.10546875
y: -0.474609375
z: 0.3984375
range: 1.35088610649
velocity: 0.0
doppler_bin: 8
bearing: -23.2352333069
intensity: 17.4036273956
---
header: 
  seq: 1144458
  stamp: 
    secs: 1561865260
    nsecs: 528270657
  frame_id: "ti_mmwave"
point_id: 20
x: 2.76953125
y: -0.0
z: 0.87109375
range: 3.09396481514
velocity: 0.0
doppler_bin: 8
bearing: -0.0
intensity: 31.1594314575
---
header: 
  seq: 1144459
  stamp: 
    secs: 1561865260
    nsecs: 587879950
  frame_id: "ti_mmwave"
point_id: 0
x: 0.01171875
y: -0.0390625
z: -0.0078125
range: 0.0435769706964
velocity: 0.0
doppler_bin: 8
bearing: -73.3007583618
intensity: 30.6483230591
---
header: 
  seq: 1144460
  stamp: 
    secs: 1561865260
    nsecs: 587993139
  frame_id: "ti_mmwave"
point_id: 1
x: 0.017578125
y: -0.080078125
z: -0.0078125
range: 0.0871539413929
velocity: 0.0
doppler_bin: 8
bearing: -77.6192398071
intensity: 31.9033164978
---
header: 
  seq: 1144461
  stamp: 
    secs: 1561865260
    nsecs: 588014539
  frame_id: "ti_mmwave"
point_id: 2
x: 0.029296875
y: -0.119140625
z: -0.005859375
range: 0.130730912089
velocity: 0.0
doppler_bin: 8
bearing: -76.1849746704
intensity: 30.1494026184
---
header: 
  seq: 1144462
  stamp: 
    secs: 1561865260
    nsecs: 588024187
  frame_id: "ti_mmwave"
point_id: 3
x: 0.056640625
y: -0.154296875
z: 0.005859375
range: 0.174307882786
velocity: 0.0
doppler_bin: 8
bearing: -69.8423843384
intensity: 25.4530715942
---
header: 
  seq: 1144463
  stamp: 
    secs: 1561865260
    nsecs: 588033000
  frame_id: "ti_mmwave"
point_id: 4
x: 1.021484375
y: -0.0390625
z: -0.75
range: 1.35088610649
velocity: 0.0
doppler_bin: 8
bearing: -2.18997621536
intensity: 24.8855075836
---
header: 
  seq: 1144464
  stamp: 
    secs: 1561865260
    nsecs: 588041462
  frame_id: "ti_mmwave"
point_id: 5
x: 1.189453125
y: -0.041015625
z: -0.546875
range: 1.39446306229
velocity: 0.0
doppler_bin: 8
bearing: -1.9749341011
intensity: 27.4973640442
---
header: 
  seq: 1144465
  stamp: 
    secs: 1561865260
    nsecs: 588051824
  frame_id: "ti_mmwave"
point_id: 6
x: 1.2890625
y: -0.04296875
z: -0.3984375
range: 1.43804001808
velocity: 0.0
doppler_bin: 8
bearing: -1.90915250778
intensity: 27.0757026672
---
header: 
  seq: 1144466
  stamp: 
    secs: 1561865260
    nsecs: 588060055
  frame_id: "ti_mmwave"
point_id: 7
x: 1.294921875
y: -0.0
z: -0.5078125
range: 1.48161697388
velocity: 0.0
doppler_bin: 8
bearing: -0.0
intensity: 23.5024795532
---
header: 
  seq: 1144467
  stamp: 
    secs: 1561865260
    nsecs: 588071800
  frame_id: "ti_mmwave"
point_id: 8
x: 2.6171875
y: -0.17578125
z: 1.0390625
range: 3.00681090355
velocity: 0.0
doppler_bin: 8
bearing: -3.84245300293
intensity: 29.0145835876
---
header: 
  seq: 1144468
  stamp: 
    secs: 1561865260
    nsecs: 588220660
  frame_id: "ti_mmwave"
point_id: 9
x: 2.69140625
y: -0.08984375
z: 0.974609375
range: 3.05038785934
velocity: 0.0
doppler_bin: 8
bearing: -1.91192126274
intensity: 32.1853561401
---
header: 
  seq: 1144469
  stamp: 
    secs: 1561865260
    nsecs: 588239721
  frame_id: "ti_mmwave"
point_id: 10
x: 2.7265625
y: -0.181640625
z: 0.982421875
range: 3.09396481514
velocity: 0.0
doppler_bin: 8
bearing: -3.81135106087
intensity: 31.095785141
---
header: 
  seq: 1144470
  stamp: 
    secs: 1561865260
    nsecs: 588248391
  frame_id: "ti_mmwave"
point_id: 11
x: 4.4140625
y: -0.142578125
z: 1.21484375
range: 4.88062095642
velocity: 0.0
doppler_bin: 8
bearing: -1.850061059
intensity: 31.225435257
---
header: 
  seq: 1144471
  stamp: 
    secs: 1561865260
    nsecs: 588256996
  frame_id: "ti_mmwave"
point_id: 12
x: 4.447265625
y: -0.14453125
z: 1.248046875
range: 4.9241976738
velocity: 0.0
doppler_bin: 8
bearing: -1.86139500141
intensity: 30.7298469543
---
header: 
  seq: 1144472
  stamp: 
    secs: 1561865260
    nsecs: 588295859
  frame_id: "ti_mmwave"
point_id: 13
x: 4.88671875
y: -0.30859375
z: 0.728515625
range: 5.27281332016
velocity: 0.0
doppler_bin: 8
bearing: -3.61340069771
intensity: 30.6669845581
---
header: 
  seq: 1144473
  stamp: 
    secs: 1561865260
    nsecs: 588308189
  frame_id: "ti_mmwave"
point_id: 14
x: 4.951171875
y: -0.623046875
z: 0.015625
range: 5.31639051437
velocity: 0.0
doppler_bin: 8
bearing: -7.17230129242
intensity: 29.3951931
---
header: 
  seq: 1144474
  stamp: 
    secs: 1561865260
    nsecs: 588319087
  frame_id: "ti_mmwave"
point_id: 15
x: 0.009765625
y: 0.03125
z: 0.025390625
range: 0.0435769706964
velocity: 0.0
doppler_bin: 8
bearing: 72.6459732056
intensity: 29.3094902039
---
header: 
  seq: 1144475
  stamp: 
    secs: 1561865260
    nsecs: 588327521
  frame_id: "ti_mmwave"
point_id: 16
x: 0.041015625
y: -0.033203125
z: 0.0625
range: 0.0871539413929
velocity: 0.0
doppler_bin: 8
bearing: -38.9909973145
intensity: 30.0902576447
---
header: 
  seq: 1144476
  stamp: 
    secs: 1561865260
    nsecs: 588338801
  frame_id: "ti_mmwave"
point_id: 17
x: 0.044921875
y: -0.046875
z: 0.103515625
range: 0.130730912089
velocity: 0.0
doppler_bin: 8
bearing: -46.218875885
intensity: 28.9817657471
---
header: 
  seq: 1144477
  stamp: 
    secs: 1561865260
    nsecs: 588400824
  frame_id: "ti_mmwave"
point_id: 19
x: 2.76953125
y: -0.0
z: 0.873046875
range: 3.09396481514
velocity: 0.0
doppler_bin: 8
bearing: -0.0
intensity: 31.0856494904
---
header: 
  seq: 1144478
  stamp: 
    secs: 1561865260
    nsecs: 589159729
  frame_id: "ti_mmwave"
point_id: 0
x: 0.01171875
y: -0.0390625
z: -0.0078125
range: 0.0435769706964
velocity: 0.0
doppler_bin: 8
bearing: -73.3007583618
intensity: 30.6408348083
---
header: 
  seq: 1144479
  stamp: 
    secs: 1561865260
    nsecs: 589224369
  frame_id: "ti_mmwave"
point_id: 1
x: 0.017578125
y: -0.080078125
z: -0.0078125
range: 0.0871539413929
velocity: 0.0
doppler_bin: 8
bearing: -77.6192398071
intensity: 31.9033164978
---
header: 
  seq: 1144480
  stamp: 
    secs: 1561865260
    nsecs: 589240871
  frame_id: "ti_mmwave"
point_id: 2
x: 0.029296875
y: -0.119140625
z: -0.005859375
range: 0.130730912089
velocity: 0.0
doppler_bin: 8
bearing: -76.1849746704
intensity: 30.1494026184
---
header: 
  seq: 1144481
  stamp: 
    secs: 1561865260
    nsecs: 589251070
  frame_id: "ti_mmwave"
point_id: 3
x: 0.056640625
y: -0.154296875
z: 0.005859375
range: 0.174307882786
velocity: 0.0
doppler_bin: 8
bearing: -69.8423843384
intensity: 25.4654273987
---
header: 
  seq: 1144482
  stamp: 
    secs: 1561865260
    nsecs: 589259900
  frame_id: "ti_mmwave"
point_id: 4
x: 0.310546875
y: -0.080078125
z: 1.2265625
range: 1.35088610649
velocity: 0.0
doppler_bin: 8
bearing: -14.4593963623
intensity: 20.4921798706
---
header: 
  seq: 1144483
  stamp: 
    secs: 1561865260
    nsecs: 589276577
  frame_id: "ti_mmwave"
point_id: 5
x: 1.447265625
y: -0.18359375
z: -0.203125
range: 1.56877088547
velocity: 0.0
doppler_bin: 8
bearing: -7.22967433929
intensity: 25.4530715942
---
header: 
  seq: 1144484
  stamp: 
    secs: 1561865260
    nsecs: 589290036
  frame_id: "ti_mmwave"
point_id: 6
x: 1.4375
y: -0.189453125
z: -0.435546875
range: 1.61234796047
velocity: 0.0
doppler_bin: 8
bearing: -7.50794029236
intensity: 28.6923179626
---
header: 
  seq: 1144485
  stamp: 
    secs: 1561865260
    nsecs: 589300241
  frame_id: "ti_mmwave"
point_id: 7
x: 1.474609375
y: -0.146484375
z: -0.470703125
range: 1.65592491627
velocity: 0.0
doppler_bin: 8
bearing: -5.6730222702
intensity: 28.6923179626
---
header: 
  seq: 1144486
  stamp: 
    secs: 1561865260
    nsecs: 589370300
  frame_id: "ti_mmwave"
point_id: 8
x: 2.61328125
y: -0.17578125
z: 1.052734375
range: 3.00681090355
velocity: 0.0
doppler_bin: 8
bearing: -3.84817934036
intensity: 28.9762706757
---
header: 
  seq: 1144487
  stamp: 
    secs: 1561865260
    nsecs: 589388462
  frame_id: "ti_mmwave"
point_id: 9
x: 2.689453125
y: -0.08984375
z: 0.98046875
range: 3.05038785934
velocity: 0.0
doppler_bin: 8
bearing: -1.91330885887
intensity: 32.1774711609
---
header: 
  seq: 1144488
  stamp: 
    secs: 1561865260
    nsecs: 589399999
  frame_id: "ti_mmwave"
point_id: 10
x: 2.75390625
y: -0.08984375
z: 0.91796875
range: 3.09396481514
velocity: 0.0
doppler_bin: 8
bearing: -1.86856126785
intensity: 31.1427726746
---
header: 
  seq: 1144489
  stamp: 
    secs: 1561865260
    nsecs: 589409178
  frame_id: "ti_mmwave"
point_id: 11
x: 4.416015625
y: -0.142578125
z: 1.208984375
range: 4.88062095642
velocity: 0.0
doppler_bin: 8
bearing: -1.84924340248
intensity: 31.3257980347
---
header: 
  seq: 1144490
  stamp: 
    secs: 1561865260
    nsecs: 589417154
  frame_id: "ti_mmwave"
point_id: 12
x: 4.44921875
y: -0.14453125
z: 1.2421875
range: 4.9241976738
velocity: 0.0
doppler_bin: 8
bearing: -1.86057829857
intensity: 30.8919830322
---
header: 
  seq: 1144491
  stamp: 
    secs: 1561865260
    nsecs: 589424873
  frame_id: "ti_mmwave"
point_id: 13
x: 4.880859375
y: -0.30859375
z: 0.755859375
range: 5.27281332016
velocity: 0.0
doppler_bin: 8
bearing: -3.61772704124
intensity: 30.9968070984
---
header: 
  seq: 1144492
  stamp: 
    secs: 1561865260
    nsecs: 589432492
  frame_id: "ti_mmwave"
point_id: 14
x: 4.951171875
y: -0.623046875
z: 0.078125
range: 5.31639051437
velocity: 0.0
doppler_bin: 8
bearing: -7.17230129242
intensity: 29.6988162994
---
header: 
  seq: 1144493
  stamp: 
    secs: 1561865260
    nsecs: 589440421
  frame_id: "ti_mmwave"
point_id: 15
x: 1.29296875
y: -0.08203125
z: 0.18359375
range: 1.39446306229
velocity: 0.614668667316
doppler_bin: 9
bearing: -3.63021397591
intensity: 23.9619941711
---
header: 
  seq: 1144494
  stamp: 
    secs: 1561865260
    nsecs: 589450276
  frame_id: "ti_mmwave"
point_id: 16
x: 1.34765625
y: -0.04296875
z: 0.078125
range: 1.43804001808
velocity: 0.614668667316
doppler_bin: 9
bearing: -1.82620322704
intensity: 26.7024593353
---
header: 
  seq: 1144495
  stamp: 
    secs: 1561865260
    nsecs: 589457935
  frame_id: "ti_mmwave"
point_id: 17
x: 1.380859375
y: -0.087890625
z: 0.1484375
range: 1.48161697388
velocity: 0.614668667316
doppler_bin: 9
bearing: -3.64191913605
intensity: 25.1054496765
---
header: 
  seq: 1144496
  stamp: 
    secs: 1561865260
    nsecs: 589463045
  frame_id: "ti_mmwave"
point_id: 18
x: 0.009765625
y: 0.03125
z: 0.025390625
range: 0.0435769706964
velocity: 0.0
doppler_bin: 8
bearing: 72.6459732056
intensity: 29.3094902039
---
header: 
  seq: 1144497
  stamp: 
    secs: 1561865260
    nsecs: 589480204
  frame_id: "ti_mmwave"
point_id: 19
x: 0.041015625
y: -0.033203125
z: 0.0625
range: 0.0871539413929
velocity: 0.0
doppler_bin: 8
bearing: -38.9909973145
intensity: 30.0860023499
---
header: 
  seq: 1144498
  stamp: 
    secs: 1561865260
    nsecs: 589493255
  frame_id: "ti_mmwave"
point_id: 20
x: 0.044921875
y: -0.046875
z: 0.103515625
range: 0.130730912089
velocity: 0.0
doppler_bin: 8
bearing: -46.218875885
intensity: 28.9762706757
---
header: 
  seq: 1144499
  stamp: 
    secs: 1561865260
    nsecs: 589511659
  frame_id: "ti_mmwave"
point_id: 22
x: 1.376953125
y: 0.388671875
z: 0.609375
range: 1.65592491627
velocity: 0.0
doppler_bin: 8
bearing: 15.762755394
intensity: 25.9217681885
---
header: 
  seq: 1144500
  stamp: 
    secs: 1561865260
    nsecs: 647655636
  frame_id: "ti_mmwave"
point_id: 0
x: 0.01171875
y: -0.0390625
z: -0.0078125
range: 0.0435769706964
velocity: 0.0
doppler_bin: 8
bearing: -73.3007583618
intensity: 30.6557979584
---
header: 
  seq: 1144501
  stamp: 
    secs: 1561865260
    nsecs: 647724353
  frame_id: "ti_mmwave"
point_id: 1
x: 0.017578125
y: -0.080078125
z: -0.0078125
range: 0.0871539413929
velocity: 0.0
doppler_bin: 8
bearing: -77.6192398071
intensity: 31.9061183929
---
header: 
  seq: 1144502
  stamp: 
    secs: 1561865260
    nsecs: 647735259
  frame_id: "ti_mmwave"
point_id: 2
x: 0.029296875
y: -0.119140625
z: -0.005859375
range: 0.130730912089
velocity: 0.0
doppler_bin: 8
bearing: -76.1849746704
intensity: 30.1452045441
---
header: 
  seq: 1144503
  stamp: 
    secs: 1561865260
    nsecs: 647743561
  frame_id: "ti_mmwave"
point_id: 3
x: 0.056640625
y: -0.154296875
z: 0.005859375
range: 0.174307882786
velocity: 0.0
doppler_bin: 8
bearing: -69.8423843384
intensity: 25.4406795502
---
header: 
  seq: 1144504
  stamp: 
    secs: 1561865260
    nsecs: 647754581
  frame_id: "ti_mmwave"
point_id: 4
x: 0.3125
y: -0.080078125
z: -1.2265625
range: 1.35088610649
velocity: 0.0
doppler_bin: 8
bearing: -14.3727788925
intensity: 23.6361198425
---
header: 
  seq: 1144505
  stamp: 
    secs: 1561865260
    nsecs: 647768872
  frame_id: "ti_mmwave"
point_id: 5
x: 0.8125
y: -0.041015625
z: -1.025390625
range: 1.39446306229
velocity: 0.0
doppler_bin: 8
bearing: -2.88988184929
intensity: 26.170003891
---
header: 
  seq: 1144506
  stamp: 
    secs: 1561865260
    nsecs: 647781151
  frame_id: "ti_mmwave"
point_id: 6
x: 1.28125
y: -0.0
z: -0.638671875
range: 1.52519392967
velocity: 0.0
doppler_bin: 8
bearing: -0.0
intensity: 24.2813472748
---
header: 
  seq: 1144507
  stamp: 
    secs: 1561865260
    nsecs: 647798502
  frame_id: "ti_mmwave"
point_id: 7
x: 1.44921875
y: 0.046875
z: -0.259765625
range: 1.56877088547
velocity: 0.0
doppler_bin: 8
bearing: 1.85258674622
intensity: 25.5990657806
---
header: 
  seq: 1144508
  stamp: 
    secs: 1561865260
    nsecs: 647807909
  frame_id: "ti_mmwave"
point_id: 8
x: 1.505859375
y: 0.142578125
z: -0.064453125
range: 1.61234796047
velocity: 0.0
doppler_bin: 8
bearing: 5.4087677002
intensity: 27.5891189575
---
header: 
  seq: 1144509
  stamp: 
    secs: 1561865260
    nsecs: 647824925
  frame_id: "ti_mmwave"
point_id: 9
x: 1.533203125
y: 0.2421875
z: 0.0703125
range: 1.65592491627
velocity: 0.0
doppler_bin: 8
bearing: 8.97637462616
intensity: 27.0415058136
---
header: 
  seq: 1144510
  stamp: 
    secs: 1561865260
    nsecs: 647837914
  frame_id: "ti_mmwave"
point_id: 10
x: 2.6171875
y: -0.17578125
z: 1.044921875
range: 3.00681090355
velocity: 0.0
doppler_bin: 8
bearing: -3.84245300293
intensity: 29.0091304779
---
header: 
  seq: 1144511
  stamp: 
    secs: 1561865260
    nsecs: 647851076
  frame_id: "ti_mmwave"
point_id: 11
x: 2.685546875
y: -0.08984375
z: 0.986328125
range: 3.05038785934
velocity: 0.0
doppler_bin: 8
bearing: -1.91608965397
intensity: 32.1748390198
---
header: 
  seq: 1144512
  stamp: 
    secs: 1561865260
    nsecs: 647864159
  frame_id: "ti_mmwave"
point_id: 12
x: 2.720703125
y: -0.181640625
z: 1.001953125
range: 3.09396481514
velocity: 0.0
doppler_bin: 8
bearing: -3.81953430176
intensity: 31.0822658539
---
header: 
  seq: 1144513
  stamp: 
    secs: 1561865260
    nsecs: 647879148
  frame_id: "ti_mmwave"
point_id: 13
x: 4.4140625
y: -0.142578125
z: 1.220703125
range: 4.88062095642
velocity: 0.0
doppler_bin: 8
bearing: -1.850061059
intensity: 31.3161869049
---
header: 
  seq: 1144514
  stamp: 
    secs: 1561865260
    nsecs: 647893706
  frame_id: "ti_mmwave"
point_id: 14
x: 4.451171875
y: -0.14453125
z: 1.236328125
range: 4.9241976738
velocity: 0.0
doppler_bin: 8
bearing: -1.8597625494
intensity: 30.8813610077
---
header: 
  seq: 1144515
  stamp: 
    secs: 1561865260
    nsecs: 647906743
  frame_id: "ti_mmwave"
point_id: 15
x: 4.89453125
y: -0.30859375
z: 0.66796875
range: 5.27281332016
velocity: 0.0
doppler_bin: 8
bearing: -3.60764837265
intensity: 30.7773113251
---
header: 
  seq: 1144516
  stamp: 
    secs: 1561865260
    nsecs: 647920732
  frame_id: "ti_mmwave"
point_id: 16
x: 4.951171875
y: -0.623046875
z: -0.060546875
range: 5.31639051437
velocity: 0.0
doppler_bin: 8
bearing: -7.17230129242
intensity: 29.4151134491
---
header: 
  seq: 1144517
  stamp: 
    secs: 1561865260
    nsecs: 647934129
  frame_id: "ti_mmwave"
point_id: 17
x: 1.341796875
y: -0.0
z: -0.146484375
range: 1.43804001808
velocity: 0.614668667316
doppler_bin: 9
bearing: -0.0
intensity: 26.4640369415
---
header: 
  seq: 1144518
  stamp: 
    secs: 1561865260
    nsecs: 647989004
  frame_id: "ti_mmwave"
point_id: 18
x: 1.37890625
y: -0.0
z: -0.1875
range: 1.48161697388
velocity: 0.614668667316
doppler_bin: 9
bearing: -0.0
intensity: 24.9968700409
---
header: 
  seq: 1144519
  stamp: 
    secs: 1561865260
    nsecs: 648031530
  frame_id: "ti_mmwave"
point_id: 19
x: 0.009765625
y: 0.03125
z: 0.025390625
range: 0.0435769706964
velocity: 0.0
doppler_bin: 8
bearing: 72.6459732056
intensity: 29.3094902039
---
header: 
  seq: 1144520
  stamp: 
    secs: 1561865260
    nsecs: 648122297
  frame_id: "ti_mmwave"
point_id: 20
x: 0.041015625
y: -0.033203125
z: 0.0625
range: 0.0871539413929
velocity: 0.0
doppler_bin: 8
bearing: -38.9909973145
intensity: 30.0945091248
---
header: 
  seq: 1144521
  stamp: 
    secs: 1561865260
    nsecs: 648141442
  frame_id: "ti_mmwave"
point_id: 21
x: 0.044921875
y: -0.046875
z: 0.103515625
range: 0.130730912089
velocity: 0.0
doppler_bin: 8
bearing: -46.218875885
intensity: 28.9817657471
---
header: 
  seq: 1144522
  stamp: 
    secs: 1561865260
    nsecs: 648159123
  frame_id: "ti_mmwave"
point_id: 23
x: 1.177734375
y: -0.33203125
z: -0.890625
range: 1.61234796047
velocity: 0.0
doppler_bin: 8
bearing: -15.7444019318
intensity: 26.3648796082
---
header: 
  seq: 1144523
  stamp: 
    secs: 1561865260
    nsecs: 648172222
  frame_id: "ti_mmwave"
point_id: 24
x: 1.251953125
y: -0.33984375
z: -0.857421875
range: 1.65592491627
velocity: 0.0
doppler_bin: 8
bearing: -15.1870260239
intensity: 26.7942790985
---
header: 
  seq: 1144524
  stamp: 
    secs: 1561865260
    nsecs: 648185467
  frame_id: "ti_mmwave"
point_id: 25
x: 2.763671875
y: -0.0
z: 0.892578125
range: 3.09396481514
velocity: 0.0
doppler_bin: 8
bearing: -0.0
intensity: 31.0788803101
---
header: 
  seq: 1144525
  stamp: 
    secs: 1561865260
    nsecs: 649170602
  frame_id: "ti_mmwave"
point_id: 0
x: 0.01171875
y: -0.0390625
z: -0.0078125
range: 0.0435769706964
velocity: 0.0
doppler_bin: 8
bearing: -73.3007583618
intensity: 30.6520614624
---
header: 
  seq: 1144526
  stamp: 
    secs: 1561865260
    nsecs: 649248819
  frame_id: "ti_mmwave"
point_id: 1
x: 0.017578125
y: -0.080078125
z: -0.0078125
range: 0.0871539413929
velocity: 0.0
doppler_bin: 8
bearing: -77.6192398071
intensity: 31.9033164978
---
header: 
  seq: 1144527
  stamp: 
    secs: 1561865260
    nsecs: 649267784
  frame_id: "ti_mmwave"
point_id: 2
x: 0.029296875
y: -0.119140625
z: -0.005859375
range: 0.130730912089
velocity: 0.0
doppler_bin: 8
bearing: -76.1849746704
intensity: 30.1452045441
---
header: 
  seq: 1144528
  stamp: 
    secs: 1561865260
    nsecs: 649283546
  frame_id: "ti_mmwave"
point_id: 3
x: 0.056640625
y: -0.154296875
z: 0.005859375
range: 0.174307882786
velocity: 0.0
doppler_bin: 8
bearing: -69.8423843384
intensity: 25.4530715942
---
header: 
  seq: 1144529
  stamp: 
    secs: 1561865260
    nsecs: 649363227
  frame_id: "ti_mmwave"
point_id: 4
x: 0.271484375
y: -0.080078125
z: 1.236328125
range: 1.35088610649
velocity: 0.0
doppler_bin: 8
bearing: -16.4341621399
intensity: 22.9446620941
---
header: 
  seq: 1144530
  stamp: 
    secs: 1561865260
    nsecs: 649380969
  frame_id: "ti_mmwave"
point_id: 5
x: 0.83203125
y: -0.123046875
z: 1.00390625
range: 1.39446306229
velocity: 0.0
doppler_bin: 8
bearing: -8.41234493256
intensity: 24.683473587
---
header: 
  seq: 1144531
  stamp: 
    secs: 1561865260
    nsecs: 649390034
  frame_id: "ti_mmwave"
point_id: 6
x: 1.419921875
y: -0.08984375
z: -0.1640625
range: 1.52519392967
velocity: 0.0
doppler_bin: 8
bearing: -3.62049126625
intensity: 26.0530509949
---
header: 
  seq: 1144532
  stamp: 
    secs: 1561865260
    nsecs: 649398443
  frame_id: "ti_mmwave"
point_id: 7
x: 1.40234375
y: -0.18359375
z: -0.408203125
range: 1.56877088547
velocity: 0.0
doppler_bin: 8
bearing: -7.45869827271
intensity: 26.3144378662
---
header: 
  seq: 1144533
  stamp: 
    secs: 1561865260
    nsecs: 649406183
  frame_id: "ti_mmwave"
point_id: 8
x: 1.44140625
y: -0.189453125
z: -0.421875
range: 1.61234796047
velocity: 0.0
doppler_bin: 8
bearing: -7.48782444
intensity: 29.3348731995
---
header: 
  seq: 1144534
  stamp: 
    secs: 1561865260
    nsecs: 649429247
  frame_id: "ti_mmwave"
point_id: 9
x: 1.474609375
y: -0.193359375
z: -0.451171875
range: 1.65592491627
velocity: 0.0
doppler_bin: 8
bearing: -7.47033596039
intensity: 29.2737045288
---
header: 
  seq: 1144535
  stamp: 
    secs: 1561865260
    nsecs: 649440089
  frame_id: "ti_mmwave"
point_id: 10
x: 2.607421875
y: -0.17578125
z: 1.068359375
range: 3.00681090355
velocity: 0.0
doppler_bin: 8
bearing: -3.8568007946
intensity: 28.9982051849
---
header: 
  seq: 1144536
  stamp: 
    secs: 1561865260
    nsecs: 649526980
  frame_id: "ti_mmwave"
point_id: 11
x: 2.685546875
y: -0.08984375
z: 0.98828125
range: 3.05038785934
velocity: 0.0
doppler_bin: 8
bearing: -1.91608965397
intensity: 32.1537322998
---
header: 
  seq: 1144537
  stamp: 
    secs: 1561865260
    nsecs: 649551368
  frame_id: "ti_mmwave"
point_id: 12
x: 2.76953125
y: -0.0
z: 0.875
range: 3.09396481514
velocity: 0.0
doppler_bin: 8
bearing: -0.0
intensity: 31.05169487
---
header: 
  seq: 1144538
  stamp: 
    secs: 1561865260
    nsecs: 649565539
  frame_id: "ti_mmwave"
point_id: 13
x: 4.419921875
y: -0.142578125
z: 1.1953125
range: 4.88062095642
velocity: 0.0
doppler_bin: 8
bearing: -1.847610116
intensity: 31.3353881836
---
header: 
  seq: 1144539
  stamp: 
    secs: 1561865260
    nsecs: 649579774
  frame_id: "ti_mmwave"
point_id: 14
x: 4.458984375
y: -0.14453125
z: 1.212890625
range: 4.9241976738
velocity: 0.0
doppler_bin: 8
bearing: -1.85650622845
intensity: 30.9131507874
---
header: 
  seq: 1144540
  stamp: 
    secs: 1561865260
    nsecs: 649634034
  frame_id: "ti_mmwave"
point_id: 15
x: 4.802734375
y: -0.154296875
z: 1.00390625
range: 5.22923660278
velocity: 0.0
doppler_bin: 8
bearing: -1.84010183811
intensity: 29.9738636017
---
header: 
  seq: 1144541
  stamp: 
    secs: 1561865260
    nsecs: 649649430
  frame_id: "ti_mmwave"
point_id: 16
x: 4.880859375
y: -0.30859375
z: 0.763671875
range: 5.27281332016
velocity: 0.0
doppler_bin: 8
bearing: -3.61772704124
intensity: 31.2188796997
---
header: 
  seq: 1144542
  stamp: 
    secs: 1561865260
    nsecs: 649666373
  frame_id: "ti_mmwave"
point_id: 17
x: 4.951171875
y: -0.623046875
z: 0.09375
range: 5.31639051437
velocity: 0.0
doppler_bin: 8
bearing: -7.17230129242
intensity: 29.8317508698
---
header: 
  seq: 1144543
  stamp: 
    secs: 1561865260
    nsecs: 649675852
  frame_id: "ti_mmwave"
point_id: 18
x: 1.345703125
y: -0.083984375
z: 0.080078125
range: 1.43804001808
velocity: 0.614668667316
doppler_bin: 9
bearing: -3.57115721703
intensity: 26.1595001221
---
header: 
  seq: 1144544
  stamp: 
    secs: 1561865260
    nsecs: 649684623
  frame_id: "ti_mmwave"
point_id: 19
x: 1.388671875
y: -0.04296875
z: -0.052734375
range: 1.48161697388
velocity: 0.614668667316
doppler_bin: 9
bearing: -1.77229964733
intensity: 26.9548168182
---
header: 
  seq: 1144545
  stamp: 
    secs: 1561865260
    nsecs: 649696936
  frame_id: "ti_mmwave"
point_id: 20
x: 0.009765625
y: 0.03125
z: 0.025390625
range: 0.0435769706964
velocity: 0.0
doppler_bin: 8
bearing: 72.6459732056
intensity: 29.3094902039
---
header: 
  seq: 1144546
  stamp: 
    secs: 1561865260
    nsecs: 649709481
  frame_id: "ti_mmwave"
point_id: 21
x: 0.041015625
y: -0.033203125
z: 0.0625
range: 0.0871539413929
velocity: 0.0
doppler_bin: 8
bearing: -38.9909973145
intensity: 30.0860023499
---
header: 
  seq: 1144547
  stamp: 
    secs: 1561865260
    nsecs: 649726439
  frame_id: "ti_mmwave"
point_id: 22
x: 0.044921875
y: -0.046875
z: 0.103515625
range: 0.130730912089
velocity: 0.0
doppler_bin: 8
bearing: -46.218875885
intensity: 28.9707698822
---
header: 
  seq: 1144548
  stamp: 
    secs: 1561865260
    nsecs: 649842808
  frame_id: "ti_mmwave"
point_id: 24
x: 2.7265625
y: -0.181640625
z: 0.984375
range: 3.09396481514
velocity: 0.0
doppler_bin: 8
bearing: -3.81135106087
intensity: 31.0482845306
---
header: 
  seq: 1144549
  stamp: 
    secs: 1561865260
    nsecs: 707598005
  frame_id: "ti_mmwave"
point_id: 0
x: 0.01171875
y: -0.0390625
z: -0.0078125
range: 0.0435769706964
velocity: 0.0
doppler_bin: 8
bearing: -73.3007583618
intensity: 30.6483230591
---
header: 
  seq: 1144550
  stamp: 
    secs: 1561865260
    nsecs: 707666373
  frame_id: "ti_mmwave"
point_id: 1
x: 0.017578125
y: -0.080078125
z: -0.0078125
range: 0.0871539413929
velocity: 0.0
doppler_bin: 8
bearing: -77.6192398071
intensity: 31.9005146027
---
header: 
  seq: 1144551
  stamp: 
    secs: 1561865260
    nsecs: 707677231
  frame_id: "ti_mmwave"
point_id: 2
x: 0.029296875
y: -0.119140625
z: -0.005859375
range: 0.130730912089
velocity: 0.0
doppler_bin: 8
bearing: -76.1849746704
intensity: 30.1452045441
---
header: 
  seq: 1144552
  stamp: 
    secs: 1561865260
    nsecs: 707685825
  frame_id: "ti_mmwave"
point_id: 3
x: 0.056640625
y: -0.154296875
z: 0.005859375
range: 0.174307882786
velocity: 0.0
doppler_bin: 8
bearing: -69.8423843384
intensity: 25.4406795502
---
header: 
  seq: 1144553
  stamp: 
    secs: 1561865260
    nsecs: 707696337
  frame_id: "ti_mmwave"
point_id: 4
x: 0.14453125
y: -0.080078125
z: 1.2578125
range: 1.35088610649
velocity: 0.0
doppler_bin: 8
bearing: -28.9888248444
intensity: 23.138671875
---
header: 
  seq: 1144554
  stamp: 
    secs: 1561865260
    nsecs: 707704819
  frame_id: "ti_mmwave"
point_id: 5
x: 0.1796875
y: -0.08203125
z: 1.294921875
range: 1.39446306229
velocity: 0.0
doppler_bin: 8
bearing: -24.5377292633
intensity: 24.9415454865
---
header: 
  seq: 1144555
  stamp: 
    secs: 1561865260
    nsecs: 707713112
  frame_id: "ti_mmwave"
point_id: 6
x: 0.48828125
y: -0.083984375
z: -1.255859375
range: 1.43804001808
velocity: 0.0
doppler_bin: 8
bearing: -9.75938129425
intensity: 24.5024909973
---
header: 
  seq: 1144556
  stamp: 
    secs: 1561865260
    nsecs: 707721290
  frame_id: "ti_mmwave"
point_id: 7
x: 1.46875
y: -0.046875
z: -0.0859375
range: 1.56877088547
velocity: 0.0
doppler_bin: 8
bearing: -1.82796823978
intensity: 26.8930892944
---
header: 
  seq: 1144557
  stamp: 
    secs: 1561865260
    nsecs: 707732270
  frame_id: "ti_mmwave"
point_id: 8
x: 1.505859375
y: -0.09375
z: -0.125
range: 1.61234796047
velocity: 0.0
doppler_bin: 8
bearing: -3.56245470047
intensity: 29.2788333893
---
header: 
  seq: 1144558
  stamp: 
    secs: 1561865260
    nsecs: 707824390
  frame_id: "ti_mmwave"
point_id: 9
x: 1.533203125
y: -0.2421875
z: 0.0703125
range: 1.65592491627
velocity: 0.0
doppler_bin: 8
bearing: -8.97637462616
intensity: 28.2736930847
---
header: 
  seq: 1144559
  stamp: 
    secs: 1561865260
    nsecs: 707834182
  frame_id: "ti_mmwave"
point_id: 10
x: 2.607421875
y: -0.17578125
z: 1.068359375
range: 3.00681090355
velocity: 0.0
doppler_bin: 8
bearing: -3.8568007946
intensity: 29.020029068
---
header: 
  seq: 1144560
  stamp: 
    secs: 1561865260
    nsecs: 707843653
  frame_id: "ti_mmwave"
point_id: 11
x: 2.6875
y: -0.08984375
z: 0.982421875
range: 3.05038785934
velocity: 0.0
doppler_bin: 8
bearing: -1.91469812393
intensity: 32.2036972046
---
header: 
  seq: 1144561
  stamp: 
    secs: 1561865260
    nsecs: 707851094
  frame_id: "ti_mmwave"
point_id: 12
x: 2.728515625
y: -0.181640625
z: 0.98046875
range: 3.09396481514
velocity: 0.0
doppler_bin: 8
bearing: -3.80863046646
intensity: 31.1561050415
---
header: 
  seq: 1144562
  stamp: 
    secs: 1561865260
    nsecs: 707858483
  frame_id: "ti_mmwave"
point_id: 13
x: 4.4140625
y: -0.142578125
z: 1.22265625
range: 4.88062095642
velocity: 0.0
doppler_bin: 8
bearing: -1.850061059
intensity: 31.1327476501
---
header: 
  seq: 1144563
  stamp: 
    secs: 1561865260
    nsecs: 707866269
  frame_id: "ti_mmwave"
point_id: 14
x: 4.44921875
y: -0.14453125
z: 1.248046875
range: 4.9241976738
velocity: 0.0
doppler_bin: 8
bearing: -1.86057829857
intensity: 30.6333332062
---
header: 
  seq: 1144564
  stamp: 
    secs: 1561865260
    nsecs: 707873759
  frame_id: "ti_mmwave"
point_id: 15
x: 4.880859375
y: -0.30859375
z: 0.76171875
range: 5.27281332016
velocity: 0.0
doppler_bin: 8
bearing: -3.61772704124
intensity: 30.5230903625
---
header: 
  seq: 1144565
  stamp: 
    secs: 1561865260
    nsecs: 707881207
  frame_id: "ti_mmwave"
point_id: 16
x: 4.947265625
y: -0.623046875
z: 0.19140625
range: 5.31639051437
velocity: 0.0
doppler_bin: 8
bearing: -7.17790555954
intensity: 29.2220630646
---
header: 
  seq: 1144566
  stamp: 
    secs: 1561865260
    nsecs: 707891431
  frame_id: "ti_mmwave"
point_id: 17
x: 1.384765625
y: -0.087890625
z: -0.08203125
range: 1.48161697388
velocity: 0.614668667316
doppler_bin: 9
bearing: -3.63167357445
intensity: 24.857213974
---
header: 
  seq: 1144567
  stamp: 
    secs: 1561865260
    nsecs: 707933212
  frame_id: "ti_mmwave"
point_id: 18
x: 1.427734375
y: -0.08984375
z: 0.07421875
range: 1.52519392967
velocity: 0.614668667316
doppler_bin: 9
bearing: -3.60073232651
intensity: 23.6921577454
---
header: 
  seq: 1144568
  stamp: 
    secs: 1561865260
    nsecs: 707975859
  frame_id: "ti_mmwave"
point_id: 19
x: 0.009765625
y: 0.03125
z: 0.025390625
range: 0.0435769706964
velocity: 0.0
doppler_bin: 8
bearing: 72.6459732056
intensity: 29.3094902039
---
header: 
  seq: 1144569
  stamp: 
    secs: 1561865260
    nsecs: 707993968
  frame_id: "ti_mmwave"
point_id: 20
x: 0.041015625
y: -0.033203125
z: 0.0625
range: 0.0871539413929
velocity: 0.0
doppler_bin: 8
bearing: -38.9909973145
intensity: 30.0902576447
---
header: 
  seq: 1144570
  stamp: 
    secs: 1561865260
    nsecs: 708005922
  frame_id: "ti_mmwave"
point_id: 21
x: 0.044921875
y: -0.046875
z: 0.103515625
range: 0.130730912089
velocity: 0.0
doppler_bin: 8
bearing: -46.218875885
intensity: 28.9762706757
---
header: 
  seq: 1144571
  stamp: 
    secs: 1561865260
    nsecs: 708016910
  frame_id: "ti_mmwave"
point_id: 23
x: 0.353515625
y: 0.630859375
z: 1.375
range: 1.65592491627
velocity: 0.0
doppler_bin: 8
bearing: 60.7349700928
intensity: 26.1172332764
---
header: 
  seq: 1144572
  stamp: 
    secs: 1561865260
    nsecs: 708024707
  frame_id: "ti_mmwave"
point_id: 24
x: 2.76953125
y: -0.0
z: 0.876953125
range: 3.09396481514
velocity: 0.0
doppler_bin: 8
bearing: -0.0
intensity: 31.1394329071
---
header: 
  seq: 1144573
  stamp: 
    secs: 1561865260
    nsecs: 709085275
  frame_id: "ti_mmwave"
point_id: 0
x: 0.01171875
y: -0.0390625
z: -0.0078125
range: 0.0435769706964
velocity: 0.0
doppler_bin: 8
bearing: -73.3007583618
intensity: 30.6520614624
---
header: 
  seq: 1144574
  stamp: 
    secs: 1561865260
    nsecs: 709128936
  frame_id: "ti_mmwave"
point_id: 1
x: 0.017578125
y: -0.080078125
z: -0.0078125
range: 0.0871539413929
velocity: 0.0
doppler_bin: 8
bearing: -77.6192398071
intensity: 31.9005146027
---
header: 
  seq: 1144575
  stamp: 
    secs: 1561865260
    nsecs: 709145740
  frame_id: "ti_mmwave"
point_id: 2
x: 0.029296875
y: -0.119140625
z: -0.005859375
range: 0.130730912089
velocity: 0.0
doppler_bin: 8
bearing: -76.1849746704
intensity: 30.1452045441
---
header: 
  seq: 1144576
  stamp: 
    secs: 1561865260
    nsecs: 709158021
  frame_id: "ti_mmwave"
point_id: 3
x: 0.056640625
y: -0.154296875
z: 0.005859375
range: 0.174307882786
velocity: 0.0
doppler_bin: 8
bearing: -69.8423843384
intensity: 25.4406795502
---
header: 
  seq: 1144577
  stamp: 
    secs: 1561865260
    nsecs: 709170431
  frame_id: "ti_mmwave"
point_id: 4
x: 0.099609375
y: -0.080078125
z: 1.26171875
range: 1.35088610649
velocity: 0.0
doppler_bin: 8
bearing: -38.7965545654
intensity: 23.0535144806
---
header: 
  seq: 1144578
  stamp: 
    secs: 1561865260
    nsecs: 709181408
  frame_id: "ti_mmwave"
point_id: 5
x: 0.31640625
y: -0.08203125
z: 1.267578125
range: 1.39446306229
velocity: 0.0
doppler_bin: 8
bearing: -14.5344543457
intensity: 24.5484485626
---
header: 
  seq: 1144579
  stamp: 
    secs: 1561865260
    nsecs: 709195087
  frame_id: "ti_mmwave"
point_id: 6
x: 0.4453125
y: -0.083984375
z: 1.271484375
range: 1.43804001808
velocity: 0.0
doppler_bin: 8
bearing: -10.6803331375
intensity: 22.6717166901
---
header: 
  seq: 1144580
  stamp: 
    secs: 1561865260
    nsecs: 709208207
  frame_id: "ti_mmwave"
point_id: 7
x: 1.453125
y: -0.138671875
z: -0.19140625
range: 1.56877088547
velocity: 0.0
doppler_bin: 8
bearing: -5.45123434067
intensity: 28.4073314667
---
header: 
  seq: 1144581
  stamp: 
    secs: 1561865260
    nsecs: 709219349
  frame_id: "ti_mmwave"
point_id: 8
x: 1.494140625
y: -0.142578125
z: -0.1953125
range: 1.61234796047
velocity: 0.0
doppler_bin: 8
bearing: -5.45093536377
intensity: 31.4736709595
---
header: 
  seq: 1144582
  stamp: 
    secs: 1561865260
    nsecs: 709234130
  frame_id: "ti_mmwave"
point_id: 9
x: 1.537109375
y: -0.09765625
z: -0.205078125
range: 1.65592491627
velocity: 0.0
doppler_bin: 8
bearing: -3.63525295258
intensity: 31.1159858704
---
header: 
  seq: 1144583
  stamp: 
    secs: 1561865260
    nsecs: 709247623
  frame_id: "ti_mmwave"
point_id: 10
x: 1.583984375
y: -0.05078125
z: -0.181640625
range: 1.69950187206
velocity: 0.0
doppler_bin: 8
bearing: -1.83622694016
intensity: 26.9897003174
---
header: 
  seq: 1144584
  stamp: 
    secs: 1561865260
    nsecs: 709262061
  frame_id: "ti_mmwave"
point_id: 11
x: 2.619140625
y: -0.17578125
z: 1.03515625
range: 3.00681090355
velocity: 0.0
doppler_bin: 8
bearing: -3.83959650993
intensity: 29.0036716461
---
header: 
  seq: 1144585
  stamp: 
    secs: 1561865260
    nsecs: 709277623
  frame_id: "ti_mmwave"
point_id: 12
x: 2.689453125
y: -0.08984375
z: 0.978515625
range: 3.05038785934
velocity: 0.0
doppler_bin: 8
bearing: -1.91330885887
intensity: 32.1590194702
---
header: 
  seq: 1144586
  stamp: 
    secs: 1561865260
    nsecs: 709404608
  frame_id: "ti_mmwave"
point_id: 13
x: 2.767578125
y: -0.0
z: 0.880859375
range: 3.09396481514
velocity: 0.0
doppler_bin: 8
bearing: -0.0
intensity: 31.0687046051
---
header: 
  seq: 1144587
  stamp: 
    secs: 1561865260
    nsecs: 709417396
  frame_id: "ti_mmwave"
point_id: 14
x: 4.4140625
y: -0.142578125
z: 1.21875
range: 4.88062095642
velocity: 0.0
doppler_bin: 8
bearing: -1.850061059
intensity: 31.1294002533
---
