header: 
  seq: 1120858
  stamp: 
    secs: 1561865222
    nsecs: 967615005
  frame_id: "ti_mmwave"
point_id: 0
x: 0.01171875
y: -0.0390625
z: -0.0078125
range: 0.0435769706964
velocity: 0.0
doppler_bin: 8
bearing: -73.3007583618
intensity: 30.6520614624
---
header: 
  seq: 1120859
  stamp: 
    secs: 1561865222
    nsecs: 967721037
  frame_id: "ti_mmwave"
point_id: 1
x: 0.017578125
y: -0.080078125
z: -0.0078125
range: 0.0871539413929
velocity: 0.0
doppler_bin: 8
bearing: -77.6192398071
intensity: 31.9061183929
---
header: 
  seq: 1120860
  stamp: 
    secs: 1561865222
    nsecs: 967740910
  frame_id: "ti_mmwave"
point_id: 2
x: 0.029296875
y: -0.119140625
z: -0.005859375
range: 0.130730912089
velocity: 0.0
doppler_bin: 8
bearing: -76.1849746704
intensity: 30.1535968781
---
header: 
  seq: 1120861
  stamp: 
    secs: 1561865222
    nsecs: 967754694
  frame_id: "ti_mmwave"
point_id: 3
x: 0.056640625
y: -0.154296875
z: 0.005859375
range: 0.174307882786
velocity: 0.0
doppler_bin: 8
bearing: -69.8423843384
intensity: 25.4530715942
---
header: 
  seq: 1120862
  stamp: 
    secs: 1561865222
    nsecs: 967768356
  frame_id: "ti_mmwave"
point_id: 4
x: 0.119140625
y: -0.080078125
z: 1.259765625
range: 1.35088610649
velocity: 0.0
doppler_bin: 8
bearing: -33.9062767029
intensity: 23.0749607086
---
header: 
  seq: 1120863
  stamp: 
    secs: 1561865222
    nsecs: 967783148
  frame_id: "ti_mmwave"
point_id: 5
x: 0.083984375
y: -0.08203125
z: 1.3046875
range: 1.39446306229
velocity: 0.0
doppler_bin: 8
bearing: -44.3259658813
intensity: 24.727563858
---
header: 
  seq: 1120864
  stamp: 
    secs: 1561865222
    nsecs: 967796977
  frame_id: "ti_mmwave"
point_id: 6
x: 0.48828125
y: -0.083984375
z: -1.255859375
range: 1.43804001808
velocity: 0.0
doppler_bin: 8
bearing: -9.75938129425
intensity: 24.1830120087
---
header: 
  seq: 1120865
  stamp: 
    secs: 1561865222
    nsecs: 967811166
  frame_id: "ti_mmwave"
point_id: 7
x: 2.615234375
y: -0.17578125
z: 1.044921875
range: 3.00681090355
velocity: 0.0
doppler_bin: 8
bearing: -3.84531402588
intensity: 28.9762706757
---
header: 
  seq: 1120866
  stamp: 
    secs: 1561865222
    nsecs: 967826731
  frame_id: "ti_mmwave"
point_id: 8
x: 2.689453125
y: -0.08984375
z: 0.98046875
range: 3.05038785934
velocity: 0.0
doppler_bin: 8
bearing: -1.91330885887
intensity: 32.1958465576
---
header: 
  seq: 1120867
  stamp: 
    secs: 1561865222
    nsecs: 967841101
  frame_id: "ti_mmwave"
point_id: 9
x: 2.767578125
y: -0.0
z: 0.87890625
range: 3.09396481514
velocity: 0.0
doppler_bin: 8
bearing: -0.0
intensity: 31.1260509491
---
header: 
  seq: 1120868
  stamp: 
    secs: 1561865222
    nsecs: 967861535
  frame_id: "ti_mmwave"
point_id: 10
x: 4.41796875
y: -0.142578125
z: 1.20703125
range: 4.88062095642
velocity: 0.0
doppler_bin: 8
bearing: -1.84842634201
intensity: 31.2742881775
---
header: 
  seq: 1120869
  stamp: 
    secs: 1561865222
    nsecs: 967937730
  frame_id: "ti_mmwave"
point_id: 11
x: 4.447265625
y: -0.14453125
z: 1.25390625
range: 4.9241976738
velocity: 0.0
doppler_bin: 8
bearing: -1.86139500141
intensity: 30.8098697662
---
header: 
  seq: 1120870
  stamp: 
    secs: 1561865222
    nsecs: 967994946
  frame_id: "ti_mmwave"
point_id: 12
x: 4.80859375
y: -0.154296875
z: 0.978515625
range: 5.22923660278
velocity: 0.0
doppler_bin: 8
bearing: -1.8378610611
intensity: 30.2201576233
---
header: 
  seq: 1120871
  stamp: 
    secs: 1561865222
    nsecs: 968013624
  frame_id: "ti_mmwave"
point_id: 13
x: 4.873046875
y: -0.30859375
z: 0.806640625
range: 5.27281332016
velocity: 0.0
doppler_bin: 8
bearing: -3.62351131439
intensity: 31.4332714081
---
header: 
  seq: 1120872
  stamp: 
    secs: 1561865222
    nsecs: 968030346
  frame_id: "ti_mmwave"
point_id: 14
x: 4.962890625
y: -0.46875
z: 0.240234375
range: 5.31639051437
velocity: 0.0
doppler_bin: 8
bearing: -5.39563703537
intensity: 29.637878418
---
header: 
  seq: 1120873
  stamp: 
    secs: 1561865222
    nsecs: 968047064
  frame_id: "ti_mmwave"
point_id: 15
x: 0.009765625
y: 0.03125
z: 0.025390625
range: 0.0435769706964
velocity: 0.0
doppler_bin: 8
bearing: 72.6459732056
intensity: 29.31457901
---
header: 
  seq: 1120874
  stamp: 
    secs: 1561865222
    nsecs: 968061510
  frame_id: "ti_mmwave"
point_id: 16
x: 0.041015625
y: -0.033203125
z: 0.0625
range: 0.0871539413929
velocity: 0.0
doppler_bin: 8
bearing: -38.9909973145
intensity: 30.0987567902
---
header: 
  seq: 1120875
  stamp: 
    secs: 1561865222
    nsecs: 968077909
  frame_id: "ti_mmwave"
point_id: 17
x: 0.044921875
y: -0.046875
z: 0.103515625
range: 0.130730912089
velocity: 0.0
doppler_bin: 8
bearing: -46.218875885
intensity: 28.9872512817
---
header: 
  seq: 1120876
  stamp: 
    secs: 1561865222
    nsecs: 968097438
  frame_id: "ti_mmwave"
point_id: 19
x: 2.7265625
y: -0.181640625
z: 0.984375
range: 3.09396481514
velocity: 0.0
doppler_bin: 8
bearing: -3.81135106087
intensity: 31.1126251221
---
header: 
  seq: 1120877
  stamp: 
    secs: 1561865222
    nsecs: 968886088
  frame_id: "ti_mmwave"
point_id: 0
x: 0.01171875
y: -0.0390625
z: -0.0078125
range: 0.0435769706964
velocity: 0.0
doppler_bin: 8
bearing: -73.3007583618
intensity: 30.6595306396
---
header: 
  seq: 1120878
  stamp: 
    secs: 1561865222
    nsecs: 969018565
  frame_id: "ti_mmwave"
point_id: 1
x: 0.017578125
y: -0.080078125
z: -0.0078125
range: 0.0871539413929
velocity: 0.0
doppler_bin: 8
bearing: -77.6192398071
intensity: 31.9061183929
---
header: 
  seq: 1120879
  stamp: 
    secs: 1561865222
    nsecs: 969146014
  frame_id: "ti_mmwave"
point_id: 2
x: 0.029296875
y: -0.119140625
z: -0.005859375
range: 0.130730912089
velocity: 0.0
doppler_bin: 8
bearing: -76.1849746704
intensity: 30.1452045441
---
header: 
  seq: 1120880
  stamp: 
    secs: 1561865222
    nsecs: 969162251
  frame_id: "ti_mmwave"
point_id: 3
x: 0.056640625
y: -0.154296875
z: 0.005859375
range: 0.174307882786
velocity: 0.0
doppler_bin: 8
bearing: -69.8423843384
intensity: 25.4282550812
---
header: 
  seq: 1120881
  stamp: 
    secs: 1561865222
    nsecs: 969178159
  frame_id: "ti_mmwave"
point_id: 5
x: 0.400390625
y: -0.08203125
z: 1.244140625
range: 1.39446306229
velocity: 0.0
doppler_bin: 8
bearing: -11.578420639
intensity: 23.6921577454
---
header: 
  seq: 1120882
  stamp: 
    secs: 1561865222
    nsecs: 969190271
  frame_id: "ti_mmwave"
point_id: 6
x: 1.189453125
y: -0.2109375
z: 0.603515625
range: 1.43804001808
velocity: 0.0
doppler_bin: 8
bearing: -10.0562763214
intensity: 23.8201713562
---
header: 
  seq: 1120883
  stamp: 
    secs: 1561865222
    nsecs: 969200349
  frame_id: "ti_mmwave"
point_id: 7
x: 1.337890625
y: -0.130859375
z: 0.359375
range: 1.48161697388
velocity: 0.0
doppler_bin: 8
bearing: -5.58634328842
intensity: 25.965970993
---
header: 
  seq: 1120884
  stamp: 
    secs: 1561865222
    nsecs: 969213381
  frame_id: "ti_mmwave"
point_id: 8
x: 1.3984375
y: -0.08984375
z: 0.291015625
range: 1.52519392967
velocity: 0.0
doppler_bin: 8
bearing: -3.6759622097
intensity: 25.3019962311
---
header: 
  seq: 1120885
  stamp: 
    secs: 1561865222
    nsecs: 969228432
  frame_id: "ti_mmwave"
point_id: 9
x: 2.619140625
y: -0.17578125
z: 1.03515625
range: 3.00681090355
velocity: 0.0
doppler_bin: 8
bearing: -3.83959650993
intensity: 29.0308990479
---
header: 
  seq: 1120886
  stamp: 
    secs: 1561865222
    nsecs: 969277103
  frame_id: "ti_mmwave"
point_id: 10
x: 2.689453125
y: -0.08984375
z: 0.98046875
range: 3.05038785934
velocity: 0.0
doppler_bin: 8
bearing: -1.91330885887
intensity: 32.1879806519
---
header: 
  seq: 1120887
  stamp: 
    secs: 1561865222
    nsecs: 969288625
  frame_id: "ti_mmwave"
point_id: 11
x: 2.751953125
y: -0.08984375
z: 0.923828125
range: 3.09396481514
velocity: 0.0
doppler_bin: 8
bearing: -1.86988639832
intensity: 31.1327476501
---
header: 
  seq: 1120888
  stamp: 
    secs: 1561865222
    nsecs: 969301547
  frame_id: "ti_mmwave"
point_id: 12
x: 4.4140625
y: -0.142578125
z: 1.22265625
range: 4.88062095642
velocity: 0.0
doppler_bin: 8
bearing: -1.850061059
intensity: 31.1660766602
---
header: 
  seq: 1120889
  stamp: 
    secs: 1561865222
    nsecs: 969313659
  frame_id: "ti_mmwave"
point_id: 13
x: 4.44921875
y: -0.14453125
z: 1.24609375
range: 4.9241976738
velocity: 0.0
doppler_bin: 8
bearing: -1.86057829857
intensity: 30.788192749
---
header: 
  seq: 1120890
  stamp: 
    secs: 1561865222
    nsecs: 969324900
  frame_id: "ti_mmwave"
point_id: 14
x: 4.87109375
y: -0.30859375
z: 0.8203125
range: 5.27281332016
velocity: 0.0
doppler_bin: 8
bearing: -3.62496066093
intensity: 31.1092624664
---
header: 
  seq: 1120891
  stamp: 
    secs: 1561865222
    nsecs: 969336676
  frame_id: "ti_mmwave"
point_id: 15
x: 4.935546875
y: -0.623046875
z: 0.40625
range: 5.31639051437
velocity: 0.0
doppler_bin: 8
bearing: -7.19477033615
intensity: 29.6754798889
---
header: 
  seq: 1120892
  stamp: 
    secs: 1561865222
    nsecs: 969348385
  frame_id: "ti_mmwave"
point_id: 16
x: 0.009765625
y: 0.03125
z: 0.025390625
range: 0.0435769706964
velocity: 0.0
doppler_bin: 8
bearing: 72.6459732056
intensity: 29.31457901
---
header: 
  seq: 1120893
  stamp: 
    secs: 1561865222
    nsecs: 969359777
  frame_id: "ti_mmwave"
point_id: 17
x: 0.041015625
y: -0.033203125
z: 0.0625
range: 0.0871539413929
velocity: 0.0
doppler_bin: 8
bearing: -38.9909973145
intensity: 30.0902576447
---
header: 
  seq: 1120894
  stamp: 
    secs: 1561865222
    nsecs: 969371876
  frame_id: "ti_mmwave"
point_id: 18
x: 0.044921875
y: -0.046875
z: 0.103515625
range: 0.130730912089
velocity: 0.0
doppler_bin: 8
bearing: -46.218875885
intensity: 28.9707698822
---
header: 
  seq: 1120895
  stamp: 
    secs: 1561865223
    nsecs:  27726136
  frame_id: "ti_mmwave"
point_id: 0
x: 0.01171875
y: -0.0390625
z: -0.0078125
range: 0.0435769706964
velocity: 0.0
doppler_bin: 8
bearing: -73.3007583618
intensity: 30.6595306396
---
header: 
  seq: 1120896
  stamp: 
    secs: 1561865223
    nsecs:  27802630
  frame_id: "ti_mmwave"
point_id: 1
x: 0.017578125
y: -0.080078125
z: -0.0078125
range: 0.0871539413929
velocity: 0.0
doppler_bin: 8
bearing: -77.6192398071
intensity: 31.9117145538
---
header: 
  seq: 1120897
  stamp: 
    secs: 1561865223
    nsecs:  27814456
  frame_id: "ti_mmwave"
point_id: 2
x: 0.029296875
y: -0.119140625
z: -0.005859375
range: 0.130730912089
velocity: 0.0
doppler_bin: 8
bearing: -76.1849746704
intensity: 30.157787323
---
header: 
  seq: 1120898
  stamp: 
    secs: 1561865223
    nsecs:  27822928
  frame_id: "ti_mmwave"
point_id: 3
x: 0.056640625
y: -0.154296875
z: 0.005859375
range: 0.174307882786
velocity: 0.0
doppler_bin: 8
bearing: -69.8423843384
intensity: 25.4530715942
---
header: 
  seq: 1120899
  stamp: 
    secs: 1561865223
    nsecs:  27830973
  frame_id: "ti_mmwave"
point_id: 4
x: 0.05078125
y: -0.080078125
z: -1.263671875
range: 1.35088610649
velocity: 0.0
doppler_bin: 8
bearing: -57.6193237305
intensity: 23.138671875
---
header: 
  seq: 1120900
  stamp: 
    secs: 1561865223
    nsecs:  27841302
  frame_id: "ti_mmwave"
point_id: 5
x: 0.552734375
y: -0.041015625
z: -1.185546875
range: 1.39446306229
velocity: 0.0
doppler_bin: 8
bearing: -4.24385213852
intensity: 24.4715805054
---
header: 
  seq: 1120901
  stamp: 
    secs: 1561865223
    nsecs:  27849719
  frame_id: "ti_mmwave"
point_id: 6
x: 1.0
y: -0.0
z: -0.90625
range: 1.43804001808
velocity: 0.0
doppler_bin: 8
bearing: -0.0
intensity: 20.4921798706
---
header: 
  seq: 1120902
  stamp: 
    secs: 1561865223
    nsecs:  27857865
  frame_id: "ti_mmwave"
point_id: 7
x: 1.373046875
y: -0.134765625
z: 0.384765625
range: 1.52519392967
velocity: 0.0
doppler_bin: 8
bearing: -5.60567092896
intensity: 22.9885311127
---
header: 
  seq: 1120903
  stamp: 
    secs: 1561865223
    nsecs:  27868816
  frame_id: "ti_mmwave"
point_id: 8
x: 1.46875
y: -0.046875
z: 0.107421875
range: 1.56877088547
velocity: 0.0
doppler_bin: 8
bearing: -1.82796823978
intensity: 23.9445171356
---
header: 
  seq: 1120904
  stamp: 
    secs: 1561865223
    nsecs:  27877959
  frame_id: "ti_mmwave"
point_id: 9
x: 1.505859375
y: -0.0
z: -0.146484375
range: 1.61234796047
velocity: 0.0
doppler_bin: 8
bearing: -0.0
intensity: 27.3957233429
---
header: 
  seq: 1120905
  stamp: 
    secs: 1561865223
    nsecs:  27885920
  frame_id: "ti_mmwave"
point_id: 10
x: 1.54296875
y: -0.0
z: -0.181640625
range: 1.65592491627
velocity: 0.0
doppler_bin: 8
bearing: -0.0
intensity: 29.9782314301
---
header: 
  seq: 1120906
  stamp: 
    secs: 1561865223
    nsecs:  27909998
  frame_id: "ti_mmwave"
point_id: 11
x: 1.58203125
y: -0.0
z: -0.205078125
range: 1.69950187206
velocity: 0.0
doppler_bin: 8
bearing: -0.0
intensity: 29.2992954254
---
header: 
  seq: 1120907
  stamp: 
    secs: 1561865223
    nsecs:  27918153
  frame_id: "ti_mmwave"
point_id: 12
x: 2.615234375
y: -0.17578125
z: 1.044921875
range: 3.00681090355
velocity: 0.0
doppler_bin: 8
bearing: -3.84531402588
intensity: 29.0525608063
---
header: 
  seq: 1120908
  stamp: 
    secs: 1561865223
    nsecs:  28054942
  frame_id: "ti_mmwave"
point_id: 13
x: 2.69140625
y: -0.08984375
z: 0.974609375
range: 3.05038785934
velocity: 0.0
doppler_bin: 8
bearing: -1.91192126274
intensity: 32.2245635986
---
header: 
  seq: 1120909
  stamp: 
    secs: 1561865223
    nsecs:  28066474
  frame_id: "ti_mmwave"
point_id: 14
x: 2.728515625
y: -0.181640625
z: 0.9765625
range: 3.09396481514
velocity: 0.0
doppler_bin: 8
bearing: -3.80863046646
intensity: 31.1527767181
---
header: 
  seq: 1120910
  stamp: 
    secs: 1561865223
    nsecs:  28075521
  frame_id: "ti_mmwave"
point_id: 15
x: 4.412109375
y: -0.142578125
z: 1.0625
range: 4.83704376221
velocity: 0.0
doppler_bin: 8
bearing: -1.85087943077
intensity: 28.0413951874
---
header: 
  seq: 1120911
  stamp: 
    secs: 1561865223
    nsecs:  28083123
  frame_id: "ti_mmwave"
point_id: 16
x: 4.421875
y: -0.142578125
z: 1.193359375
range: 4.88062095642
velocity: 0.0
doppler_bin: 8
bearing: -1.84679484367
intensity: 31.25806427
---
header: 
  seq: 1120912
  stamp: 
    secs: 1561865223
    nsecs:  28092381
  frame_id: "ti_mmwave"
point_id: 17
x: 4.455078125
y: -0.14453125
z: 1.22265625
range: 4.9241976738
velocity: 0.0
doppler_bin: 8
bearing: -1.85813295841
intensity: 30.7591171265
---
header: 
  seq: 1120913
  stamp: 
    secs: 1561865223
    nsecs:  28100861
  frame_id: "ti_mmwave"
point_id: 18
x: 4.822265625
y: -0.154296875
z: 0.90625
range: 5.22923660278
velocity: 0.0
doppler_bin: 8
bearing: -1.83265411854
intensity: 29.8272342682
---
header: 
  seq: 1120914
  stamp: 
    secs: 1561865223
    nsecs:  28109358
  frame_id: "ti_mmwave"
point_id: 19
x: 4.888671875
y: -0.30859375
z: 0.712890625
range: 5.27281332016
velocity: 0.0
doppler_bin: 8
bearing: -3.61196112633
intensity: 31.3956432343
---
header: 
  seq: 1120915
  stamp: 
    secs: 1561865223
    nsecs:  28117473
  frame_id: "ti_mmwave"
point_id: 20
x: 4.943359375
y: -0.623046875
z: 0.267578125
range: 5.31639051437
velocity: 0.0
doppler_bin: 8
bearing: -7.18351840973
intensity: 30.2077541351
---
header: 
  seq: 1120916
  stamp: 
    secs: 1561865223
    nsecs:  28125494
  frame_id: "ti_mmwave"
point_id: 21
x: 1.36328125
y: -0.130859375
z: 0.244140625
range: 1.48161697388
velocity: 0.614668667316
doppler_bin: 9
bearing: -5.48293972015
intensity: 22.0951499939
---
header: 
  seq: 1120917
  stamp: 
    secs: 1561865223
    nsecs:  28134274
  frame_id: "ti_mmwave"
point_id: 22
x: 1.46484375
y: -0.0
z: 0.158203125
range: 1.56877088547
velocity: 0.614668667316
doppler_bin: 9
bearing: -0.0
intensity: 23.9794006348
---
header: 
  seq: 1120918
  stamp: 
    secs: 1561865223
    nsecs:  28142733
  frame_id: "ti_mmwave"
point_id: 23
x: 0.009765625
y: 0.03125
z: 0.025390625
range: 0.0435769706964
velocity: 0.0
doppler_bin: 8
bearing: 72.6459732056
intensity: 29.31457901
---
header: 
  seq: 1120919
  stamp: 
    secs: 1561865223
    nsecs:  28151474
  frame_id: "ti_mmwave"
point_id: 24
x: 0.041015625
y: -0.033203125
z: 0.0625
range: 0.0871539413929
velocity: 0.0
doppler_bin: 8
bearing: -38.9909973145
intensity: 30.0902576447
---
header: 
  seq: 1120920
  stamp: 
    secs: 1561865223
    nsecs:  28160188
  frame_id: "ti_mmwave"
point_id: 25
x: 0.046875
y: -0.046875
z: 0.103515625
range: 0.130730912089
velocity: 0.0
doppler_bin: 8
bearing: -45.0
intensity: 28.9762706757
---
header: 
  seq: 1120921
  stamp: 
    secs: 1561865223
    nsecs:  28169765
  frame_id: "ti_mmwave"
point_id: 27
x: 1.123046875
y: 0.46484375
z: 0.587890625
range: 1.43804001808
velocity: 0.0
doppler_bin: 8
bearing: 22.4853019714
intensity: 19.2427921295
---
header: 
  seq: 1120922
  stamp: 
    secs: 1561865223
    nsecs:  28178041
  frame_id: "ti_mmwave"
point_id: 28
x: 2.771484375
y: -0.0
z: 0.869140625
range: 3.09396481514
velocity: 0.0
doppler_bin: 8
bearing: -0.0
intensity: 31.1427726746
---
header: 
  seq: 1120923
  stamp: 
    secs: 1561865223
    nsecs:  87770412
  frame_id: "ti_mmwave"
point_id: 0
x: 0.01171875
y: -0.0390625
z: -0.0078125
range: 0.0435769706964
velocity: 0.0
doppler_bin: 8
bearing: -73.3007583618
intensity: 30.6557979584
---
header: 
  seq: 1120924
  stamp: 
    secs: 1561865223
    nsecs:  87853245
  frame_id: "ti_mmwave"
point_id: 1
x: 0.017578125
y: -0.080078125
z: -0.0078125
range: 0.0871539413929
velocity: 0.0
doppler_bin: 8
bearing: -77.6192398071
intensity: 31.9089164734
---
header: 
  seq: 1120925
  stamp: 
    secs: 1561865223
    nsecs:  87865969
  frame_id: "ti_mmwave"
point_id: 2
x: 0.029296875
y: -0.119140625
z: -0.005859375
range: 0.130730912089
velocity: 0.0
doppler_bin: 8
bearing: -76.1849746704
intensity: 30.1535968781
---
header: 
  seq: 1120926
  stamp: 
    secs: 1561865223
    nsecs:  87874807
  frame_id: "ti_mmwave"
point_id: 3
x: 0.056640625
y: -0.154296875
z: 0.005859375
range: 0.174307882786
velocity: 0.0
doppler_bin: 8
bearing: -69.8423843384
intensity: 25.4406795502
---
header: 
  seq: 1120927
  stamp: 
    secs: 1561865223
    nsecs:  87883604
  frame_id: "ti_mmwave"
point_id: 4
x: 0.142578125
y: -0.080078125
z: 1.2578125
range: 1.35088610649
velocity: 0.0
doppler_bin: 8
bearing: -29.3204746246
intensity: 23.1597042084
---
header: 
  seq: 1120928
  stamp: 
    secs: 1561865223
    nsecs:  87891945
  frame_id: "ti_mmwave"
point_id: 5
x: 0.087890625
y: -0.08203125
z: -1.302734375
range: 1.39446306229
velocity: 0.0
doppler_bin: 8
bearing: -43.0250663757
intensity: 24.5331840515
---
header: 
  seq: 1120929
  stamp: 
    secs: 1561865223
    nsecs:  87900855
  frame_id: "ti_mmwave"
point_id: 6
x: 0.25390625
y: -0.083984375
z: -1.322265625
range: 1.43804001808
velocity: 0.0
doppler_bin: 8
bearing: -18.3026275635
intensity: 23.3243846893
---
header: 
  seq: 1120930
  stamp: 
    secs: 1561865223
    nsecs:  87909059
  frame_id: "ti_mmwave"
point_id: 7
x: 1.111328125
y: -0.087890625
z: -0.83203125
range: 1.48161697388
velocity: 0.0
doppler_bin: 8
bearing: -4.52188873291
intensity: 24.1329975128
---
header: 
  seq: 1120931
  stamp: 
    secs: 1561865223
    nsecs:  87919688
  frame_id: "ti_mmwave"
point_id: 8
x: 1.509765625
y: -0.0
z: -0.11328125
range: 1.61234796047
velocity: 0.0
doppler_bin: 8
bearing: -0.0
intensity: 25.2891674042
---
header: 
  seq: 1120932
  stamp: 
    secs: 1561865223
    nsecs:  87930643
  frame_id: "ti_mmwave"
point_id: 9
x: 1.54296875
y: -0.048828125
z: -0.185546875
range: 1.65592491627
velocity: 0.0
doppler_bin: 8
bearing: -1.81255269051
intensity: 28.6923179626
---
header: 
  seq: 1120933
  stamp: 
    secs: 1561865223
    nsecs:  87938651
  frame_id: "ti_mmwave"
point_id: 10
x: 1.58203125
y: -0.05078125
z: -0.19921875
range: 1.69950187206
velocity: 0.0
doppler_bin: 8
bearing: -1.83849263191
intensity: 28.5672893524
---
header: 
  seq: 1120934
  stamp: 
    secs: 1561865223
    nsecs:  88089962
  frame_id: "ti_mmwave"
point_id: 11
x: 2.625
y: -0.17578125
z: 1.0234375
range: 3.00681090355
velocity: 0.0
doppler_bin: 8
bearing: -3.83105134964
intensity: 29.0308990479
---
header: 
  seq: 1120935
  stamp: 
    secs: 1561865223
    nsecs:  88100787
  frame_id: "ti_mmwave"
point_id: 12
x: 2.693359375
y: -0.08984375
z: 0.970703125
range: 3.05038785934
velocity: 0.0
doppler_bin: 8
bearing: -1.91053581238
intensity: 32.2193565369
---
header: 
  seq: 1120936
  stamp: 
    secs: 1561865223
    nsecs:  88108625
  frame_id: "ti_mmwave"
point_id: 13
x: 2.732421875
y: -0.181640625
z: 0.966796875
range: 3.09396481514
velocity: 0.0
doppler_bin: 8
bearing: -3.80320167542
intensity: 31.1793384552
---
header: 
  seq: 1120937
  stamp: 
    secs: 1561865223
    nsecs:  88116416
  frame_id: "ti_mmwave"
point_id: 14
x: 4.412109375
y: -0.142578125
z: 1.228515625
range: 4.88062095642
velocity: 0.0
doppler_bin: 8
bearing: -1.85087943077
intensity: 31.2936763763
---
header: 
  seq: 1120938
  stamp: 
    secs: 1561865223
    nsecs:  88124000
  frame_id: "ti_mmwave"
point_id: 15
x: 4.4453125
y: -0.14453125
z: 1.26171875
range: 4.9241976738
velocity: 0.0
doppler_bin: 8
bearing: -1.86221218109
intensity: 30.9201850891
---
header: 
  seq: 1120939
  stamp: 
    secs: 1561865223
    nsecs:  88133526
  frame_id: "ti_mmwave"
point_id: 16
x: 4.90234375
y: -0.30859375
z: 0.6015625
range: 5.27281332016
velocity: 0.0
doppler_bin: 8
bearing: -3.60191392899
intensity: 30.2653331757
---
header: 
  seq: 1120940
  stamp: 
    secs: 1561865223
    nsecs:  88141802
  frame_id: "ti_mmwave"
point_id: 17
x: 4.9296875
y: -0.779296875
z: -0.02734375
range: 5.31639051437
velocity: 0.0
doppler_bin: 8
bearing: -8.98311805725
intensity: 29.5568771362
---
header: 
  seq: 1120941
  stamp: 
    secs: 1561865223
    nsecs:  88149487
  frame_id: "ti_mmwave"
point_id: 18
x: 1.427734375
y: -0.08984375
z: -0.041015625
range: 1.52519392967
velocity: 0.614668667316
doppler_bin: 9
bearing: -3.60073232651
intensity: 24.1830120087
---
header: 
  seq: 1120942
  stamp: 
    secs: 1561865223
    nsecs:  88157083
  frame_id: "ti_mmwave"
point_id: 19
x: 0.009765625
y: 0.03125
z: 0.025390625
range: 0.0435769706964
velocity: 0.0
doppler_bin: 8
bearing: 72.6459732056
intensity: 29.31457901
---
header: 
  seq: 1120943
  stamp: 
    secs: 1561865223
    nsecs:  88165583
  frame_id: "ti_mmwave"
point_id: 20
x: 0.041015625
y: -0.033203125
z: 0.0625
range: 0.0871539413929
velocity: 0.0
doppler_bin: 8
bearing: -38.9909973145
intensity: 30.0902576447
---
header: 
  seq: 1120944
  stamp: 
    secs: 1561865223
    nsecs:  88173595
  frame_id: "ti_mmwave"
point_id: 21
x: 0.044921875
y: -0.046875
z: 0.103515625
range: 0.130730912089
velocity: 0.0
doppler_bin: 8
bearing: -46.218875885
intensity: 28.9762706757
---
header: 
  seq: 1120945
  stamp: 
    secs: 1561865223
    nsecs:  88183187
  frame_id: "ti_mmwave"
point_id: 23
x: 0.455078125
y: 0.568359375
z: 1.326171875
range: 1.61234796047
velocity: 0.0
doppler_bin: 8
bearing: 51.3161888123
intensity: 23.2014636993
---
header: 
  seq: 1120946
  stamp: 
    secs: 1561865223
    nsecs:  89276417
  frame_id: "ti_mmwave"
point_id: 0
x: 0.01171875
y: -0.0390625
z: -0.0078125
range: 0.0435769706964
velocity: 0.0
doppler_bin: 8
bearing: -73.3007583618
intensity: 30.6669845581
---
header: 
  seq: 1120947
  stamp: 
    secs: 1561865223
    nsecs:  89343629
  frame_id: "ti_mmwave"
point_id: 1
x: 0.017578125
y: -0.080078125
z: -0.0078125
range: 0.0871539413929
velocity: 0.0
doppler_bin: 8
bearing: -77.6192398071
intensity: 31.9089164734
---
header: 
  seq: 1120948
  stamp: 
    secs: 1561865223
    nsecs:  89368297
  frame_id: "ti_mmwave"
point_id: 2
x: 0.029296875
y: -0.119140625
z: -0.005859375
range: 0.130730912089
velocity: 0.0
doppler_bin: 8
bearing: -76.1849746704
intensity: 30.1494026184
---
header: 
  seq: 1120949
  stamp: 
    secs: 1561865223
    nsecs:  89440719
  frame_id: "ti_mmwave"
point_id: 3
x: 0.056640625
y: -0.154296875
z: 0.005859375
range: 0.174307882786
velocity: 0.0
doppler_bin: 8
bearing: -69.8423843384
intensity: 25.4530715942
---
header: 
  seq: 1120950
  stamp: 
    secs: 1561865223
    nsecs:  89457642
  frame_id: "ti_mmwave"
point_id: 4
x: 0.146484375
y: -0.080078125
z: 1.2578125
range: 1.35088610649
velocity: 0.0
doppler_bin: 8
bearing: -28.6639575958
intensity: 23.0749607086
---
header: 
  seq: 1120951
  stamp: 
    secs: 1561865223
    nsecs:  89473424
  frame_id: "ti_mmwave"
point_id: 5
x: 0.326171875
y: -0.08203125
z: 1.265625
range: 1.39446306229
velocity: 0.0
doppler_bin: 8
bearing: -14.116941452
intensity: 24.6389293671
---
header: 
  seq: 1120952
  stamp: 
    secs: 1561865223
    nsecs:  89487350
  frame_id: "ti_mmwave"
point_id: 6
x: 1.080078125
y: -0.126953125
z: 0.80078125
range: 1.43804001808
velocity: 0.0
doppler_bin: 8
bearing: -6.70382499695
intensity: 24.7129173279
---
header: 
  seq: 1120953
  stamp: 
    secs: 1561865223
    nsecs:  89518713
  frame_id: "ti_mmwave"
point_id: 7
x: 1.51953125
y: -0.09765625
z: -0.30859375
range: 1.65592491627
velocity: 0.0
doppler_bin: 8
bearing: -3.67719125748
intensity: 27.7011528015
---
header: 
  seq: 1120954
  stamp: 
    secs: 1561865223
    nsecs:  89544583
  frame_id: "ti_mmwave"
point_id: 8
x: 1.564453125
y: -0.099609375
z: -0.29296875
range: 1.69950187206
velocity: 0.0
doppler_bin: 8
bearing: -3.64312815666
intensity: 27.466342926
---
header: 
  seq: 1120955
  stamp: 
    secs: 1561865223
    nsecs:  89559434
  frame_id: "ti_mmwave"
point_id: 9
x: 2.623046875
y: -0.17578125
z: 1.029296875
range: 3.00681090355
velocity: 0.0
doppler_bin: 8
bearing: -3.83389568329
intensity: 29.1539974213
---
header: 
  seq: 1120956
  stamp: 
    secs: 1561865223
    nsecs:  89632777
  frame_id: "ti_mmwave"
point_id: 10
x: 2.689453125
y: -0.08984375
z: 0.9765625
range: 3.05038785934
velocity: 0.0
doppler_bin: 8
bearing: -1.91330885887
intensity: 32.2141418457
---
header: 
  seq: 1120957
  stamp: 
    secs: 1561865223
    nsecs:  89651467
  frame_id: "ti_mmwave"
point_id: 11
x: 2.75
y: -0.08984375
z: 0.927734375
range: 3.09396481514
velocity: 0.0
doppler_bin: 8
bearing: -1.87121355534
intensity: 31.1594314575
---
header: 
  seq: 1120958
  stamp: 
    secs: 1561865223
    nsecs:  89663099
  frame_id: "ti_mmwave"
point_id: 12
x: 4.40625
y: -0.142578125
z: 1.087890625
range: 4.83704376221
velocity: 0.0
doppler_bin: 8
bearing: -1.85333895683
intensity: 28.3058872223
---
header: 
  seq: 1120959
  stamp: 
    secs: 1561865223
    nsecs:  89674522
  frame_id: "ti_mmwave"
point_id: 13
x: 4.416015625
y: -0.142578125
z: 1.212890625
range: 4.88062095642
velocity: 0.0
doppler_bin: 8
bearing: -1.84924340248
intensity: 31.430147171
---
header: 
  seq: 1120960
  stamp: 
    secs: 1561865223
    nsecs:  89688220
  frame_id: "ti_mmwave"
point_id: 14
x: 4.4453125
y: -0.14453125
z: 1.26171875
range: 4.9241976738
velocity: 0.0
doppler_bin: 8
bearing: -1.86221218109
intensity: 30.7954292297
---
header: 
  seq: 1120961
  stamp: 
    secs: 1561865223
    nsecs:  89701632
  frame_id: "ti_mmwave"
point_id: 15
x: 4.8984375
y: -0.935546875
z: -0.177734375
range: 5.31639051437
velocity: 0.0
doppler_bin: 8
bearing: -10.8126392365
intensity: 29.2064495087
---
header: 
  seq: 1120962
  stamp: 
    secs: 1561865223
    nsecs:  89716241
  frame_id: "ti_mmwave"
point_id: 16
x: 1.36328125
y: -0.130859375
z: 0.2421875
range: 1.48161697388
velocity: 0.614668667316
doppler_bin: 9
bearing: -5.48293972015
intensity: 27.4350967407
---
header: 
  seq: 1120963
  stamp: 
    secs: 1561865223
    nsecs:  89728042
  frame_id: "ti_mmwave"
point_id: 17
x: 1.408203125
y: -0.08984375
z: 0.2421875
range: 1.52519392967
velocity: 0.614668667316
doppler_bin: 9
bearing: -3.65053892136
intensity: 27.4896278381
---
header: 
  seq: 1120964
  stamp: 
    secs: 1561865223
    nsecs:  89744333
  frame_id: "ti_mmwave"
point_id: 18
x: 0.009765625
y: 0.03125
z: 0.025390625
range: 0.0435769706964
velocity: 0.0
doppler_bin: 8
bearing: 72.6459732056
intensity: 29.31457901
---
header: 
  seq: 1120965
  stamp: 
    secs: 1561865223
    nsecs:  89757235
  frame_id: "ti_mmwave"
point_id: 19
x: 0.041015625
y: -0.033203125
z: 0.0625
range: 0.0871539413929
velocity: 0.0
doppler_bin: 8
bearing: -38.9909973145
intensity: 30.0945091248
---
header: 
  seq: 1120966
  stamp: 
    secs: 1561865223
    nsecs:  89769774
  frame_id: "ti_mmwave"
point_id: 20
x: 0.044921875
y: -0.046875
z: 0.103515625
range: 0.130730912089
velocity: 0.0
doppler_bin: 8
bearing: -46.218875885
intensity: 28.9762706757
---
header: 
  seq: 1120967
  stamp: 
    secs: 1561865223
    nsecs: 147859327
  frame_id: "ti_mmwave"
point_id: 0
x: 0.01171875
y: -0.0390625
z: -0.0078125
range: 0.0435769706964
velocity: 0.0
doppler_bin: 8
bearing: -73.3007583618
intensity: 30.6557979584
---
header: 
  seq: 1120968
  stamp: 
    secs: 1561865223
    nsecs: 147975683
  frame_id: "ti_mmwave"
point_id: 1
x: 0.017578125
y: -0.080078125
z: -0.0078125
range: 0.0871539413929
velocity: 0.0
doppler_bin: 8
bearing: -77.6192398071
intensity: 31.9089164734
---
header: 
  seq: 1120969
  stamp: 
    secs: 1561865223
    nsecs: 147990547
  frame_id: "ti_mmwave"
point_id: 2
x: 0.029296875
y: -0.119140625
z: -0.005859375
range: 0.130730912089
velocity: 0.0
doppler_bin: 8
bearing: -76.1849746704
intensity: 30.1535968781
---
header: 
  seq: 1120970
  stamp: 
    secs: 1561865223
    nsecs: 147999370
  frame_id: "ti_mmwave"
point_id: 3
x: 0.056640625
y: -0.154296875
z: 0.005859375
range: 0.174307882786
velocity: 0.0
doppler_bin: 8
bearing: -69.8423843384
intensity: 25.4530715942
---
header: 
  seq: 1120971
  stamp: 
    secs: 1561865223
    nsecs: 148009517
  frame_id: "ti_mmwave"
point_id: 4
x: 0.109375
y: -0.080078125
z: 1.26171875
range: 1.35088610649
velocity: 0.0
doppler_bin: 8
bearing: -36.2094573975
intensity: 23.0963020325
---
header: 
  seq: 1120972
  stamp: 
    secs: 1561865223
    nsecs: 148021282
  frame_id: "ti_mmwave"
point_id: 6
x: 0.33984375
y: -0.083984375
z: -1.3046875
range: 1.43804001808
velocity: 0.0
doppler_bin: 8
bearing: -13.8811807632
intensity: 24.1329975128
---
header: 
  seq: 1120973
  stamp: 
    secs: 1561865223
    nsecs: 148029683
  frame_id: "ti_mmwave"
point_id: 7
x: 1.482421875
y: -0.046875
z: -0.298828125
range: 1.61234796047
velocity: 0.0
doppler_bin: 8
bearing: -1.81112086773
intensity: 28.5973854065
---
header: 
  seq: 1120974
  stamp: 
    secs: 1561865223
    nsecs: 148189778
  frame_id: "ti_mmwave"
point_id: 8
x: 1.53125
y: -0.09765625
z: -0.25
range: 1.65592491627
velocity: 0.0
doppler_bin: 8
bearing: -3.64912557602
intensity: 33.2097663879
---
header: 
  seq: 1120975
  stamp: 
    secs: 1561865223
    nsecs: 148211602
  frame_id: "ti_mmwave"
point_id: 9
x: 1.578125
y: -0.05078125
z: -0.22265625
range: 1.69950187206
velocity: 0.0
doppler_bin: 8
bearing: -1.8430403471
intensity: 33.5449256897
---
header: 
  seq: 1120976
  stamp: 
    secs: 1561865223
    nsecs: 148220571
  frame_id: "ti_mmwave"
point_id: 10
x: 1.625
y: -0.05078125
z: -0.19140625
range: 1.74307882786
velocity: 0.0
doppler_bin: 8
bearing: -1.7899106741
intensity: 30.3981056213
---
header: 
  seq: 1120977
  stamp: 
    secs: 1561865223
    nsecs: 148229080
  frame_id: "ti_mmwave"
point_id: 11
x: 2.607421875
y: -0.17578125
z: 1.068359375
range: 3.00681090355
velocity: 0.0
doppler_bin: 8
bearing: -3.8568007946
intensity: 29.0254669189
---
header: 
  seq: 1120978
  stamp: 
    secs: 1561865223
    nsecs: 148237089
  frame_id: "ti_mmwave"
point_id: 12
x: 2.689453125
y: -0.08984375
z: 0.9765625
range: 3.05038785934
velocity: 0.0
doppler_bin: 8
bearing: -1.91330885887
intensity: 32.2089233398
---
header: 
  seq: 1120979
  stamp: 
    secs: 1561865223
    nsecs: 148245142
  frame_id: "ti_mmwave"
point_id: 13
x: 2.75390625
y: -0.08984375
z: 0.916015625
range: 3.09396481514
velocity: 0.0
doppler_bin: 8
bearing: -1.86856126785
intensity: 31.1159858704
---
header: 
  seq: 1120980
  stamp: 
    secs: 1561865223
    nsecs: 148255596
  frame_id: "ti_mmwave"
point_id: 14
x: 4.4140625
y: -0.142578125
z: 1.0546875
range: 4.83704376221
velocity: 0.0
doppler_bin: 8
bearing: -1.850061059
intensity: 28.1756534576
---
header: 
  seq: 1120981
  stamp: 
    secs: 1561865223
    nsecs: 148263870
  frame_id: "ti_mmwave"
point_id: 15
x: 4.416015625
y: -0.142578125
z: 1.21484375
range: 4.88062095642
velocity: 0.0
doppler_bin: 8
bearing: -1.84924340248
intensity: 31.2936763763
---
header: 
  seq: 1120982
  stamp: 
    secs: 1561865223
    nsecs: 148275189
  frame_id: "ti_mmwave"
point_id: 16
x: 4.44140625
y: -0.14453125
z: 1.2734375
range: 4.9241976738
velocity: 0.0
doppler_bin: 8
bearing: -1.86384868622
intensity: 30.7224998474
---
header: 
  seq: 1120983
  stamp: 
    secs: 1561865223
    nsecs: 148280554
  frame_id: "ti_mmwave"
point_id: 17
x: 4.86328125
y: -1.091796875
z: -0.25
range: 5.31639051437
velocity: 0.0
doppler_bin: 8
bearing: -12.653002739
intensity: 29.0848503113
---
header: 
  seq: 1120984
  stamp: 
    secs: 1561865223
    nsecs: 148293828
  frame_id: "ti_mmwave"
point_id: 18
x: 1.38671875
y: -0.087890625
z: 0.06640625
range: 1.48161697388
velocity: 0.614668667316
doppler_bin: 9
bearing: -3.62657165527
intensity: 25.6937389374
---
header: 
  seq: 1120985
  stamp: 
    secs: 1561865223
    nsecs: 148472497
  frame_id: "ti_mmwave"
point_id: 19
x: 1.423828125
y: -0.08984375
z: 0.1171875
range: 1.52519392967
velocity: 0.614668667316
doppler_bin: 9
bearing: -3.61058449745
intensity: 27.3399925232
---
header: 
  seq: 1120986
  stamp: 
    secs: 1561865223
    nsecs: 148500899
  frame_id: "ti_mmwave"
point_id: 20
x: 1.453125
y: -0.091796875
z: 0.216796875
range: 1.56877088547
velocity: 0.614668667316
doppler_bin: 9
bearing: -3.61468815804
intensity: 24.9276046753
---
header: 
  seq: 1120987
  stamp: 
    secs: 1561865223
    nsecs: 148514773
  frame_id: "ti_mmwave"
point_id: 21
x: 0.009765625
y: 0.03125
z: 0.025390625
range: 0.0435769706964
velocity: 0.0
doppler_bin: 8
bearing: 72.6459732056
intensity: 29.3196620941
---
header: 
  seq: 1120988
  stamp: 
    secs: 1561865223
    nsecs: 148526517
  frame_id: "ti_mmwave"
point_id: 22
x: 0.041015625
y: -0.033203125
z: 0.0625
range: 0.0871539413929
velocity: 0.0
doppler_bin: 8
bearing: -38.9909973145
intensity: 30.0945091248
---
header: 
  seq: 1120989
  stamp: 
    secs: 1561865223
    nsecs: 148662899
  frame_id: "ti_mmwave"
point_id: 23
x: 0.044921875
y: -0.046875
z: 0.103515625
range: 0.130730912089
velocity: 0.0
doppler_bin: 8
bearing: -46.218875885
intensity: 28.9817657471
---
header: 
  seq: 1120990
  stamp: 
    secs: 1561865223
    nsecs: 149417780
  frame_id: "ti_mmwave"
point_id: 0
x: 0.01171875
y: -0.0390625
z: -0.0078125
range: 0.0435769706964
velocity: 0.0
doppler_bin: 8
bearing: -73.3007583618
intensity: 30.6520614624
---
header: 
  seq: 1120991
  stamp: 
    secs: 1561865223
    nsecs: 149471051
  frame_id: "ti_mmwave"
point_id: 1
x: 0.017578125
y: -0.080078125
z: -0.0078125
range: 0.0871539413929
velocity: 0.0
doppler_bin: 8
bearing: -77.6192398071
intensity: 31.9033164978
---
header: 
  seq: 1120992
  stamp: 
    secs: 1561865223
    nsecs: 149481863
  frame_id: "ti_mmwave"
point_id: 2
x: 0.029296875
y: -0.119140625
z: -0.005859375
range: 0.130730912089
velocity: 0.0
doppler_bin: 8
bearing: -76.1849746704
intensity: 30.1452045441
---
header: 
  seq: 1120993
  stamp: 
    secs: 1561865223
    nsecs: 149490273
  frame_id: "ti_mmwave"
point_id: 3
x: 0.056640625
y: -0.154296875
z: 0.005859375
range: 0.174307882786
velocity: 0.0
doppler_bin: 8
bearing: -69.8423843384
intensity: 25.4406795502
---
header: 
  seq: 1120994
  stamp: 
    secs: 1561865223
    nsecs: 149499589
  frame_id: "ti_mmwave"
point_id: 4
x: 0.1171875
y: -0.080078125
z: 1.259765625
range: 1.35088610649
velocity: 0.0
doppler_bin: 8
bearing: -34.3460998535
intensity: 23.0749607086
---
header: 
  seq: 1120995
  stamp: 
    secs: 1561865223
    nsecs: 149511573
  frame_id: "ti_mmwave"
point_id: 6
x: 0.43359375
y: -0.083984375
z: -1.275390625
range: 1.43804001808
velocity: 0.0
doppler_bin: 8
bearing: -10.9620876312
intensity: 22.4303798676
---
header: 
  seq: 1120996
  stamp: 
    secs: 1561865223
    nsecs: 149521073
  frame_id: "ti_mmwave"
point_id: 7
x: 1.474609375
y: -0.046875
z: -0.33984375
range: 1.61234796047
velocity: 0.0
doppler_bin: 8
bearing: -1.82070982456
intensity: 27.481880188
---
header: 
  seq: 1120997
  stamp: 
    secs: 1561865223
    nsecs: 149583464
  frame_id: "ti_mmwave"
point_id: 8
x: 1.52734375
y: -0.048828125
z: -0.28125
range: 1.65592491627
velocity: 0.0
doppler_bin: 8
bearing: -1.83108282089
intensity: 31.2872219086
---
header: 
  seq: 1120998
  stamp: 
    secs: 1561865223
    nsecs: 149592653
  frame_id: "ti_mmwave"
point_id: 9
x: 1.57421875
y: -0.05078125
z: -0.2578125
range: 1.69950187206
velocity: 0.0
doppler_bin: 8
bearing: -1.847610116
intensity: 31.7201881409
---
header: 
  seq: 1120999
  stamp: 
    secs: 1561865223
    nsecs: 149601231
  frame_id: "ti_mmwave"
point_id: 10
x: 1.619140625
y: -0.05078125
z: -0.2265625
range: 1.74307882786
velocity: 0.0
doppler_bin: 8
bearing: -1.79638373852
intensity: 28.5491294861
---
header: 
  seq: 1121000
  stamp: 
    secs: 1561865223
    nsecs: 149609011
  frame_id: "ti_mmwave"
point_id: 11
x: 2.6171875
y: -0.17578125
z: 1.044921875
range: 3.00681090355
velocity: 0.0
doppler_bin: 8
bearing: -3.84245300293
intensity: 29.0471553802
---
header: 
  seq: 1121001
  stamp: 
    secs: 1561865223
    nsecs: 149616537
  frame_id: "ti_mmwave"
point_id: 12
x: 2.69140625
y: -0.08984375
z: 0.9765625
range: 3.05038785934
velocity: 0.0
doppler_bin: 8
bearing: -1.91192126274
intensity: 32.1748390198
---
header: 
  seq: 1121002
  stamp: 
    secs: 1561865223
    nsecs: 149625433
  frame_id: "ti_mmwave"
point_id: 13
x: 2.76953125
y: -0.0
z: 0.875
range: 3.09396481514
velocity: 0.0
doppler_bin: 8
bearing: -0.0
intensity: 31.0720996857
---
header: 
  seq: 1121003
  stamp: 
    secs: 1561865223
    nsecs: 149633032
  frame_id: "ti_mmwave"
point_id: 14
x: 4.412109375
y: -0.142578125
z: 1.064453125
range: 4.83704376221
velocity: 0.0
doppler_bin: 8
bearing: -1.85087943077
intensity: 28.1358089447
---
header: 
  seq: 1121004
  stamp: 
    secs: 1561865223
    nsecs: 149641666
  frame_id: "ti_mmwave"
point_id: 15
x: 4.416015625
y: -0.142578125
z: 1.2109375
range: 4.88062095642
velocity: 0.0
doppler_bin: 8
bearing: -1.84924340248
intensity: 31.5228843689
---
header: 
  seq: 1121005
  stamp: 
    secs: 1561865223
    nsecs: 149649435
  frame_id: "ti_mmwave"
point_id: 16
x: 4.4453125
y: -0.14453125
z: 1.255859375
range: 4.9241976738
velocity: 0.0
doppler_bin: 8
bearing: -1.86221218109
intensity: 31.1394329071
---
header: 
  seq: 1121006
  stamp: 
    secs: 1561865223
    nsecs: 149657028
  frame_id: "ti_mmwave"
point_id: 17
x: 4.853515625
y: -1.091796875
z: -0.408203125
range: 5.31639051437
velocity: 0.0
doppler_bin: 8
bearing: -12.6776409149
intensity: 28.8252449036
---
header: 
  seq: 1121007
  stamp: 
    secs: 1561865223
    nsecs: 149664706
  frame_id: "ti_mmwave"
point_id: 18
x: 1.35546875
y: -0.130859375
z: 0.283203125
range: 1.48161697388
velocity: 0.614668667316
doppler_bin: 9
bearing: -5.51434707642
intensity: 20.1703338623
---
header: 
  seq: 1121008
  stamp: 
    secs: 1561865223
    nsecs: 149672547
  frame_id: "ti_mmwave"
point_id: 19
x: 1.416015625
y: -0.134765625
z: 0.16796875
range: 1.52519392967
velocity: 0.614668667316
doppler_bin: 9
bearing: -5.43660259247
intensity: 24.7129173279
---
header: 
  seq: 1121009
  stamp: 
    secs: 1561865223
    nsecs: 149683093
  frame_id: "ti_mmwave"
point_id: 20
x: 1.46484375
y: -0.091796875
z: 0.1171875
range: 1.56877088547
velocity: 0.614668667316
doppler_bin: 9
bearing: -3.58584666252
intensity: 25.3019962311
---
header: 
  seq: 1121010
  stamp: 
    secs: 1561865223
    nsecs: 149691448
  frame_id: "ti_mmwave"
point_id: 21
x: 0.009765625
y: 0.03125
z: 0.025390625
range: 0.0435769706964
velocity: 0.0
doppler_bin: 8
bearing: 72.6459732056
intensity: 29.3094902039
---
header: 
  seq: 1121011
  stamp: 
    secs: 1561865223
    nsecs: 149711763
  frame_id: "ti_mmwave"
point_id: 22
x: 0.041015625
y: -0.033203125
z: 0.0625
range: 0.0871539413929
velocity: 0.0
doppler_bin: 8
bearing: -38.9909973145
intensity: 30.0945091248
---
header: 
  seq: 1121012
  stamp: 
    secs: 1561865223
    nsecs: 149724416
  frame_id: "ti_mmwave"
point_id: 23
x: 0.044921875
y: -0.046875
z: 0.103515625
range: 0.130730912089
velocity: 0.0
doppler_bin: 8
bearing: -46.218875885
intensity: 28.9762706757
---
header: 
  seq: 1121013
  stamp: 
    secs: 1561865223
    nsecs: 207592028
  frame_id: "ti_mmwave"
point_id: 0
x: 0.01171875
y: -0.0390625
z: -0.0078125
range: 0.0435769706964
velocity: 0.0
doppler_bin: 8
bearing: -73.3007583618
intensity: 30.6483230591
---
header: 
  seq: 1121014
  stamp: 
    secs: 1561865223
    nsecs: 207662640
  frame_id: "ti_mmwave"
point_id: 1
x: 0.017578125
y: -0.080078125
z: -0.0078125
range: 0.0871539413929
velocity: 0.0
doppler_bin: 8
bearing: -77.6192398071
intensity: 31.9033164978
---
header: 
  seq: 1121015
  stamp: 
    secs: 1561865223
    nsecs: 207676149
  frame_id: "ti_mmwave"
point_id: 2
x: 0.029296875
y: -0.119140625
z: -0.005859375
range: 0.130730912089
velocity: 0.0
doppler_bin: 8
bearing: -76.1849746704
intensity: 30.1535968781
---
header: 
  seq: 1121016
  stamp: 
    secs: 1561865223
    nsecs: 207685082
  frame_id: "ti_mmwave"
point_id: 3
x: 0.056640625
y: -0.154296875
z: 0.005859375
range: 0.174307882786
velocity: 0.0
doppler_bin: 8
bearing: -69.8423843384
intensity: 25.4530715942
---
header: 
  seq: 1121017
  stamp: 
    secs: 1561865223
    nsecs: 207693361
  frame_id: "ti_mmwave"
point_id: 4
x: 0.123046875
y: -0.080078125
z: 1.259765625
range: 1.35088610649
velocity: 0.0
doppler_bin: 8
bearing: -33.0558242798
intensity: 23.138671875
---
header: 
  seq: 1121018
  stamp: 
    secs: 1561865223
    nsecs: 207703891
  frame_id: "ti_mmwave"
point_id: 6
x: 0.466796875
y: -0.083984375
z: -1.263671875
range: 1.43804001808
velocity: 0.0
doppler_bin: 8
bearing: -10.1993293762
intensity: 22.7646179199
---
header: 
  seq: 1121019
  stamp: 
    secs: 1561865223
    nsecs: 207713742
  frame_id: "ti_mmwave"
point_id: 7
x: 1.46484375
y: -0.138671875
z: 0.078125
range: 1.56877088547
velocity: 0.0
doppler_bin: 8
bearing: -5.40788412094
intensity: 24.2160396576
---
header: 
  seq: 1121020
  stamp: 
    secs: 1561865223
    nsecs: 207722032
  frame_id: "ti_mmwave"
point_id: 8
x: 1.501953125
y: -0.046875
z: -0.1796875
range: 1.61234796047
velocity: 0.0
doppler_bin: 8
bearing: -1.78758454323
intensity: 25.8771095276
---
header: 
  seq: 1121021
  stamp: 
    secs: 1561865223
    nsecs: 207730678
  frame_id: "ti_mmwave"
point_id: 9
x: 1.541015625
y: -0.048828125
z: -0.203125
range: 1.65592491627
velocity: 0.0
doppler_bin: 8
bearing: -1.81484830379
intensity: 28.9042110443
---
header: 
  seq: 1121022
  stamp: 
    secs: 1561865223
    nsecs: 207740220
  frame_id: "ti_mmwave"
point_id: 10
x: 1.58203125
y: -0.099609375
z: -0.185546875
range: 1.69950187206
velocity: 0.0
doppler_bin: 8
bearing: -3.60275626183
intensity: 29.020029068
---
header: 
  seq: 1121023
  stamp: 
    secs: 1561865223
    nsecs: 207751182
  frame_id: "ti_mmwave"
point_id: 11
x: 2.63671875
y: -0.17578125
z: 0.9921875
range: 3.00681090355
velocity: 0.0
doppler_bin: 8
bearing: -3.81407499313
intensity: 29.1169013977
---
header: 
  seq: 1121024
  stamp: 
    secs: 1561865223
    nsecs: 207759487
  frame_id: "ti_mmwave"
point_id: 12
x: 2.693359375
y: -0.08984375
z: 0.970703125
range: 3.05038785934
velocity: 0.0
doppler_bin: 8
bearing: -1.91053581238
intensity: 32.2193565369
---
header: 
  seq: 1121025
  stamp: 
    secs: 1561865223
    nsecs: 207767575
  frame_id: "ti_mmwave"
point_id: 13
x: 2.767578125
y: -0.0
z: 0.880859375
range: 3.09396481514
velocity: 0.0
doppler_bin: 8
bearing: -0.0
intensity: 31.1494445801
---
header: 
  seq: 1121026
  stamp: 
    secs: 1561865223
    nsecs: 207776077
  frame_id: "ti_mmwave"
point_id: 14
x: 4.4140625
y: -0.142578125
z: 1.05078125
range: 4.83704376221
velocity: 0.0
doppler_bin: 8
bearing: -1.850061059
intensity: 28.1756534576
---
header: 
  seq: 1121027
  stamp: 
    secs: 1561865223
    nsecs: 207785933
  frame_id: "ti_mmwave"
point_id: 15
x: 4.419921875
y: -0.142578125
z: 1.19921875
range: 4.88062095642
velocity: 0.0
doppler_bin: 8
bearing: -1.847610116
intensity: 31.6226558685
---
header: 
  seq: 1121028
  stamp: 
    secs: 1561865223
    nsecs: 207794148
  frame_id: "ti_mmwave"
point_id: 16
x: 4.455078125
y: -0.14453125
z: 1.220703125
range: 4.9241976738
velocity: 0.0
doppler_bin: 8
bearing: -1.85813295841
intensity: 31.4332714081
---
header: 
  seq: 1121029
  stamp: 
    secs: 1561865223
    nsecs: 207816232
  frame_id: "ti_mmwave"
point_id: 17
x: 1.404296875
y: -0.134765625
z: 0.24609375
range: 1.52519392967
velocity: 0.614668667316
doppler_bin: 9
bearing: -5.48169565201
intensity: 24.0654010773
---
header: 
  seq: 1121030
  stamp: 
    secs: 1561865223
    nsecs: 207824516
  frame_id: "ti_mmwave"
point_id: 18
x: 0.009765625
y: 0.03125
z: 0.025390625
range: 0.0435769706964
velocity: 0.0
doppler_bin: 8
bearing: 72.6459732056
intensity: 29.3196620941
---
header: 
  seq: 1121031
  stamp: 
    secs: 1561865223
    nsecs: 207895432
  frame_id: "ti_mmwave"
point_id: 19
x: 0.041015625
y: -0.033203125
z: 0.0625
range: 0.0871539413929
velocity: 0.0
doppler_bin: 8
bearing: -38.9909973145
intensity: 30.0902576447
---
header: 
  seq: 1121032
  stamp: 
    secs: 1561865223
    nsecs: 207904658
  frame_id: "ti_mmwave"
point_id: 20
x: 0.046875
y: -0.046875
z: 0.103515625
range: 0.130730912089
velocity: 0.0
doppler_bin: 8
bearing: -45.0
intensity: 28.9762706757
---
header: 
  seq: 1121033
  stamp: 
    secs: 1561865223
    nsecs: 207914777
  frame_id: "ti_mmwave"
point_id: 22
x: 0.67578125
y: 0.51953125
z: 1.25
range: 1.61234796047
velocity: 0.0
doppler_bin: 8
bearing: 37.5525856018
intensity: 23.2221927643
---
header: 
  seq: 1121034
  stamp: 
    secs: 1561865223
    nsecs: 207922391
  frame_id: "ti_mmwave"
point_id: 23
x: 2.7265625
y: -0.181640625
z: 0.982421875
range: 3.09396481514
velocity: 0.0
doppler_bin: 8
bearing: -3.81135106087
intensity: 31.1360912323
---
header: 
  seq: 1121035
  stamp: 
    secs: 1561865223
    nsecs: 208881974
  frame_id: "ti_mmwave"
point_id: 0
x: 0.01171875
y: -0.0390625
z: -0.0078125
range: 0.0435769706964
velocity: 0.0
doppler_bin: 8
bearing: -73.3007583618
intensity: 30.6483230591
---
header: 
  seq: 1121036
  stamp: 
    secs: 1561865223
    nsecs: 208943261
  frame_id: "ti_mmwave"
point_id: 1
x: 0.017578125
y: -0.080078125
z: -0.0078125
range: 0.0871539413929
velocity: 0.0
doppler_bin: 8
bearing: -77.6192398071
intensity: 31.9033164978
---
header: 
  seq: 1121037
  stamp: 
    secs: 1561865223
    nsecs: 208959937
  frame_id: "ti_mmwave"
point_id: 2
x: 0.029296875
y: -0.119140625
z: -0.005859375
range: 0.130730912089
velocity: 0.0
doppler_bin: 8
bearing: -76.1849746704
intensity: 30.1494026184
---
header: 
  seq: 1121038
  stamp: 
    secs: 1561865223
    nsecs: 208971810
  frame_id: "ti_mmwave"
point_id: 3
x: 0.056640625
y: -0.154296875
z: 0.005859375
range: 0.174307882786
velocity: 0.0
doppler_bin: 8
bearing: -69.8423843384
intensity: 25.4530715942
---
header: 
  seq: 1121039
  stamp: 
    secs: 1561865223
    nsecs: 208983549
  frame_id: "ti_mmwave"
point_id: 4
x: 0.158203125
y: -0.080078125
z: 1.255859375
range: 1.35088610649
velocity: 0.0
doppler_bin: 8
bearing: -26.8472938538
intensity: 23.138671875
---
header: 
  seq: 1121040
  stamp: 
    secs: 1561865223
    nsecs: 208995095
  frame_id: "ti_mmwave"
point_id: 5
x: 0.0546875
y: -0.08203125
z: -1.3046875
range: 1.39446306229
velocity: 0.0
doppler_bin: 8
bearing: -56.3099327087
intensity: 24.6239795685
---
header: 
  seq: 1121041
  stamp: 
    secs: 1561865223
    nsecs: 209006300
  frame_id: "ti_mmwave"
point_id: 6
x: 0.505859375
y: -0.083984375
z: -1.25
range: 1.43804001808
velocity: 0.0
doppler_bin: 8
bearing: -9.42644500732
intensity: 23.0963020325
---
header: 
  seq: 1121042
  stamp: 
    secs: 1561865223
    nsecs: 209017852
  frame_id: "ti_mmwave"
point_id: 7
x: 1.08984375
y: -0.087890625
z: -0.859375
range: 1.48161697388
velocity: 0.0
doppler_bin: 8
bearing: -4.61064910889
intensity: 22.8780174255
---
header: 
  seq: 1121043
  stamp: 
    secs: 1561865223
    nsecs: 209030675
  frame_id: "ti_mmwave"
point_id: 8
x: 1.404296875
y: -0.08984375
z: -0.265625
range: 1.52519392967
velocity: 0.0
doppler_bin: 8
bearing: -3.66066598892
intensity: 25.1188335419
---
header: 
  seq: 1121044
  stamp: 
    secs: 1561865223
    nsecs: 209044141
  frame_id: "ti_mmwave"
point_id: 9
x: 1.462890625
y: -0.138671875
z: 0.103515625
range: 1.56877088547
velocity: 0.0
doppler_bin: 8
bearing: -5.41506147385
intensity: 25.1454772949
---
header: 
  seq: 1121045
  stamp: 
    secs: 1561865223
    nsecs: 209056257
  frame_id: "ti_mmwave"
point_id: 10
x: 1.548828125
y: -0.0
z: -0.140625
range: 1.65592491627
velocity: 0.0
doppler_bin: 8
bearing: -0.0
intensity: 28.9542255402
---
header: 
  seq: 1121046
  stamp: 
    secs: 1561865223
    nsecs: 209068065
  frame_id: "ti_mmwave"
point_id: 11
x: 1.58984375
y: -0.0
z: -0.1328125
range: 1.69950187206
velocity: 0.0
doppler_bin: 8
bearing: -0.0
intensity: 29.9166908264
---
header: 
  seq: 1121047
  stamp: 
    secs: 1561865223
    nsecs: 209079842
  frame_id: "ti_mmwave"
point_id: 12
x: 1.62890625
y: -0.05078125
z: -0.134765625
range: 1.74307882786
velocity: 0.0
doppler_bin: 8
bearing: -1.78562104702
intensity: 28.3378429413
---
header: 
  seq: 1121048
  stamp: 
    secs: 1561865223
    nsecs: 209091553
  frame_id: "ti_mmwave"
point_id: 13
x: 2.61328125
y: -0.17578125
z: 1.05078125
range: 3.00681090355
velocity: 0.0
doppler_bin: 8
bearing: -3.84817934036
intensity: 28.9707698822
---
header: 
  seq: 1121049
  stamp: 
    secs: 1561865223
    nsecs: 209103371
  frame_id: "ti_mmwave"
point_id: 14
x: 2.6875
y: -0.08984375
z: 0.982421875
range: 3.05038785934
velocity: 0.0
doppler_bin: 8
bearing: -1.91469812393
intensity: 32.1510848999
---
header: 
  seq: 1121050
  stamp: 
    secs: 1561865223
    nsecs: 209210558
  frame_id: "ti_mmwave"
point_id: 15
x: 2.771484375
y: -0.0
z: 0.869140625
range: 3.09396481514
velocity: 0.0
doppler_bin: 8
bearing: -0.0
intensity: 31.1092624664
---
header: 
  seq: 1121051
  stamp: 
    secs: 1561865223
    nsecs: 209229422
  frame_id: "ti_mmwave"
point_id: 16
x: 4.41796875
y: -0.142578125
z: 1.03515625
range: 4.83704376221
velocity: 0.0
doppler_bin: 8
bearing: -1.84842634201
intensity: 28.1157493591
---
header: 
  seq: 1121052
  stamp: 
    secs: 1561865223
    nsecs: 209244185
  frame_id: "ti_mmwave"
point_id: 17
x: 4.421875
y: -0.142578125
z: 1.1875
range: 4.88062095642
velocity: 0.0
doppler_bin: 8
bearing: -1.84679484367
intensity: 31.6196670532
---
header: 
  seq: 1121053
  stamp: 
    secs: 1561865223
    nsecs: 209256595
  frame_id: "ti_mmwave"
point_id: 18
x: 4.458984375
y: -0.14453125
z: 1.2109375
range: 4.9241976738
velocity: 0.0
doppler_bin: 8
bearing: -1.85650622845
intensity: 31.4176330566
---
header: 
  seq: 1121054
  stamp: 
    secs: 1561865223
    nsecs: 209267178
  frame_id: "ti_mmwave"
point_id: 19
x: 0.009765625
y: 0.03125
z: 0.025390625
range: 0.0435769706964
velocity: 0.0
doppler_bin: 8
bearing: 72.6459732056
intensity: 29.31457901
---
header: 
  seq: 1121055
  stamp: 
    secs: 1561865223
    nsecs: 209278314
  frame_id: "ti_mmwave"
point_id: 20
x: 0.041015625
y: -0.033203125
z: 0.0625
range: 0.0871539413929
velocity: 0.0
doppler_bin: 8
bearing: -38.9909973145
intensity: 30.0902576447
---
header: 
  seq: 1121056
  stamp: 
    secs: 1561865223
    nsecs: 209290299
  frame_id: "ti_mmwave"
point_id: 21
x: 0.046875
y: -0.046875
z: 0.103515625
range: 0.130730912089
velocity: 0.0
doppler_bin: 8
bearing: -45.0
intensity: 28.9762706757
---
header: 
  seq: 1121057
  stamp: 
    secs: 1561865223
    nsecs: 209306522
  frame_id: "ti_mmwave"
point_id: 23
x: 2.73046875
y: -0.181640625
z: 0.974609375
range: 3.09396481514
velocity: 0.0
doppler_bin: 8
bearing: -3.80591416359
intensity: 31.095785141
---
header: 
  seq: 1121058
  stamp: 
    secs: 1561865223
    nsecs: 267632113
  frame_id: "ti_mmwave"
point_id: 0
x: 0.01171875
y: -0.0390625
z: -0.0078125
range: 0.0435769706964
velocity: 0.0
doppler_bin: 8
bearing: -73.3007583618
intensity: 30.6557979584
---
header: 
  seq: 1121059
  stamp: 
    secs: 1561865223
    nsecs: 267721439
  frame_id: "ti_mmwave"
point_id: 1
x: 0.017578125
y: -0.080078125
z: -0.0078125
range: 0.0871539413929
velocity: 0.0
doppler_bin: 8
bearing: -77.6192398071
intensity: 31.9089164734
---
header: 
  seq: 1121060
  stamp: 
    secs: 1561865223
    nsecs: 267771835
  frame_id: "ti_mmwave"
point_id: 2
x: 0.029296875
y: -0.119140625
z: -0.005859375
range: 0.130730912089
velocity: 0.0
doppler_bin: 8
bearing: -76.1849746704
intensity: 30.1494026184
---
header: 
  seq: 1121061
  stamp: 
    secs: 1561865223
    nsecs: 267790659
  frame_id: "ti_mmwave"
point_id: 3
x: 0.056640625
y: -0.154296875
z: 0.005859375
range: 0.174307882786
velocity: 0.0
doppler_bin: 8
bearing: -69.8423843384
intensity: 25.4530715942
---
header: 
  seq: 1121062
  stamp: 
    secs: 1561865223
    nsecs: 267808044
  frame_id: "ti_mmwave"
point_id: 4
x: 0.064453125
y: -0.080078125
z: 1.263671875
range: 1.35088610649
velocity: 0.0
doppler_bin: 8
bearing: -51.1701774597
intensity: 23.0963020325
---
header: 
  seq: 1121063
  stamp: 
    secs: 1561865223
    nsecs: 267887867
  frame_id: "ti_mmwave"
point_id: 5
x: 0.08203125
y: -0.08203125
z: -1.3046875
range: 1.39446306229
velocity: 0.0
doppler_bin: 8
bearing: -45.0
intensity: 24.6389293671
---
header: 
  seq: 1121064
  stamp: 
    secs: 1561865223
    nsecs: 267904559
  frame_id: "ti_mmwave"
point_id: 6
x: 0.45703125
y: -0.083984375
z: -1.267578125
range: 1.43804001808
velocity: 0.0
doppler_bin: 8
bearing: -10.4125461578
intensity: 23.0102996826
---
header: 
  seq: 1121065
  stamp: 
    secs: 1561865223
    nsecs: 267915854
  frame_id: "ti_mmwave"
point_id: 7
x: 1.46484375
y: -0.138671875
z: 0.064453125
range: 1.56877088547
velocity: 0.0
doppler_bin: 8
bearing: -5.40788412094
intensity: 23.031961441
---
header: 
  seq: 1121066
  stamp: 
    secs: 1561865223
    nsecs: 268008655
  frame_id: "ti_mmwave"
point_id: 8
x: 1.5
y: -0.09375
z: -0.173828125
range: 1.61234796047
velocity: 0.0
doppler_bin: 8
bearing: -3.57633447647
intensity: 26.5224628448
---
header: 
  seq: 1121067
  stamp: 
    secs: 1561865223
    nsecs: 268069390
  frame_id: "ti_mmwave"
point_id: 9
x: 1.53515625
y: -0.09765625
z: -0.220703125
range: 1.65592491627
velocity: 0.0
doppler_bin: 8
bearing: -3.63986492157
intensity: 30.3059978485
---
header: 
  seq: 1121068
  stamp: 
    secs: 1561865223
    nsecs: 268085206
  frame_id: "ti_mmwave"
point_id: 10
x: 1.576171875
y: -0.099609375
z: -0.2265625
range: 1.69950187206
velocity: 0.0
doppler_bin: 8
bearing: -3.61611390114
intensity: 31.319393158
---
header: 
  seq: 1121069
  stamp: 
    secs: 1561865223
    nsecs: 268097903
  frame_id: "ti_mmwave"
point_id: 11
x: 1.615234375
y: -0.1015625
z: -0.2421875
range: 1.74307882786
velocity: 0.0
doppler_bin: 8
bearing: -3.59789991379
intensity: 29.4596061707
---
header: 
  seq: 1121070
  stamp: 
    secs: 1561865223
    nsecs: 268124100
  frame_id: "ti_mmwave"
point_id: 12
x: 1.6484375
y: 0.052734375
z: -0.306640625
range: 1.78665578365
velocity: 0.0
doppler_bin: 8
bearing: 1.8322968483
intensity: 25.7287158966
---
header: 
  seq: 1121071
  stamp: 
    secs: 1561865223
    nsecs: 268138346
  frame_id: "ti_mmwave"
point_id: 13
x: 2.58984375
y: -0.17578125
z: 1.109375
range: 3.00681090355
velocity: 0.0
doppler_bin: 8
bearing: -3.88289904594
intensity: 28.7852172852
---
header: 
  seq: 1121072
  stamp: 
    secs: 1561865223
    nsecs: 268150297
  frame_id: "ti_mmwave"
point_id: 14
x: 2.685546875
y: -0.08984375
z: 0.9921875
range: 3.05038785934
velocity: 0.0
doppler_bin: 8
bearing: -1.91608965397
intensity: 32.1378326416
---
header: 
  seq: 1121073
  stamp: 
    secs: 1561865223
    nsecs: 268161826
  frame_id: "ti_mmwave"
point_id: 15
x: 2.771484375
y: -0.0
z: 0.8671875
range: 3.09396481514
velocity: 0.0
doppler_bin: 8
bearing: -0.0
intensity: 31.1092624664
---
header: 
  seq: 1121074
  stamp: 
    secs: 1561865223
    nsecs: 268173221
  frame_id: "ti_mmwave"
point_id: 16
x: 4.416015625
y: -0.142578125
z: 1.05078125
range: 4.83704376221
velocity: 0.0
doppler_bin: 8
bearing: -1.84924340248
intensity: 28.0208930969
---
header: 
  seq: 1121075
  stamp: 
    secs: 1561865223
    nsecs: 268186138
  frame_id: "ti_mmwave"
point_id: 17
x: 4.423828125
y: -0.142578125
z: 1.18359375
range: 4.88062095642
velocity: 0.0
doppler_bin: 8
bearing: -1.84597980976
intensity: 31.5745677948
---
header: 
  seq: 1121076
  stamp: 
    secs: 1561865223
    nsecs: 268197850
  frame_id: "ti_mmwave"
point_id: 18
x: 4.4609375
y: -0.14453125
z: 1.205078125
range: 4.9241976738
velocity: 0.0
doppler_bin: 8
bearing: -1.85569405556
intensity: 31.3672065735
---
header: 
  seq: 1121077
  stamp: 
    secs: 1561865223
    nsecs: 268211029
  frame_id: "ti_mmwave"
point_id: 19
x: 0.009765625
y: 0.03125
z: 0.025390625
range: 0.0435769706964
velocity: 0.0
doppler_bin: 8
bearing: 72.6459732056
intensity: 29.31457901
---
header: 
  seq: 1121078
  stamp: 
    secs: 1561865223
    nsecs: 268222700
  frame_id: "ti_mmwave"
point_id: 20
x: 0.041015625
y: -0.033203125
z: 0.0625
range: 0.0871539413929
velocity: 0.0
doppler_bin: 8
bearing: -38.9909973145
intensity: 30.0945091248
---
header: 
  seq: 1121079
  stamp: 
    secs: 1561865223
    nsecs: 268233622
  frame_id: "ti_mmwave"
point_id: 21
x: 0.044921875
y: -0.046875
z: 0.103515625
range: 0.130730912089
velocity: 0.0
doppler_bin: 8
bearing: -46.218875885
intensity: 28.9817657471
---
header: 
  seq: 1121080
  stamp: 
    secs: 1561865223
    nsecs: 268246896
  frame_id: "ti_mmwave"
point_id: 23
x: 2.73046875
y: -0.181640625
z: 0.970703125
range: 3.09396481514
velocity: 0.0
doppler_bin: 8
bearing: -3.80591416359
intensity: 31.1092624664
---
header: 
  seq: 1121081
  stamp: 
    secs: 1561865223
    nsecs: 268936039
  frame_id: "ti_mmwave"
point_id: 0
x: 0.01171875
y: -0.0390625
z: -0.0078125
range: 0.0435769706964
velocity: 0.0
doppler_bin: 8
bearing: -73.3007583618
intensity: 30.6557979584
---
header: 
  seq: 1121082
  stamp: 
    secs: 1561865223
    nsecs: 269005929
  frame_id: "ti_mmwave"
point_id: 1
x: 0.017578125
y: -0.080078125
z: -0.0078125
range: 0.0871539413929
velocity: 0.0
doppler_bin: 8
bearing: -77.6192398071
intensity: 31.9089164734
---
header: 
  seq: 1121083
  stamp: 
    secs: 1561865223
    nsecs: 269028468
  frame_id: "ti_mmwave"
point_id: 2
x: 0.029296875
y: -0.119140625
z: -0.005859375
range: 0.130730912089
velocity: 0.0
doppler_bin: 8
bearing: -76.1849746704
intensity: 30.1535968781
---
header: 
  seq: 1121084
  stamp: 
    secs: 1561865223
    nsecs: 269043346
  frame_id: "ti_mmwave"
point_id: 3
x: 0.056640625
y: -0.154296875
z: 0.005859375
range: 0.174307882786
velocity: 0.0
doppler_bin: 8
bearing: -69.8423843384
intensity: 25.4654273987
---
header: 
  seq: 1121085
  stamp: 
    secs: 1561865223
    nsecs: 269059623
  frame_id: "ti_mmwave"
point_id: 4
x: 0.13671875
y: -0.080078125
z: 1.2578125
range: 1.35088610649
velocity: 0.0
doppler_bin: 8
bearing: -30.3581142426
intensity: 23.138671875
---
header: 
  seq: 1121086
  stamp: 
    secs: 1561865223
    nsecs: 269128627
  frame_id: "ti_mmwave"
point_id: 5
x: 0.046875
y: -0.08203125
z: 1.3046875
range: 1.39446306229
velocity: 0.0
doppler_bin: 8
bearing: -60.255115509
intensity: 24.6239795685
---
header: 
  seq: 1121087
  stamp: 
    secs: 1561865223
    nsecs: 269143592
  frame_id: "ti_mmwave"
point_id: 6
x: 0.44921875
y: -0.083984375
z: -1.26953125
range: 1.43804001808
velocity: 0.0
doppler_bin: 8
bearing: -10.5895709991
intensity: 23.031961441
---
header: 
  seq: 1121088
  stamp: 
    secs: 1561865223
    nsecs: 269155923
  frame_id: "ti_mmwave"
point_id: 7
x: 0.7734375
y: -0.04296875
z: -1.154296875
range: 1.48161697388
velocity: 0.0
doppler_bin: 8
bearing: -3.17983031273
intensity: 21.7026176453
---
header: 
  seq: 1121089
  stamp: 
    secs: 1561865223
    nsecs: 269168430
  frame_id: "ti_mmwave"
point_id: 8
x: 1.498046875
y: -0.193359375
z: -0.3671875
range: 1.65592491627
velocity: 0.0
doppler_bin: 8
bearing: -7.3547501564
intensity: 27.5204849243
---
