header: 
  seq: 1171927
  stamp: 
    secs: 1561865304
    nsecs:  27652234
  frame_id: "ti_mmwave"
point_id: 0
x: 0.01171875
y: -0.0390625
z: -0.0078125
range: 0.0435769706964
velocity: 0.0
doppler_bin: 8
bearing: -73.3007583618
intensity: 30.6483230591
---
header: 
  seq: 1171928
  stamp: 
    secs: 1561865304
    nsecs:  27743068
  frame_id: "ti_mmwave"
point_id: 1
x: 0.017578125
y: -0.080078125
z: -0.0078125
range: 0.0871539413929
velocity: 0.0
doppler_bin: 8
bearing: -77.6192398071
intensity: 31.9005146027
---
header: 
  seq: 1171929
  stamp: 
    secs: 1561865304
    nsecs:  27754909
  frame_id: "ti_mmwave"
point_id: 2
x: 0.029296875
y: -0.119140625
z: -0.005859375
range: 0.130730912089
velocity: 0.0
doppler_bin: 8
bearing: -76.1849746704
intensity: 30.141002655
---
header: 
  seq: 1171930
  stamp: 
    secs: 1561865304
    nsecs:  27764864
  frame_id: "ti_mmwave"
point_id: 3
x: 0.056640625
y: -0.154296875
z: 0.005859375
range: 0.174307882786
velocity: 0.0
doppler_bin: 8
bearing: -69.8423843384
intensity: 25.4406795502
---
header: 
  seq: 1171931
  stamp: 
    secs: 1561865304
    nsecs:  27773188
  frame_id: "ti_mmwave"
point_id: 4
x: 0.94140625
y: -0.0390625
z: -0.84765625
range: 1.35088610649
velocity: 0.0
doppler_bin: 8
bearing: -2.37605524063
intensity: 23.3845653534
---
header: 
  seq: 1171932
  stamp: 
    secs: 1561865304
    nsecs:  27781155
  frame_id: "ti_mmwave"
point_id: 5
x: 1.21875
y: -0.041015625
z: -0.478515625
range: 1.39446306229
velocity: 0.0
doppler_bin: 8
bearing: -1.92749607563
intensity: 26.4246444702
---
header: 
  seq: 1171933
  stamp: 
    secs: 1561865304
    nsecs:  27789384
  frame_id: "ti_mmwave"
point_id: 6
x: 1.328125
y: -0.04296875
z: -0.2421875
range: 1.43804001808
velocity: 0.0
doppler_bin: 8
bearing: -1.8530408144
intensity: 27.9239177704
---
header: 
  seq: 1171934
  stamp: 
    secs: 1561865304
    nsecs:  27797474
  frame_id: "ti_mmwave"
point_id: 7
x: 1.384765625
y: -0.04296875
z: -0.125
range: 1.48161697388
velocity: 0.0
doppler_bin: 8
bearing: -1.77729594707
intensity: 25.7054290771
---
header: 
  seq: 1171935
  stamp: 
    secs: 1561865304
    nsecs:  27807489
  frame_id: "ti_mmwave"
point_id: 8
x: 1.498046875
y: -0.0
z: -0.216796875
range: 1.61234796047
velocity: 0.0
doppler_bin: 8
bearing: -0.0
intensity: 24.800069809
---
header: 
  seq: 1171936
  stamp: 
    secs: 1561865304
    nsecs:  27815908
  frame_id: "ti_mmwave"
point_id: 9
x: 2.615234375
y: -0.17578125
z: 1.046875
range: 3.00681090355
velocity: 0.0
doppler_bin: 8
bearing: -3.84531402588
intensity: 29.020029068
---
header: 
  seq: 1171937
  stamp: 
    secs: 1561865304
    nsecs:  27824359
  frame_id: "ti_mmwave"
point_id: 10
x: 2.689453125
y: -0.08984375
z: 0.978515625
range: 3.05038785934
velocity: 0.0
doppler_bin: 8
bearing: -1.91330885887
intensity: 32.166934967
---
header: 
  seq: 1171938
  stamp: 
    secs: 1561865304
    nsecs:  27833974
  frame_id: "ti_mmwave"
point_id: 11
x: 2.7265625
y: -0.181640625
z: 0.986328125
range: 3.09396481514
velocity: 0.0
doppler_bin: 8
bearing: -3.81135106087
intensity: 31.0924091339
---
header: 
  seq: 1171939
  stamp: 
    secs: 1561865304
    nsecs:  27842247
  frame_id: "ti_mmwave"
point_id: 12
x: 4.412109375
y: -0.142578125
z: 1.2265625
range: 4.88062095642
velocity: 0.0
doppler_bin: 8
bearing: -1.85087943077
intensity: 31.2515583038
---
header: 
  seq: 1171940
  stamp: 
    secs: 1561865304
    nsecs:  27853028
  frame_id: "ti_mmwave"
point_id: 13
x: 4.443359375
y: -0.14453125
z: 1.26953125
range: 4.9241976738
velocity: 0.0
doppler_bin: 8
bearing: -1.86303019524
intensity: 30.7736797333
---
header: 
  seq: 1171941
  stamp: 
    secs: 1561865304
    nsecs:  27924801
  frame_id: "ti_mmwave"
point_id: 14
x: 4.876953125
y: -0.30859375
z: 0.7890625
range: 5.27281332016
velocity: 0.0
doppler_bin: 8
bearing: -3.62061715126
intensity: 30.6818580627
---
header: 
  seq: 1171942
  stamp: 
    secs: 1561865304
    nsecs:  27937364
  frame_id: "ti_mmwave"
point_id: 15
x: 4.951171875
y: -0.623046875
z: 0.095703125
range: 5.31639051437
velocity: 0.0
doppler_bin: 8
bearing: -7.17230129242
intensity: 29.247959137
---
header: 
  seq: 1171943
  stamp: 
    secs: 1561865304
    nsecs:  27983504
  frame_id: "ti_mmwave"
point_id: 16
x: 0.009765625
y: 0.03125
z: 0.025390625
range: 0.0435769706964
velocity: 0.0
doppler_bin: 8
bearing: 72.6459732056
intensity: 29.3043956757
---
header: 
  seq: 1171944
  stamp: 
    secs: 1561865304
    nsecs:  28000595
  frame_id: "ti_mmwave"
point_id: 17
x: 0.041015625
y: -0.033203125
z: 0.0625
range: 0.0871539413929
velocity: 0.0
doppler_bin: 8
bearing: -38.9909973145
intensity: 30.0860023499
---
header: 
  seq: 1171945
  stamp: 
    secs: 1561865304
    nsecs:  28013979
  frame_id: "ti_mmwave"
point_id: 18
x: 0.044921875
y: -0.046875
z: 0.103515625
range: 0.130730912089
velocity: 0.0
doppler_bin: 8
bearing: -46.218875885
intensity: 28.9762706757
---
header: 
  seq: 1171946
  stamp: 
    secs: 1561865304
    nsecs:  28028193
  frame_id: "ti_mmwave"
point_id: 20
x: 0.533203125
y: 0.615234375
z: 1.27734375
range: 1.61234796047
velocity: 0.0
doppler_bin: 8
bearing: 49.0856170654
intensity: 22.8555736542
---
header: 
  seq: 1171947
  stamp: 
    secs: 1561865304
    nsecs:  28036448
  frame_id: "ti_mmwave"
point_id: 21
x: 2.767578125
y: -0.0
z: 0.880859375
range: 3.09396481514
velocity: 0.0
doppler_bin: 8
bearing: -0.0
intensity: 31.0890312195
---
header: 
  seq: 1171948
  stamp: 
    secs: 1561865304
    nsecs:  87555236
  frame_id: "ti_mmwave"
point_id: 0
x: 0.01171875
y: -0.0390625
z: -0.0078125
range: 0.0435769706964
velocity: 0.0
doppler_bin: 8
bearing: -73.3007583618
intensity: 30.6483230591
---
header: 
  seq: 1171949
  stamp: 
    secs: 1561865304
    nsecs:  87638927
  frame_id: "ti_mmwave"
point_id: 1
x: 0.017578125
y: -0.080078125
z: -0.0078125
range: 0.0871539413929
velocity: 0.0
doppler_bin: 8
bearing: -77.6192398071
intensity: 31.9005146027
---
header: 
  seq: 1171950
  stamp: 
    secs: 1561865304
    nsecs:  87650973
  frame_id: "ti_mmwave"
point_id: 2
x: 0.029296875
y: -0.119140625
z: -0.005859375
range: 0.130730912089
velocity: 0.0
doppler_bin: 8
bearing: -76.1849746704
intensity: 30.141002655
---
header: 
  seq: 1171951
  stamp: 
    secs: 1561865304
    nsecs:  87659985
  frame_id: "ti_mmwave"
point_id: 3
x: 0.056640625
y: -0.154296875
z: 0.005859375
range: 0.174307882786
velocity: 0.0
doppler_bin: 8
bearing: -69.8423843384
intensity: 25.4282550812
---
header: 
  seq: 1171952
  stamp: 
    secs: 1561865304
    nsecs:  87668313
  frame_id: "ti_mmwave"
point_id: 4
x: 0.466796875
y: -0.080078125
z: 1.17578125
range: 1.35088610649
velocity: 0.0
doppler_bin: 8
bearing: -9.73423194885
intensity: 24.4715805054
---
header: 
  seq: 1171953
  stamp: 
    secs: 1561865304
    nsecs:  87678869
  frame_id: "ti_mmwave"
point_id: 5
x: 1.326171875
y: -0.04296875
z: -0.244140625
range: 1.43804001808
velocity: 0.0
doppler_bin: 8
bearing: -1.8557677269
intensity: 28.6981811523
---
header: 
  seq: 1171954
  stamp: 
    secs: 1561865304
    nsecs:  87687861
  frame_id: "ti_mmwave"
point_id: 6
x: 2.62109375
y: -0.17578125
z: 1.033203125
range: 3.00681090355
velocity: 0.0
doppler_bin: 8
bearing: -3.83674383163
intensity: 28.9982051849
---
header: 
  seq: 1171955
  stamp: 
    secs: 1561865304
    nsecs:  87698460
  frame_id: "ti_mmwave"
point_id: 7
x: 2.69140625
y: -0.08984375
z: 0.974609375
range: 3.05038785934
velocity: 0.0
doppler_bin: 8
bearing: -1.91192126274
intensity: 32.1879806519
---
header: 
  seq: 1171956
  stamp: 
    secs: 1561865304
    nsecs:  87707714
  frame_id: "ti_mmwave"
point_id: 8
x: 2.767578125
y: -0.0
z: 0.880859375
range: 3.09396481514
velocity: 0.0
doppler_bin: 8
bearing: -0.0
intensity: 31.0822658539
---
header: 
  seq: 1171957
  stamp: 
    secs: 1561865304
    nsecs:  87716049
  frame_id: "ti_mmwave"
point_id: 9
x: 4.416015625
y: -0.142578125
z: 1.21484375
range: 4.88062095642
velocity: 0.0
doppler_bin: 8
bearing: -1.84924340248
intensity: 31.3289985657
---
header: 
  seq: 1171958
  stamp: 
    secs: 1561865304
    nsecs:  87723632
  frame_id: "ti_mmwave"
point_id: 10
x: 4.447265625
y: -0.14453125
z: 1.251953125
range: 4.9241976738
velocity: 0.0
doppler_bin: 8
bearing: -1.86139500141
intensity: 30.8564720154
---
header: 
  seq: 1171959
  stamp: 
    secs: 1561865304
    nsecs:  87731085
  frame_id: "ti_mmwave"
point_id: 11
x: 4.8828125
y: -0.30859375
z: 0.751953125
range: 5.27281332016
velocity: 0.0
doppler_bin: 8
bearing: -3.61628341675
intensity: 31.0890312195
---
header: 
  seq: 1171960
  stamp: 
    secs: 1561865304
    nsecs:  87739872
  frame_id: "ti_mmwave"
point_id: 12
x: 4.951171875
y: -0.623046875
z: 0.09375
range: 5.31639051437
velocity: 0.0
doppler_bin: 8
bearing: -7.17230129242
intensity: 29.6754798889
---
header: 
  seq: 1171961
  stamp: 
    secs: 1561865304
    nsecs:  87750369
  frame_id: "ti_mmwave"
point_id: 13
x: 1.306640625
y: -0.041015625
z: -0.056640625
range: 1.39446306229
velocity: 0.614668667316
doppler_bin: 9
bearing: -1.79793179035
intensity: 27.1432971954
---
header: 
  seq: 1171962
  stamp: 
    secs: 1561865304
    nsecs:  87763860
  frame_id: "ti_mmwave"
point_id: 14
x: 1.380859375
y: -0.04296875
z: -0.1640625
range: 1.48161697388
velocity: 0.614668667316
doppler_bin: 9
bearing: -1.78232049942
intensity: 26.5224628448
---
header: 
  seq: 1171963
  stamp: 
    secs: 1561865304
    nsecs:  87777370
  frame_id: "ti_mmwave"
point_id: 15
x: 0.009765625
y: 0.03125
z: 0.025390625
range: 0.0435769706964
velocity: 0.0
doppler_bin: 8
bearing: 72.6459732056
intensity: 29.3094902039
---
header: 
  seq: 1171964
  stamp: 
    secs: 1561865304
    nsecs:  87790240
  frame_id: "ti_mmwave"
point_id: 16
x: 0.041015625
y: -0.033203125
z: 0.0625
range: 0.0871539413929
velocity: 0.0
doppler_bin: 8
bearing: -38.9909973145
intensity: 30.0860023499
---
header: 
  seq: 1171965
  stamp: 
    secs: 1561865304
    nsecs:  87815949
  frame_id: "ti_mmwave"
point_id: 17
x: 0.046875
y: -0.046875
z: 0.103515625
range: 0.130730912089
velocity: 0.0
doppler_bin: 8
bearing: -45.0
intensity: 28.9707698822
---
header: 
  seq: 1171966
  stamp: 
    secs: 1561865304
    nsecs:  88915896
  frame_id: "ti_mmwave"
point_id: 0
x: 0.01171875
y: -0.0390625
z: -0.0078125
range: 0.0435769706964
velocity: 0.0
doppler_bin: 8
bearing: -73.3007583618
intensity: 30.6445808411
---
header: 
  seq: 1171967
  stamp: 
    secs: 1561865304
    nsecs:  88969078
  frame_id: "ti_mmwave"
point_id: 1
x: 0.017578125
y: -0.080078125
z: -0.0078125
range: 0.0871539413929
velocity: 0.0
doppler_bin: 8
bearing: -77.6192398071
intensity: 31.894903183
---
header: 
  seq: 1171968
  stamp: 
    secs: 1561865304
    nsecs:  88981698
  frame_id: "ti_mmwave"
point_id: 2
x: 0.029296875
y: -0.119140625
z: -0.005859375
range: 0.130730912089
velocity: 0.0
doppler_bin: 8
bearing: -76.1849746704
intensity: 30.1367969513
---
header: 
  seq: 1171969
  stamp: 
    secs: 1561865304
    nsecs:  88993256
  frame_id: "ti_mmwave"
point_id: 3
x: 0.056640625
y: -0.154296875
z: 0.005859375
range: 0.174307882786
velocity: 0.0
doppler_bin: 8
bearing: -69.8423843384
intensity: 25.4282550812
---
header: 
  seq: 1171970
  stamp: 
    secs: 1561865304
    nsecs:  89006453
  frame_id: "ti_mmwave"
point_id: 4
x: 0.26953125
y: -0.080078125
z: 1.236328125
range: 1.35088610649
velocity: 0.0
doppler_bin: 8
bearing: -16.5467605591
intensity: 22.6245117188
---
header: 
  seq: 1171971
  stamp: 
    secs: 1561865304
    nsecs:  89085760
  frame_id: "ti_mmwave"
point_id: 5
x: 0.962890625
y: -0.123046875
z: 0.87890625
range: 1.39446306229
velocity: 0.0
doppler_bin: 8
bearing: -7.28230428696
intensity: 23.3845653534
---
header: 
  seq: 1171972
  stamp: 
    secs: 1561865304
    nsecs:  89097487
  frame_id: "ti_mmwave"
point_id: 6
x: 1.375
y: -0.087890625
z: 0.1875
range: 1.48161697388
velocity: 0.0
doppler_bin: 8
bearing: -3.65739631653
intensity: 26.4147415161
---
header: 
  seq: 1171973
  stamp: 
    secs: 1561865304
    nsecs:  89105669
  frame_id: "ti_mmwave"
point_id: 7
x: 1.419921875
y: -0.044921875
z: 0.1796875
range: 1.52519392967
velocity: 0.0
doppler_bin: 8
bearing: -1.81205427647
intensity: 24.6686763763
---
header: 
  seq: 1171974
  stamp: 
    secs: 1561865304
    nsecs:  89113776
  frame_id: "ti_mmwave"
point_id: 8
x: 1.498046875
y: -0.142578125
z: -0.15625
range: 1.61234796047
velocity: 0.0
doppler_bin: 8
bearing: -5.43680667877
intensity: 25.1054496765
---
header: 
  seq: 1171975
  stamp: 
    secs: 1561865304
    nsecs:  89122922
  frame_id: "ti_mmwave"
point_id: 9
x: 2.62109375
y: -0.17578125
z: 1.029296875
range: 3.00681090355
velocity: 0.0
doppler_bin: 8
bearing: -3.83674383163
intensity: 29.0417442322
---
header: 
  seq: 1171976
  stamp: 
    secs: 1561865304
    nsecs:  89130419
  frame_id: "ti_mmwave"
point_id: 10
x: 2.6953125
y: -0.08984375
z: 0.96484375
range: 3.05038785934
velocity: 0.0
doppler_bin: 8
bearing: -1.90915250778
intensity: 32.2036972046
---
header: 
  seq: 1171977
  stamp: 
    secs: 1561865304
    nsecs:  89139444
  frame_id: "ti_mmwave"
point_id: 11
x: 2.7578125
y: -0.08984375
z: 0.90625
range: 3.09396481514
velocity: 0.0
doppler_bin: 8
bearing: -1.86591637135
intensity: 31.1859531403
---
header: 
  seq: 1171978
  stamp: 
    secs: 1561865304
    nsecs:  89147140
  frame_id: "ti_mmwave"
point_id: 12
x: 4.4140625
y: -0.142578125
z: 1.220703125
range: 4.88062095642
velocity: 0.0
doppler_bin: 8
bearing: -1.850061059
intensity: 31.2968997955
---
header: 
  seq: 1171979
  stamp: 
    secs: 1561865304
    nsecs:  89154695
  frame_id: "ti_mmwave"
point_id: 13
x: 4.447265625
y: -0.14453125
z: 1.25
range: 4.9241976738
velocity: 0.0
doppler_bin: 8
bearing: -1.86139500141
intensity: 30.8990516663
---
header: 
  seq: 1171980
  stamp: 
    secs: 1561865304
    nsecs:  89162684
  frame_id: "ti_mmwave"
point_id: 14
x: 4.884765625
y: -0.30859375
z: 0.7421875
range: 5.27281332016
velocity: 0.0
doppler_bin: 8
bearing: -3.6148416996
intensity: 30.696680069
---
header: 
  seq: 1171981
  stamp: 
    secs: 1561865304
    nsecs:  89182351
  frame_id: "ti_mmwave"
point_id: 15
x: 4.951171875
y: -0.623046875
z: 0.0
range: 5.31639051437
velocity: 0.0
doppler_bin: 8
bearing: -7.17230129242
intensity: 29.2685680389
---
header: 
  seq: 1171982
  stamp: 
    secs: 1561865304
    nsecs:  89194078
  frame_id: "ti_mmwave"
point_id: 16
x: 1.326171875
y: -0.083984375
z: 0.240234375
range: 1.43804001808
velocity: 0.614668667316
doppler_bin: 9
bearing: -3.62361216545
intensity: 25.831987381
---
header: 
  seq: 1171983
  stamp: 
    secs: 1561865304
    nsecs:  89364344
  frame_id: "ti_mmwave"
point_id: 17
x: 0.009765625
y: 0.03125
z: 0.025390625
range: 0.0435769706964
velocity: 0.0
doppler_bin: 8
bearing: 72.6459732056
intensity: 29.3094902039
---
header: 
  seq: 1171984
  stamp: 
    secs: 1561865304
    nsecs:  89394375
  frame_id: "ti_mmwave"
point_id: 18
x: 0.041015625
y: -0.033203125
z: 0.0625
range: 0.0871539413929
velocity: 0.0
doppler_bin: 8
bearing: -38.9909973145
intensity: 30.081741333
---
header: 
  seq: 1171985
  stamp: 
    secs: 1561865304
    nsecs:  89411502
  frame_id: "ti_mmwave"
point_id: 19
x: 0.044921875
y: -0.046875
z: 0.103515625
range: 0.130730912089
velocity: 0.0
doppler_bin: 8
bearing: -46.218875885
intensity: 28.9652614594
---
header: 
  seq: 1171986
  stamp: 
    secs: 1561865304
    nsecs: 147927625
  frame_id: "ti_mmwave"
point_id: 0
x: 0.01171875
y: -0.0390625
z: -0.0078125
range: 0.0435769706964
velocity: 0.0
doppler_bin: 8
bearing: -73.3007583618
intensity: 30.6408348083
---
header: 
  seq: 1171987
  stamp: 
    secs: 1561865304
    nsecs: 148051485
  frame_id: "ti_mmwave"
point_id: 1
x: 0.017578125
y: -0.080078125
z: -0.0078125
range: 0.0871539413929
velocity: 0.0
doppler_bin: 8
bearing: -77.6192398071
intensity: 31.8977088928
---
header: 
  seq: 1171988
  stamp: 
    secs: 1561865304
    nsecs: 148066913
  frame_id: "ti_mmwave"
point_id: 2
x: 0.029296875
y: -0.119140625
z: -0.005859375
range: 0.130730912089
velocity: 0.0
doppler_bin: 8
bearing: -76.1849746704
intensity: 30.141002655
---
header: 
  seq: 1171989
  stamp: 
    secs: 1561865304
    nsecs: 148075507
  frame_id: "ti_mmwave"
point_id: 3
x: 0.056640625
y: -0.154296875
z: 0.005859375
range: 0.174307882786
velocity: 0.0
doppler_bin: 8
bearing: -69.8423843384
intensity: 25.4406795502
---
header: 
  seq: 1171990
  stamp: 
    secs: 1561865304
    nsecs: 148083830
  frame_id: "ti_mmwave"
point_id: 4
x: 0.25390625
y: -0.080078125
z: -1.240234375
range: 1.35088610649
velocity: 0.0
doppler_bin: 8
bearing: -17.5044746399
intensity: 23.031961441
---
header: 
  seq: 1171991
  stamp: 
    secs: 1561865304
    nsecs: 148092110
  frame_id: "ti_mmwave"
point_id: 5
x: 0.75390625
y: -0.041015625
z: -1.068359375
range: 1.39446306229
velocity: 0.0
doppler_bin: 8
bearing: -3.11405777931
intensity: 23.7106781006
---
header: 
  seq: 1171992
  stamp: 
    secs: 1561865304
    nsecs: 148100254
  frame_id: "ti_mmwave"
point_id: 6
x: 2.61328125
y: -0.17578125
z: 1.052734375
range: 3.00681090355
velocity: 0.0
doppler_bin: 8
bearing: -3.84817934036
intensity: 29.0848503113
---
header: 
  seq: 1171993
  stamp: 
    secs: 1561865304
    nsecs: 148109788
  frame_id: "ti_mmwave"
point_id: 7
x: 2.689453125
y: -0.08984375
z: 0.978515625
range: 3.05038785934
velocity: 0.0
doppler_bin: 8
bearing: -1.91330885887
intensity: 32.2063102722
---
header: 
  seq: 1171994
  stamp: 
    secs: 1561865304
    nsecs: 148117563
  frame_id: "ti_mmwave"
point_id: 8
x: 2.75390625
y: -0.08984375
z: 0.91796875
range: 3.09396481514
velocity: 0.0
doppler_bin: 8
bearing: -1.86856126785
intensity: 31.1859531403
---
header: 
  seq: 1171995
  stamp: 
    secs: 1561865304
    nsecs: 148127766
  frame_id: "ti_mmwave"
point_id: 9
x: 4.40234375
y: -0.142578125
z: 1.10546875
range: 4.83704376221
velocity: 0.0
doppler_bin: 8
bearing: -1.85498249531
intensity: 28.0140361786
---
header: 
  seq: 1171996
  stamp: 
    secs: 1561865304
    nsecs: 148135736
  frame_id: "ti_mmwave"
point_id: 10
x: 4.4140625
y: -0.142578125
z: 1.216796875
range: 4.88062095642
velocity: 0.0
doppler_bin: 8
bearing: -1.850061059
intensity: 31.3481445312
---
header: 
  seq: 1171997
  stamp: 
    secs: 1561865304
    nsecs: 148143825
  frame_id: "ti_mmwave"
point_id: 11
x: 4.453125
y: -0.14453125
z: 1.232421875
range: 4.9241976738
velocity: 0.0
doppler_bin: 8
bearing: -1.85894739628
intensity: 30.9272060394
---
header: 
  seq: 1171998
  stamp: 
    secs: 1561865304
    nsecs: 148151679
  frame_id: "ti_mmwave"
point_id: 12
x: 4.884765625
y: -0.30859375
z: 0.7421875
range: 5.27281332016
velocity: 0.0
doppler_bin: 8
bearing: -3.6148416996
intensity: 30.7481651306
---
header: 
  seq: 1171999
  stamp: 
    secs: 1561865304
    nsecs: 148159942
  frame_id: "ti_mmwave"
point_id: 13
x: 4.9296875
y: -0.779296875
z: -0.0390625
range: 5.31639051437
velocity: 0.0
doppler_bin: 8
bearing: -8.98311805725
intensity: 29.339931488
---
header: 
  seq: 1172000
  stamp: 
    secs: 1561865304
    nsecs: 148167978
  frame_id: "ti_mmwave"
point_id: 14
x: 1.349609375
y: -0.0
z: -0.033203125
range: 1.43804001808
velocity: 0.614668667316
doppler_bin: 9
bearing: -0.0
intensity: 22.7646179199
---
header: 
  seq: 1172001
  stamp: 
    secs: 1561865304
    nsecs: 148188334
  frame_id: "ti_mmwave"
point_id: 15
x: 1.38671875
y: -0.04296875
z: 0.095703125
range: 1.48161697388
velocity: 0.614668667316
doppler_bin: 9
bearing: -1.77479434013
intensity: 23.1806335449
---
header: 
  seq: 1172002
  stamp: 
    secs: 1561865304
    nsecs: 148203257
  frame_id: "ti_mmwave"
point_id: 16
x: 0.009765625
y: 0.03125
z: 0.025390625
range: 0.0435769706964
velocity: 0.0
doppler_bin: 8
bearing: 72.6459732056
intensity: 29.3043956757
---
header: 
  seq: 1172003
  stamp: 
    secs: 1561865304
    nsecs: 148216360
  frame_id: "ti_mmwave"
point_id: 17
x: 0.041015625
y: -0.033203125
z: 0.0625
range: 0.0871539413929
velocity: 0.0
doppler_bin: 8
bearing: -38.9909973145
intensity: 30.0860023499
---
header: 
  seq: 1172004
  stamp: 
    secs: 1561865304
    nsecs: 148229533
  frame_id: "ti_mmwave"
point_id: 18
x: 0.046875
y: -0.046875
z: 0.103515625
range: 0.130730912089
velocity: 0.0
doppler_bin: 8
bearing: -45.0
intensity: 28.9762706757
---
header: 
  seq: 1172005
  stamp: 
    secs: 1561865304
    nsecs: 149265110
  frame_id: "ti_mmwave"
point_id: 0
x: 0.01171875
y: -0.0390625
z: -0.0078125
range: 0.0435769706964
velocity: 0.0
doppler_bin: 8
bearing: -73.3007583618
intensity: 30.6370849609
---
header: 
  seq: 1172006
  stamp: 
    secs: 1561865304
    nsecs: 149335176
  frame_id: "ti_mmwave"
point_id: 1
x: 0.017578125
y: -0.080078125
z: -0.0078125
range: 0.0871539413929
velocity: 0.0
doppler_bin: 8
bearing: -77.6192398071
intensity: 31.894903183
---
header: 
  seq: 1172007
  stamp: 
    secs: 1561865304
    nsecs: 149356108
  frame_id: "ti_mmwave"
point_id: 2
x: 0.029296875
y: -0.119140625
z: -0.005859375
range: 0.130730912089
velocity: 0.0
doppler_bin: 8
bearing: -76.1849746704
intensity: 30.1367969513
---
header: 
  seq: 1172008
  stamp: 
    secs: 1561865304
    nsecs: 149422942
  frame_id: "ti_mmwave"
point_id: 3
x: 0.056640625
y: -0.154296875
z: 0.005859375
range: 0.174307882786
velocity: 0.0
doppler_bin: 8
bearing: -69.8423843384
intensity: 25.4157924652
---
header: 
  seq: 1172009
  stamp: 
    secs: 1561865304
    nsecs: 149440472
  frame_id: "ti_mmwave"
point_id: 4
x: 0.12109375
y: -0.080078125
z: -1.259765625
range: 1.35088610649
velocity: 0.0
doppler_bin: 8
bearing: -33.4762802124
intensity: 23.031961441
---
header: 
  seq: 1172010
  stamp: 
    secs: 1561865304
    nsecs: 149468396
  frame_id: "ti_mmwave"
point_id: 5
x: 0.74609375
y: -0.041015625
z: -1.076171875
range: 1.39446306229
velocity: 0.0
doppler_bin: 8
bearing: -3.14660072327
intensity: 24.2813472748
---
header: 
  seq: 1172011
  stamp: 
    secs: 1561865304
    nsecs: 149517771
  frame_id: "ti_mmwave"
point_id: 6
x: 1.455078125
y: -0.091796875
z: -0.2109375
range: 1.56877088547
velocity: 0.0
doppler_bin: 8
bearing: -3.60984897614
intensity: 27.1096305847
---
header: 
  seq: 1172012
  stamp: 
    secs: 1561865304
    nsecs: 149538301
  frame_id: "ti_mmwave"
point_id: 7
x: 1.486328125
y: -0.09375
z: -0.267578125
range: 1.61234796047
velocity: 0.0
doppler_bin: 8
bearing: -3.60914444923
intensity: 30.1535968781
---
header: 
  seq: 1172013
  stamp: 
    secs: 1561865304
    nsecs: 149578538
  frame_id: "ti_mmwave"
point_id: 8
x: 1.525390625
y: -0.048828125
z: -0.294921875
range: 1.65592491627
velocity: 0.0
doppler_bin: 8
bearing: -1.83342576027
intensity: 29.7405090332
---
header: 
  seq: 1172014
  stamp: 
    secs: 1561865304
    nsecs: 149590825
  frame_id: "ti_mmwave"
point_id: 9
x: 2.630859375
y: -0.17578125
z: 1.0078125
range: 3.00681090355
velocity: 0.0
doppler_bin: 8
bearing: -3.82254433632
intensity: 29.0579586029
---
header: 
  seq: 1172015
  stamp: 
    secs: 1561865304
    nsecs: 149635257
  frame_id: "ti_mmwave"
point_id: 10
x: 2.693359375
y: -0.08984375
z: 0.966796875
range: 3.05038785934
velocity: 0.0
doppler_bin: 8
bearing: -1.91053581238
intensity: 32.1984634399
---
header: 
  seq: 1172016
  stamp: 
    secs: 1561865304
    nsecs: 149651145
  frame_id: "ti_mmwave"
point_id: 11
x: 2.751953125
y: -0.08984375
z: 0.923828125
range: 3.09396481514
velocity: 0.0
doppler_bin: 8
bearing: -1.86988639832
intensity: 31.1360912323
---
header: 
  seq: 1172017
  stamp: 
    secs: 1561865304
    nsecs: 149676717
  frame_id: "ti_mmwave"
point_id: 12
x: 4.41796875
y: -0.142578125
z: 1.205078125
range: 4.88062095642
velocity: 0.0
doppler_bin: 8
bearing: -1.84842634201
intensity: 31.2775249481
---
header: 
  seq: 1172018
  stamp: 
    secs: 1561865304
    nsecs: 149733996
  frame_id: "ti_mmwave"
point_id: 13
x: 4.453125
y: -0.14453125
z: 1.232421875
range: 4.9241976738
velocity: 0.0
doppler_bin: 8
bearing: -1.85894739628
intensity: 30.7700424194
---
header: 
  seq: 1172019
  stamp: 
    secs: 1561865304
    nsecs: 149748580
  frame_id: "ti_mmwave"
point_id: 14
x: 4.87890625
y: -0.30859375
z: 0.77734375
range: 5.27281332016
velocity: 0.0
doppler_bin: 8
bearing: -3.61917114258
intensity: 30.5153846741
---
header: 
  seq: 1172020
  stamp: 
    secs: 1561865304
    nsecs: 149760834
  frame_id: "ti_mmwave"
point_id: 15
x: 4.9453125
y: -0.623046875
z: 0.236328125
range: 5.31639051437
velocity: 0.0
doppler_bin: 8
bearing: -7.18071126938
intensity: 29.1750545502
---
header: 
  seq: 1172021
  stamp: 
    secs: 1561865304
    nsecs: 149769038
  frame_id: "ti_mmwave"
point_id: 16
x: 1.33984375
y: -0.0
z: -0.16796875
range: 1.43804001808
velocity: 0.614668667316
doppler_bin: 9
bearing: -0.0
intensity: 24.2651119232
---
header: 
  seq: 1172022
  stamp: 
    secs: 1561865304
    nsecs: 149779991
  frame_id: "ti_mmwave"
point_id: 17
x: 1.390625
y: -0.04296875
z: 0.001953125
range: 1.48161697388
velocity: 0.614668667316
doppler_bin: 9
bearing: -1.76981210709
intensity: 26.2324924469
---
header: 
  seq: 1172023
  stamp: 
    secs: 1561865304
    nsecs: 149827558
  frame_id: "ti_mmwave"
point_id: 18
x: 1.431640625
y: -0.044921875
z: -0.0234375
range: 1.52519392967
velocity: 0.614668667316
doppler_bin: 9
bearing: -1.79723155499
intensity: 24.9968700409
---
header: 
  seq: 1172024
  stamp: 
    secs: 1561865304
    nsecs: 149841420
  frame_id: "ti_mmwave"
point_id: 19
x: 0.009765625
y: 0.03125
z: 0.025390625
range: 0.0435769706964
velocity: 0.0
doppler_bin: 8
bearing: 72.6459732056
intensity: 29.3094902039
---
header: 
  seq: 1172025
  stamp: 
    secs: 1561865304
    nsecs: 149854587
  frame_id: "ti_mmwave"
point_id: 20
x: 0.041015625
y: -0.033203125
z: 0.0625
range: 0.0871539413929
velocity: 0.0
doppler_bin: 8
bearing: -38.9909973145
intensity: 30.0902576447
---
header: 
  seq: 1172026
  stamp: 
    secs: 1561865304
    nsecs: 149866382
  frame_id: "ti_mmwave"
point_id: 21
x: 0.046875
y: -0.046875
z: 0.103515625
range: 0.130730912089
velocity: 0.0
doppler_bin: 8
bearing: -45.0
intensity: 28.9762706757
---
header: 
  seq: 1172027
  stamp: 
    secs: 1561865304
    nsecs: 207577759
  frame_id: "ti_mmwave"
point_id: 0
x: 0.01171875
y: -0.0390625
z: -0.0078125
range: 0.0435769706964
velocity: 0.0
doppler_bin: 8
bearing: -73.3007583618
intensity: 30.6445808411
---
header: 
  seq: 1172028
  stamp: 
    secs: 1561865304
    nsecs: 207661654
  frame_id: "ti_mmwave"
point_id: 1
x: 0.017578125
y: -0.080078125
z: -0.0078125
range: 0.0871539413929
velocity: 0.0
doppler_bin: 8
bearing: -77.6192398071
intensity: 31.9005146027
---
header: 
  seq: 1172029
  stamp: 
    secs: 1561865304
    nsecs: 207674127
  frame_id: "ti_mmwave"
point_id: 2
x: 0.029296875
y: -0.119140625
z: -0.005859375
range: 0.130730912089
velocity: 0.0
doppler_bin: 8
bearing: -76.1849746704
intensity: 30.1452045441
---
header: 
  seq: 1172030
  stamp: 
    secs: 1561865304
    nsecs: 207683147
  frame_id: "ti_mmwave"
point_id: 3
x: 0.056640625
y: -0.154296875
z: 0.005859375
range: 0.174307882786
velocity: 0.0
doppler_bin: 8
bearing: -69.8423843384
intensity: 25.4406795502
---
header: 
  seq: 1172031
  stamp: 
    secs: 1561865304
    nsecs: 207694813
  frame_id: "ti_mmwave"
point_id: 5
x: 0.3671875
y: -0.08203125
z: 1.25390625
range: 1.39446306229
velocity: 0.0
doppler_bin: 8
bearing: -12.5933303833
intensity: 24.6538276672
---
header: 
  seq: 1172032
  stamp: 
    secs: 1561865304
    nsecs: 207704763
  frame_id: "ti_mmwave"
point_id: 6
x: 0.5
y: -0.083984375
z: 1.25
range: 1.43804001808
velocity: 0.0
doppler_bin: 8
bearing: -9.53489494324
intensity: 25.1982803345
---
header: 
  seq: 1172033
  stamp: 
    secs: 1561865304
    nsecs: 207714884
  frame_id: "ti_mmwave"
point_id: 7
x: 1.34765625
y: -0.04296875
z: -0.33984375
range: 1.48161697388
velocity: 0.0
doppler_bin: 8
bearing: -1.82620322704
intensity: 26.4345264435
---
header: 
  seq: 1172034
  stamp: 
    secs: 1561865304
    nsecs: 207726784
  frame_id: "ti_mmwave"
point_id: 8
x: 1.470703125
y: -0.046875
z: -0.35546875
range: 1.61234796047
velocity: 0.0
doppler_bin: 8
bearing: -1.82554244995
intensity: 26.4345264435
---
header: 
  seq: 1172035
  stamp: 
    secs: 1561865304
    nsecs: 207898215
  frame_id: "ti_mmwave"
point_id: 9
x: 2.623046875
y: -0.17578125
z: 1.029296875
range: 3.00681090355
velocity: 0.0
doppler_bin: 8
bearing: -3.83389568329
intensity: 29.0848503113
---
header: 
  seq: 1172036
  stamp: 
    secs: 1561865304
    nsecs: 207932631
  frame_id: "ti_mmwave"
point_id: 10
x: 2.69140625
y: -0.08984375
z: 0.97265625
range: 3.05038785934
velocity: 0.0
doppler_bin: 8
bearing: -1.91192126274
intensity: 32.229763031
---
header: 
  seq: 1172037
  stamp: 
    secs: 1561865304
    nsecs: 207981284
  frame_id: "ti_mmwave"
point_id: 11
x: 2.732421875
y: -0.181640625
z: 0.96875
range: 3.09396481514
velocity: 0.0
doppler_bin: 8
bearing: -3.80320167542
intensity: 31.1793384552
---
header: 
  seq: 1172038
  stamp: 
    secs: 1561865304
    nsecs: 208041864
  frame_id: "ti_mmwave"
point_id: 12
x: 4.4140625
y: -0.142578125
z: 1.052734375
range: 4.83704376221
velocity: 0.0
doppler_bin: 8
bearing: -1.850061059
intensity: 28.1291332245
---
header: 
  seq: 1172039
  stamp: 
    secs: 1561865304
    nsecs: 208052908
  frame_id: "ti_mmwave"
point_id: 13
x: 4.412109375
y: -0.287109375
z: 1.203125
range: 4.88062095642
velocity: 0.0
doppler_bin: 8
bearing: -3.72316122055
intensity: 31.430147171
---
header: 
  seq: 1172040
  stamp: 
    secs: 1561865304
    nsecs: 208061568
  frame_id: "ti_mmwave"
point_id: 14
x: 4.453125
y: -0.14453125
z: 1.232421875
range: 4.9241976738
velocity: 0.0
doppler_bin: 8
bearing: -1.85894739628
intensity: 30.9551811218
---
header: 
  seq: 1172041
  stamp: 
    secs: 1561865304
    nsecs: 208073492
  frame_id: "ti_mmwave"
point_id: 15
x: 4.87890625
y: -0.30859375
z: 0.7734375
range: 5.27281332016
velocity: 0.0
doppler_bin: 8
bearing: -3.61917114258
intensity: 31.3161869049
---
header: 
  seq: 1172042
  stamp: 
    secs: 1561865304
    nsecs: 208083616
  frame_id: "ti_mmwave"
point_id: 16
x: 4.94921875
y: -0.623046875
z: 0.169921875
range: 5.31639051437
velocity: 0.0
doppler_bin: 8
bearing: -7.17510271072
intensity: 30.2366390228
---
header: 
  seq: 1172043
  stamp: 
    secs: 1561865304
    nsecs: 208102110
  frame_id: "ti_mmwave"
point_id: 17
x: 1.42578125
y: -0.0
z: -0.126953125
range: 1.52519392967
velocity: 0.614668667316
doppler_bin: 9
bearing: -0.0
intensity: 25.4282550812
---
header: 
  seq: 1172044
  stamp: 
    secs: 1561865304
    nsecs: 208118397
  frame_id: "ti_mmwave"
point_id: 18
x: 0.009765625
y: 0.03125
z: 0.025390625
range: 0.0435769706964
velocity: 0.0
doppler_bin: 8
bearing: 72.6459732056
intensity: 29.2992954254
---
header: 
  seq: 1172045
  stamp: 
    secs: 1561865304
    nsecs: 208126843
  frame_id: "ti_mmwave"
point_id: 19
x: 0.041015625
y: -0.033203125
z: 0.0625
range: 0.0871539413929
velocity: 0.0
doppler_bin: 8
bearing: -38.9909973145
intensity: 30.0860023499
---
header: 
  seq: 1172046
  stamp: 
    secs: 1561865304
    nsecs: 208155038
  frame_id: "ti_mmwave"
point_id: 20
x: 0.044921875
y: -0.046875
z: 0.103515625
range: 0.130730912089
velocity: 0.0
doppler_bin: 8
bearing: -46.218875885
intensity: 28.9707698822
---
header: 
  seq: 1172047
  stamp: 
    secs: 1561865304
    nsecs: 209185227
  frame_id: "ti_mmwave"
point_id: 0
x: 0.01171875
y: -0.0390625
z: -0.0078125
range: 0.0435769706964
velocity: 0.0
doppler_bin: 8
bearing: -73.3007583618
intensity: 30.6483230591
---
header: 
  seq: 1172048
  stamp: 
    secs: 1561865304
    nsecs: 209236572
  frame_id: "ti_mmwave"
point_id: 1
x: 0.017578125
y: -0.080078125
z: -0.0078125
range: 0.0871539413929
velocity: 0.0
doppler_bin: 8
bearing: -77.6192398071
intensity: 31.9005146027
---
header: 
  seq: 1172049
  stamp: 
    secs: 1561865304
    nsecs: 209254460
  frame_id: "ti_mmwave"
point_id: 2
x: 0.029296875
y: -0.119140625
z: -0.005859375
range: 0.130730912089
velocity: 0.0
doppler_bin: 8
bearing: -76.1849746704
intensity: 30.1452045441
---
header: 
  seq: 1172050
  stamp: 
    secs: 1561865304
    nsecs: 209274466
  frame_id: "ti_mmwave"
point_id: 3
x: 0.056640625
y: -0.154296875
z: 0.005859375
range: 0.174307882786
velocity: 0.0
doppler_bin: 8
bearing: -69.8423843384
intensity: 25.4406795502
---
header: 
  seq: 1172051
  stamp: 
    secs: 1561865304
    nsecs: 209325840
  frame_id: "ti_mmwave"
point_id: 4
x: 0.14453125
y: -0.080078125
z: 1.2578125
range: 1.35088610649
velocity: 0.0
doppler_bin: 8
bearing: -28.9888248444
intensity: 23.138671875
---
header: 
  seq: 1172052
  stamp: 
    secs: 1561865304
    nsecs: 209338677
  frame_id: "ti_mmwave"
point_id: 5
x: 0.2890625
y: -0.08203125
z: -1.2734375
range: 1.39446306229
velocity: 0.0
doppler_bin: 8
bearing: -15.8430833817
intensity: 24.5178642273
---
header: 
  seq: 1172053
  stamp: 
    secs: 1561865304
    nsecs: 209350678
  frame_id: "ti_mmwave"
point_id: 6
x: 0.97265625
y: -0.04296875
z: -0.935546875
range: 1.43804001808
velocity: 0.0
doppler_bin: 8
bearing: -2.52949428558
intensity: 22.4551258087
---
header: 
  seq: 1172054
  stamp: 
    secs: 1561865304
    nsecs: 209362168
  frame_id: "ti_mmwave"
point_id: 7
x: 1.453125
y: -0.091796875
z: -0.21875
range: 1.56877088547
velocity: 0.0
doppler_bin: 8
bearing: -3.61468815804
intensity: 29.7034683228
---
header: 
  seq: 1172055
  stamp: 
    secs: 1561865304
    nsecs: 209376434
  frame_id: "ti_mmwave"
point_id: 8
x: 1.494140625
y: -0.09375
z: -0.22265625
range: 1.61234796047
velocity: 0.0
doppler_bin: 8
bearing: -3.59032273293
intensity: 32.603099823
---
header: 
  seq: 1172056
  stamp: 
    secs: 1561865304
    nsecs: 209388806
  frame_id: "ti_mmwave"
point_id: 9
x: 1.5234375
y: -0.146484375
z: -0.267578125
range: 1.65592491627
velocity: 0.0
doppler_bin: 8
bearing: -5.49232435226
intensity: 32.0951499939
---
header: 
  seq: 1172057
  stamp: 
    secs: 1561865304
    nsecs: 209411248
  frame_id: "ti_mmwave"
point_id: 10
x: 1.556640625
y: -0.150390625
z: -0.31640625
range: 1.69950187206
velocity: 0.0
doppler_bin: 8
bearing: -5.51835012436
intensity: 27.6641292572
---
header: 
  seq: 1172058
  stamp: 
    secs: 1561865304
    nsecs: 209461647
  frame_id: "ti_mmwave"
point_id: 11
x: 2.619140625
y: -0.17578125
z: 1.037109375
range: 3.00681090355
velocity: 0.0
doppler_bin: 8
bearing: -3.83959650993
intensity: 29.0417442322
---
header: 
  seq: 1172059
  stamp: 
    secs: 1561865304
    nsecs: 209476013
  frame_id: "ti_mmwave"
point_id: 12
x: 2.693359375
y: -0.08984375
z: 0.96875
range: 3.05038785934
velocity: 0.0
doppler_bin: 8
bearing: -1.91053581238
intensity: 32.1984634399
---
header: 
  seq: 1172060
  stamp: 
    secs: 1561865304
    nsecs: 209488340
  frame_id: "ti_mmwave"
point_id: 13
x: 2.73046875
y: -0.181640625
z: 0.970703125
range: 3.09396481514
velocity: 0.0
doppler_bin: 8
bearing: -3.80591416359
intensity: 31.0991592407
---
header: 
  seq: 1172061
  stamp: 
    secs: 1561865304
    nsecs: 209499677
  frame_id: "ti_mmwave"
point_id: 14
x: 4.396484375
y: -0.283203125
z: 1.1015625
range: 4.83704376221
velocity: 0.0
doppler_bin: 8
bearing: -3.68566179276
intensity: 28.0208930969
---
header: 
  seq: 1172062
  stamp: 
    secs: 1561865304
    nsecs: 209513580
  frame_id: "ti_mmwave"
point_id: 15
x: 4.419921875
y: -0.142578125
z: 1.197265625
range: 4.88062095642
velocity: 0.0
doppler_bin: 8
bearing: -1.847610116
intensity: 31.5044937134
---
header: 
  seq: 1172063
  stamp: 
    secs: 1561865304
    nsecs: 209526002
  frame_id: "ti_mmwave"
point_id: 16
x: 4.455078125
y: -0.14453125
z: 1.22265625
range: 4.9241976738
velocity: 0.0
doppler_bin: 8
bearing: -1.85813295841
intensity: 31.1360912323
---
header: 
  seq: 1172064
  stamp: 
    secs: 1561865304
    nsecs: 209537527
  frame_id: "ti_mmwave"
point_id: 17
x: 1.38671875
y: -0.04296875
z: -0.087890625
range: 1.48161697388
velocity: 0.614668667316
doppler_bin: 9
bearing: -1.77479434013
intensity: 23.4242267609
---
header: 
  seq: 1172065
  stamp: 
    secs: 1561865304
    nsecs: 209549742
  frame_id: "ti_mmwave"
point_id: 18
x: 1.4296875
y: -0.044921875
z: -0.056640625
range: 1.52519392967
velocity: 0.614668667316
doppler_bin: 9
bearing: -1.79968500137
intensity: 25.2113800049
---
header: 
  seq: 1172066
  stamp: 
    secs: 1561865304
    nsecs: 209562317
  frame_id: "ti_mmwave"
point_id: 19
x: 0.009765625
y: 0.03125
z: 0.025390625
range: 0.0435769706964
velocity: 0.0
doppler_bin: 8
bearing: 72.6459732056
intensity: 29.3094902039
---
header: 
  seq: 1172067
  stamp: 
    secs: 1561865304
    nsecs: 209608572
  frame_id: "ti_mmwave"
point_id: 20
x: 0.041015625
y: -0.033203125
z: 0.0625
range: 0.0871539413929
velocity: 0.0
doppler_bin: 8
bearing: -38.9909973145
intensity: 30.0860023499
---
header: 
  seq: 1172068
  stamp: 
    secs: 1561865304
    nsecs: 209622752
  frame_id: "ti_mmwave"
point_id: 21
x: 0.044921875
y: -0.046875
z: 0.103515625
range: 0.130730912089
velocity: 0.0
doppler_bin: 8
bearing: -46.218875885
intensity: 28.9762706757
---
header: 
  seq: 1172069
  stamp: 
    secs: 1561865304
    nsecs: 209639007
  frame_id: "ti_mmwave"
point_id: 23
x: 2.771484375
y: -0.0
z: 0.869140625
range: 3.09396481514
velocity: 0.0
doppler_bin: 8
bearing: -0.0
intensity: 31.095785141
---
header: 
  seq: 1172070
  stamp: 
    secs: 1561865304
    nsecs: 267591990
  frame_id: "ti_mmwave"
point_id: 0
x: 0.01171875
y: -0.0390625
z: -0.0078125
range: 0.0435769706964
velocity: 0.0
doppler_bin: 8
bearing: -73.3007583618
intensity: 30.6483230591
---
header: 
  seq: 1172071
  stamp: 
    secs: 1561865304
    nsecs: 267671819
  frame_id: "ti_mmwave"
point_id: 1
x: 0.017578125
y: -0.080078125
z: -0.0078125
range: 0.0871539413929
velocity: 0.0
doppler_bin: 8
bearing: -77.6192398071
intensity: 31.8977088928
---
header: 
  seq: 1172072
  stamp: 
    secs: 1561865304
    nsecs: 267687470
  frame_id: "ti_mmwave"
point_id: 2
x: 0.029296875
y: -0.119140625
z: -0.005859375
range: 0.130730912089
velocity: 0.0
doppler_bin: 8
bearing: -76.1849746704
intensity: 30.1367969513
---
header: 
  seq: 1172073
  stamp: 
    secs: 1561865304
    nsecs: 267702679
  frame_id: "ti_mmwave"
point_id: 3
x: 0.056640625
y: -0.154296875
z: 0.005859375
range: 0.174307882786
velocity: 0.0
doppler_bin: 8
bearing: -69.8423843384
intensity: 25.4282550812
---
header: 
  seq: 1172074
  stamp: 
    secs: 1561865304
    nsecs: 267726341
  frame_id: "ti_mmwave"
point_id: 4
x: 0.029296875
y: -0.080078125
z: 1.265625
range: 1.35088610649
velocity: 0.0
doppler_bin: 8
bearing: -69.9047698975
intensity: 23.0963020325
---
header: 
  seq: 1172075
  stamp: 
    secs: 1561865304
    nsecs: 267808247
  frame_id: "ti_mmwave"
point_id: 5
x: 0.087890625
y: -0.08203125
z: 1.302734375
range: 1.39446306229
velocity: 0.0
doppler_bin: 8
bearing: -43.0250663757
intensity: 24.6538276672
---
header: 
  seq: 1172076
  stamp: 
    secs: 1561865304
    nsecs: 267822736
  frame_id: "ti_mmwave"
point_id: 6
x: 0.455078125
y: -0.083984375
z: -1.267578125
range: 1.43804001808
velocity: 0.0
doppler_bin: 8
bearing: -10.4562511444
intensity: 23.3243846893
---
header: 
  seq: 1172077
  stamp: 
    secs: 1561865304
    nsecs: 267834304
  frame_id: "ti_mmwave"
point_id: 7
x: 0.921875
y: -0.04296875
z: -1.041015625
range: 1.48161697388
velocity: 0.0
doppler_bin: 8
bearing: -2.66863441467
intensity: 20.934217453
---
header: 
  seq: 1172078
  stamp: 
    secs: 1561865304
    nsecs: 267845293
  frame_id: "ti_mmwave"
point_id: 8
x: 1.427734375
y: -0.044921875
z: 0.10546875
range: 1.52519392967
velocity: 0.0
doppler_bin: 8
bearing: -1.80214560032
intensity: 22.2010803223
---
header: 
  seq: 1172079
  stamp: 
    secs: 1561865304
    nsecs: 267855620
  frame_id: "ti_mmwave"
point_id: 9
x: 1.453125
y: -0.046875
z: -0.232421875
range: 1.56877088547
velocity: 0.0
doppler_bin: 8
bearing: -1.847610116
intensity: 31.5136985779
---
header: 
  seq: 1172080
  stamp: 
    secs: 1561865304
    nsecs: 267866928
  frame_id: "ti_mmwave"
point_id: 10
x: 1.49609375
y: -0.046875
z: -0.2265625
range: 1.61234796047
velocity: 0.0
doppler_bin: 8
bearing: -1.79458093643
intensity: 34.8869171143
---
header: 
  seq: 1172081
  stamp: 
    secs: 1561865304
    nsecs: 267880444
  frame_id: "ti_mmwave"
point_id: 11
x: 1.5390625
y: -0.048828125
z: -0.20703125
range: 1.65592491627
velocity: 0.0
doppler_bin: 8
bearing: -1.81714987755
intensity: 34.6849517822
---
header: 
  seq: 1172082
  stamp: 
    secs: 1561865304
    nsecs: 267893718
  frame_id: "ti_mmwave"
point_id: 12
x: 1.5859375
y: -0.05078125
z: -0.162109375
range: 1.69950187206
velocity: 0.0
doppler_bin: 8
bearing: -1.83396720886
intensity: 30.6929798126
---
header: 
  seq: 1172083
  stamp: 
    secs: 1561865304
    nsecs: 267906516
  frame_id: "ti_mmwave"
point_id: 13
x: 2.611328125
y: -0.17578125
z: 1.05859375
range: 3.00681090355
velocity: 0.0
doppler_bin: 8
bearing: -3.85104894638
intensity: 29.0741138458
---
header: 
  seq: 1172084
  stamp: 
    secs: 1561865304
    nsecs: 267918845
  frame_id: "ti_mmwave"
point_id: 14
x: 2.6875
y: -0.08984375
z: 0.982421875
range: 3.05038785934
velocity: 0.0
doppler_bin: 8
bearing: -1.91469812393
intensity: 32.229763031
---
header: 
  seq: 1172085
  stamp: 
    secs: 1561865304
    nsecs: 268007169
  frame_id: "ti_mmwave"
point_id: 15
x: 2.755859375
y: -0.08984375
z: 0.916015625
range: 3.09396481514
velocity: 0.0
doppler_bin: 8
bearing: -1.86723792553
intensity: 31.222158432
---
header: 
  seq: 1172086
  stamp: 
    secs: 1561865304
    nsecs: 268023823
  frame_id: "ti_mmwave"
point_id: 16
x: 4.41796875
y: -0.142578125
z: 1.03515625
range: 4.83704376221
velocity: 0.0
doppler_bin: 8
bearing: -1.84842634201
intensity: 28.2216815948
---
header: 
  seq: 1172087
  stamp: 
    secs: 1561865304
    nsecs: 268035690
  frame_id: "ti_mmwave"
point_id: 17
x: 4.421875
y: -0.142578125
z: 1.193359375
range: 4.88062095642
velocity: 0.0
doppler_bin: 8
bearing: -1.84679484367
intensity: 31.2515583038
---
header: 
  seq: 1172088
  stamp: 
    secs: 1561865304
    nsecs: 268046545
  frame_id: "ti_mmwave"
point_id: 18
x: 4.4453125
y: -0.14453125
z: 1.255859375
range: 4.9241976738
velocity: 0.0
doppler_bin: 8
bearing: -1.86221218109
intensity: 30.5842609406
---
header: 
  seq: 1172089
  stamp: 
    secs: 1561865304
    nsecs: 268060203
  frame_id: "ti_mmwave"
point_id: 19
x: 0.009765625
y: 0.03125
z: 0.025390625
range: 0.0435769706964
velocity: 0.0
doppler_bin: 8
bearing: 72.6459732056
intensity: 29.3043956757
---
header: 
  seq: 1172090
  stamp: 
    secs: 1561865304
    nsecs: 268071909
  frame_id: "ti_mmwave"
point_id: 20
x: 0.041015625
y: -0.033203125
z: 0.0625
range: 0.0871539413929
velocity: 0.0
doppler_bin: 8
bearing: -38.9909973145
intensity: 30.0860023499
---
header: 
  seq: 1172091
  stamp: 
    secs: 1561865304
    nsecs: 268084510
  frame_id: "ti_mmwave"
point_id: 21
x: 0.044921875
y: -0.046875
z: 0.103515625
range: 0.130730912089
velocity: 0.0
doppler_bin: 8
bearing: -46.218875885
intensity: 28.9762706757
---
header: 
  seq: 1172092
  stamp: 
    secs: 1561865304
    nsecs: 268879915
  frame_id: "ti_mmwave"
point_id: 0
x: 0.01171875
y: -0.0390625
z: -0.0078125
range: 0.0435769706964
velocity: 0.0
doppler_bin: 8
bearing: -73.3007583618
intensity: 30.6483230591
---
header: 
  seq: 1172093
  stamp: 
    secs: 1561865304
    nsecs: 268933122
  frame_id: "ti_mmwave"
point_id: 1
x: 0.017578125
y: -0.080078125
z: -0.0078125
range: 0.0871539413929
velocity: 0.0
doppler_bin: 8
bearing: -77.6192398071
intensity: 31.9005146027
---
header: 
  seq: 1172094
  stamp: 
    secs: 1561865304
    nsecs: 268953449
  frame_id: "ti_mmwave"
point_id: 2
x: 0.029296875
y: -0.119140625
z: -0.005859375
range: 0.130730912089
velocity: 0.0
doppler_bin: 8
bearing: -76.1849746704
intensity: 30.141002655
---
header: 
  seq: 1172095
  stamp: 
    secs: 1561865304
    nsecs: 268969902
  frame_id: "ti_mmwave"
point_id: 3
x: 0.056640625
y: -0.154296875
z: 0.005859375
range: 0.174307882786
velocity: 0.0
doppler_bin: 8
bearing: -69.8423843384
intensity: 25.4282550812
---
header: 
  seq: 1172096
  stamp: 
    secs: 1561865304
    nsecs: 268982302
  frame_id: "ti_mmwave"
point_id: 4
x: 0.083984375
y: -0.080078125
z: 1.263671875
range: 1.35088610649
velocity: 0.0
doppler_bin: 8
bearing: -43.6360702515
intensity: 23.0749607086
---
header: 
  seq: 1172097
  stamp: 
    secs: 1561865304
    nsecs: 268997799
  frame_id: "ti_mmwave"
point_id: 6
x: 0.201171875
y: -0.083984375
z: -1.33203125
range: 1.43804001808
velocity: 0.0
doppler_bin: 8
bearing: -22.6593532562
intensity: 22.7646179199
---
header: 
  seq: 1172098
  stamp: 
    secs: 1561865304
    nsecs: 269012705
  frame_id: "ti_mmwave"
point_id: 7
x: 1.068359375
y: -0.087890625
z: 0.884765625
range: 1.48161697388
velocity: 0.0
doppler_bin: 8
bearing: -4.70295619965
intensity: 22.4054927826
---
header: 
  seq: 1172099
  stamp: 
    secs: 1561865304
    nsecs: 269026356
  frame_id: "ti_mmwave"
point_id: 8
x: 1.4140625
y: -0.044921875
z: 0.216796875
range: 1.52519392967
velocity: 0.0
doppler_bin: 8
bearing: -1.8195579052
intensity: 25.3529415131
---
header: 
  seq: 1172100
  stamp: 
    secs: 1561865304
    nsecs: 269037986
  frame_id: "ti_mmwave"
point_id: 9
x: 1.462890625
y: -0.046875
z: -0.15625
range: 1.56877088547
velocity: 0.0
doppler_bin: 8
bearing: -1.83528482914
intensity: 30.7151374817
---
header: 
  seq: 1172101
  stamp: 
    secs: 1561865304
    nsecs: 269049791
  frame_id: "ti_mmwave"
point_id: 10
x: 1.498046875
y: -0.046875
z: -0.21484375
range: 1.61234796047
velocity: 0.0
doppler_bin: 8
bearing: -1.79224264622
intensity: 33.5024795532
---
header: 
  seq: 1172102
  stamp: 
    secs: 1561865304
    nsecs: 269065680
  frame_id: "ti_mmwave"
point_id: 11
x: 1.5390625
y: -0.048828125
z: -0.216796875
range: 1.65592491627
velocity: 0.0
doppler_bin: 8
bearing: -1.81714987755
intensity: 32.8981170654
---
header: 
  seq: 1172103
  stamp: 
    secs: 1561865304
    nsecs: 269079144
  frame_id: "ti_mmwave"
point_id: 12
x: 1.587890625
y: -0.0
z: -0.158203125
range: 1.69950187206
velocity: 0.0
doppler_bin: 8
bearing: -0.0
intensity: 28.3058872223
---
header: 
  seq: 1172104
  stamp: 
    secs: 1561865304
    nsecs: 269090194
  frame_id: "ti_mmwave"
point_id: 13
x: 2.62109375
y: -0.17578125
z: 1.03125
range: 3.00681090355
velocity: 0.0
doppler_bin: 8
bearing: -3.83674383163
intensity: 29.1009063721
---
header: 
  seq: 1172105
  stamp: 
    secs: 1561865304
    nsecs: 269103247
  frame_id: "ti_mmwave"
point_id: 14
x: 2.693359375
y: -0.08984375
z: 0.966796875
range: 3.05038785934
velocity: 0.0
doppler_bin: 8
bearing: -1.91053581238
intensity: 32.2219619751
---
header: 
  seq: 1172106
  stamp: 
    secs: 1561865304
    nsecs: 269115211
  frame_id: "ti_mmwave"
point_id: 15
x: 2.7578125
y: -0.08984375
z: 0.904296875
range: 3.09396481514
velocity: 0.0
doppler_bin: 8
bearing: -1.86591637135
intensity: 31.1561050415
---
header: 
  seq: 1172107
  stamp: 
    secs: 1561865304
    nsecs: 269128937
  frame_id: "ti_mmwave"
point_id: 16
x: 4.412109375
y: -0.142578125
z: 1.0625
range: 4.83704376221
velocity: 0.0
doppler_bin: 8
bearing: -1.85087943077
intensity: 28.2216815948
---
header: 
  seq: 1172108
  stamp: 
    secs: 1561865304
    nsecs: 269142349
  frame_id: "ti_mmwave"
point_id: 17
x: 4.423828125
y: -0.142578125
z: 1.18359375
range: 4.88062095642
velocity: 0.0
doppler_bin: 8
bearing: -1.84597980976
intensity: 31.670217514
---
header: 
  seq: 1172109
  stamp: 
    secs: 1561865304
    nsecs: 269157341
  frame_id: "ti_mmwave"
point_id: 18
x: 4.45703125
y: -0.14453125
z: 1.21484375
range: 4.9241976738
velocity: 0.0
doppler_bin: 8
bearing: -1.8573192358
intensity: 31.4488544464
---
header: 
  seq: 1172110
  stamp: 
    secs: 1561865304
    nsecs: 269169365
  frame_id: "ti_mmwave"
point_id: 19
x: 0.009765625
y: 0.03125
z: 0.025390625
range: 0.0435769706964
velocity: 0.0
doppler_bin: 8
bearing: 72.6459732056
intensity: 29.3043956757
---
header: 
  seq: 1172111
  stamp: 
    secs: 1561865304
    nsecs: 269181852
  frame_id: "ti_mmwave"
point_id: 20
x: 0.041015625
y: -0.033203125
z: 0.0625
range: 0.0871539413929
velocity: 0.0
doppler_bin: 8
bearing: -38.9909973145
intensity: 30.0860023499
---
header: 
  seq: 1172112
  stamp: 
    secs: 1561865304
    nsecs: 269195725
  frame_id: "ti_mmwave"
point_id: 21
x: 0.044921875
y: -0.046875
z: 0.103515625
range: 0.130730912089
velocity: 0.0
doppler_bin: 8
bearing: -46.218875885
intensity: 28.9707698822
---
header: 
  seq: 1172113
  stamp: 
    secs: 1561865304
    nsecs: 327550516
  frame_id: "ti_mmwave"
point_id: 0
x: 0.01171875
y: -0.0390625
z: -0.0078125
range: 0.0435769706964
velocity: 0.0
doppler_bin: 8
bearing: -73.3007583618
intensity: 30.6445808411
---
header: 
  seq: 1172114
  stamp: 
    secs: 1561865304
    nsecs: 327627871
  frame_id: "ti_mmwave"
point_id: 1
x: 0.017578125
y: -0.080078125
z: -0.0078125
range: 0.0871539413929
velocity: 0.0
doppler_bin: 8
bearing: -77.6192398071
intensity: 31.9005146027
---
header: 
  seq: 1172115
  stamp: 
    secs: 1561865304
    nsecs: 327641241
  frame_id: "ti_mmwave"
point_id: 2
x: 0.029296875
y: -0.119140625
z: -0.005859375
range: 0.130730912089
velocity: 0.0
doppler_bin: 8
bearing: -76.1849746704
intensity: 30.141002655
---
header: 
  seq: 1172116
  stamp: 
    secs: 1561865304
    nsecs: 327649987
  frame_id: "ti_mmwave"
point_id: 3
x: 0.056640625
y: -0.154296875
z: 0.005859375
range: 0.174307882786
velocity: 0.0
doppler_bin: 8
bearing: -69.8423843384
intensity: 25.4406795502
---
header: 
  seq: 1172117
  stamp: 
    secs: 1561865304
    nsecs: 327659689
  frame_id: "ti_mmwave"
point_id: 4
x: 0.16015625
y: -0.080078125
z: 1.255859375
range: 1.35088610649
velocity: 0.0
doppler_bin: 8
bearing: -26.5650501251
intensity: 23.1175384521
---
header: 
  seq: 1172118
  stamp: 
    secs: 1561865304
    nsecs: 327669604
  frame_id: "ti_mmwave"
point_id: 6
x: 0.478515625
y: -0.083984375
z: -1.259765625
range: 1.43804001808
velocity: 0.0
doppler_bin: 8
bearing: -9.95460605621
intensity: 22.8780174255
---
header: 
  seq: 1172119
  stamp: 
    secs: 1561865304
    nsecs: 327677716
  frame_id: "ti_mmwave"
point_id: 7
x: 1.466796875
y: -0.046875
z: -0.123046875
range: 1.56877088547
velocity: 0.0
doppler_bin: 8
bearing: -1.83040058613
intensity: 25.1851387024
---
header: 
  seq: 1172120
  stamp: 
    secs: 1561865304
    nsecs: 327685476
  frame_id: "ti_mmwave"
point_id: 8
x: 1.50390625
y: -0.046875
z: -0.166015625
range: 1.61234796047
velocity: 0.0
doppler_bin: 8
bearing: -1.78526449203
intensity: 27.2427577972
---
header: 
  seq: 1172121
  stamp: 
    secs: 1561865304
    nsecs: 327693264
  frame_id: "ti_mmwave"
point_id: 9
x: 1.53125
y: -0.09765625
z: -0.25390625
range: 1.65592491627
velocity: 0.0
doppler_bin: 8
bearing: -3.64912557602
intensity: 25.7403125763
---
header: 
  seq: 1172122
  stamp: 
    secs: 1561865304
    nsecs: 327702675
  frame_id: "ti_mmwave"
point_id: 10
x: 2.625
y: -0.17578125
z: 1.021484375
range: 3.00681090355
velocity: 0.0
doppler_bin: 8
bearing: -3.83105134964
intensity: 29.0902080536
---
header: 
  seq: 1172123
  stamp: 
    secs: 1561865304
    nsecs: 327709900
  frame_id: "ti_mmwave"
point_id: 11
x: 2.689453125
y: -0.08984375
z: 0.9765625
range: 3.05038785934
velocity: 0.0
doppler_bin: 8
bearing: -1.91330885887
intensity: 32.2427406311
---
header: 
  seq: 1172124
  stamp: 
    secs: 1561865304
    nsecs: 327718651
  frame_id: "ti_mmwave"
point_id: 12
x: 2.748046875
y: -0.08984375
z: 0.935546875
range: 3.09396481514
velocity: 0.0
doppler_bin: 8
bearing: -1.8725425005
intensity: 31.2385158539
---
header: 
  seq: 1172125
  stamp: 
    secs: 1561865304
    nsecs: 327728273
  frame_id: "ti_mmwave"
point_id: 13
x: 4.41796875
y: -0.142578125
z: 1.20703125
range: 4.88062095642
velocity: 0.0
doppler_bin: 8
bearing: -1.84842634201
intensity: 30.962146759
---
header: 
  seq: 1172126
  stamp: 
    secs: 1561865304
    nsecs: 327736658
  frame_id: "ti_mmwave"
point_id: 14
x: 4.455078125
y: -0.14453125
z: 1.2265625
range: 4.9241976738
velocity: 0.0
doppler_bin: 8
bearing: -1.85813295841
intensity: 30.700378418
---
header: 
  seq: 1172127
  stamp: 
    secs: 1561865304
    nsecs: 327744971
  frame_id: "ti_mmwave"
point_id: 15
x: 0.009765625
y: 0.03125
z: 0.025390625
range: 0.0435769706964
velocity: 0.0
doppler_bin: 8
bearing: 72.6459732056
intensity: 29.3043956757
---
header: 
  seq: 1172128
  stamp: 
    secs: 1561865304
    nsecs: 327753425
  frame_id: "ti_mmwave"
point_id: 16
x: 0.041015625
y: -0.033203125
z: 0.0625
range: 0.0871539413929
velocity: 0.0
doppler_bin: 8
bearing: -38.9909973145
intensity: 30.0902576447
---
header: 
  seq: 1172129
  stamp: 
    secs: 1561865304
    nsecs: 327763570
  frame_id: "ti_mmwave"
point_id: 17
x: 0.046875
y: -0.046875
z: 0.103515625
range: 0.130730912089
velocity: 0.0
doppler_bin: 8
bearing: -45.0
intensity: 28.9762706757
---
header: 
  seq: 1172130
  stamp: 
    secs: 1561865304
    nsecs: 387691376
  frame_id: "ti_mmwave"
point_id: 0
x: 0.01171875
y: -0.0390625
z: -0.0078125
range: 0.0435769706964
velocity: 0.0
doppler_bin: 8
bearing: -73.3007583618
intensity: 30.6445808411
---
header: 
  seq: 1172131
  stamp: 
    secs: 1561865304
    nsecs: 387779727
  frame_id: "ti_mmwave"
point_id: 1
x: 0.017578125
y: -0.080078125
z: -0.0078125
range: 0.0871539413929
velocity: 0.0
doppler_bin: 8
bearing: -77.6192398071
intensity: 31.894903183
---
header: 
  seq: 1172132
  stamp: 
    secs: 1561865304
    nsecs: 387799956
  frame_id: "ti_mmwave"
point_id: 2
x: 0.029296875
y: -0.119140625
z: -0.005859375
range: 0.130730912089
velocity: 0.0
doppler_bin: 8
bearing: -76.1849746704
intensity: 30.1367969513
---
header: 
  seq: 1172133
  stamp: 
    secs: 1561865304
    nsecs: 387815149
  frame_id: "ti_mmwave"
point_id: 3
x: 0.056640625
y: -0.154296875
z: 0.005859375
range: 0.174307882786
velocity: 0.0
doppler_bin: 8
bearing: -69.8423843384
intensity: 25.4406795502
---
header: 
  seq: 1172134
  stamp: 
    secs: 1561865304
    nsecs: 387827697
  frame_id: "ti_mmwave"
point_id: 4
x: 0.126953125
y: -0.080078125
z: 1.259765625
range: 1.35088610649
velocity: 0.0
doppler_bin: 8
bearing: -32.2424697876
intensity: 23.1175384521
---
header: 
  seq: 1172135
  stamp: 
    secs: 1561865304
    nsecs: 387842097
  frame_id: "ti_mmwave"
point_id: 5
x: 0.04296875
y: -0.08203125
z: -1.306640625
range: 1.39446306229
velocity: 0.0
doppler_bin: 8
bearing: -62.3540267944
intensity: 24.6089782715
---
header: 
  seq: 1172136
  stamp: 
    secs: 1561865304
    nsecs: 387853773
  frame_id: "ti_mmwave"
point_id: 6
x: 0.455078125
y: -0.083984375
z: -1.267578125
range: 1.43804001808
velocity: 0.0
doppler_bin: 8
bearing: -10.4562511444
intensity: 23.2014636993
---
header: 
  seq: 1172137
  stamp: 
    secs: 1561865304
    nsecs: 387865352
  frame_id: "ti_mmwave"
point_id: 7
x: 0.888671875
y: -0.04296875
z: -1.068359375
range: 1.48161697388
velocity: 0.0
doppler_bin: 8
bearing: -2.76818943024
intensity: 22.7875366211
---
header: 
  seq: 1172138
  stamp: 
    secs: 1561865304
    nsecs: 387877159
  frame_id: "ti_mmwave"
point_id: 8
x: 1.328125
y: -0.044921875
z: -0.53125
range: 1.52519392967
velocity: 0.0
doppler_bin: 8
bearing: -1.93720710278
intensity: 24.0823993683
---
header: 
  seq: 1172139
  stamp: 
    secs: 1561865304
    nsecs: 387889085
  frame_id: "ti_mmwave"
point_id: 9
x: 1.453125
y: -0.091796875
z: -0.21875
range: 1.56877088547
velocity: 0.0
doppler_bin: 8
bearing: -3.61468815804
intensity: 27.2672729492
---
header: 
  seq: 1172140
  stamp: 
    secs: 1561865304
    nsecs: 387914633
  frame_id: "ti_mmwave"
point_id: 10
x: 1.48828125
y: -0.09375
z: -0.255859375
range: 1.61234796047
velocity: 0.0
doppler_bin: 8
bearing: -3.60442066193
intensity: 29.7863693237
---
header: 
  seq: 1172141
  stamp: 
    secs: 1561865304
    nsecs: 388050093
  frame_id: "ti_mmwave"
point_id: 11
x: 1.53515625
y: -0.09765625
z: -0.2265625
range: 1.65592491627
velocity: 0.0
doppler_bin: 8
bearing: -3.63986492157
intensity: 29.4250411987
---
header: 
  seq: 1172142
  stamp: 
    secs: 1561865304
    nsecs: 388071740
  frame_id: "ti_mmwave"
point_id: 12
x: 2.6171875
y: -0.17578125
z: 1.04296875
range: 3.00681090355
velocity: 0.0
doppler_bin: 8
bearing: -3.84245300293
intensity: 28.9542255402
---
header: 
  seq: 1172143
  stamp: 
    secs: 1561865304
    nsecs: 388083876
  frame_id: "ti_mmwave"
point_id: 13
x: 2.689453125
y: -0.08984375
z: 0.978515625
range: 3.05038785934
velocity: 0.0
doppler_bin: 8
bearing: -1.91330885887
intensity: 32.1906051636
---
header: 
  seq: 1172144
  stamp: 
    secs: 1561865304
    nsecs: 388095461
  frame_id: "ti_mmwave"
point_id: 14
x: 2.755859375
y: -0.08984375
z: 0.9140625
range: 3.09396481514
velocity: 0.0
doppler_bin: 8
bearing: -1.86723792553
intensity: 31.2024478912
---
header: 
  seq: 1172145
  stamp: 
    secs: 1561865304
    nsecs: 388106771
  frame_id: "ti_mmwave"
point_id: 15
x: 4.408203125
y: -0.142578125
z: 1.240234375
range: 4.88062095642
velocity: 0.0
doppler_bin: 8
bearing: -1.85251843929
intensity: 29.4250411987
---
header: 
  seq: 1172146
  stamp: 
    secs: 1561865304
    nsecs: 388118301
  frame_id: "ti_mmwave"
point_id: 16
x: 4.44140625
y: -0.14453125
z: 1.2734375
range: 4.9241976738
velocity: 0.0
doppler_bin: 8
bearing: -1.86384868622
intensity: 29.1645393372
---
header: 
  seq: 1172147
  stamp: 
    secs: 1561865304
    nsecs: 388129456
  frame_id: "ti_mmwave"
point_id: 17
x: 1.578125
y: -0.0
z: 0.232421875
range: 1.69950187206
velocity: 0.614668667316
doppler_bin: 9
bearing: -0.0
intensity: 26.0314445496
---
header: 
  seq: 1172148
  stamp: 
    secs: 1561865304
    nsecs: 388141836
  frame_id: "ti_mmwave"
point_id: 18
x: 0.009765625
y: 0.03125
z: 0.025390625
range: 0.0435769706964
velocity: 0.0
doppler_bin: 8
bearing: 72.6459732056
intensity: 29.3094902039
---
header: 
  seq: 1172149
  stamp: 
    secs: 1561865304
    nsecs: 388173305
  frame_id: "ti_mmwave"
point_id: 19
x: 0.041015625
y: -0.033203125
z: 0.0625
range: 0.0871539413929
velocity: 0.0
doppler_bin: 8
bearing: -38.9909973145
intensity: 30.0860023499
---
header: 
  seq: 1172150
  stamp: 
    secs: 1561865304
    nsecs: 388194186
  frame_id: "ti_mmwave"
point_id: 20
x: 0.044921875
y: -0.046875
z: 0.103515625
range: 0.130730912089
velocity: 0.0
doppler_bin: 8
bearing: -46.218875885
intensity: 28.9762706757
---
header: 
  seq: 1172151
  stamp: 
    secs: 1561865304
    nsecs: 389984448
  frame_id: "ti_mmwave"
point_id: 0
x: 0.01171875
y: -0.0390625
z: -0.0078125
range: 0.0435769706964
velocity: 0.0
doppler_bin: 8
bearing: -73.3007583618
intensity: 30.6483230591
---
header: 
  seq: 1172152
  stamp: 
    secs: 1561865304
    nsecs: 390033044
  frame_id: "ti_mmwave"
point_id: 1
x: 0.017578125
y: -0.080078125
z: -0.0078125
range: 0.0871539413929
velocity: 0.0
doppler_bin: 8
bearing: -77.6192398071
intensity: 31.8977088928
---
header: 
  seq: 1172153
  stamp: 
    secs: 1561865304
    nsecs: 390043202
  frame_id: "ti_mmwave"
point_id: 2
x: 0.029296875
y: -0.119140625
z: -0.005859375
range: 0.130730912089
velocity: 0.0
doppler_bin: 8
bearing: -76.1849746704
intensity: 30.141002655
---
header: 
  seq: 1172154
  stamp: 
    secs: 1561865304
    nsecs: 390051723
  frame_id: "ti_mmwave"
point_id: 3
x: 0.056640625
y: -0.154296875
z: 0.005859375
range: 0.174307882786
velocity: 0.0
doppler_bin: 8
bearing: -69.8423843384
intensity: 25.4282550812
---
header: 
  seq: 1172155
  stamp: 
    secs: 1561865304
    nsecs: 390062240
  frame_id: "ti_mmwave"
point_id: 4
x: 0.14453125
y: -0.080078125
z: 1.2578125
range: 1.35088610649
velocity: 0.0
doppler_bin: 8
bearing: -28.9888248444
intensity: 23.138671875
---
header: 
  seq: 1172156
  stamp: 
    secs: 1561865304
    nsecs: 390075311
  frame_id: "ti_mmwave"
point_id: 6
x: 0.37890625
y: -0.083984375
z: -1.29296875
range: 1.43804001808
velocity: 0.0
doppler_bin: 8
bearing: -12.4975328445
intensity: 23.031961441
---
header: 
  seq: 1172157
  stamp: 
    secs: 1561865304
    nsecs: 390118765
  frame_id: "ti_mmwave"
point_id: 7
x: 0.34375
y: -0.087890625
z: 1.345703125
range: 1.48161697388
velocity: 0.0
doppler_bin: 8
bearing: -14.3422260284
intensity: 21.8184356689
---
header: 
  seq: 1172158
  stamp: 
    secs: 1561865304
    nsecs: 390127947
  frame_id: "ti_mmwave"
point_id: 8
x: 1.462890625
y: -0.046875
z: -0.1640625
