header: 
  seq: 1212129
  stamp: 
    secs: 1561865369
    nsecs: 127687312
  frame_id: "ti_mmwave"
point_id: 0
x: 0.01171875
y: -0.0390625
z: -0.0078125
range: 0.0435769706964
velocity: 0.0
doppler_bin: 8
bearing: -73.3007583618
intensity: 30.6408348083
---
header: 
  seq: 1212130
  stamp: 
    secs: 1561865369
    nsecs: 127762301
  frame_id: "ti_mmwave"
point_id: 1
x: 0.017578125
y: -0.080078125
z: -0.0078125
range: 0.0871539413929
velocity: 0.0
doppler_bin: 8
bearing: -77.6192398071
intensity: 31.8977088928
---
header: 
  seq: 1212131
  stamp: 
    secs: 1561865369
    nsecs: 127773380
  frame_id: "ti_mmwave"
point_id: 2
x: 0.029296875
y: -0.119140625
z: -0.005859375
range: 0.130730912089
velocity: 0.0
doppler_bin: 8
bearing: -76.1849746704
intensity: 30.141002655
---
header: 
  seq: 1212132
  stamp: 
    secs: 1561865369
    nsecs: 127783262
  frame_id: "ti_mmwave"
point_id: 3
x: 0.056640625
y: -0.154296875
z: 0.005859375
range: 0.174307882786
velocity: 0.0
doppler_bin: 8
bearing: -69.8423843384
intensity: 25.4406795502
---
header: 
  seq: 1212133
  stamp: 
    secs: 1561865369
    nsecs: 127792313
  frame_id: "ti_mmwave"
point_id: 4
x: 0.71875
y: -0.080078125
z: -1.04296875
range: 1.35088610649
velocity: 0.0
doppler_bin: 8
bearing: -6.35727977753
intensity: 23.2428245544
---
header: 
  seq: 1212134
  stamp: 
    secs: 1561865369
    nsecs: 127800475
  frame_id: "ti_mmwave"
point_id: 5
x: 0.703125
y: -0.041015625
z: -1.103515625
range: 1.39446306229
velocity: 0.0
doppler_bin: 8
bearing: -3.33847045898
intensity: 24.3616256714
---
header: 
  seq: 1212135
  stamp: 
    secs: 1561865369
    nsecs: 127808893
  frame_id: "ti_mmwave"
point_id: 6
x: 0.404296875
y: -0.083984375
z: -1.28515625
range: 1.43804001808
velocity: 0.0
doppler_bin: 8
bearing: -11.7351255417
intensity: 22.4797325134
---
header: 
  seq: 1212136
  stamp: 
    secs: 1561865369
    nsecs: 127820996
  frame_id: "ti_mmwave"
point_id: 7
x: 0.87890625
y: -0.0
z: -1.078125
range: 1.48161697388
velocity: 0.0
doppler_bin: 8
bearing: -0.0
intensity: 22.718416214
---
header: 
  seq: 1212137
  stamp: 
    secs: 1561865369
    nsecs: 127829762
  frame_id: "ti_mmwave"
point_id: 8
x: 1.216796875
y: 0.044921875
z: -0.75390625
range: 1.52519392967
velocity: 0.0
doppler_bin: 8
bearing: 2.11429309845
intensity: 23.9967365265
---
header: 
  seq: 1212138
  stamp: 
    secs: 1561865369
    nsecs: 127848427
  frame_id: "ti_mmwave"
point_id: 9
x: 1.396484375
y: -0.046875
z: -0.466796875
range: 1.56877088547
velocity: 0.0
doppler_bin: 8
bearing: -1.92249310017
intensity: 24.1830120087
---
header: 
  seq: 1212139
  stamp: 
    secs: 1561865369
    nsecs: 127861643
  frame_id: "ti_mmwave"
point_id: 10
x: 2.6171875
y: -0.17578125
z: 1.041015625
range: 3.00681090355
velocity: 0.0
doppler_bin: 8
bearing: -3.84245300293
intensity: 29.0687351227
---
header: 
  seq: 1212140
  stamp: 
    secs: 1561865369
    nsecs: 127874792
  frame_id: "ti_mmwave"
point_id: 11
x: 2.69140625
y: -0.08984375
z: 0.9765625
range: 3.05038785934
velocity: 0.0
doppler_bin: 8
bearing: -1.91192126274
intensity: 32.2141418457
---
header: 
  seq: 1212141
  stamp: 
    secs: 1561865369
    nsecs: 127888887
  frame_id: "ti_mmwave"
point_id: 12
x: 2.73046875
y: -0.181640625
z: 0.970703125
range: 3.09396481514
velocity: 0.0
doppler_bin: 8
bearing: -3.80591416359
intensity: 31.1991539001
---
header: 
  seq: 1212142
  stamp: 
    secs: 1561865369
    nsecs: 127902384
  frame_id: "ti_mmwave"
point_id: 13
x: 4.4140625
y: -0.142578125
z: 1.220703125
range: 4.88062095642
velocity: 0.0
doppler_bin: 8
bearing: -1.850061059
intensity: 31.2385158539
---
header: 
  seq: 1212143
  stamp: 
    secs: 1561865369
    nsecs: 127916522
  frame_id: "ti_mmwave"
point_id: 14
x: 4.4453125
y: -0.14453125
z: 1.259765625
range: 4.9241976738
velocity: 0.0
doppler_bin: 8
bearing: -1.86221218109
intensity: 30.7040729523
---
header: 
  seq: 1212144
  stamp: 
    secs: 1561865369
    nsecs: 127930816
  frame_id: "ti_mmwave"
point_id: 15
x: 4.87890625
y: -0.30859375
z: 0.7734375
range: 5.27281332016
velocity: 0.0
doppler_bin: 8
bearing: -3.61917114258
intensity: 31.0311927795
---
header: 
  seq: 1212145
  stamp: 
    secs: 1561865369
    nsecs: 127980327
  frame_id: "ti_mmwave"
point_id: 16
x: 4.951171875
y: -0.623046875
z: 0.091796875
range: 5.31639051437
velocity: 0.0
doppler_bin: 8
bearing: -7.17230129242
intensity: 29.6661090851
---
header: 
  seq: 1212146
  stamp: 
    secs: 1561865369
    nsecs: 128140552
  frame_id: "ti_mmwave"
point_id: 17
x: 0.0078125
y: 0.03125
z: 0.025390625
range: 0.0435769706964
velocity: 0.0
doppler_bin: 8
bearing: 75.963760376
intensity: 29.2992954254
---
header: 
  seq: 1212147
  stamp: 
    secs: 1561865369
    nsecs: 128160176
  frame_id: "ti_mmwave"
point_id: 18
x: 0.041015625
y: -0.033203125
z: 0.0625
range: 0.0871539413929
velocity: 0.0
doppler_bin: 8
bearing: -38.9909973145
intensity: 30.0860023499
---
header: 
  seq: 1212148
  stamp: 
    secs: 1561865369
    nsecs: 128168518
  frame_id: "ti_mmwave"
point_id: 19
x: 0.044921875
y: -0.046875
z: 0.103515625
range: 0.130730912089
velocity: 0.0
doppler_bin: 8
bearing: -46.218875885
intensity: 28.9707698822
---
header: 
  seq: 1212149
  stamp: 
    secs: 1561865369
    nsecs: 187641322
  frame_id: "ti_mmwave"
point_id: 0
x: 0.01171875
y: -0.0390625
z: -0.0078125
range: 0.0435769706964
velocity: 0.0
doppler_bin: 8
bearing: -73.3007583618
intensity: 30.6333332062
---
header: 
  seq: 1212150
  stamp: 
    secs: 1561865369
    nsecs: 187728096
  frame_id: "ti_mmwave"
point_id: 1
x: 0.017578125
y: -0.080078125
z: -0.0078125
range: 0.0871539413929
velocity: 0.0
doppler_bin: 8
bearing: -77.6192398071
intensity: 31.8920955658
---
header: 
  seq: 1212151
  stamp: 
    secs: 1561865369
    nsecs: 187750042
  frame_id: "ti_mmwave"
point_id: 2
x: 0.029296875
y: -0.119140625
z: -0.005859375
range: 0.130730912089
velocity: 0.0
doppler_bin: 8
bearing: -76.1849746704
intensity: 30.1367969513
---
header: 
  seq: 1212152
  stamp: 
    secs: 1561865369
    nsecs: 187765640
  frame_id: "ti_mmwave"
point_id: 3
x: 0.056640625
y: -0.154296875
z: 0.005859375
range: 0.174307882786
velocity: 0.0
doppler_bin: 8
bearing: -69.8423843384
intensity: 25.4406795502
---
header: 
  seq: 1212153
  stamp: 
    secs: 1561865369
    nsecs: 187778303
  frame_id: "ti_mmwave"
point_id: 4
x: 0.998046875
y: -0.0
z: -0.783203125
range: 1.35088610649
velocity: 0.0
doppler_bin: 8
bearing: -0.0
intensity: 22.0139713287
---
header: 
  seq: 1212154
  stamp: 
    secs: 1561865369
    nsecs: 187789708
  frame_id: "ti_mmwave"
point_id: 5
x: 0.802734375
y: -0.041015625
z: -1.033203125
range: 1.39446306229
velocity: 0.0
doppler_bin: 8
bearing: -2.92497801781
intensity: 22.8555736542
---
header: 
  seq: 1212155
  stamp: 
    secs: 1561865369
    nsecs: 187801232
  frame_id: "ti_mmwave"
point_id: 6
x: 0.041015625
y: -0.083984375
z: -1.345703125
range: 1.43804001808
velocity: 0.0
doppler_bin: 8
bearing: -63.9704093933
intensity: 22.6007137299
---
header: 
  seq: 1212156
  stamp: 
    secs: 1561865369
    nsecs: 187814590
  frame_id: "ti_mmwave"
point_id: 7
x: 0.9375
y: -0.04296875
z: 1.025390625
range: 1.48161697388
velocity: 0.0
doppler_bin: 8
bearing: -2.62422013283
intensity: 23.3041381836
---
header: 
  seq: 1212157
  stamp: 
    secs: 1561865369
    nsecs: 187825661
  frame_id: "ti_mmwave"
point_id: 8
x: 1.40625
y: -0.09375
z: -0.55078125
range: 1.61234796047
velocity: 0.0
doppler_bin: 8
bearing: -3.81407499313
intensity: 25.0379066467
---
header: 
  seq: 1212158
  stamp: 
    secs: 1561865369
    nsecs: 187837209
  frame_id: "ti_mmwave"
point_id: 9
x: 2.615234375
y: -0.17578125
z: 1.046875
range: 3.00681090355
velocity: 0.0
doppler_bin: 8
bearing: -3.84531402588
intensity: 29.0633506775
---
header: 
  seq: 1212159
  stamp: 
    secs: 1561865369
    nsecs: 187925076
  frame_id: "ti_mmwave"
point_id: 10
x: 2.69140625
y: -0.08984375
z: 0.974609375
range: 3.05038785934
velocity: 0.0
doppler_bin: 8
bearing: -1.91192126274
intensity: 32.2063102722
---
header: 
  seq: 1212160
  stamp: 
    secs: 1561865369
    nsecs: 187976375
  frame_id: "ti_mmwave"
point_id: 11
x: 2.73046875
y: -0.181640625
z: 0.97265625
range: 3.09396481514
velocity: 0.0
doppler_bin: 8
bearing: -3.80591416359
intensity: 31.1360912323
---
header: 
  seq: 1212161
  stamp: 
    secs: 1561865369
    nsecs: 187993403
  frame_id: "ti_mmwave"
point_id: 12
x: 4.416015625
y: -0.142578125
z: 1.21484375
range: 4.88062095642
velocity: 0.0
doppler_bin: 8
bearing: -1.84924340248
intensity: 31.2417812347
---
header: 
  seq: 1212162
  stamp: 
    secs: 1561865369
    nsecs: 188006221
  frame_id: "ti_mmwave"
point_id: 13
x: 4.451171875
y: -0.14453125
z: 1.240234375
range: 4.9241976738
velocity: 0.0
doppler_bin: 8
bearing: -1.8597625494
intensity: 30.7298469543
---
header: 
  seq: 1212163
  stamp: 
    secs: 1561865369
    nsecs: 188020428
  frame_id: "ti_mmwave"
point_id: 14
x: 4.880859375
y: -0.30859375
z: 0.76171875
range: 5.27281332016
velocity: 0.0
doppler_bin: 8
bearing: -3.61772704124
intensity: 30.8707122803
---
header: 
  seq: 1212164
  stamp: 
    secs: 1561865369
    nsecs: 188032344
  frame_id: "ti_mmwave"
point_id: 15
x: 4.951171875
y: -0.623046875
z: 0.060546875
range: 5.31639051437
velocity: 0.0
doppler_bin: 8
bearing: -7.17230129242
intensity: 29.6142101288
---
header: 
  seq: 1212165
  stamp: 
    secs: 1561865369
    nsecs: 188044058
  frame_id: "ti_mmwave"
point_id: 16
x: 0.009765625
y: 0.03125
z: 0.025390625
range: 0.0435769706964
velocity: 0.0
doppler_bin: 8
bearing: 72.6459732056
intensity: 29.3043956757
---
header: 
  seq: 1212166
  stamp: 
    secs: 1561865369
    nsecs: 188120680
  frame_id: "ti_mmwave"
point_id: 17
x: 0.041015625
y: -0.033203125
z: 0.0625
range: 0.0871539413929
velocity: 0.0
doppler_bin: 8
bearing: -38.9909973145
intensity: 30.081741333
---
header: 
  seq: 1212167
  stamp: 
    secs: 1561865369
    nsecs: 188136334
  frame_id: "ti_mmwave"
point_id: 18
x: 0.044921875
y: -0.046875
z: 0.103515625
range: 0.130730912089
velocity: 0.0
doppler_bin: 8
bearing: -46.218875885
intensity: 28.9707698822
---
header: 
  seq: 1212168
  stamp: 
    secs: 1561865369
    nsecs: 188153763
  frame_id: "ti_mmwave"
point_id: 20
x: 1.02734375
y: -0.474609375
z: 0.572265625
range: 1.35088610649
velocity: 0.0
doppler_bin: 8
bearing: -24.7958602905
intensity: 19.2427921295
---
header: 
  seq: 1212169
  stamp: 
    secs: 1561865369
    nsecs: 188166518
  frame_id: "ti_mmwave"
point_id: 21
x: 1.0
y: -0.408203125
z: 0.73828125
range: 1.39446306229
velocity: 0.0
doppler_bin: 8
bearing: -22.2054367065
intensity: 20.5690479279
---
header: 
  seq: 1212170
  stamp: 
    secs: 1561865369
    nsecs: 188203933
  frame_id: "ti_mmwave"
point_id: 23
x: 2.771484375
y: -0.0
z: 0.87109375
range: 3.09396481514
velocity: 0.0
doppler_bin: 8
bearing: -0.0
intensity: 31.1327476501
---
header: 
  seq: 1212171
  stamp: 
    secs: 1561865369
    nsecs: 189093333
  frame_id: "ti_mmwave"
point_id: 0
x: 0.01171875
y: -0.0390625
z: -0.0078125
range: 0.0435769706964
velocity: 0.0
doppler_bin: 8
bearing: -73.3007583618
intensity: 30.6445808411
---
header: 
  seq: 1212172
  stamp: 
    secs: 1561865369
    nsecs: 189153651
  frame_id: "ti_mmwave"
point_id: 1
x: 0.017578125
y: -0.080078125
z: -0.0078125
range: 0.0871539413929
velocity: 0.0
doppler_bin: 8
bearing: -77.6192398071
intensity: 31.8977088928
---
header: 
  seq: 1212173
  stamp: 
    secs: 1561865369
    nsecs: 189170064
  frame_id: "ti_mmwave"
point_id: 2
x: 0.029296875
y: -0.119140625
z: -0.005859375
range: 0.130730912089
velocity: 0.0
doppler_bin: 8
bearing: -76.1849746704
intensity: 30.141002655
---
header: 
  seq: 1212174
  stamp: 
    secs: 1561865369
    nsecs: 189188098
  frame_id: "ti_mmwave"
point_id: 3
x: 0.056640625
y: -0.154296875
z: 0.005859375
range: 0.174307882786
velocity: 0.0
doppler_bin: 8
bearing: -69.8423843384
intensity: 25.4406795502
---
header: 
  seq: 1212175
  stamp: 
    secs: 1561865369
    nsecs: 189197581
  frame_id: "ti_mmwave"
point_id: 4
x: 0.208984375
y: -0.080078125
z: -1.248046875
range: 1.35088610649
velocity: 0.0
doppler_bin: 8
bearing: -20.9657115936
intensity: 24.5484485626
---
header: 
  seq: 1212176
  stamp: 
    secs: 1561865369
    nsecs: 189259473
  frame_id: "ti_mmwave"
point_id: 5
x: 0.66015625
y: -0.041015625
z: -1.12890625
range: 1.39446306229
velocity: 0.0
doppler_bin: 8
bearing: -3.55522727966
intensity: 26.0314445496
---
header: 
  seq: 1212177
  stamp: 
    secs: 1561865369
    nsecs: 189273714
  frame_id: "ti_mmwave"
point_id: 6
x: 0.791015625
y: -0.04296875
z: -1.091796875
range: 1.43804001808
velocity: 0.0
doppler_bin: 8
bearing: -3.10930752754
intensity: 24.2975234985
---
header: 
  seq: 1212178
  stamp: 
    secs: 1561865369
    nsecs: 189286065
  frame_id: "ti_mmwave"
point_id: 7
x: 0.80859375
y: -0.04296875
z: -1.130859375
range: 1.48161697388
velocity: 0.0
doppler_bin: 8
bearing: -3.0418419838
intensity: 23.2633590698
---
header: 
  seq: 1212179
  stamp: 
    secs: 1561865369
    nsecs: 189298344
  frame_id: "ti_mmwave"
point_id: 8
x: 2.623046875
y: -0.17578125
z: 1.025390625
range: 3.00681090355
velocity: 0.0
doppler_bin: 8
bearing: -3.83389568329
intensity: 29.020029068
---
header: 
  seq: 1212180
  stamp: 
    secs: 1561865369
    nsecs: 189311349
  frame_id: "ti_mmwave"
point_id: 9
x: 2.6953125
y: -0.08984375
z: 0.96484375
range: 3.05038785934
velocity: 0.0
doppler_bin: 8
bearing: -1.90915250778
intensity: 32.1958465576
---
header: 
  seq: 1212181
  stamp: 
    secs: 1561865369
    nsecs: 189323130
  frame_id: "ti_mmwave"
point_id: 10
x: 2.734375
y: -0.181640625
z: 0.9609375
range: 3.09396481514
velocity: 0.0
doppler_bin: 8
bearing: -3.80049324036
intensity: 31.1660766602
---
header: 
  seq: 1212182
  stamp: 
    secs: 1561865369
    nsecs: 189334547
  frame_id: "ti_mmwave"
point_id: 11
x: 4.4140625
y: -0.142578125
z: 1.220703125
range: 4.88062095642
velocity: 0.0
doppler_bin: 8
bearing: -1.850061059
intensity: 31.2515583038
---
header: 
  seq: 1212183
  stamp: 
    secs: 1561865369
    nsecs: 189350570
  frame_id: "ti_mmwave"
point_id: 12
x: 4.4296875
y: -0.14453125
z: 1.310546875
range: 4.9241976738
velocity: 0.0
doppler_bin: 8
bearing: -1.86877608299
intensity: 30.7114524841
---
header: 
  seq: 1212184
  stamp: 
    secs: 1561865369
    nsecs: 189407153
  frame_id: "ti_mmwave"
point_id: 13
x: 4.740234375
y: -0.298828125
z: -0.58984375
range: 5.09850549698
velocity: 0.0
doppler_bin: 8
bearing: -3.60719799995
intensity: 33.5506820679
---
header: 
  seq: 1212185
  stamp: 
    secs: 1561865369
    nsecs: 189421939
  frame_id: "ti_mmwave"
point_id: 14
x: 4.775390625
y: -0.30078125
z: -0.634765625
range: 5.14208269119
velocity: 0.0
doppler_bin: 8
bearing: -3.60405302048
intensity: 34.0705070496
---
header: 
  seq: 1212186
  stamp: 
    secs: 1561865369
    nsecs: 189434739
  frame_id: "ti_mmwave"
point_id: 15
x: 4.748046875
y: -0.15234375
z: -1.064453125
range: 5.18565940857
velocity: 0.0
doppler_bin: 8
bearing: -1.83773672581
intensity: 30.4610481262
---
header: 
  seq: 1212187
  stamp: 
    secs: 1561865369
    nsecs: 189446668
  frame_id: "ti_mmwave"
point_id: 16
x: 4.880859375
y: -0.30859375
z: 0.763671875
range: 5.27281332016
velocity: 0.0
doppler_bin: 8
bearing: -3.61772704124
intensity: 30.8707122803
---
header: 
  seq: 1212188
  stamp: 
    secs: 1561865369
    nsecs: 189458553
  frame_id: "ti_mmwave"
point_id: 17
x: 4.951171875
y: -0.623046875
z: 0.091796875
range: 5.31639051437
velocity: 0.0
doppler_bin: 8
bearing: -7.17230129242
intensity: 29.609462738
---
header: 
  seq: 1212189
  stamp: 
    secs: 1561865369
    nsecs: 189470406
  frame_id: "ti_mmwave"
point_id: 18
x: 0.009765625
y: 0.03125
z: 0.025390625
range: 0.0435769706964
velocity: 0.0
doppler_bin: 8
bearing: 72.6459732056
intensity: 29.3094902039
---
header: 
  seq: 1212190
  stamp: 
    secs: 1561865369
    nsecs: 189486334
  frame_id: "ti_mmwave"
point_id: 19
x: 0.041015625
y: -0.033203125
z: 0.0625
range: 0.0871539413929
velocity: 0.0
doppler_bin: 8
bearing: -38.9909973145
intensity: 30.0860023499
---
header: 
  seq: 1212191
  stamp: 
    secs: 1561865369
    nsecs: 189495168
  frame_id: "ti_mmwave"
point_id: 20
x: 0.044921875
y: -0.046875
z: 0.103515625
range: 0.130730912089
velocity: 0.0
doppler_bin: 8
bearing: -46.218875885
intensity: 28.9762706757
---
header: 
  seq: 1212192
  stamp: 
    secs: 1561865369
    nsecs: 247455798
  frame_id: "ti_mmwave"
point_id: 0
x: 0.01171875
y: -0.0390625
z: -0.0078125
range: 0.0435769706964
velocity: 0.0
doppler_bin: 8
bearing: -73.3007583618
intensity: 30.6333332062
---
header: 
  seq: 1212193
  stamp: 
    secs: 1561865369
    nsecs: 247494777
  frame_id: "ti_mmwave"
point_id: 1
x: 0.017578125
y: -0.080078125
z: -0.0078125
range: 0.0871539413929
velocity: 0.0
doppler_bin: 8
bearing: -77.6192398071
intensity: 31.894903183
---
header: 
  seq: 1212194
  stamp: 
    secs: 1561865369
    nsecs: 247500124
  frame_id: "ti_mmwave"
point_id: 2
x: 0.029296875
y: -0.119140625
z: -0.005859375
range: 0.130730912089
velocity: 0.0
doppler_bin: 8
bearing: -76.1849746704
intensity: 30.141002655
---
header: 
  seq: 1212195
  stamp: 
    secs: 1561865369
    nsecs: 247504643
  frame_id: "ti_mmwave"
point_id: 3
x: 0.056640625
y: -0.154296875
z: 0.005859375
range: 0.174307882786
velocity: 0.0
doppler_bin: 8
bearing: -69.8423843384
intensity: 25.4406795502
---
header: 
  seq: 1212196
  stamp: 
    secs: 1561865369
    nsecs: 247509792
  frame_id: "ti_mmwave"
point_id: 4
x: 0.900390625
y: -0.080078125
z: 0.890625
range: 1.35088610649
velocity: 0.0
doppler_bin: 8
bearing: -5.08234834671
intensity: 23.031961441
---
header: 
  seq: 1212197
  stamp: 
    secs: 1561865369
    nsecs: 247513780
  frame_id: "ti_mmwave"
point_id: 5
x: 0.861328125
y: -0.123046875
z: 0.978515625
range: 1.39446306229
velocity: 0.0
doppler_bin: 8
bearing: -8.13010311127
intensity: 24.7567119598
---
header: 
  seq: 1212198
  stamp: 
    secs: 1561865369
    nsecs: 247517725
  frame_id: "ti_mmwave"
point_id: 6
x: 0.630859375
y: -0.083984375
z: 1.19140625
range: 1.43804001808
velocity: 0.0
doppler_bin: 8
bearing: -7.58302354813
intensity: 22.8780174255
---
header: 
  seq: 1212199
  stamp: 
    secs: 1561865369
    nsecs: 247521686
  frame_id: "ti_mmwave"
point_id: 7
x: 2.619140625
y: -0.17578125
z: 1.037109375
range: 3.00681090355
velocity: 0.0
doppler_bin: 8
bearing: -3.83959650993
intensity: 29.0848503113
---
header: 
  seq: 1212200
  stamp: 
    secs: 1561865369
    nsecs: 247526265
  frame_id: "ti_mmwave"
point_id: 8
x: 2.69140625
y: -0.08984375
z: 0.974609375
range: 3.05038785934
velocity: 0.0
doppler_bin: 8
bearing: -1.91192126274
intensity: 32.2115325928
---
header: 
  seq: 1212201
  stamp: 
    secs: 1561865369
    nsecs: 247530551
  frame_id: "ti_mmwave"
point_id: 9
x: 2.728515625
y: -0.181640625
z: 0.9765625
range: 3.09396481514
velocity: 0.0
doppler_bin: 8
bearing: -3.80863046646
intensity: 31.1627559662
---
header: 
  seq: 1212202
  stamp: 
    secs: 1561865369
    nsecs: 247534343
  frame_id: "ti_mmwave"
point_id: 10
x: 4.416015625
y: -0.142578125
z: 1.212890625
range: 4.88062095642
velocity: 0.0
doppler_bin: 8
bearing: -1.84924340248
intensity: 31.3161869049
---
header: 
  seq: 1212203
  stamp: 
    secs: 1561865369
    nsecs: 247538618
  frame_id: "ti_mmwave"
point_id: 11
x: 4.462890625
y: -0.14453125
z: 1.1953125
range: 4.9241976738
velocity: 0.0
doppler_bin: 8
bearing: -1.85488259792
intensity: 31.1427726746
---
header: 
  seq: 1212204
  stamp: 
    secs: 1561865369
    nsecs: 247542363
  frame_id: "ti_mmwave"
point_id: 12
x: 4.703125
y: -0.296875
z: -0.5625
range: 5.0549287796
velocity: 0.0
doppler_bin: 8
bearing: -3.61188483238
intensity: 30.1494026184
---
header: 
  seq: 1212205
  stamp: 
    secs: 1561865369
    nsecs: 247546085
  frame_id: "ti_mmwave"
point_id: 13
x: 4.736328125
y: -0.298828125
z: -0.6171875
range: 5.09850549698
velocity: 0.0
doppler_bin: 8
bearing: -3.61016488075
intensity: 34.5331840515
---
header: 
  seq: 1212206
  stamp: 
    secs: 1561865369
    nsecs: 247549846
  frame_id: "ti_mmwave"
point_id: 14
x: 4.775390625
y: -0.30078125
z: -0.6328125
range: 5.14208269119
velocity: 0.0
doppler_bin: 8
bearing: -3.60405302048
intensity: 35.0974006653
---
header: 
  seq: 1212207
  stamp: 
    secs: 1561865369
    nsecs: 247553428
  frame_id: "ti_mmwave"
point_id: 15
x: 4.791015625
y: -0.3046875
z: -0.802734375
range: 5.18565940857
velocity: 0.0
doppler_bin: 8
bearing: -3.638859272
intensity: 31.5198230743
---
header: 
  seq: 1212208
  stamp: 
    secs: 1561865369
    nsecs: 247557648
  frame_id: "ti_mmwave"
point_id: 16
x: 4.888671875
y: -0.30859375
z: 0.716796875
range: 5.27281332016
velocity: 0.0
doppler_bin: 8
bearing: -3.61196112633
intensity: 30.9864368439
---
header: 
  seq: 1212209
  stamp: 
    secs: 1561865369
    nsecs: 247561590
  frame_id: "ti_mmwave"
point_id: 17
x: 4.951171875
y: -0.623046875
z: 0.0546875
range: 5.31639051437
velocity: 0.0
doppler_bin: 8
bearing: -7.17230129242
intensity: 29.7818050385
---
header: 
  seq: 1212210
  stamp: 
    secs: 1561865369
    nsecs: 247566303
  frame_id: "ti_mmwave"
point_id: 18
x: 0.009765625
y: 0.03125
z: 0.025390625
range: 0.0435769706964
velocity: 0.0
doppler_bin: 8
bearing: 72.6459732056
intensity: 29.3094902039
---
header: 
  seq: 1212211
  stamp: 
    secs: 1561865369
    nsecs: 247570246
  frame_id: "ti_mmwave"
point_id: 19
x: 0.041015625
y: -0.033203125
z: 0.0625
range: 0.0871539413929
velocity: 0.0
doppler_bin: 8
bearing: -38.9909973145
intensity: 30.081741333
---
header: 
  seq: 1212212
  stamp: 
    secs: 1561865369
    nsecs: 247574096
  frame_id: "ti_mmwave"
point_id: 20
x: 0.044921875
y: -0.046875
z: 0.103515625
range: 0.130730912089
velocity: 0.0
doppler_bin: 8
bearing: -46.218875885
intensity: 28.9707698822
---
header: 
  seq: 1212213
  stamp: 
    secs: 1561865369
    nsecs: 248142160
  frame_id: "ti_mmwave"
point_id: 0
x: 0.01171875
y: -0.0390625
z: -0.0078125
range: 0.0435769706964
velocity: 0.0
doppler_bin: 8
bearing: -73.3007583618
intensity: 30.6408348083
---
header: 
  seq: 1212214
  stamp: 
    secs: 1561865369
    nsecs: 248173312
  frame_id: "ti_mmwave"
point_id: 1
x: 0.017578125
y: -0.080078125
z: -0.0078125
range: 0.0871539413929
velocity: 0.0
doppler_bin: 8
bearing: -77.6192398071
intensity: 31.894903183
---
header: 
  seq: 1212215
  stamp: 
    secs: 1561865369
    nsecs: 248181306
  frame_id: "ti_mmwave"
point_id: 2
x: 0.029296875
y: -0.119140625
z: -0.005859375
range: 0.130730912089
velocity: 0.0
doppler_bin: 8
bearing: -76.1849746704
intensity: 30.141002655
---
header: 
  seq: 1212216
  stamp: 
    secs: 1561865369
    nsecs: 248189733
  frame_id: "ti_mmwave"
point_id: 3
x: 0.056640625
y: -0.154296875
z: 0.005859375
range: 0.174307882786
velocity: 0.0
doppler_bin: 8
bearing: -69.8423843384
intensity: 25.4406795502
---
header: 
  seq: 1212217
  stamp: 
    secs: 1561865369
    nsecs: 248201298
  frame_id: "ti_mmwave"
point_id: 4
x: 0.546875
y: -0.119140625
z: 1.138671875
range: 1.35088610649
velocity: 0.0
doppler_bin: 8
bearing: -12.2902565002
intensity: 21.6731739044
---
header: 
  seq: 1212218
  stamp: 
    secs: 1561865369
    nsecs: 248235189
  frame_id: "ti_mmwave"
point_id: 5
x: 0.41015625
y: -0.08203125
z: 1.240234375
range: 1.39446306229
velocity: 0.0
doppler_bin: 8
bearing: -11.3099327087
intensity: 23.4439220428
---
header: 
  seq: 1212219
  stamp: 
    secs: 1561865369
    nsecs: 248242468
  frame_id: "ti_mmwave"
point_id: 6
x: 0.23828125
y: -0.083984375
z: -1.326171875
range: 1.43804001808
velocity: 0.0
doppler_bin: 8
bearing: -19.4154644012
intensity: 21.172712326
---
header: 
  seq: 1212220
  stamp: 
    secs: 1561865369
    nsecs: 248249010
  frame_id: "ti_mmwave"
point_id: 7
x: 2.619140625
y: -0.17578125
z: 1.0390625
range: 3.00681090355
velocity: 0.0
doppler_bin: 8
bearing: -3.83959650993
intensity: 29.0579586029
---
header: 
  seq: 1212221
  stamp: 
    secs: 1561865369
    nsecs: 248255298
  frame_id: "ti_mmwave"
point_id: 8
x: 2.689453125
y: -0.08984375
z: 0.978515625
range: 3.05038785934
velocity: 0.0
doppler_bin: 8
bearing: -1.91330885887
intensity: 32.2245635986
---
header: 
  seq: 1212222
  stamp: 
    secs: 1561865369
    nsecs: 248261711
  frame_id: "ti_mmwave"
point_id: 9
x: 2.751953125
y: -0.08984375
z: 0.921875
range: 3.09396481514
velocity: 0.0
doppler_bin: 8
bearing: -1.86988639832
intensity: 31.1925582886
---
header: 
  seq: 1212223
  stamp: 
    secs: 1561865369
    nsecs: 248269158
  frame_id: "ti_mmwave"
point_id: 10
x: 4.41796875
y: -0.142578125
z: 1.205078125
range: 4.88062095642
velocity: 0.0
doppler_bin: 8
bearing: -1.84842634201
intensity: 31.3608608246
---
header: 
  seq: 1212224
  stamp: 
    secs: 1561865369
    nsecs: 248283140
  frame_id: "ti_mmwave"
point_id: 11
x: 4.458984375
y: -0.14453125
z: 1.20703125
range: 4.9241976738
velocity: 0.0
doppler_bin: 8
bearing: -1.85650622845
intensity: 31.2775249481
---
header: 
  seq: 1212225
  stamp: 
    secs: 1561865369
    nsecs: 248293051
  frame_id: "ti_mmwave"
point_id: 12
x: 4.65625
y: -0.0
z: 0.244140625
range: 4.96777486801
velocity: 0.0
doppler_bin: 8
bearing: -0.0
intensity: 29.7680835724
---
header: 
  seq: 1212226
  stamp: 
    secs: 1561865369
    nsecs: 248303778
  frame_id: "ti_mmwave"
point_id: 13
x: 4.734375
y: -0.44921875
z: -0.53515625
range: 5.09850549698
velocity: 0.0
doppler_bin: 8
bearing: -5.42025327682
intensity: 32.7323265076
---
header: 
  seq: 1212227
  stamp: 
    secs: 1561865369
    nsecs: 248338108
  frame_id: "ti_mmwave"
point_id: 14
x: 4.78125
y: -0.30078125
z: -0.595703125
range: 5.14208269119
velocity: 0.0
doppler_bin: 8
bearing: -3.59964799881
intensity: 33.220123291
---
header: 
  seq: 1212228
  stamp: 
    secs: 1561865369
    nsecs: 248345863
  frame_id: "ti_mmwave"
point_id: 15
x: 4.884765625
y: -0.30859375
z: 0.732421875
range: 5.27281332016
velocity: 0.0
doppler_bin: 8
bearing: -3.6148416996
intensity: 30.9447116852
---
header: 
  seq: 1212229
  stamp: 
    secs: 1561865369
    nsecs: 248353174
  frame_id: "ti_mmwave"
point_id: 16
x: 4.951171875
y: -0.623046875
z: 0.08984375
range: 5.31639051437
velocity: 0.0
doppler_bin: 8
bearing: -7.17230129242
intensity: 29.689496994
---
header: 
  seq: 1212230
  stamp: 
    secs: 1561865369
    nsecs: 248360741
  frame_id: "ti_mmwave"
point_id: 17
x: 0.009765625
y: 0.03125
z: 0.025390625
range: 0.0435769706964
velocity: 0.0
doppler_bin: 8
bearing: 72.6459732056
intensity: 29.3094902039
---
header: 
  seq: 1212231
  stamp: 
    secs: 1561865369
    nsecs: 248367235
  frame_id: "ti_mmwave"
point_id: 18
x: 0.041015625
y: -0.033203125
z: 0.0625
range: 0.0871539413929
velocity: 0.0
doppler_bin: 8
bearing: -38.9909973145
intensity: 30.081741333
---
header: 
  seq: 1212232
  stamp: 
    secs: 1561865369
    nsecs: 248374233
  frame_id: "ti_mmwave"
point_id: 19
x: 0.044921875
y: -0.046875
z: 0.103515625
range: 0.130730912089
velocity: 0.0
doppler_bin: 8
bearing: -46.218875885
intensity: 28.9707698822
---
header: 
  seq: 1212233
  stamp: 
    secs: 1561865369
    nsecs: 248382251
  frame_id: "ti_mmwave"
point_id: 21
x: 1.216796875
y: 0.46484375
z: 0.357421875
range: 1.43804001808
velocity: 0.0
doppler_bin: 8
bearing: 20.9079799652
intensity: 18.5125827789
---
header: 
  seq: 1212234
  stamp: 
    secs: 1561865369
    nsecs: 307653653
  frame_id: "ti_mmwave"
point_id: 0
x: 0.01171875
y: -0.0390625
z: -0.0078125
range: 0.0435769706964
velocity: 0.0
doppler_bin: 8
bearing: -73.3007583618
intensity: 30.6408348083
---
header: 
  seq: 1212235
  stamp: 
    secs: 1561865369
    nsecs: 307761255
  frame_id: "ti_mmwave"
point_id: 1
x: 0.017578125
y: -0.080078125
z: -0.0078125
range: 0.0871539413929
velocity: 0.0
doppler_bin: 8
bearing: -77.6192398071
intensity: 31.8977088928
---
header: 
  seq: 1212236
  stamp: 
    secs: 1561865369
    nsecs: 307782750
  frame_id: "ti_mmwave"
point_id: 2
x: 0.029296875
y: -0.119140625
z: -0.005859375
range: 0.130730912089
velocity: 0.0
doppler_bin: 8
bearing: -76.1849746704
intensity: 30.141002655
---
header: 
  seq: 1212237
  stamp: 
    secs: 1561865369
    nsecs: 307797042
  frame_id: "ti_mmwave"
point_id: 3
x: 0.056640625
y: -0.154296875
z: 0.005859375
range: 0.174307882786
velocity: 0.0
doppler_bin: 8
bearing: -69.8423843384
intensity: 25.4282550812
---
header: 
  seq: 1212238
  stamp: 
    secs: 1561865369
    nsecs: 307811713
  frame_id: "ti_mmwave"
point_id: 4
x: 0.09765625
y: -0.080078125
z: 1.26171875
range: 1.35088610649
velocity: 0.0
doppler_bin: 8
bearing: -39.3517532349
intensity: 21.4921913147
---
header: 
  seq: 1212239
  stamp: 
    secs: 1561865369
    nsecs: 307829257
  frame_id: "ti_mmwave"
point_id: 5
x: 0.599609375
y: -0.123046875
z: 1.15625
range: 1.39446306229
velocity: 0.0
doppler_bin: 8
bearing: -11.5967674255
intensity: 23.4439220428
---
header: 
  seq: 1212240
  stamp: 
    secs: 1561865369
    nsecs: 307919535
  frame_id: "ti_mmwave"
point_id: 6
x: 0.3984375
y: -0.083984375
z: 1.287109375
range: 1.43804001808
velocity: 0.0
doppler_bin: 8
bearing: -11.9028120041
intensity: 23.0102996826
---
header: 
  seq: 1212241
  stamp: 
    secs: 1561865369
    nsecs: 307933917
  frame_id: "ti_mmwave"
point_id: 7
x: 0.861328125
y: -0.04296875
z: -1.091796875
range: 1.48161697388
velocity: 0.0
doppler_bin: 8
bearing: -2.85592532158
intensity: 22.8555736542
---
header: 
  seq: 1212242
  stamp: 
    secs: 1561865369
    nsecs: 307984410
  frame_id: "ti_mmwave"
point_id: 8
x: 2.619140625
y: -0.17578125
z: 1.0390625
range: 3.00681090355
velocity: 0.0
doppler_bin: 8
bearing: -3.83959650993
intensity: 29.020029068
---
header: 
  seq: 1212243
  stamp: 
    secs: 1561865369
    nsecs: 308004185
  frame_id: "ti_mmwave"
point_id: 9
x: 2.689453125
y: -0.08984375
z: 0.978515625
range: 3.05038785934
velocity: 0.0
doppler_bin: 8
bearing: -1.91330885887
intensity: 32.2010803223
---
header: 
  seq: 1212244
  stamp: 
    secs: 1561865369
    nsecs: 308019527
  frame_id: "ti_mmwave"
point_id: 10
x: 2.7265625
y: -0.181640625
z: 0.984375
range: 3.09396481514
velocity: 0.0
doppler_bin: 8
bearing: -3.81135106087
intensity: 31.1561050415
---
header: 
  seq: 1212245
  stamp: 
    secs: 1561865369
    nsecs: 308032713
  frame_id: "ti_mmwave"
point_id: 11
x: 4.412109375
y: -0.142578125
z: 1.22265625
range: 4.88062095642
velocity: 0.0
doppler_bin: 8
bearing: -1.85087943077
intensity: 31.3129787445
---
header: 
  seq: 1212246
  stamp: 
    secs: 1561865369
    nsecs: 308046448
  frame_id: "ti_mmwave"
point_id: 12
x: 4.427734375
y: -0.14453125
z: 1.322265625
range: 4.9241976738
velocity: 0.0
doppler_bin: 8
bearing: -1.86959993839
intensity: 30.9968070984
---
header: 
  seq: 1212247
  stamp: 
    secs: 1561865369
    nsecs: 308059167
  frame_id: "ti_mmwave"
point_id: 13
x: 4.703125
y: -0.296875
z: -0.55078125
range: 5.0549287796
velocity: 0.0
doppler_bin: 8
bearing: -3.61188483238
intensity: 29.1907806396
---
header: 
  seq: 1212248
  stamp: 
    secs: 1561865369
    nsecs: 308071610
  frame_id: "ti_mmwave"
point_id: 14
x: 4.734375
y: -0.298828125
z: -0.62890625
range: 5.09850549698
velocity: 0.0
doppler_bin: 8
bearing: -3.61165046692
intensity: 33.5964584351
---
header: 
  seq: 1212249
  stamp: 
    secs: 1561865369
    nsecs: 308099184
  frame_id: "ti_mmwave"
point_id: 15
x: 4.7734375
y: -0.30078125
z: -0.654296875
range: 5.14208269119
velocity: 0.0
doppler_bin: 8
bearing: -3.60552406311
intensity: 34.2176856995
---
header: 
  seq: 1212250
  stamp: 
    secs: 1561865369
    nsecs: 308166720
  frame_id: "ti_mmwave"
point_id: 16
x: 4.787109375
y: -0.3046875
z: -0.82421875
range: 5.18565940857
velocity: 0.0
doppler_bin: 8
bearing: -3.64182066917
intensity: 30.6333332062
---
header: 
  seq: 1212251
  stamp: 
    secs: 1561865369
    nsecs: 308184226
  frame_id: "ti_mmwave"
point_id: 17
x: 4.888671875
y: -0.30859375
z: 0.70703125
range: 5.27281332016
velocity: 0.0
doppler_bin: 8
bearing: -3.61196112633
intensity: 31.0619087219
---
header: 
  seq: 1212252
  stamp: 
    secs: 1561865369
    nsecs: 308198363
  frame_id: "ti_mmwave"
point_id: 18
x: 4.951171875
y: -0.623046875
z: 0.06640625
range: 5.31639051437
velocity: 0.0
doppler_bin: 8
bearing: -7.17230129242
intensity: 29.7497196198
---
header: 
  seq: 1212253
  stamp: 
    secs: 1561865369
    nsecs: 308212496
  frame_id: "ti_mmwave"
point_id: 19
x: 0.009765625
y: 0.03125
z: 0.025390625
range: 0.0435769706964
velocity: 0.0
doppler_bin: 8
bearing: 72.6459732056
intensity: 29.3094902039
---
header: 
  seq: 1212254
  stamp: 
    secs: 1561865369
    nsecs: 308227888
  frame_id: "ti_mmwave"
point_id: 20
x: 0.041015625
y: -0.033203125
z: 0.0625
range: 0.0871539413929
velocity: 0.0
doppler_bin: 8
bearing: -38.9909973145
intensity: 30.0860023499
---
header: 
  seq: 1212255
  stamp: 
    secs: 1561865369
    nsecs: 308238111
  frame_id: "ti_mmwave"
point_id: 21
x: 0.046875
y: -0.046875
z: 0.103515625
range: 0.130730912089
velocity: 0.0
doppler_bin: 8
bearing: -45.0
intensity: 28.9762706757
---
header: 
  seq: 1212256
  stamp: 
    secs: 1561865369
    nsecs: 308305039
  frame_id: "ti_mmwave"
point_id: 23
x: 2.76953125
y: -0.0
z: 0.875
range: 3.09396481514
velocity: 0.0
doppler_bin: 8
bearing: -0.0
intensity: 31.1494445801
---
header: 
  seq: 1212257
  stamp: 
    secs: 1561865369
    nsecs: 309402072
  frame_id: "ti_mmwave"
point_id: 0
x: 0.01171875
y: -0.0390625
z: -0.0078125
range: 0.0435769706964
velocity: 0.0
doppler_bin: 8
bearing: -73.3007583618
intensity: 30.6370849609
---
header: 
  seq: 1212258
  stamp: 
    secs: 1561865369
    nsecs: 309476338
  frame_id: "ti_mmwave"
point_id: 1
x: 0.017578125
y: -0.080078125
z: -0.0078125
range: 0.0871539413929
velocity: 0.0
doppler_bin: 8
bearing: -77.6192398071
intensity: 31.8920955658
---
header: 
  seq: 1212259
  stamp: 
    secs: 1561865369
    nsecs: 309487361
  frame_id: "ti_mmwave"
point_id: 2
x: 0.029296875
y: -0.119140625
z: -0.005859375
range: 0.130730912089
velocity: 0.0
doppler_bin: 8
bearing: -76.1849746704
intensity: 30.1367969513
---
header: 
  seq: 1212260
  stamp: 
    secs: 1561865369
    nsecs: 309497900
  frame_id: "ti_mmwave"
point_id: 3
x: 0.056640625
y: -0.154296875
z: 0.005859375
range: 0.174307882786
velocity: 0.0
doppler_bin: 8
bearing: -69.8423843384
intensity: 25.4282550812
---
header: 
  seq: 1212261
  stamp: 
    secs: 1561865369
    nsecs: 309506769
  frame_id: "ti_mmwave"
point_id: 4
x: 0.658203125
y: -0.080078125
z: -1.080078125
range: 1.35088610649
velocity: 0.0
doppler_bin: 8
bearing: -6.93661308289
intensity: 22.8780174255
---
header: 
  seq: 1212262
  stamp: 
    secs: 1561865369
    nsecs: 309515053
  frame_id: "ti_mmwave"
point_id: 5
x: 0.509765625
y: -0.08203125
z: -1.203125
range: 1.39446306229
velocity: 0.0
doppler_bin: 8
bearing: -9.14164066315
intensity: 23.5410842896
---
header: 
  seq: 1212263
  stamp: 
    secs: 1561865369
    nsecs: 309575909
  frame_id: "ti_mmwave"
point_id: 6
x: 0.4765625
y: -0.126953125
z: 1.255859375
range: 1.43804001808
velocity: 0.0
doppler_bin: 8
bearing: -14.9168014526
intensity: 21.6731739044
---
header: 
  seq: 1212264
  stamp: 
    secs: 1561865369
    nsecs: 309586773
  frame_id: "ti_mmwave"
point_id: 7
x: 0.1875
y: -0.087890625
z: 1.375
range: 1.48161697388
velocity: 0.0
doppler_bin: 8
bearing: -25.1148338318
intensity: 21.8184356689
---
header: 
  seq: 1212265
  stamp: 
    secs: 1561865369
    nsecs: 309594785
  frame_id: "ti_mmwave"
point_id: 8
x: 2.619140625
y: -0.17578125
z: 1.0390625
range: 3.00681090355
velocity: 0.0
doppler_bin: 8
bearing: -3.83959650993
intensity: 29.0471553802
---
header: 
  seq: 1212266
  stamp: 
    secs: 1561865369
    nsecs: 309602047
  frame_id: "ti_mmwave"
point_id: 9
x: 2.69140625
y: -0.08984375
z: 0.974609375
range: 3.05038785934
velocity: 0.0
doppler_bin: 8
bearing: -1.91192126274
intensity: 32.2115325928
---
header: 
  seq: 1212267
  stamp: 
    secs: 1561865369
    nsecs: 309609483
  frame_id: "ti_mmwave"
point_id: 10
x: 2.73046875
y: -0.181640625
z: 0.974609375
range: 3.09396481514
velocity: 0.0
doppler_bin: 8
bearing: -3.80591416359
intensity: 31.172712326
---
header: 
  seq: 1212268
  stamp: 
    secs: 1561865369
    nsecs: 309617018
  frame_id: "ti_mmwave"
point_id: 11
x: 4.416015625
y: -0.142578125
z: 1.212890625
range: 4.88062095642
velocity: 0.0
doppler_bin: 8
bearing: -1.84924340248
intensity: 31.3225975037
---
header: 
  seq: 1212269
  stamp: 
    secs: 1561865369
    nsecs: 309624470
  frame_id: "ti_mmwave"
point_id: 12
x: 4.443359375
y: -0.14453125
z: 1.267578125
range: 4.9241976738
velocity: 0.0
doppler_bin: 8
bearing: -1.86303019524
intensity: 31.1360912323
---
header: 
  seq: 1212270
  stamp: 
    secs: 1561865369
    nsecs: 309633275
  frame_id: "ti_mmwave"
point_id: 13
x: 4.6953125
y: -0.4453125
z: -0.517578125
range: 5.0549287796
velocity: 0.0
doppler_bin: 8
bearing: -5.41783666611
intensity: 29.0955600739
---
header: 
  seq: 1212271
  stamp: 
    secs: 1561865369
    nsecs: 309640964
  frame_id: "ti_mmwave"
point_id: 14
x: 4.7421875
y: -0.298828125
z: -0.576171875
range: 5.09850549698
velocity: 0.0
doppler_bin: 8
bearing: -3.60571622849
intensity: 33.7621192932
---
header: 
  seq: 1212272
  stamp: 
    secs: 1561865369
    nsecs: 309649834
  frame_id: "ti_mmwave"
point_id: 15
x: 4.77734375
y: -0.30078125
z: -0.623046875
range: 5.14208269119
velocity: 0.0
doppler_bin: 8
bearing: -3.60258316994
intensity: 34.3616256714
---
header: 
  seq: 1212273
  stamp: 
    secs: 1561865369
    nsecs: 309657438
  frame_id: "ti_mmwave"
point_id: 16
x: 4.76953125
y: -0.3046875
z: -0.927734375
range: 5.18565940857
velocity: 0.0
doppler_bin: 8
bearing: -3.65520572662
intensity: 30.7664051056
---
header: 
  seq: 1212274
  stamp: 
    secs: 1561865369
    nsecs: 309665231
  frame_id: "ti_mmwave"
point_id: 17
x: 4.890625
y: -0.30859375
z: 0.69140625
range: 5.27281332016
velocity: 0.0
doppler_bin: 8
bearing: -3.61052203178
intensity: 31.00715065
---
header: 
  seq: 1212275
  stamp: 
    secs: 1561865369
    nsecs: 309710547
  frame_id: "ti_mmwave"
point_id: 18
x: 4.951171875
y: -0.623046875
z: 0.0078125
range: 5.31639051437
velocity: 0.0
doppler_bin: 8
bearing: -7.17230129242
intensity: 29.7543182373
---
header: 
  seq: 1212276
  stamp: 
    secs: 1561865369
    nsecs: 309719075
  frame_id: "ti_mmwave"
point_id: 19
x: 0.009765625
y: 0.03125
z: 0.025390625
range: 0.0435769706964
velocity: 0.0
doppler_bin: 8
bearing: 72.6459732056
intensity: 29.3043956757
---
header: 
  seq: 1212277
  stamp: 
    secs: 1561865369
    nsecs: 309729084
  frame_id: "ti_mmwave"
point_id: 20
x: 0.041015625
y: -0.033203125
z: 0.0625
range: 0.0871539413929
velocity: 0.0
doppler_bin: 8
bearing: -38.9909973145
intensity: 30.081741333
---
header: 
  seq: 1212278
  stamp: 
    secs: 1561865369
    nsecs: 309737042
  frame_id: "ti_mmwave"
point_id: 21
x: 0.044921875
y: -0.046875
z: 0.103515625
range: 0.130730912089
velocity: 0.0
doppler_bin: 8
bearing: -46.218875885
intensity: 28.9652614594
---
header: 
  seq: 1212279
  stamp: 
    secs: 1561865369
    nsecs: 309748189
  frame_id: "ti_mmwave"
point_id: 23
x: 2.771484375
y: -0.0
z: 0.8671875
range: 3.09396481514
velocity: 0.0
doppler_bin: 8
bearing: -0.0
intensity: 31.1627559662
---
header: 
  seq: 1212280
  stamp: 
    secs: 1561865369
    nsecs: 367712967
  frame_id: "ti_mmwave"
point_id: 0
x: 0.01171875
y: -0.0390625
z: -0.0078125
range: 0.0435769706964
velocity: 0.0
doppler_bin: 8
bearing: -73.3007583618
intensity: 30.6445808411
---
header: 
  seq: 1212281
  stamp: 
    secs: 1561865369
    nsecs: 367773048
  frame_id: "ti_mmwave"
point_id: 1
x: 0.017578125
y: -0.080078125
z: -0.0078125
range: 0.0871539413929
velocity: 0.0
doppler_bin: 8
bearing: -77.6192398071
intensity: 31.8977088928
---
header: 
  seq: 1212282
  stamp: 
    secs: 1561865369
    nsecs: 367780600
  frame_id: "ti_mmwave"
point_id: 2
x: 0.029296875
y: -0.119140625
z: -0.005859375
range: 0.130730912089
velocity: 0.0
doppler_bin: 8
bearing: -76.1849746704
intensity: 30.141002655
---
header: 
  seq: 1212283
  stamp: 
    secs: 1561865369
    nsecs: 367787842
  frame_id: "ti_mmwave"
point_id: 3
x: 0.056640625
y: -0.154296875
z: 0.0078125
range: 0.174307882786
velocity: 0.0
doppler_bin: 8
bearing: -69.8423843384
intensity: 25.4530715942
---
header: 
  seq: 1212284
  stamp: 
    secs: 1561865369
    nsecs: 367795335
  frame_id: "ti_mmwave"
point_id: 4
x: 0.517578125
y: -0.0390625
z: -1.15625
range: 1.35088610649
velocity: 0.0
doppler_bin: 8
bearing: -4.3160276413
intensity: 23.0535144806
---
header: 
  seq: 1212285
  stamp: 
    secs: 1561865369
    nsecs: 367800904
  frame_id: "ti_mmwave"
point_id: 5
x: 0.435546875
y: -0.041015625
z: -1.234375
range: 1.39446306229
velocity: 0.0
doppler_bin: 8
bearing: -5.37970161438
intensity: 24.4247970581
---
header: 
  seq: 1212286
  stamp: 
    secs: 1561865369
    nsecs: 367806396
  frame_id: "ti_mmwave"
point_id: 6
x: 0.404296875
y: -0.083984375
z: -1.28515625
range: 1.43804001808
velocity: 0.0
doppler_bin: 8
bearing: -11.7351255417
intensity: 23.138671875
---
header: 
  seq: 1212287
  stamp: 
    secs: 1561865369
    nsecs: 367812029
  frame_id: "ti_mmwave"
point_id: 7
x: 0.560546875
y: -0.04296875
z: -1.271484375
range: 1.48161697388
velocity: 0.0
doppler_bin: 8
bearing: -4.38343858719
intensity: 22.0682582855
---
header: 
  seq: 1212288
  stamp: 
    secs: 1561865369
    nsecs: 367818169
  frame_id: "ti_mmwave"
point_id: 8
x: 2.623046875
y: -0.17578125
z: 1.025390625
range: 3.00681090355
velocity: 0.0
doppler_bin: 8
bearing: -3.83389568329
intensity: 29.0254669189
---
header: 
  seq: 1212289
  stamp: 
    secs: 1561865369
    nsecs: 367823401
  frame_id: "ti_mmwave"
point_id: 9
x: 2.69140625
y: -0.08984375
z: 0.970703125
range: 3.05038785934
velocity: 0.0
doppler_bin: 8
bearing: -1.91192126274
intensity: 32.1958465576
---
header: 
  seq: 1212290
  stamp: 
    secs: 1561865369
    nsecs: 367836316
  frame_id: "ti_mmwave"
point_id: 10
x: 2.73046875
y: -0.181640625
z: 0.97265625
range: 3.09396481514
velocity: 0.0
doppler_bin: 8
bearing: -3.80591416359
intensity: 31.1660766602
---
header: 
  seq: 1212291
  stamp: 
    secs: 1561865369
    nsecs: 367841590
  frame_id: "ti_mmwave"
point_id: 11
x: 4.416015625
y: -0.142578125
z: 1.21484375
range: 4.88062095642
velocity: 0.0
doppler_bin: 8
bearing: -1.84924340248
intensity: 31.3289985657
---
header: 
  seq: 1212292
  stamp: 
    secs: 1561865369
    nsecs: 367846425
  frame_id: "ti_mmwave"
point_id: 12
x: 4.439453125
y: -0.14453125
z: 1.283203125
range: 4.9241976738
velocity: 0.0
doppler_bin: 8
bearing: -1.86466813087
intensity: 31.1058979034
---
header: 
  seq: 1212293
  stamp: 
    secs: 1561865369
    nsecs: 367851470
  frame_id: "ti_mmwave"
point_id: 13
x: 4.73828125
y: -0.298828125
z: -0.611328125
range: 5.09850549698
velocity: 0.0
doppler_bin: 8
bearing: -3.60868048668
intensity: 32.9468650818
---
header: 
  seq: 1212294
  stamp: 
    secs: 1561865369
    nsecs: 367857733
  frame_id: "ti_mmwave"
point_id: 14
x: 4.7734375
y: -0.30078125
z: -0.650390625
range: 5.14208269119
velocity: 0.0
doppler_bin: 8
bearing: -3.60552406311
intensity: 33.4713478088
---
header: 
  seq: 1212295
  stamp: 
    secs: 1561865369
    nsecs: 367919252
  frame_id: "ti_mmwave"
point_id: 15
x: 4.779296875
y: -0.3046875
z: -0.873046875
range: 5.18565940857
velocity: 0.0
doppler_bin: 8
bearing: -3.64775729179
intensity: 29.6848297119
---
header: 
  seq: 1212296
  stamp: 
    secs: 1561865369
    nsecs: 367926097
  frame_id: "ti_mmwave"
point_id: 16
x: 4.89453125
y: -0.30859375
z: 0.6640625
range: 5.27281332016
velocity: 0.0
doppler_bin: 8
bearing: -3.60764837265
intensity: 31.0448703766
---
header: 
  seq: 1212297
  stamp: 
    secs: 1561865369
    nsecs: 367932178
  frame_id: "ti_mmwave"
point_id: 17
x: 4.951171875
y: -0.623046875
z: -0.01171875
range: 5.31639051437
velocity: 0.0
doppler_bin: 8
bearing: -7.17230129242
intensity: 29.7863693237
---
header: 
  seq: 1212298
  stamp: 
    secs: 1561865369
    nsecs: 367937425
  frame_id: "ti_mmwave"
point_id: 18
x: 0.009765625
y: 0.03125
z: 0.025390625
range: 0.0435769706964
velocity: 0.0
doppler_bin: 8
bearing: 72.6459732056
intensity: 29.3094902039
---
header: 
  seq: 1212299
  stamp: 
    secs: 1561865369
    nsecs: 367966918
  frame_id: "ti_mmwave"
point_id: 19
x: 0.041015625
y: -0.033203125
z: 0.0625
range: 0.0871539413929
velocity: 0.0
doppler_bin: 8
bearing: -38.9909973145
intensity: 30.0860023499
---
header: 
  seq: 1212300
  stamp: 
    secs: 1561865369
    nsecs: 367977326
  frame_id: "ti_mmwave"
point_id: 20
x: 0.044921875
y: -0.046875
z: 0.103515625
range: 0.130730912089
velocity: 0.0
doppler_bin: 8
bearing: -46.218875885
intensity: 28.9707698822
---
header: 
  seq: 1212301
  stamp: 
    secs: 1561865369
    nsecs: 368699566
  frame_id: "ti_mmwave"
point_id: 0
x: 0.01171875
y: -0.0390625
z: -0.0078125
range: 0.0435769706964
velocity: 0.0
doppler_bin: 8
bearing: -73.3007583618
intensity: 30.6370849609
---
header: 
  seq: 1212302
  stamp: 
    secs: 1561865369
    nsecs: 368752215
  frame_id: "ti_mmwave"
point_id: 1
x: 0.017578125
y: -0.080078125
z: -0.0078125
range: 0.0871539413929
velocity: 0.0
doppler_bin: 8
bearing: -77.6192398071
intensity: 31.8977088928
---
header: 
  seq: 1212303
  stamp: 
    secs: 1561865369
    nsecs: 368765840
  frame_id: "ti_mmwave"
point_id: 2
x: 0.029296875
y: -0.119140625
z: -0.005859375
range: 0.130730912089
velocity: 0.0
doppler_bin: 8
bearing: -76.1849746704
intensity: 30.141002655
---
header: 
  seq: 1212304
  stamp: 
    secs: 1561865369
    nsecs: 368775845
  frame_id: "ti_mmwave"
point_id: 3
x: 0.056640625
y: -0.154296875
z: 0.005859375
range: 0.174307882786
velocity: 0.0
doppler_bin: 8
bearing: -69.8423843384
intensity: 25.4282550812
---
header: 
  seq: 1212305
  stamp: 
    secs: 1561865369
    nsecs: 368854515
  frame_id: "ti_mmwave"
point_id: 4
x: 0.482421875
y: -0.080078125
z: -1.169921875
range: 1.35088610649
velocity: 0.0
doppler_bin: 8
bearing: -9.42470264435
intensity: 24.2160396576
---
header: 
  seq: 1212306
  stamp: 
    secs: 1561865369
    nsecs: 368867469
  frame_id: "ti_mmwave"
point_id: 5
x: 0.634765625
y: -0.041015625
z: -1.14453125
range: 1.39446306229
velocity: 0.0
doppler_bin: 8
bearing: -3.69704914093
intensity: 25.4530715942
---
header: 
  seq: 1212307
  stamp: 
    secs: 1561865369
    nsecs: 368877075
  frame_id: "ti_mmwave"
point_id: 6
x: 0.720703125
y: -0.04296875
z: -1.140625
range: 1.43804001808
velocity: 0.0
doppler_bin: 8
bearing: -3.41196966171
intensity: 23.5410842896
---
header: 
  seq: 1212308
  stamp: 
    secs: 1561865369
    nsecs: 368907281
  frame_id: "ti_mmwave"
point_id: 7
x: 2.623046875
y: -0.17578125
z: 1.02734375
range: 3.00681090355
velocity: 0.0
doppler_bin: 8
bearing: -3.83389568329
intensity: 29.0254669189
---
header: 
  seq: 1212309
  stamp: 
    secs: 1561865369
    nsecs: 368916573
  frame_id: "ti_mmwave"
point_id: 8
x: 2.689453125
y: -0.08984375
z: 0.9765625
range: 3.05038785934
velocity: 0.0
doppler_bin: 8
bearing: -1.91330885887
intensity: 32.1984634399
---
header: 
  seq: 1212310
  stamp: 
    secs: 1561865369
    nsecs: 368934668
  frame_id: "ti_mmwave"
point_id: 9
x: 2.7265625
y: -0.181640625
z: 0.982421875
range: 3.09396481514
velocity: 0.0
doppler_bin: 8
bearing: -3.81135106087
intensity: 31.1693973541
---
header: 
  seq: 1212311
  stamp: 
    secs: 1561865369
    nsecs: 368948081
  frame_id: "ti_mmwave"
point_id: 10
x: 4.416015625
y: -0.142578125
z: 1.2109375
range: 4.88062095642
velocity: 0.0
doppler_bin: 8
bearing: -1.84924340248
intensity: 31.3640346527
---
header: 
  seq: 1212312
  stamp: 
    secs: 1561865369
    nsecs: 368999053
  frame_id: "ti_mmwave"
point_id: 11
x: 4.447265625
y: -0.14453125
z: 1.255859375
range: 4.9241976738
velocity: 0.0
doppler_bin: 8
bearing: -1.86139500141
intensity: 31.1859531403
---
header: 
  seq: 1212313
  stamp: 
    secs: 1561865369
    nsecs: 369008719
  frame_id: "ti_mmwave"
point_id: 12
x: 4.7421875
y: -0.298828125
z: -0.568359375
range: 5.09850549698
velocity: 0.0
doppler_bin: 8
bearing: -3.60571622849
intensity: 33.4103851318
---
header: 
  seq: 1212314
  stamp: 
    secs: 1561865369
    nsecs: 369016519
  frame_id: "ti_mmwave"
point_id: 13
x: 4.77734375
y: -0.30078125
z: -0.6171875
range: 5.14208269119
velocity: 0.0
doppler_bin: 8
bearing: -3.60258316994
intensity: 34.01745224
---
header: 
  seq: 1212315
  stamp: 
    secs: 1561865369
    nsecs: 369023664
  frame_id: "ti_mmwave"
point_id: 14
x: 4.767578125
y: -0.3046875
z: -0.9375
range: 5.18565940857
velocity: 0.0
doppler_bin: 8
bearing: -3.6566991806
intensity: 30.4099769592
---
header: 
  seq: 1212316
  stamp: 
    secs: 1561865369
    nsecs: 369031075
  frame_id: "ti_mmwave"
point_id: 15
x: 4.892578125
y: -0.30859375
z: 0.68359375
range: 5.27281332016
velocity: 0.0
doppler_bin: 8
bearing: -3.60908436775
intensity: 31.0414562225
---
header: 
  seq: 1212317
  stamp: 
    secs: 1561865369
    nsecs: 369039323
  frame_id: "ti_mmwave"
point_id: 16
x: 4.951171875
y: -0.623046875
z: 0.029296875
range: 5.31639051437
velocity: 0.0
doppler_bin: 8
bearing: -7.17230129242
intensity: 29.6848297119
---
header: 
  seq: 1212318
  stamp: 
    secs: 1561865369
    nsecs: 369046951
  frame_id: "ti_mmwave"
point_id: 17
x: 0.009765625
y: 0.03125
z: 0.025390625
range: 0.0435769706964
velocity: 0.0
doppler_bin: 8
bearing: 72.6459732056
intensity: 29.3094902039
---
header: 
  seq: 1212319
  stamp: 
    secs: 1561865369
    nsecs: 369091090
  frame_id: "ti_mmwave"
point_id: 18
x: 0.041015625
y: -0.033203125
z: 0.0625
range: 0.0871539413929
velocity: 0.0
doppler_bin: 8
bearing: -38.9909973145
intensity: 30.0860023499
---
header: 
  seq: 1212320
  stamp: 
    secs: 1561865369
    nsecs: 369102381
  frame_id: "ti_mmwave"
point_id: 19
x: 0.044921875
y: -0.046875
z: 0.103515625
range: 0.130730912089
velocity: 0.0
doppler_bin: 8
bearing: -46.218875885
intensity: 28.9762706757
---
header: 
  seq: 1212321
  stamp: 
    secs: 1561865369
    nsecs: 427853440
  frame_id: "ti_mmwave"
point_id: 0
x: 0.01171875
y: -0.0390625
z: -0.0078125
range: 0.0435769706964
velocity: 0.0
doppler_bin: 8
bearing: -73.3007583618
intensity: 30.6408348083
---
header: 
  seq: 1212322
  stamp: 
    secs: 1561865369
    nsecs: 427927154
  frame_id: "ti_mmwave"
point_id: 1
x: 0.017578125
y: -0.080078125
z: -0.0078125
range: 0.0871539413929
velocity: 0.0
doppler_bin: 8
bearing: -77.6192398071
intensity: 31.8977088928
---
header: 
  seq: 1212323
  stamp: 
    secs: 1561865369
    nsecs: 427940533
  frame_id: "ti_mmwave"
point_id: 2
x: 0.029296875
y: -0.119140625
z: -0.005859375
range: 0.130730912089
velocity: 0.0
doppler_bin: 8
bearing: -76.1849746704
intensity: 30.141002655
---
header: 
  seq: 1212324
  stamp: 
    secs: 1561865369
    nsecs: 427981434
  frame_id: "ti_mmwave"
point_id: 3
x: 0.056640625
y: -0.154296875
z: 0.005859375
range: 0.174307882786
velocity: 0.0
doppler_bin: 8
bearing: -69.8423843384
intensity: 25.4530715942
---
header: 
  seq: 1212325
  stamp: 
    secs: 1561865369
    nsecs: 427990909
  frame_id: "ti_mmwave"
point_id: 4
x: 0.65625
y: -0.080078125
z: -1.08203125
range: 1.35088610649
velocity: 0.0
doppler_bin: 8
bearing: -6.95705509186
intensity: 23.0963020325
---
header: 
  seq: 1212326
  stamp: 
    secs: 1561865369
    nsecs: 427999041
  frame_id: "ti_mmwave"
point_id: 5
x: 0.498046875
y: -0.08203125
z: -1.20703125
range: 1.39446306229
velocity: 0.0
doppler_bin: 8
bearing: -9.35297966003
intensity: 23.5983543396
---
header: 
  seq: 1212327
  stamp: 
    secs: 1561865369
    nsecs: 428007349
  frame_id: "ti_mmwave"
point_id: 6
x: 0.58984375
y: -0.126953125
z: 1.20703125
range: 1.43804001808
velocity: 0.0
doppler_bin: 8
bearing: -12.1465740204
intensity: 21.7026176453
---
header: 
  seq: 1212328
  stamp: 
    secs: 1561865369
    nsecs: 428018773
  frame_id: "ti_mmwave"
point_id: 7
x: 0.19140625
y: -0.04296875
z: 1.376953125
range: 1.48161697388
velocity: 0.0
doppler_bin: 8
bearing: -12.6525564194
intensity: 22.1218757629
---
header: 
  seq: 1212329
  stamp: 
    secs: 1561865369
    nsecs: 428027033
  frame_id: "ti_mmwave"
point_id: 8
x: 2.62109375
y: -0.17578125
z: 1.029296875
range: 3.00681090355
velocity: 0.0
doppler_bin: 8
bearing: -3.83674383163
intensity: 28.9817657471
---
header: 
  seq: 1212330
  stamp: 
    secs: 1561865369
    nsecs: 428036750
  frame_id: "ti_mmwave"
point_id: 9
x: 2.69140625
y: -0.08984375
z: 0.974609375
range: 3.05038785934
velocity: 0.0
doppler_bin: 8
bearing: -1.91192126274
intensity: 32.1906051636
---
header: 
  seq: 1212331
  stamp: 
    secs: 1561865369
    nsecs: 428044951
  frame_id: "ti_mmwave"
point_id: 10
x: 2.751953125
y: -0.08984375
z: 0.923828125
range: 3.09396481514
velocity: 0.0
doppler_bin: 8
bearing: -1.86988639832
intensity: 31.1693973541
---
header: 
  seq: 1212332
  stamp: 
    secs: 1561865369
    nsecs: 428065679
  frame_id: "ti_mmwave"
point_id: 11
x: 4.416015625
y: -0.142578125
z: 1.208984375
range: 4.88062095642
velocity: 0.0
doppler_bin: 8
bearing: -1.84924340248
intensity: 31.3735408783
---
header: 
  seq: 1212333
  stamp: 
    secs: 1561865369
    nsecs: 428080426
  frame_id: "ti_mmwave"
point_id: 12
x: 4.447265625
y: -0.14453125
z: 1.251953125
range: 4.9241976738
velocity: 0.0
doppler_bin: 8
bearing: -1.86139500141
intensity: 31.1859531403
---
header: 
  seq: 1212334
  stamp: 
    secs: 1561865369
    nsecs: 428093361
  frame_id: "ti_mmwave"
point_id: 13
x: 4.693359375
y: -0.4453125
z: -0.537109375
range: 5.0549287796
velocity: 0.0
doppler_bin: 8
bearing: -5.42007780075
intensity: 29.0579586029
---
header: 
  seq: 1212335
  stamp: 
    secs: 1561865369
    nsecs: 428101648
  frame_id: "ti_mmwave"
point_id: 14
x: 4.740234375
y: -0.298828125
z: -0.58203125
range: 5.09850549698
velocity: 0.0
doppler_bin: 8
bearing: -3.60719799995
intensity: 33.7291183472
---
header: 
  seq: 1212336
  stamp: 
    secs: 1561865369
    nsecs: 428246869
  frame_id: "ti_mmwave"
point_id: 15
x: 4.775390625
y: -0.30078125
z: -0.6328125
range: 5.14208269119
velocity: 0.0
doppler_bin: 8
bearing: -3.60405302048
intensity: 34.3996391296
---
header: 
  seq: 1212337
  stamp: 
    secs: 1561865369
    nsecs: 428267362
  frame_id: "ti_mmwave"
point_id: 16
x: 4.78125
y: -0.15234375
z: -0.90625
range: 5.18565940857
velocity: 0.0
doppler_bin: 8
bearing: -1.82498347759
intensity: 30.9025802612
---
header: 
  seq: 1212338
  stamp: 
    secs: 1561865369
    nsecs: 428276137
  frame_id: "ti_mmwave"
point_id: 17
x: 4.892578125
y: -0.30859375
z: 0.6875
range: 5.27281332016
velocity: 0.0
doppler_bin: 8
bearing: -3.60908436775
intensity: 31.0619087219
---
header: 
  seq: 1212339
  stamp: 
    secs: 1561865369
    nsecs: 428284262
  frame_id: "ti_mmwave"
point_id: 18
x: 4.951171875
y: -0.623046875
z: 0.037109375
range: 5.31639051437
velocity: 0.0
doppler_bin: 8
bearing: -7.17230129242
intensity: 29.7451171875
---
header: 
  seq: 1212340
  stamp: 
    secs: 1561865369
    nsecs: 428292322
  frame_id: "ti_mmwave"
point_id: 19
x: 0.009765625
y: 0.03125
z: 0.025390625
range: 0.0435769706964
velocity: 0.0
doppler_bin: 8
bearing: 72.6459732056
intensity: 29.3094902039
---
header: 
  seq: 1212341
  stamp: 
    secs: 1561865369
    nsecs: 428300561
  frame_id: "ti_mmwave"
point_id: 20
x: 0.041015625
y: -0.033203125
z: 0.0625
range: 0.0871539413929
velocity: 0.0
doppler_bin: 8
bearing: -38.9909973145
intensity: 30.0860023499
---
header: 
  seq: 1212342
  stamp: 
    secs: 1561865369
    nsecs: 428308267
  frame_id: "ti_mmwave"
point_id: 21
x: 0.044921875
y: -0.046875
z: 0.103515625
range: 0.130730912089
velocity: 0.0
doppler_bin: 8
bearing: -46.218875885
intensity: 28.9707698822
---
header: 
  seq: 1212343
  stamp: 
    secs: 1561865369
    nsecs: 487708915
  frame_id: "ti_mmwave"
point_id: 0
x: 0.01171875
y: -0.0390625
z: -0.0078125
range: 0.0435769706964
velocity: 0.0
doppler_bin: 8
bearing: -73.3007583618
intensity: 30.6408348083
---
header: 
  seq: 1212344
  stamp: 
    secs: 1561865369
    nsecs: 487788531
  frame_id: "ti_mmwave"
point_id: 1
x: 0.017578125
y: -0.080078125
z: -0.0078125
range: 0.0871539413929
velocity: 0.0
doppler_bin: 8
bearing: -77.6192398071
intensity: 31.8977088928
---
header: 
  seq: 1212345
  stamp: 
    secs: 1561865369
    nsecs: 487799670
  frame_id: "ti_mmwave"
point_id: 2
x: 0.029296875
y: -0.119140625
z: -0.005859375
range: 0.130730912089
velocity: 0.0
doppler_bin: 8
bearing: -76.1849746704
intensity: 30.141002655
---
header: 
  seq: 1212346
  stamp: 
    secs: 1561865369
    nsecs: 487807987
  frame_id: "ti_mmwave"
point_id: 3
x: 0.056640625
y: -0.154296875
z: 0.005859375
range: 0.174307882786
velocity: 0.0
doppler_bin: 8
bearing: -69.8423843384
intensity: 25.4530715942
---
header: 
  seq: 1212347
  stamp: 
    secs: 1561865369
    nsecs: 487816339
  frame_id: "ti_mmwave"
point_id: 4
x: 0.09765625
y: -0.080078125
z: -1.26171875
range: 1.35088610649
velocity: 0.0
doppler_bin: 8
bearing: -39.3517532349
intensity: 24.2651119232
---
header: 
  seq: 1212348
  stamp: 
    secs: 1561865369
    nsecs: 487824487
  frame_id: "ti_mmwave"
point_id: 5
x: 0.537109375
y: -0.041015625
z: -1.193359375
range: 1.39446306229
velocity: 0.0
doppler_bin: 8
bearing: -4.36683940887
intensity: 25.5630245209
---
header: 
  seq: 1212349
  stamp: 
    secs: 1561865369
    nsecs: 487832336
  frame_id: "ti_mmwave"
point_id: 6
x: 0.677734375
y: -0.04296875
z: -1.166015625
range: 1.43804001808
velocity: 0.0
doppler_bin: 8
bearing: -3.62772989273
intensity: 23.6735591888
---
header: 
  seq: 1212350
  stamp: 
    secs: 1561865369
    nsecs: 487842070
  frame_id: "ti_mmwave"
point_id: 7
x: 0.623046875
y: -0.04296875
z: -1.2421875
range: 1.48161697388
velocity: 0.0
doppler_bin: 8
bearing: -3.94518637657
intensity: 21.8469142914
---
header: 
  seq: 1212351
  stamp: 
    secs: 1561865369
    nsecs: 487850349
  frame_id: "ti_mmwave"
point_id: 8
x: 2.6171875
y: -0.17578125
z: 1.041015625
range: 3.00681090355
velocity: 0.0
doppler_bin: 8
bearing: -3.84245300293
intensity: 29.0471553802
---
header: 
  seq: 1212352
  stamp: 
    secs: 1561865369
    nsecs: 487859723
  frame_id: "ti_mmwave"
point_id: 9
x: 2.689453125
y: -0.08984375
z: 0.978515625
range: 3.05038785934
velocity: 0.0
doppler_bin: 8
bearing: -1.91330885887
intensity: 32.2115325928
---
header: 
  seq: 1212353
  stamp: 
    secs: 1561865369
    nsecs: 487868447
  frame_id: "ti_mmwave"
point_id: 10
x: 2.728515625
y: -0.181640625
z: 0.978515625
range: 3.09396481514
velocity: 0.0
doppler_bin: 8
bearing: -3.80863046646
intensity: 31.172712326
---
header: 
  seq: 1212354
  stamp: 
    secs: 1561865369
    nsecs: 487876801
  frame_id: "ti_mmwave"
point_id: 11
x: 4.41796875
y: -0.142578125
z: 1.208984375
range: 4.88062095642
velocity: 0.0
doppler_bin: 8
bearing: -1.84842634201
intensity: 31.3608608246
---
header: 
  seq: 1212355
  stamp: 
    secs: 1561865369
    nsecs: 487888040
  frame_id: "ti_mmwave"
point_id: 12
x: 4.447265625
y: -0.14453125
z: 1.251953125
range: 4.9241976738
velocity: 0.0
doppler_bin: 8
bearing: -1.86139500141
intensity: 31.209028244
---
header: 
  seq: 1212356
  stamp: 
    secs: 1561865369
    nsecs: 488044822
  frame_id: "ti_mmwave"
point_id: 13
x: 4.744140625
y: -0.298828125
z: -0.564453125
range: 5.09850549698
velocity: 0.0
doppler_bin: 8
bearing: -3.60423564911
intensity: 33.1827201843
---
header: 
  seq: 1212357
  stamp: 
    secs: 1561865369
    nsecs: 488066809
  frame_id: "ti_mmwave"
point_id: 14
x: 4.779296875
y: -0.30078125
z: -0.611328125
range: 5.14208269119
velocity: 0.0
doppler_bin: 8
bearing: -3.60111522675
intensity: 33.7438163757
---
header: 
  seq: 1212358
  stamp: 
    secs: 1561865369
    nsecs: 488075525
  frame_id: "ti_mmwave"
point_id: 15
x: 4.765625
y: -0.3046875
z: -0.94921875
range: 5.18565940857
velocity: 0.0
doppler_bin: 8
bearing: -3.65819334984
intensity: 30.0346050262
---
header: 
  seq: 1212359
  stamp: 
    secs: 1561865369
    nsecs: 488083572
  frame_id: "ti_mmwave"
point_id: 16
x: 4.892578125
y: -0.30859375
z: 0.677734375
range: 5.27281332016
velocity: 0.0
doppler_bin: 8
bearing: -3.60908436775
intensity: 31.0414562225
---
header: 
  seq: 1212360
  stamp: 
    secs: 1561865369
    nsecs: 488093856
  frame_id: "ti_mmwave"
point_id: 17
x: 4.951171875
y: -0.623046875
z: 0.033203125
