header: 
  seq: 909590
  stamp: 
    secs: 1561867578
    nsecs: 146522534
  frame_id: "ti_mmwave"
point_id: 0
x: 0.01171875
y: -0.0390625
z: -0.0078125
range: 0.0435769706964
velocity: 0.0
doppler_bin: 8
bearing: -73.3007583618
intensity: 30.6445808411
---
header: 
  seq: 909591
  stamp: 
    secs: 1561867578
    nsecs: 146656758
  frame_id: "ti_mmwave"
point_id: 1
x: 0.017578125
y: -0.080078125
z: -0.0078125
range: 0.0871539413929
velocity: 0.0
doppler_bin: 8
bearing: -77.6192398071
intensity: 31.9005146027
---
header: 
  seq: 909592
  stamp: 
    secs: 1561867578
    nsecs: 146683496
  frame_id: "ti_mmwave"
point_id: 2
x: 0.029296875
y: -0.119140625
z: -0.005859375
range: 0.130730912089
velocity: 0.0
doppler_bin: 8
bearing: -76.1849746704
intensity: 30.1241531372
---
header: 
  seq: 909593
  stamp: 
    secs: 1561867578
    nsecs: 146699131
  frame_id: "ti_mmwave"
point_id: 3
x: 0.056640625
y: -0.154296875
z: 0.005859375
range: 0.174307882786
velocity: 0.0
doppler_bin: 8
bearing: -69.8423843384
intensity: 25.4530715942
---
header: 
  seq: 909594
  stamp: 
    secs: 1561867578
    nsecs: 146718813
  frame_id: "ti_mmwave"
point_id: 4
x: 0.189453125
y: -0.080078125
z: 1.251953125
range: 1.35088610649
velocity: 0.0
doppler_bin: 8
bearing: -22.9128284454
intensity: 23.0749607086
---
header: 
  seq: 909595
  stamp: 
    secs: 1561867578
    nsecs: 146735054
  frame_id: "ti_mmwave"
point_id: 5
x: 0.091796875
y: -0.08203125
z: 1.302734375
range: 1.39446306229
velocity: 0.0
doppler_bin: 8
bearing: -41.7845153809
intensity: 24.6089782715
---
header: 
  seq: 909596
  stamp: 
    secs: 1561867578
    nsecs: 146753581
  frame_id: "ti_mmwave"
point_id: 6
x: 0.4140625
y: -0.083984375
z: -1.28125
range: 1.43804001808
velocity: 0.0
doppler_bin: 8
bearing: -11.4657688141
intensity: 23.0749607086
---
header: 
  seq: 909597
  stamp: 
    secs: 1561867578
    nsecs: 146859265
  frame_id: "ti_mmwave"
point_id: 7
x: 0.552734375
y: -0.04296875
z: -1.275390625
range: 1.48161697388
velocity: 0.0
doppler_bin: 8
bearing: -4.44514894485
intensity: 21.7609119415
---
header: 
  seq: 909598
  stamp: 
    secs: 1561867578
    nsecs: 146878452
  frame_id: "ti_mmwave"
point_id: 8
x: 1.70703125
y: -0.0
z: -0.19140625
range: 1.83023273945
velocity: 0.0
doppler_bin: 8
bearing: -0.0
intensity: 26.8663635254
---
header: 
  seq: 909599
  stamp: 
    secs: 1561867578
    nsecs: 146893221
  frame_id: "ti_mmwave"
point_id: 9
x: 1.7421875
y: -0.0
z: -0.23828125
range: 1.87380969524
velocity: 0.0
doppler_bin: 8
bearing: -0.0
intensity: 27.8746051788
---
header: 
  seq: 909600
  stamp: 
    secs: 1561867578
    nsecs: 146909644
  frame_id: "ti_mmwave"
point_id: 10
x: 1.845703125
y: -0.1171875
z: -0.345703125
range: 2.00454068184
velocity: 0.0
doppler_bin: 8
bearing: -3.63295125961
intensity: 26.6086540222
---
header: 
  seq: 909601
  stamp: 
    secs: 1561867578
    nsecs: 146927520
  frame_id: "ti_mmwave"
point_id: 11
x: 2.625
y: -0.17578125
z: 1.021484375
range: 3.00681090355
velocity: 0.0
doppler_bin: 8
bearing: -3.83105134964
intensity: 29.0471553802
---
header: 
  seq: 909602
  stamp: 
    secs: 1561867578
    nsecs: 146947080
  frame_id: "ti_mmwave"
point_id: 12
x: 2.658203125
y: -0.1796875
z: 1.048828125
range: 3.05038785934
velocity: 0.0
doppler_bin: 8
bearing: -3.86716008186
intensity: 32.1932258606
---
header: 
  seq: 909603
  stamp: 
    secs: 1561867578
    nsecs: 146964542
  frame_id: "ti_mmwave"
point_id: 13
x: 2.728515625
y: -0.181640625
z: 0.98046875
range: 3.09396481514
velocity: 0.0
doppler_bin: 8
bearing: -3.80863046646
intensity: 31.1427726746
---
header: 
  seq: 909604
  stamp: 
    secs: 1561867578
    nsecs: 146980353
  frame_id: "ti_mmwave"
point_id: 14
x: 0.009765625
y: 0.03125
z: 0.025390625
range: 0.0435769706964
velocity: 0.0
doppler_bin: 8
bearing: 72.6459732056
intensity: 29.2788333893
---
header: 
  seq: 909605
  stamp: 
    secs: 1561867578
    nsecs: 146995853
  frame_id: "ti_mmwave"
point_id: 15
x: 0.041015625
y: -0.033203125
z: 0.0625
range: 0.0871539413929
velocity: 0.0
doppler_bin: 8
bearing: -38.9909973145
intensity: 30.0902576447
---
header: 
  seq: 909606
  stamp: 
    secs: 1561867578
    nsecs: 147009443
  frame_id: "ti_mmwave"
point_id: 16
x: 0.044921875
y: -0.046875
z: 0.103515625
range: 0.130730912089
velocity: 0.0
doppler_bin: 8
bearing: -46.218875885
intensity: 29.0036716461
---
header: 
  seq: 909607
  stamp: 
    secs: 1561867578
    nsecs: 148060858
  frame_id: "ti_mmwave"
point_id: 0
x: 0.01171875
y: -0.0390625
z: -0.0078125
range: 0.0435769706964
velocity: 0.0
doppler_bin: 8
bearing: -73.3007583618
intensity: 30.6408348083
---
header: 
  seq: 909608
  stamp: 
    secs: 1561867578
    nsecs: 148127770
  frame_id: "ti_mmwave"
point_id: 1
x: 0.017578125
y: -0.080078125
z: -0.0078125
range: 0.0871539413929
velocity: 0.0
doppler_bin: 8
bearing: -77.6192398071
intensity: 31.8977088928
---
header: 
  seq: 909609
  stamp: 
    secs: 1561867578
    nsecs: 148144743
  frame_id: "ti_mmwave"
point_id: 2
x: 0.029296875
y: -0.119140625
z: -0.005859375
range: 0.130730912089
velocity: 0.0
doppler_bin: 8
bearing: -76.1849746704
intensity: 30.1157035828
---
header: 
  seq: 909610
  stamp: 
    secs: 1561867578
    nsecs: 148158971
  frame_id: "ti_mmwave"
point_id: 3
x: 0.056640625
y: -0.154296875
z: 0.005859375
range: 0.174307882786
velocity: 0.0
doppler_bin: 8
bearing: -69.8423843384
intensity: 25.4406795502
---
header: 
  seq: 909611
  stamp: 
    secs: 1561867578
    nsecs: 148213054
  frame_id: "ti_mmwave"
point_id: 4
x: 0.150390625
y: -0.080078125
z: 1.255859375
range: 1.35088610649
velocity: 0.0
doppler_bin: 8
bearing: -28.0338516235
intensity: 23.0963020325
---
header: 
  seq: 909612
  stamp: 
    secs: 1561867578
    nsecs: 148230142
  frame_id: "ti_mmwave"
point_id: 6
x: 0.431640625
y: -0.083984375
z: -1.275390625
range: 1.43804001808
velocity: 0.0
doppler_bin: 8
bearing: -11.0104799271
intensity: 23.0963020325
---
header: 
  seq: 909613
  stamp: 
    secs: 1561867578
    nsecs: 148243258
  frame_id: "ti_mmwave"
point_id: 7
x: 0.564453125
y: -0.04296875
z: -1.26953125
range: 1.48161697388
velocity: 0.0
doppler_bin: 8
bearing: -4.35321998596
intensity: 21.7026176453
---
header: 
  seq: 909614
  stamp: 
    secs: 1561867578
    nsecs: 148254505
  frame_id: "ti_mmwave"
point_id: 8
x: 1.71484375
y: -0.052734375
z: -0.072265625
range: 1.83023273945
velocity: 0.0
doppler_bin: 8
bearing: -1.76138806343
intensity: 27.3239383698
---
header: 
  seq: 909615
  stamp: 
    secs: 1561867578
    nsecs: 148299875
  frame_id: "ti_mmwave"
point_id: 9
x: 1.7578125
y: -0.0546875
z: -0.017578125
range: 1.87380969524
velocity: 0.0
doppler_bin: 8
bearing: -1.78196060658
intensity: 29.6236934662
---
header: 
  seq: 909616
  stamp: 
    secs: 1561867578
    nsecs: 148312258
  frame_id: "ti_mmwave"
point_id: 10
x: 1.798828125
y: -0.0
z: 0.083984375
range: 1.91738677025
velocity: 0.0
doppler_bin: 8
bearing: -0.0
intensity: 29.1328392029
---
header: 
  seq: 909617
  stamp: 
    secs: 1561867578
    nsecs: 148368650
  frame_id: "ti_mmwave"
point_id: 11
x: 1.837890625
y: -0.056640625
z: -0.078125
range: 1.96096372604
velocity: 0.0
doppler_bin: 8
bearing: -1.76519858837
intensity: 28.5853729248
---
header: 
  seq: 909618
  stamp: 
    secs: 1561867578
    nsecs: 148382717
  frame_id: "ti_mmwave"
point_id: 12
x: 1.873046875
y: -0.05859375
z: -0.166015625
range: 2.00454068184
velocity: 0.0
doppler_bin: 8
bearing: -1.79177570343
intensity: 27.1850166321
---
header: 
  seq: 909619
  stamp: 
    secs: 1561867578
    nsecs: 148396871
  frame_id: "ti_mmwave"
point_id: 14
x: 2.6953125
y: -0.08984375
z: 0.96484375
range: 3.05038785934
velocity: 0.0
doppler_bin: 8
bearing: -1.90915250778
intensity: 32.0951499939
---
header: 
  seq: 909620
  stamp: 
    secs: 1561867578
    nsecs: 148407637
  frame_id: "ti_mmwave"
point_id: 15
x: 2.779296875
y: -0.0
z: 0.841796875
range: 3.09396481514
velocity: 0.0
doppler_bin: 8
bearing: -0.0
intensity: 31.0140342712
---
header: 
  seq: 909621
  stamp: 
    secs: 1561867578
    nsecs: 148442021
  frame_id: "ti_mmwave"
point_id: 17
x: 0.041015625
y: -0.033203125
z: 0.0625
range: 0.0871539413929
velocity: 0.0
doppler_bin: 8
bearing: -38.9909973145
intensity: 30.0902576447
---
header: 
  seq: 909622
  stamp: 
    secs: 1561867578
    nsecs: 148497076
  frame_id: "ti_mmwave"
point_id: 18
x: 0.046875
y: -0.046875
z: 0.103515625
range: 0.130730912089
velocity: 0.0
doppler_bin: 8
bearing: -45.0
intensity: 28.9982051849
---
header: 
  seq: 909623
  stamp: 
    secs: 1561867578
    nsecs: 148512988
  frame_id: "ti_mmwave"
point_id: 20
x: 0.599609375
y: 2.41796875
z: -0.15234375
range: 2.65819525719
velocity: 0.0
doppler_bin: 8
bearing: 76.0727081299
intensity: 25.6466598511
---
header: 
  seq: 909624
  stamp: 
    secs: 1561867578
    nsecs: 148525687
  frame_id: "ti_mmwave"
point_id: 21
x: 2.73828125
y: -0.181640625
z: 0.94921875
range: 3.09396481514
velocity: 0.0
doppler_bin: 8
bearing: -3.79508757591
intensity: 31.0105934143
---
header: 
  seq: 909625
  stamp: 
    secs: 1561867578
    nsecs: 206827858
  frame_id: "ti_mmwave"
point_id: 0
x: 0.01171875
y: -0.0390625
z: -0.0078125
range: 0.0435769706964
velocity: 0.0
doppler_bin: 8
bearing: -73.3007583618
intensity: 30.6483230591
---
header: 
  seq: 909626
  stamp: 
    secs: 1561867578
    nsecs: 206922315
  frame_id: "ti_mmwave"
point_id: 1
x: 0.017578125
y: -0.080078125
z: -0.0078125
range: 0.0871539413929
velocity: 0.0
doppler_bin: 8
bearing: -77.6192398071
intensity: 31.9005146027
---
header: 
  seq: 909627
  stamp: 
    secs: 1561867578
    nsecs: 206939639
  frame_id: "ti_mmwave"
point_id: 2
x: 0.029296875
y: -0.119140625
z: -0.005859375
range: 0.130730912089
velocity: 0.0
doppler_bin: 8
bearing: -76.1849746704
intensity: 30.1199302673
---
header: 
  seq: 909628
  stamp: 
    secs: 1561867578
    nsecs: 206956874
  frame_id: "ti_mmwave"
point_id: 3
x: 0.056640625
y: -0.154296875
z: 0.005859375
range: 0.174307882786
velocity: 0.0
doppler_bin: 8
bearing: -69.8423843384
intensity: 25.4406795502
---
header: 
  seq: 909629
  stamp: 
    secs: 1561867578
    nsecs: 206971727
  frame_id: "ti_mmwave"
point_id: 4
x: 0.17578125
y: -0.080078125
z: 1.25390625
range: 1.35088610649
velocity: 0.0
doppler_bin: 8
bearing: -24.4919013977
intensity: 23.1175384521
---
header: 
  seq: 909630
  stamp: 
    secs: 1561867578
    nsecs: 207002087
  frame_id: "ti_mmwave"
point_id: 5
x: 0.083984375
y: -0.08203125
z: 1.3046875
range: 1.39446306229
velocity: 0.0
doppler_bin: 8
bearing: -44.3259658813
intensity: 24.6538276672
---
header: 
  seq: 909631
  stamp: 
    secs: 1561867578
    nsecs: 207024094
  frame_id: "ti_mmwave"
point_id: 6
x: 0.4140625
y: -0.083984375
z: -1.28125
range: 1.43804001808
velocity: 0.0
doppler_bin: 8
bearing: -11.4657688141
intensity: 23.138671875
---
header: 
  seq: 909632
  stamp: 
    secs: 1561867578
    nsecs: 207046597
  frame_id: "ti_mmwave"
point_id: 7
x: 0.56640625
y: -0.04296875
z: -1.26953125
range: 1.48161697388
velocity: 0.0
doppler_bin: 8
bearing: -4.33826684952
intensity: 21.7609119415
---
header: 
  seq: 909633
  stamp: 
    secs: 1561867578
    nsecs: 207071567
  frame_id: "ti_mmwave"
point_id: 8
x: 1.71484375
y: -0.052734375
z: -0.0703125
range: 1.83023273945
velocity: 0.0
doppler_bin: 8
bearing: -1.76138806343
intensity: 28.4941940308
---
header: 
  seq: 909634
  stamp: 
    secs: 1561867578
    nsecs: 207094556
  frame_id: "ti_mmwave"
point_id: 9
x: 1.7578125
y: -0.0546875
z: -0.029296875
range: 1.87380969524
velocity: 0.0
doppler_bin: 8
bearing: -1.78196060658
intensity: 30.8990516663
---
header: 
  seq: 909635
  stamp: 
    secs: 1561867578
    nsecs: 207116881
  frame_id: "ti_mmwave"
point_id: 10
x: 1.796875
y: -0.11328125
z: 0.01171875
range: 1.91738677025
velocity: 0.0
doppler_bin: 8
bearing: -3.60735106468
intensity: 30.2694168091
---
header: 
  seq: 909636
  stamp: 
    secs: 1561867578
    nsecs: 207130389
  frame_id: "ti_mmwave"
point_id: 11
x: 1.822265625
y: -0.23046875
z: 0.12109375
range: 1.96096372604
velocity: 0.0
doppler_bin: 8
bearing: -7.2081413269
intensity: 27.1683769226
---
header: 
  seq: 909637
  stamp: 
    secs: 1561867578
    nsecs: 207155136
  frame_id: "ti_mmwave"
point_id: 13
x: 0.60546875
y: 2.41796875
z: -0.1328125
range: 2.65819525719
velocity: 0.0
doppler_bin: 8
bearing: 75.9419784546
intensity: 26.7302093506
---
header: 
  seq: 909638
  stamp: 
    secs: 1561867578
    nsecs: 207257181
  frame_id: "ti_mmwave"
point_id: 15
x: 2.62890625
y: -0.17578125
z: 1.01171875
range: 3.00681090355
velocity: 0.0
doppler_bin: 8
bearing: -3.82537555695
intensity: 29.2012329102
---
header: 
  seq: 909639
  stamp: 
    secs: 1561867578
    nsecs: 207273648
  frame_id: "ti_mmwave"
point_id: 16
x: 2.697265625
y: -0.08984375
z: 0.958984375
range: 3.05038785934
velocity: 0.0
doppler_bin: 8
bearing: -1.90777087212
intensity: 32.3552856445
---
header: 
  seq: 909640
  stamp: 
    secs: 1561867578
    nsecs: 207288632
  frame_id: "ti_mmwave"
point_id: 17
x: 2.763671875
y: -0.08984375
z: 0.888671875
range: 3.09396481514
velocity: 0.0
doppler_bin: 8
bearing: -1.8619633913
intensity: 31.3987903595
---
header: 
  seq: 909641
  stamp: 
    secs: 1561867578
    nsecs: 207306523
  frame_id: "ti_mmwave"
point_id: 18
x: 0.009765625
y: 0.03125
z: 0.025390625
range: 0.0435769706964
velocity: 0.0
doppler_bin: 8
bearing: 72.6459732056
intensity: 29.2839584351
---
header: 
  seq: 909642
  stamp: 
    secs: 1561867578
    nsecs: 207324977
  frame_id: "ti_mmwave"
point_id: 19
x: 0.041015625
y: -0.033203125
z: 0.0625
range: 0.0871539413929
velocity: 0.0
doppler_bin: 8
bearing: -38.9909973145
intensity: 30.0860023499
---
header: 
  seq: 909643
  stamp: 
    secs: 1561867578
    nsecs: 207339847
  frame_id: "ti_mmwave"
point_id: 20
x: 0.046875
y: -0.046875
z: 0.103515625
range: 0.130730912089
velocity: 0.0
doppler_bin: 8
bearing: -45.0
intensity: 28.9927310944
---
header: 
  seq: 909644
  stamp: 
    secs: 1561867578
    nsecs: 207361010
  frame_id: "ti_mmwave"
point_id: 22
x: 0.595703125
y: 2.376953125
z: -0.12109375
range: 2.61461830139
velocity: 0.0
doppler_bin: 8
bearing: 75.9305267334
intensity: 25.0105934143
---
header: 
  seq: 909645
  stamp: 
    secs: 1561867578
    nsecs: 208126436
  frame_id: "ti_mmwave"
point_id: 0
x: 0.01171875
y: -0.0390625
z: -0.0078125
range: 0.0435769706964
velocity: 0.0
doppler_bin: 8
bearing: -73.3007583618
intensity: 30.6408348083
---
header: 
  seq: 909646
  stamp: 
    secs: 1561867578
    nsecs: 208183069
  frame_id: "ti_mmwave"
point_id: 1
x: 0.017578125
y: -0.080078125
z: -0.0078125
range: 0.0871539413929
velocity: 0.0
doppler_bin: 8
bearing: -77.6192398071
intensity: 31.894903183
---
header: 
  seq: 909647
  stamp: 
    secs: 1561867578
    nsecs: 208199694
  frame_id: "ti_mmwave"
point_id: 2
x: 0.029296875
y: -0.119140625
z: -0.005859375
range: 0.130730912089
velocity: 0.0
doppler_bin: 8
bearing: -76.1849746704
intensity: 30.1199302673
---
header: 
  seq: 909648
  stamp: 
    secs: 1561867578
    nsecs: 208213605
  frame_id: "ti_mmwave"
point_id: 3
x: 0.056640625
y: -0.154296875
z: 0.005859375
range: 0.174307882786
velocity: 0.0
doppler_bin: 8
bearing: -69.8423843384
intensity: 25.4530715942
---
header: 
  seq: 909649
  stamp: 
    secs: 1561867578
    nsecs: 208226510
  frame_id: "ti_mmwave"
point_id: 4
x: 0.138671875
y: -0.080078125
z: 1.2578125
range: 1.35088610649
velocity: 0.0
doppler_bin: 8
bearing: -30.0049190521
intensity: 23.0963020325
---
header: 
  seq: 909650
  stamp: 
    secs: 1561867578
    nsecs: 208288531
  frame_id: "ti_mmwave"
point_id: 5
x: 0.07421875
y: -0.08203125
z: 1.3046875
range: 1.39446306229
velocity: 0.0
doppler_bin: 8
bearing: -47.8624038696
intensity: 24.6389293671
---
header: 
  seq: 909651
  stamp: 
    secs: 1561867578
    nsecs: 208302869
  frame_id: "ti_mmwave"
point_id: 6
x: 0.392578125
y: -0.083984375
z: -1.2890625
range: 1.43804001808
velocity: 0.0
doppler_bin: 8
bearing: -12.0752887726
intensity: 23.1175384521
---
header: 
  seq: 909652
  stamp: 
    secs: 1561867578
    nsecs: 208314378
  frame_id: "ti_mmwave"
point_id: 7
x: 0.552734375
y: -0.04296875
z: -1.275390625
range: 1.48161697388
velocity: 0.0
doppler_bin: 8
bearing: -4.44514894485
intensity: 21.7609119415
---
header: 
  seq: 909653
  stamp: 
    secs: 1561867578
    nsecs: 208327643
  frame_id: "ti_mmwave"
point_id: 8
x: 1.61328125
y: -0.052734375
z: -0.587890625
range: 1.83023273945
velocity: 0.0
doppler_bin: 8
bearing: -1.87219798565
intensity: 28.0482063293
---
header: 
  seq: 909654
  stamp: 
    secs: 1561867578
    nsecs: 208339313
  frame_id: "ti_mmwave"
point_id: 9
x: 1.70703125
y: -0.0546875
z: -0.421875
range: 1.87380969524
velocity: 0.0
doppler_bin: 8
bearing: -1.83493518829
intensity: 31.858253479
---
header: 
  seq: 909655
  stamp: 
    secs: 1561867578
    nsecs: 208350461
  frame_id: "ti_mmwave"
point_id: 10
x: 1.763671875
y: -0.056640625
z: -0.3515625
range: 1.91738677025
velocity: 0.0
doppler_bin: 8
bearing: -1.83943164349
intensity: 31.7143383026
---
header: 
  seq: 909656
  stamp: 
    secs: 1561867578
    nsecs: 208364340
  frame_id: "ti_mmwave"
point_id: 11
x: 1.802734375
y: -0.115234375
z: -0.353515625
range: 1.96096372604
velocity: 0.0
doppler_bin: 8
bearing: -3.65748429298
intensity: 28.727388382
---
header: 
  seq: 909657
  stamp: 
    secs: 1561867578
    nsecs: 208378216
  frame_id: "ti_mmwave"
point_id: 12
x: 2.640625
y: -0.17578125
z: 0.982421875
range: 3.00681090355
velocity: 0.0
doppler_bin: 8
bearing: -3.80844950676
intensity: 29.0363254547
---
header: 
  seq: 909658
  stamp: 
    secs: 1561867578
    nsecs: 208408928
  frame_id: "ti_mmwave"
point_id: 13
x: 2.69921875
y: -0.08984375
z: 0.953125
range: 3.05038785934
velocity: 0.0
doppler_bin: 8
bearing: -1.90639162064
intensity: 32.2115325928
---
header: 
  seq: 909659
  stamp: 
    secs: 1561867578
    nsecs: 208426764
  frame_id: "ti_mmwave"
point_id: 14
x: 2.759765625
y: -0.08984375
z: 0.8984375
range: 3.09396481514
velocity: 0.0
doppler_bin: 8
bearing: -1.86459684372
intensity: 31.225435257
---
header: 
  seq: 909660
  stamp: 
    secs: 1561867578
    nsecs: 208560072
  frame_id: "ti_mmwave"
point_id: 15
x: 0.009765625
y: 0.03125
z: 0.025390625
range: 0.0435769706964
velocity: 0.0
doppler_bin: 8
bearing: 72.6459732056
intensity: 29.2788333893
---
header: 
  seq: 909661
  stamp: 
    secs: 1561867578
    nsecs: 208571813
  frame_id: "ti_mmwave"
point_id: 16
x: 0.041015625
y: -0.033203125
z: 0.0625
range: 0.0871539413929
velocity: 0.0
doppler_bin: 8
bearing: -38.9909973145
intensity: 30.0902576447
---
header: 
  seq: 909662
  stamp: 
    secs: 1561867578
    nsecs: 208580152
  frame_id: "ti_mmwave"
point_id: 17
x: 0.044921875
y: -0.046875
z: 0.103515625
range: 0.130730912089
velocity: 0.0
doppler_bin: 8
bearing: -46.218875885
intensity: 28.9982051849
---
header: 
  seq: 909663
  stamp: 
    secs: 1561867578
    nsecs: 266718466
  frame_id: "ti_mmwave"
point_id: 0
x: 0.01171875
y: -0.0390625
z: -0.0078125
range: 0.0435769706964
velocity: 0.0
doppler_bin: 8
bearing: -73.3007583618
intensity: 30.6445808411
---
header: 
  seq: 909664
  stamp: 
    secs: 1561867578
    nsecs: 266819775
  frame_id: "ti_mmwave"
point_id: 1
x: 0.017578125
y: -0.080078125
z: -0.0078125
range: 0.0871539413929
velocity: 0.0
doppler_bin: 8
bearing: -77.6192398071
intensity: 31.9005146027
---
header: 
  seq: 909665
  stamp: 
    secs: 1561867578
    nsecs: 266831358
  frame_id: "ti_mmwave"
point_id: 2
x: 0.029296875
y: -0.119140625
z: -0.005859375
range: 0.130730912089
velocity: 0.0
doppler_bin: 8
bearing: -76.1849746704
intensity: 30.1199302673
---
header: 
  seq: 909666
  stamp: 
    secs: 1561867578
    nsecs: 266842566
  frame_id: "ti_mmwave"
point_id: 3
x: 0.056640625
y: -0.154296875
z: 0.005859375
range: 0.174307882786
velocity: 0.0
doppler_bin: 8
bearing: -69.8423843384
intensity: 25.4406795502
---
header: 
  seq: 909667
  stamp: 
    secs: 1561867578
    nsecs: 266852775
  frame_id: "ti_mmwave"
point_id: 4
x: 0.142578125
y: -0.080078125
z: 1.2578125
range: 1.35088610649
velocity: 0.0
doppler_bin: 8
bearing: -29.3204746246
intensity: 23.0963020325
---
header: 
  seq: 909668
  stamp: 
    secs: 1561867578
    nsecs: 266861167
  frame_id: "ti_mmwave"
point_id: 5
x: 0.109375
y: -0.08203125
z: 1.302734375
range: 1.39446306229
velocity: 0.0
doppler_bin: 8
bearing: -36.8698959351
intensity: 24.6089782715
---
header: 
  seq: 909669
  stamp: 
    secs: 1561867578
    nsecs: 266869186
  frame_id: "ti_mmwave"
point_id: 6
x: 0.39453125
y: -0.083984375
z: -1.287109375
range: 1.43804001808
velocity: 0.0
doppler_bin: 8
bearing: -12.0172519684
intensity: 23.0749607086
---
header: 
  seq: 909670
  stamp: 
    secs: 1561867578
    nsecs: 266878152
  frame_id: "ti_mmwave"
point_id: 7
x: 1.703125
y: -0.052734375
z: -0.2265625
range: 1.83023273945
velocity: 0.0
doppler_bin: 8
bearing: -1.77350008488
intensity: 28.8536128998
---
header: 
  seq: 909671
  stamp: 
    secs: 1561867578
    nsecs: 266886858
  frame_id: "ti_mmwave"
point_id: 8
x: 1.748046875
y: -0.0
z: -0.201171875
range: 1.87380969524
velocity: 0.0
doppler_bin: 8
bearing: -0.0
intensity: 30.979511261
---
header: 
  seq: 909672
  stamp: 
    secs: 1561867578
    nsecs: 266896595
  frame_id: "ti_mmwave"
point_id: 9
x: 1.791015625
y: -0.056640625
z: -0.16015625
range: 1.91738677025
velocity: 0.0
doppler_bin: 8
bearing: -1.81136763096
intensity: 30.1870040894
---
header: 
  seq: 909673
  stamp: 
    secs: 1561867578
    nsecs: 266908051
  frame_id: "ti_mmwave"
point_id: 10
x: 1.82421875
y: -0.115234375
z: -0.2109375
range: 1.96096372604
velocity: 0.0
doppler_bin: 8
bearing: -3.61452412605
intensity: 26.2013607025
---
header: 
  seq: 909674
  stamp: 
    secs: 1561867578
    nsecs: 266916735
  frame_id: "ti_mmwave"
point_id: 11
x: 2.595703125
y: -0.17578125
z: 1.095703125
range: 3.00681090355
velocity: 0.0
doppler_bin: 8
bearing: -3.87416052818
intensity: 29.0417442322
---
header: 
  seq: 909675
  stamp: 
    secs: 1561867578
    nsecs: 266925758
  frame_id: "ti_mmwave"
point_id: 12
x: 2.681640625
y: -0.08984375
z: 1.0
range: 3.05038785934
velocity: 0.0
doppler_bin: 8
bearing: -1.91887867451
intensity: 32.2089233398
---
header: 
  seq: 909676
  stamp: 
    secs: 1561867578
    nsecs: 266933815
  frame_id: "ti_mmwave"
point_id: 13
x: 2.767578125
y: -0.0
z: 0.87890625
range: 3.09396481514
velocity: 0.0
doppler_bin: 8
bearing: -0.0
intensity: 31.1561050415
---
header: 
  seq: 909677
  stamp: 
    secs: 1561867578
    nsecs: 266941834
  frame_id: "ti_mmwave"
point_id: 14
x: 0.009765625
y: 0.03125
z: 0.025390625
range: 0.0435769706964
velocity: 0.0
doppler_bin: 8
bearing: 72.6459732056
intensity: 29.2788333893
---
header: 
  seq: 909678
  stamp: 
    secs: 1561867578
    nsecs: 266964281
  frame_id: "ti_mmwave"
point_id: 15
x: 0.041015625
y: -0.033203125
z: 0.0625
range: 0.0871539413929
velocity: 0.0
doppler_bin: 8
bearing: -38.9909973145
intensity: 30.0902576447
---
header: 
  seq: 909679
  stamp: 
    secs: 1561867578
    nsecs: 266978054
  frame_id: "ti_mmwave"
point_id: 16
x: 0.044921875
y: -0.046875
z: 0.103515625
range: 0.130730912089
velocity: 0.0
doppler_bin: 8
bearing: -46.218875885
intensity: 29.0036716461
---
header: 
  seq: 909680
  stamp: 
    secs: 1561867578
    nsecs: 266989990
  frame_id: "ti_mmwave"
point_id: 18
x: 2.7265625
y: -0.181640625
z: 0.984375
range: 3.09396481514
velocity: 0.0
doppler_bin: 8
bearing: -3.81135106087
intensity: 31.1461105347
---
header: 
  seq: 909681
  stamp: 
    secs: 1561867578
    nsecs: 267827244
  frame_id: "ti_mmwave"
point_id: 0
x: 0.01171875
y: -0.0390625
z: -0.0078125
range: 0.0435769706964
velocity: 0.0
doppler_bin: 8
bearing: -73.3007583618
intensity: 30.6408348083
---
header: 
  seq: 909682
  stamp: 
    secs: 1561867578
    nsecs: 267902864
  frame_id: "ti_mmwave"
point_id: 1
x: 0.017578125
y: -0.080078125
z: -0.0078125
range: 0.0871539413929
velocity: 0.0
doppler_bin: 8
bearing: -77.6192398071
intensity: 31.8977088928
---
header: 
  seq: 909683
  stamp: 
    secs: 1561867578
    nsecs: 267919551
  frame_id: "ti_mmwave"
point_id: 2
x: 0.029296875
y: -0.119140625
z: -0.005859375
range: 0.130730912089
velocity: 0.0
doppler_bin: 8
bearing: -76.1849746704
intensity: 30.1157035828
---
header: 
  seq: 909684
  stamp: 
    secs: 1561867578
    nsecs: 267932621
  frame_id: "ti_mmwave"
point_id: 3
x: 0.056640625
y: -0.154296875
z: 0.005859375
range: 0.174307882786
velocity: 0.0
doppler_bin: 8
bearing: -69.8423843384
intensity: 25.4406795502
---
header: 
  seq: 909685
  stamp: 
    secs: 1561867578
    nsecs: 268042187
  frame_id: "ti_mmwave"
point_id: 4
x: 0.154296875
y: -0.080078125
z: 1.255859375
range: 1.35088610649
velocity: 0.0
doppler_bin: 8
bearing: -27.4287414551
intensity: 23.1597042084
---
header: 
  seq: 909686
  stamp: 
    secs: 1561867578
    nsecs: 268064096
  frame_id: "ti_mmwave"
point_id: 6
x: 0.404296875
y: -0.083984375
z: -1.28515625
range: 1.43804001808
velocity: 0.0
doppler_bin: 8
bearing: -11.7351255417
intensity: 23.0963020325
---
header: 
  seq: 909687
  stamp: 
    secs: 1561867578
    nsecs: 268074283
  frame_id: "ti_mmwave"
point_id: 7
x: 0.55859375
y: -0.04296875
z: -1.2734375
range: 1.48161697388
velocity: 0.0
doppler_bin: 8
bearing: -4.39870548248
intensity: 21.7026176453
---
header: 
  seq: 909688
  stamp: 
    secs: 1561867578
    nsecs: 268093954
  frame_id: "ti_mmwave"
point_id: 8
x: 1.712890625
y: 0.052734375
z: -0.11328125
range: 1.83023273945
velocity: 0.0
doppler_bin: 8
bearing: 1.76339519024
intensity: 28.4941940308
---
header: 
  seq: 909689
  stamp: 
    secs: 1561867578
    nsecs: 268152016
  frame_id: "ti_mmwave"
point_id: 9
x: 1.7578125
y: -0.0
z: -0.078125
range: 1.87380969524
velocity: 0.0
doppler_bin: 8
bearing: -0.0
intensity: 31.894903183
---
header: 
  seq: 909690
  stamp: 
    secs: 1561867578
    nsecs: 268166821
  frame_id: "ti_mmwave"
point_id: 10
x: 1.796875
y: 0.056640625
z: -0.099609375
range: 1.91738677025
velocity: 0.0
doppler_bin: 8
bearing: 1.80546462536
intensity: 31.8298492432
---
header: 
  seq: 909691
  stamp: 
    secs: 1561867578
    nsecs: 268178249
  frame_id: "ti_mmwave"
point_id: 11
x: 1.83984375
y: -0.0
z: -0.07421875
range: 1.96096372604
velocity: 0.0
doppler_bin: 8
bearing: -0.0
intensity: 27.9934062958
---
header: 
  seq: 909692
  stamp: 
    secs: 1561867578
    nsecs: 268189366
  frame_id: "ti_mmwave"
point_id: 12
x: 2.623046875
y: -0.17578125
z: 1.025390625
range: 3.00681090355
velocity: 0.0
doppler_bin: 8
bearing: -3.83389568329
intensity: 29.0687351227
---
header: 
  seq: 909693
  stamp: 
    secs: 1561867578
    nsecs: 268201100
  frame_id: "ti_mmwave"
point_id: 13
x: 2.66015625
y: -0.1796875
z: 1.04296875
range: 3.05038785934
velocity: 0.0
doppler_bin: 8
bearing: -3.86432933807
intensity: 32.1984634399
---
header: 
  seq: 909694
  stamp: 
    secs: 1561867578
    nsecs: 268214663
  frame_id: "ti_mmwave"
point_id: 14
x: 2.75390625
y: -0.08984375
z: 0.91796875
range: 3.09396481514
velocity: 0.0
doppler_bin: 8
bearing: -1.86856126785
intensity: 31.1427726746
---
header: 
  seq: 909695
  stamp: 
    secs: 1561867578
    nsecs: 268227079
  frame_id: "ti_mmwave"
point_id: 15
x: 0.009765625
y: 0.03125
z: 0.025390625
range: 0.0435769706964
velocity: 0.0
doppler_bin: 8
bearing: 72.6459732056
intensity: 29.2788333893
---
header: 
  seq: 909696
  stamp: 
    secs: 1561867578
    nsecs: 268286062
  frame_id: "ti_mmwave"
point_id: 16
x: 0.041015625
y: -0.033203125
z: 0.0625
range: 0.0871539413929
velocity: 0.0
doppler_bin: 8
bearing: -38.9909973145
intensity: 30.0860023499
---
header: 
  seq: 909697
  stamp: 
    secs: 1561867578
    nsecs: 268300162
  frame_id: "ti_mmwave"
point_id: 17
x: 0.046875
y: -0.046875
z: 0.103515625
range: 0.130730912089
velocity: 0.0
doppler_bin: 8
bearing: -45.0
intensity: 28.9927310944
---
header: 
  seq: 909698
  stamp: 
    secs: 1561867578
    nsecs: 326819251
  frame_id: "ti_mmwave"
point_id: 0
x: 0.01171875
y: -0.0390625
z: -0.0078125
range: 0.0435769706964
velocity: 0.0
doppler_bin: 8
bearing: -73.3007583618
intensity: 30.6370849609
---
header: 
  seq: 909699
  stamp: 
    secs: 1561867578
    nsecs: 326893052
  frame_id: "ti_mmwave"
point_id: 1
x: 0.017578125
y: -0.080078125
z: -0.0078125
range: 0.0871539413929
velocity: 0.0
doppler_bin: 8
bearing: -77.6192398071
intensity: 31.894903183
---
header: 
  seq: 909700
  stamp: 
    secs: 1561867578
    nsecs: 326904113
  frame_id: "ti_mmwave"
point_id: 2
x: 0.029296875
y: -0.119140625
z: -0.005859375
range: 0.130730912089
velocity: 0.0
doppler_bin: 8
bearing: -76.1849746704
intensity: 30.1114730835
---
header: 
  seq: 909701
  stamp: 
    secs: 1561867578
    nsecs: 326913321
  frame_id: "ti_mmwave"
point_id: 3
x: 0.056640625
y: -0.154296875
z: 0.0078125
range: 0.174307882786
velocity: 0.0
doppler_bin: 8
bearing: -69.8423843384
intensity: 25.4406795502
---
header: 
  seq: 909702
  stamp: 
    secs: 1561867578
    nsecs: 326923710
  frame_id: "ti_mmwave"
point_id: 4
x: 0.2109375
y: -0.080078125
z: 1.248046875
range: 1.35088610649
velocity: 0.0
doppler_bin: 8
bearing: -20.7882461548
intensity: 23.0535144806
---
header: 
  seq: 909703
  stamp: 
    secs: 1561867578
    nsecs: 326932580
  frame_id: "ti_mmwave"
point_id: 5
x: 0.1171875
y: -0.08203125
z: 1.30078125
range: 1.39446306229
velocity: 0.0
doppler_bin: 8
bearing: -34.9920196533
intensity: 24.6089782715
---
header: 
  seq: 909704
  stamp: 
    secs: 1561867578
    nsecs: 326940807
  frame_id: "ti_mmwave"
point_id: 6
x: 0.40234375
y: -0.083984375
z: -1.28515625
range: 1.43804001808
velocity: 0.0
doppler_bin: 8
bearing: -11.7905015945
intensity: 23.1175384521
---
header: 
  seq: 909705
  stamp: 
    secs: 1561867578
    nsecs: 326949594
  frame_id: "ti_mmwave"
point_id: 7
x: 0.56640625
y: -0.04296875
z: -1.26953125
range: 1.48161697388
velocity: 0.0
doppler_bin: 8
bearing: -4.33826684952
intensity: 21.7318630219
---
header: 
  seq: 909706
  stamp: 
    secs: 1561867578
    nsecs: 326959059
  frame_id: "ti_mmwave"
point_id: 8
x: 1.716796875
y: -0.052734375
z: 0.0234375
range: 1.83023273945
velocity: 0.0
doppler_bin: 8
bearing: -1.75938534737
intensity: 31.1461105347
---
header: 
  seq: 909707
  stamp: 
    secs: 1561867578
    nsecs: 326967500
  frame_id: "ti_mmwave"
point_id: 9
x: 1.7578125
y: -0.0546875
z: -0.05859375
range: 1.87380969524
velocity: 0.0
doppler_bin: 8
bearing: -1.78196060658
intensity: 34.1111450195
---
header: 
  seq: 909708
  stamp: 
    secs: 1561867578
    nsecs: 326976199
  frame_id: "ti_mmwave"
point_id: 10
x: 1.796875
y: -0.0
z: -0.11328125
range: 1.91738677025
velocity: 0.0
doppler_bin: 8
bearing: -0.0
intensity: 33.6660957336
---
header: 
  seq: 909709
  stamp: 
    secs: 1561867578
    nsecs: 326986538
  frame_id: "ti_mmwave"
point_id: 11
x: 1.833984375
y: -0.0
z: -0.162109375
range: 1.96096372604
velocity: 0.0
doppler_bin: 8
bearing: -0.0
intensity: 29.7635002136
---
header: 
  seq: 909710
  stamp: 
    secs: 1561867578
    nsecs: 326995328
  frame_id: "ti_mmwave"
point_id: 12
x: 2.6171875
y: -0.17578125
z: 1.041015625
range: 3.00681090355
velocity: 0.0
doppler_bin: 8
bearing: -3.84245300293
intensity: 29.0363254547
---
header: 
  seq: 909711
  stamp: 
    secs: 1561867578
    nsecs: 327003822
  frame_id: "ti_mmwave"
point_id: 13
x: 2.689453125
y: -0.08984375
z: 0.978515625
range: 3.05038785934
velocity: 0.0
doppler_bin: 8
bearing: -1.91330885887
intensity: 32.2219619751
---
header: 
  seq: 909712
  stamp: 
    secs: 1561867578
    nsecs: 327015621
  frame_id: "ti_mmwave"
point_id: 14
x: 2.751953125
y: -0.08984375
z: 0.92578125
range: 3.09396481514
velocity: 0.0
doppler_bin: 8
bearing: -1.86988639832
intensity: 31.2287101746
---
header: 
  seq: 909713
  stamp: 
    secs: 1561867578
    nsecs: 327171579
  frame_id: "ti_mmwave"
point_id: 15
x: 4.40234375
y: -0.142578125
z: 1.2578125
range: 4.88062095642
velocity: 0.0
doppler_bin: 8
bearing: -1.85498249531
intensity: 28.182258606
---
header: 
  seq: 909714
  stamp: 
    secs: 1561867578
    nsecs: 327194859
  frame_id: "ti_mmwave"
point_id: 17
x: 0.041015625
y: -0.033203125
z: 0.0625
range: 0.0871539413929
velocity: 0.0
doppler_bin: 8
bearing: -38.9909973145
intensity: 30.0860023499
---
header: 
  seq: 909715
  stamp: 
    secs: 1561867578
    nsecs: 327203364
  frame_id: "ti_mmwave"
point_id: 18
x: 0.044921875
y: -0.046875
z: 0.103515625
range: 0.130730912089
velocity: 0.0
doppler_bin: 8
bearing: -46.218875885
intensity: 28.9982051849
---
header: 
  seq: 909716
  stamp: 
    secs: 1561867578
    nsecs: 386494360
  frame_id: "ti_mmwave"
point_id: 0
x: 0.01171875
y: -0.0390625
z: -0.0078125
range: 0.0435769706964
velocity: 0.0
doppler_bin: 8
bearing: -73.3007583618
intensity: 30.6520614624
---
header: 
  seq: 909717
  stamp: 
    secs: 1561867578
    nsecs: 386559547
  frame_id: "ti_mmwave"
point_id: 1
x: 0.017578125
y: -0.080078125
z: -0.0078125
range: 0.0871539413929
velocity: 0.0
doppler_bin: 8
bearing: -77.6192398071
intensity: 31.8977088928
---
header: 
  seq: 909718
  stamp: 
    secs: 1561867578
    nsecs: 386569781
  frame_id: "ti_mmwave"
point_id: 2
x: 0.029296875
y: -0.119140625
z: -0.005859375
range: 0.130730912089
velocity: 0.0
doppler_bin: 8
bearing: -76.1849746704
intensity: 30.1157035828
---
header: 
  seq: 909719
  stamp: 
    secs: 1561867578
    nsecs: 386578132
  frame_id: "ti_mmwave"
point_id: 3
x: 0.056640625
y: -0.154296875
z: 0.005859375
range: 0.174307882786
velocity: 0.0
doppler_bin: 8
bearing: -69.8423843384
intensity: 25.4406795502
---
header: 
  seq: 909720
  stamp: 
    secs: 1561867578
    nsecs: 386587122
  frame_id: "ti_mmwave"
point_id: 4
x: 0.158203125
y: -0.080078125
z: 1.255859375
range: 1.35088610649
velocity: 0.0
doppler_bin: 8
bearing: -26.8472938538
intensity: 23.0963020325
---
header: 
  seq: 909721
  stamp: 
    secs: 1561867578
    nsecs: 386595334
  frame_id: "ti_mmwave"
point_id: 5
x: 0.060546875
y: -0.08203125
z: 1.3046875
range: 1.39446306229
velocity: 0.0
doppler_bin: 8
bearing: -53.5691413879
intensity: 24.6239795685
---
header: 
  seq: 909722
  stamp: 
    secs: 1561867578
    nsecs: 386606382
  frame_id: "ti_mmwave"
point_id: 6
x: 0.41796875
y: -0.083984375
z: -1.28125
range: 1.43804001808
velocity: 0.0
doppler_bin: 8
bearing: -11.3614110947
intensity: 23.0749607086
---
header: 
  seq: 909723
  stamp: 
    secs: 1561867578
    nsecs: 386614448
  frame_id: "ti_mmwave"
point_id: 7
x: 0.57421875
y: -0.04296875
z: -1.265625
range: 1.48161697388
velocity: 0.0
doppler_bin: 8
bearing: -4.27946329117
intensity: 21.7026176453
---
header: 
  seq: 909724
  stamp: 
    secs: 1561867578
    nsecs: 386623035
  frame_id: "ti_mmwave"
point_id: 8
x: 1.708984375
y: -0.0
z: -0.16796875
range: 1.83023273945
velocity: 0.0
doppler_bin: 8
bearing: -0.0
intensity: 30.3302135468
---
header: 
  seq: 909725
  stamp: 
    secs: 1561867578
    nsecs: 386631683
  frame_id: "ti_mmwave"
point_id: 9
x: 1.755859375
y: -0.0546875
z: -0.076171875
range: 1.87380969524
velocity: 0.0
doppler_bin: 8
bearing: -1.78394150734
intensity: 32.8936576843
---
header: 
  seq: 909726
  stamp: 
    secs: 1561867578
    nsecs: 386642323
  frame_id: "ti_mmwave"
point_id: 10
x: 1.798828125
y: -0.0
z: -0.03515625
range: 1.91738677025
velocity: 0.0
doppler_bin: 8
bearing: -0.0
intensity: 31.7638072968
---
header: 
  seq: 909727
  stamp: 
    secs: 1561867578
    nsecs: 386650542
  frame_id: "ti_mmwave"
point_id: 11
x: 1.837890625
y: 0.056640625
z: -0.099609375
range: 1.96096372604
velocity: 0.0
doppler_bin: 8
bearing: 1.76519858837
intensity: 26.9722938538
---
header: 
  seq: 909728
  stamp: 
    secs: 1561867578
    nsecs: 386658928
  frame_id: "ti_mmwave"
point_id: 12
x: 2.61328125
y: -0.17578125
z: 1.05078125
range: 3.00681090355
velocity: 0.0
doppler_bin: 8
bearing: -3.84817934036
intensity: 28.9707698822
---
header: 
  seq: 909729
  stamp: 
    secs: 1561867578
    nsecs: 386668112
  frame_id: "ti_mmwave"
point_id: 13
x: 2.65234375
y: -0.1796875
z: 1.0625
range: 3.05038785934
velocity: 0.0
doppler_bin: 8
bearing: -3.87567687035
intensity: 32.1431388855
---
header: 
  seq: 909730
  stamp: 
    secs: 1561867578
    nsecs: 386677240
  frame_id: "ti_mmwave"
point_id: 14
x: 2.744140625
y: -0.08984375
z: 0.9453125
range: 3.09396481514
velocity: 0.0
doppler_bin: 8
bearing: -1.87520623207
intensity: 31.1427726746
---
header: 
  seq: 909731
  stamp: 
    secs: 1561867578
    nsecs: 386685566
  frame_id: "ti_mmwave"
point_id: 15
x: 4.400390625
y: -0.287109375
z: 1.2421875
range: 4.88062095642
velocity: 0.0
doppler_bin: 8
bearing: -3.73304843903
intensity: 31.1859531403
---
header: 
  seq: 909732
  stamp: 
    secs: 1561867578
    nsecs: 386705709
  frame_id: "ti_mmwave"
point_id: 16
x: 4.44921875
y: -0.14453125
z: 1.2421875
range: 4.9241976738
velocity: 0.0
doppler_bin: 8
bearing: -1.86057829857
intensity: 31.0174713135
---
header: 
  seq: 909733
  stamp: 
    secs: 1561867578
    nsecs: 386718198
  frame_id: "ti_mmwave"
point_id: 18
x: 0.041015625
y: -0.033203125
z: 0.0625
range: 0.0871539413929
velocity: 0.0
doppler_bin: 8
bearing: -38.9909973145
intensity: 30.0860023499
---
header: 
  seq: 909734
  stamp: 
    secs: 1561867578
    nsecs: 386868391
  frame_id: "ti_mmwave"
point_id: 19
x: 0.044921875
y: -0.046875
z: 0.103515625
range: 0.130730912089
velocity: 0.0
doppler_bin: 8
bearing: -46.218875885
intensity: 28.9982051849
---
header: 
  seq: 909735
  stamp: 
    secs: 1561867578
    nsecs: 388026990
  frame_id: "ti_mmwave"
point_id: 0
x: 0.01171875
y: -0.0390625
z: -0.0078125
range: 0.0435769706964
velocity: 0.0
doppler_bin: 8
bearing: -73.3007583618
intensity: 30.6483230591
---
header: 
  seq: 909736
  stamp: 
    secs: 1561867578
    nsecs: 388075960
  frame_id: "ti_mmwave"
point_id: 1
x: 0.017578125
y: -0.080078125
z: -0.0078125
range: 0.0871539413929
velocity: 0.0
doppler_bin: 8
bearing: -77.6192398071
intensity: 31.9005146027
---
header: 
  seq: 909737
  stamp: 
    secs: 1561867578
    nsecs: 388086919
  frame_id: "ti_mmwave"
point_id: 2
x: 0.029296875
y: -0.119140625
z: -0.005859375
range: 0.130730912089
velocity: 0.0
doppler_bin: 8
bearing: -76.1849746704
intensity: 30.1199302673
---
header: 
  seq: 909738
  stamp: 
    secs: 1561867578
    nsecs: 388095744
  frame_id: "ti_mmwave"
point_id: 3
x: 0.056640625
y: -0.154296875
z: 0.005859375
range: 0.174307882786
velocity: 0.0
doppler_bin: 8
bearing: -69.8423843384
intensity: 25.4530715942
---
header: 
  seq: 909739
  stamp: 
    secs: 1561867578
    nsecs: 388112429
  frame_id: "ti_mmwave"
point_id: 4
x: 0.154296875
y: -0.080078125
z: 1.255859375
range: 1.35088610649
velocity: 0.0
doppler_bin: 8
bearing: -27.4287414551
intensity: 23.1597042084
---
header: 
  seq: 909740
  stamp: 
    secs: 1561867578
    nsecs: 388125948
  frame_id: "ti_mmwave"
point_id: 5
x: 0.03125
y: -0.08203125
z: 1.306640625
range: 1.39446306229
velocity: 0.0
doppler_bin: 8
bearing: -69.1455459595
intensity: 24.6389293671
---
header: 
  seq: 909741
  stamp: 
    secs: 1561867578
    nsecs: 388139399
  frame_id: "ti_mmwave"
point_id: 6
x: 0.392578125
y: -0.083984375
z: -1.2890625
range: 1.43804001808
velocity: 0.0
doppler_bin: 8
bearing: -12.0752887726
intensity: 23.0963020325
---
header: 
  seq: 909742
  stamp: 
    secs: 1561867578
    nsecs: 388154862
  frame_id: "ti_mmwave"
point_id: 7
x: 0.564453125
y: -0.04296875
z: -1.26953125
range: 1.48161697388
velocity: 0.0
doppler_bin: 8
bearing: -4.35321998596
intensity: 21.7026176453
---
header: 
  seq: 909743
  stamp: 
    secs: 1561867578
    nsecs: 388169077
  frame_id: "ti_mmwave"
point_id: 8
x: 1.6640625
y: -0.0
z: -0.203125
range: 1.78665578365
velocity: 0.0
doppler_bin: 8
bearing: -0.0
intensity: 26.812412262
---
header: 
  seq: 909744
  stamp: 
    secs: 1561867578
    nsecs: 388182410
  frame_id: "ti_mmwave"
point_id: 9
x: 1.69921875
y: -0.052734375
z: -0.24609375
range: 1.83023273945
velocity: 0.0
doppler_bin: 8
bearing: -1.77757430077
intensity: 32.3019332886
---
header: 
  seq: 909745
  stamp: 
    secs: 1561867578
    nsecs: 388195531
  frame_id: "ti_mmwave"
point_id: 10
x: 1.7421875
y: -0.0546875
z: -0.23046875
range: 1.87380969524
velocity: 0.0
doppler_bin: 8
bearing: -1.79793179035
intensity: 33.793056488
---
header: 
  seq: 909746
  stamp: 
    secs: 1561867578
    nsecs: 388208561
  frame_id: "ti_mmwave"
point_id: 11
x: 1.7890625
y: -0.056640625
z: -0.18359375
range: 1.91738677025
velocity: 0.0
doppler_bin: 8
bearing: -1.81334352493
intensity: 31.4488544464
---
header: 
  seq: 909747
  stamp: 
    secs: 1561867578
    nsecs: 388221537
  frame_id: "ti_mmwave"
point_id: 12
x: 2.62890625
y: -0.17578125
z: 1.01171875
range: 3.00681090355
velocity: 0.0
doppler_bin: 8
bearing: -3.82537555695
intensity: 28.9872512817
---
header: 
  seq: 909748
  stamp: 
    secs: 1561867578
    nsecs: 388234761
  frame_id: "ti_mmwave"
point_id: 13
x: 2.697265625
y: -0.08984375
z: 0.95703125
range: 3.05038785934
velocity: 0.0
doppler_bin: 8
bearing: -1.90777087212
intensity: 32.1722068787
---
header: 
  seq: 909749
  stamp: 
    secs: 1561867578
    nsecs: 388249077
  frame_id: "ti_mmwave"
point_id: 14
x: 2.744140625
y: -0.181640625
z: 0.931640625
range: 3.09396481514
velocity: 0.0
doppler_bin: 8
bearing: -3.78700780869
intensity: 31.1294002533
---
header: 
  seq: 909750
  stamp: 
    secs: 1561867578
    nsecs: 388262065
  frame_id: "ti_mmwave"
point_id: 15
x: 4.3984375
y: -0.142578125
z: 1.1171875
range: 4.83704376221
velocity: 0.0
doppler_bin: 8
bearing: -1.8566287756
intensity: 28.1023254395
---
header: 
  seq: 909751
  stamp: 
    secs: 1561867578
    nsecs: 388275698
  frame_id: "ti_mmwave"
point_id: 16
x: 4.40234375
y: -0.142578125
z: 1.263671875
range: 4.88062095642
velocity: 0.0
doppler_bin: 8
bearing: -1.85498249531
intensity: 31.2483005524
---
header: 
  seq: 909752
  stamp: 
    secs: 1561867578
    nsecs: 388289077
  frame_id: "ti_mmwave"
point_id: 17
x: 4.431640625
y: -0.14453125
z: 1.30859375
range: 4.9241976738
velocity: 0.0
doppler_bin: 8
bearing: -1.86795306206
intensity: 30.8026561737
---
header: 
  seq: 909753
  stamp: 
    secs: 1561867578
    nsecs: 388304656
  frame_id: "ti_mmwave"
point_id: 19
x: 0.041015625
y: -0.033203125
z: 0.0625
range: 0.0871539413929
velocity: 0.0
doppler_bin: 8
bearing: -38.9909973145
intensity: 30.0860023499
---
header: 
  seq: 909754
  stamp: 
    secs: 1561867578
    nsecs: 388363156
  frame_id: "ti_mmwave"
point_id: 20
x: 0.046875
y: -0.046875
z: 0.103515625
range: 0.130730912089
velocity: 0.0
doppler_bin: 8
bearing: -45.0
intensity: 28.9982051849
---
header: 
  seq: 909755
  stamp: 
    secs: 1561867578
    nsecs: 388375186
  frame_id: "ti_mmwave"
point_id: 22
x: 2.783203125
y: -0.0
z: 0.830078125
range: 3.09396481514
velocity: 0.0
doppler_bin: 8
bearing: -0.0
intensity: 31.1025295258
---
header: 
  seq: 909756
  stamp: 
    secs: 1561867578
    nsecs: 446666472
  frame_id: "ti_mmwave"
point_id: 0
x: 0.01171875
y: -0.0390625
z: -0.0078125
range: 0.0435769706964
velocity: 0.0
doppler_bin: 8
bearing: -73.3007583618
intensity: 30.6483230591
---
header: 
  seq: 909757
  stamp: 
    secs: 1561867578
    nsecs: 446760780
  frame_id: "ti_mmwave"
point_id: 1
x: 0.017578125
y: -0.080078125
z: -0.0078125
range: 0.0871539413929
velocity: 0.0
doppler_bin: 8
bearing: -77.6192398071
intensity: 31.9005146027
---
header: 
  seq: 909758
  stamp: 
    secs: 1561867578
    nsecs: 446777398
  frame_id: "ti_mmwave"
point_id: 2
x: 0.029296875
y: -0.119140625
z: -0.005859375
range: 0.130730912089
velocity: 0.0
doppler_bin: 8
bearing: -76.1849746704
intensity: 30.1199302673
---
header: 
  seq: 909759
  stamp: 
    secs: 1561867578
    nsecs: 446812481
  frame_id: "ti_mmwave"
point_id: 3
x: 0.056640625
y: -0.154296875
z: 0.005859375
range: 0.174307882786
velocity: 0.0
doppler_bin: 8
bearing: -69.8423843384
intensity: 25.4406795502
---
header: 
  seq: 909760
  stamp: 
    secs: 1561867578
    nsecs: 446843120
  frame_id: "ti_mmwave"
point_id: 4
x: 0.146484375
y: -0.080078125
z: 1.2578125
range: 1.35088610649
velocity: 0.0
doppler_bin: 8
bearing: -28.6639575958
intensity: 23.0963020325
---
header: 
  seq: 909761
  stamp: 
    secs: 1561867578
    nsecs: 446860605
  frame_id: "ti_mmwave"
point_id: 6
x: 0.41015625
y: -0.083984375
z: -1.283203125
range: 1.43804001808
velocity: 0.0
doppler_bin: 8
bearing: -11.5720338821
intensity: 23.0963020325
---
header: 
  seq: 909762
  stamp: 
    secs: 1561867578
    nsecs: 446888912
  frame_id: "ti_mmwave"
point_id: 7
x: 0.556640625
y: -0.04296875
z: -1.2734375
range: 1.48161697388
velocity: 0.0
doppler_bin: 8
bearing: -4.41407871246
intensity: 21.7897701263
---
header: 
  seq: 909763
  stamp: 
    secs: 1561867578
    nsecs: 446910910
  frame_id: "ti_mmwave"
point_id: 8
x: 1.689453125
y: -0.052734375
z: -0.306640625
range: 1.83023273945
velocity: 0.0
doppler_bin: 8
bearing: -1.78784263134
intensity: 29.9166908264
---
header: 
  seq: 909764
  stamp: 
    secs: 1561867578
    nsecs: 446929841
  frame_id: "ti_mmwave"
point_id: 9
x: 1.736328125
y: -0.0546875
z: -0.275390625
range: 1.87380969524
velocity: 0.0
doppler_bin: 8
bearing: -1.80399513245
intensity: 32.5551376343
---
header: 
  seq: 909765
  stamp: 
    secs: 1561867578
    nsecs: 447022336
  frame_id: "ti_mmwave"
point_id: 10
x: 1.7734375
y: -0.056640625
z: -0.3046875
range: 1.91738677025
velocity: 0.0
doppler_bin: 8
bearing: -1.8293094635
intensity: 31.5866394043
---
header: 
  seq: 909766
  stamp: 
    secs: 1561867578
    nsecs: 447037362
  frame_id: "ti_mmwave"
point_id: 11
x: 1.7890625
y: -0.056640625
z: -0.427734375
range: 1.96096372604
velocity: 0.0
doppler_bin: 8
bearing: -1.81334352493
intensity: 27.201593399
---
header: 
  seq: 909767
  stamp: 
    secs: 1561867578
    nsecs: 447050355
  frame_id: "ti_mmwave"
point_id: 12
x: 2.607421875
y: -0.17578125
z: 1.068359375
range: 3.00681090355
velocity: 0.0
doppler_bin: 8
bearing: -3.8568007946
intensity: 29.0091304779
---
header: 
  seq: 909768
  stamp: 
    secs: 1561867578
    nsecs: 447063195
  frame_id: "ti_mmwave"
point_id: 13
x: 2.65625
y: -0.1796875
z: 1.0546875
range: 3.05038785934
velocity: 0.0
doppler_bin: 8
bearing: -3.86999511719
intensity: 32.156375885
---
header: 
  seq: 909769
  stamp: 
    secs: 1561867578
    nsecs: 447076370
  frame_id: "ti_mmwave"
point_id: 14
x: 2.751953125
y: -0.08984375
z: 0.923828125
range: 3.09396481514
velocity: 0.0
doppler_bin: 8
bearing: -1.86988639832
intensity: 31.1793384552
---
header: 
  seq: 909770
  stamp: 
    secs: 1561867578
    nsecs: 447089868
  frame_id: "ti_mmwave"
point_id: 15
x: 4.38671875
y: -0.283203125
z: 1.138671875
range: 4.83704376221
velocity: 0.0
doppler_bin: 8
bearing: -3.69384431839
intensity: 28.2994670868
---
header: 
  seq: 909771
  stamp: 
    secs: 1561867578
    nsecs: 447110245
  frame_id: "ti_mmwave"
point_id: 16
x: 4.412109375
y: -0.142578125
z: 1.22265625
range: 4.88062095642
velocity: 0.0
doppler_bin: 8
bearing: -1.85087943077
intensity: 31.5866394043
---
header: 
  seq: 909772
  stamp: 
    secs: 1561867578
    nsecs: 447154495
  frame_id: "ti_mmwave"
point_id: 17
x: 4.44921875
y: -0.14453125
z: 1.248046875
range: 4.9241976738
velocity: 0.0
doppler_bin: 8
bearing: -1.86057829857
intensity: 30.9864368439
---
header: 
  seq: 909773
  stamp: 
    secs: 1561867578
    nsecs: 447172579
  frame_id: "ti_mmwave"
point_id: 18
x: 0.009765625
y: 0.03125
z: 0.025390625
range: 0.0435769706964
velocity: 0.0
doppler_bin: 8
bearing: 72.6459732056
intensity: 29.2839584351
---
header: 
  seq: 909774
  stamp: 
    secs: 1561867578
    nsecs: 447186145
  frame_id: "ti_mmwave"
point_id: 19
x: 0.041015625
y: -0.033203125
z: 0.0625
range: 0.0871539413929
velocity: 0.0
doppler_bin: 8
bearing: -38.9909973145
intensity: 30.0860023499
---
header: 
  seq: 909775
  stamp: 
    secs: 1561867578
    nsecs: 447199688
  frame_id: "ti_mmwave"
point_id: 20
x: 0.044921875
y: -0.046875
z: 0.103515625
range: 0.130730912089
velocity: 0.0
doppler_bin: 8
bearing: -46.218875885
intensity: 28.9982051849
---
header: 
  seq: 909776
  stamp: 
    secs: 1561867578
    nsecs: 448083022
  frame_id: "ti_mmwave"
point_id: 0
x: 0.01171875
y: -0.0390625
z: -0.0078125
range: 0.0435769706964
velocity: 0.0
doppler_bin: 8
bearing: -73.3007583618
intensity: 30.6445808411
---
header: 
  seq: 909777
  stamp: 
    secs: 1561867578
    nsecs: 448143777
  frame_id: "ti_mmwave"
point_id: 1
x: 0.017578125
y: -0.080078125
z: -0.0078125
range: 0.0871539413929
velocity: 0.0
doppler_bin: 8
bearing: -77.6192398071
intensity: 31.8977088928
---
header: 
  seq: 909778
  stamp: 
    secs: 1561867578
    nsecs: 448162542
  frame_id: "ti_mmwave"
point_id: 2
x: 0.029296875
y: -0.119140625
z: -0.005859375
range: 0.130730912089
velocity: 0.0
doppler_bin: 8
bearing: -76.1849746704
intensity: 30.1157035828
---
header: 
  seq: 909779
  stamp: 
    secs: 1561867578
    nsecs: 448176558
  frame_id: "ti_mmwave"
point_id: 3
x: 0.056640625
y: -0.154296875
z: 0.005859375
range: 0.174307882786
velocity: 0.0
doppler_bin: 8
bearing: -69.8423843384
intensity: 25.4406795502
---
header: 
  seq: 909780
  stamp: 
    secs: 1561867578
    nsecs: 448190978
  frame_id: "ti_mmwave"
point_id: 4
x: 0.173828125
y: -0.080078125
z: 1.25390625
range: 1.35088610649
velocity: 0.0
doppler_bin: 8
bearing: -24.7343044281
intensity: 23.1175384521
---
header: 
  seq: 909781
  stamp: 
    secs: 1561867578
    nsecs: 448205279
  frame_id: "ti_mmwave"
point_id: 5
x: 0.083984375
y: -0.08203125
z: 1.3046875
range: 1.39446306229
velocity: 0.0
doppler_bin: 8
bearing: -44.3259658813
intensity: 24.6389293671
---
header: 
  seq: 909782
  stamp: 
    secs: 1561867578
    nsecs: 448217329
  frame_id: "ti_mmwave"
point_id: 6
x: 0.40234375
y: -0.083984375
z: -1.28515625
range: 1.43804001808
velocity: 0.0
doppler_bin: 8
bearing: -11.7905015945
intensity: 23.0963020325
---
header: 
  seq: 909783
  stamp: 
    secs: 1561867578
    nsecs: 448229346
  frame_id: "ti_mmwave"
point_id: 7
x: 0.5625
y: -0.04296875
z: -1.271484375
range: 1.48161697388
velocity: 0.0
doppler_bin: 8
bearing: -4.36827754974
intensity: 21.7026176453
---
header: 
  seq: 909784
  stamp: 
    secs: 1561867578
    nsecs: 448244833
  frame_id: "ti_mmwave"
point_id: 8
x: 1.701171875
y: -0.052734375
z: -0.232421875
range: 1.83023273945
velocity: 0.0
doppler_bin: 8
bearing: -1.77553474903
intensity: 30.696680069
---
header: 
  seq: 909785
  stamp: 
    secs: 1561867578
    nsecs: 448258883
  frame_id: "ti_mmwave"
point_id: 9
x: 1.748046875
y: -0.0
z: -0.203125
range: 1.87380969524
velocity: 0.0
doppler_bin: 8
bearing: -0.0
intensity: 32.4402961731
---
header: 
  seq: 909786
  stamp: 
    secs: 1561867578
    nsecs: 448271068
  frame_id: "ti_mmwave"
point_id: 10
x: 1.794921875
y: -0.0
z: -0.142578125
range: 1.91738677025
velocity: 0.0
doppler_bin: 8
bearing: -0.0
intensity: 30.3181228638
---
header: 
  seq: 909787
  stamp: 
    secs: 1561867578
    nsecs: 448328772
  frame_id: "ti_mmwave"
point_id: 11
x: 2.609375
y: -0.17578125
z: 1.060546875
range: 3.00681090355
velocity: 0.0
doppler_bin: 8
bearing: -3.85392260551
intensity: 28.9376182556
---
header: 
  seq: 909788
  stamp: 
    secs: 1561867578
    nsecs: 448341618
  frame_id: "ti_mmwave"
point_id: 12
x: 2.685546875
y: -0.08984375
z: 0.990234375
range: 3.05038785934
velocity: 0.0
doppler_bin: 8
bearing: -1.91608965397
intensity: 32.1404876709
---
header: 
  seq: 909789
  stamp: 
    secs: 1561867578
    nsecs: 448354878
  frame_id: "ti_mmwave"
point_id: 13
x: 2.748046875
y: -0.08984375
z: 0.935546875
range: 3.09396481514
velocity: 0.0
doppler_bin: 8
bearing: -1.8725425005
intensity: 31.1859531403
---
header: 
  seq: 909790
  stamp: 
    secs: 1561867578
    nsecs: 448366550
  frame_id: "ti_mmwave"
point_id: 14
x: 4.404296875
y: -0.142578125
z: 1.251953125
range: 4.88062095642
velocity: 0.0
doppler_bin: 8
bearing: -1.85416030884
intensity: 31.1092624664
---
header: 
  seq: 909791
  stamp: 
    secs: 1561867578
    nsecs: 448380255
  frame_id: "ti_mmwave"
point_id: 15
x: 4.439453125
y: -0.14453125
z: 1.279296875
range: 4.9241976738
velocity: 0.0
doppler_bin: 8
bearing: -1.86466813087
intensity: 30.6445808411
---
header: 
  seq: 909792
  stamp: 
    secs: 1561867578
    nsecs: 448393445
  frame_id: "ti_mmwave"
point_id: 16
x: 4.900390625
y: -0.30859375
z: 0.619140625
range: 5.27281332016
velocity: 0.0
doppler_bin: 8
bearing: -3.60334610939
intensity: 30.700378418
---
header: 
  seq: 909793
  stamp: 
    secs: 1561867578
    nsecs: 448405294
  frame_id: "ti_mmwave"
point_id: 17
x: 4.96875
y: -0.46875
z: 0.06640625
range: 5.31639051437
velocity: 0.0
doppler_bin: 8
bearing: -5.38931179047
intensity: 29.4645233154
---
header: 
  seq: 909794
  stamp: 
    secs: 1561867578
    nsecs: 448417340
  frame_id: "ti_mmwave"
point_id: 18
x: 0.009765625
y: 0.03125
z: 0.025390625
range: 0.0435769706964
velocity: 0.0
doppler_bin: 8
bearing: 72.6459732056
intensity: 29.2788333893
---
header: 
  seq: 909795
  stamp: 
    secs: 1561867578
    nsecs: 448429438
  frame_id: "ti_mmwave"
point_id: 19
x: 0.041015625
y: -0.033203125
z: 0.0625
range: 0.0871539413929
velocity: 0.0
doppler_bin: 8
bearing: -38.9909973145
intensity: 30.081741333
---
header: 
  seq: 909796
  stamp: 
    secs: 1561867578
    nsecs: 448442074
  frame_id: "ti_mmwave"
point_id: 20
x: 0.044921875
y: -0.046875
z: 0.103515625
range: 0.130730912089
velocity: 0.0
doppler_bin: 8
bearing: -46.218875885
intensity: 28.9927310944
---
header: 
  seq: 909797
  stamp: 
    secs: 1561867578
    nsecs: 506706472
  frame_id: "ti_mmwave"
point_id: 0
x: 0.01171875
y: -0.0390625
z: -0.0078125
range: 0.0435769706964
velocity: 0.0
doppler_bin: 8
bearing: -73.3007583618
intensity: 30.6483230591
---
header: 
  seq: 909798
  stamp: 
    secs: 1561867578
    nsecs: 506780935
  frame_id: "ti_mmwave"
point_id: 1
x: 0.017578125
y: -0.080078125
z: -0.0078125
range: 0.0871539413929
velocity: 0.0
doppler_bin: 8
bearing: -77.6192398071
intensity: 31.9005146027
---
header: 
  seq: 909799
  stamp: 
    secs: 1561867578
    nsecs: 506791782
  frame_id: "ti_mmwave"
point_id: 2
x: 0.029296875
y: -0.119140625
z: -0.005859375
range: 0.130730912089
velocity: 0.0
doppler_bin: 8
bearing: -76.1849746704
intensity: 30.1199302673
---
header: 
  seq: 909800
  stamp: 
    secs: 1561867578
    nsecs: 506800069
  frame_id: "ti_mmwave"
point_id: 3
x: 0.056640625
y: -0.154296875
z: 0.005859375
range: 0.174307882786
velocity: 0.0
doppler_bin: 8
bearing: -69.8423843384
intensity: 25.4530715942
---
header: 
  seq: 909801
  stamp: 
    secs: 1561867578
    nsecs: 506809064
  frame_id: "ti_mmwave"
point_id: 4
x: 0.140625
y: -0.080078125
z: 1.2578125
range: 1.35088610649
velocity: 0.0
doppler_bin: 8
bearing: -29.6591091156
intensity: 23.0963020325
---
header: 
  seq: 909802
  stamp: 
    secs: 1561867578
    nsecs: 506818210
  frame_id: "ti_mmwave"
point_id: 5
x: 0.05078125
y: -0.08203125
z: 1.3046875
range: 1.39446306229
velocity: 0.0
doppler_bin: 8
bearing: -58.2405166626
intensity: 24.6239795685
---
header: 
  seq: 909803
  stamp: 
    secs: 1561867578
    nsecs: 506826740
  frame_id: "ti_mmwave"
point_id: 6
x: 0.408203125
y: -0.083984375
z: -1.283203125
range: 1.43804001808
velocity: 0.0
doppler_bin: 8
bearing: -11.6258993149
intensity: 23.0749607086
---
header: 
  seq: 909804
  stamp: 
    secs: 1561867578
    nsecs: 506840179
  frame_id: "ti_mmwave"
point_id: 7
x: 0.55859375
y: -0.04296875
z: -1.2734375
range: 1.48161697388
velocity: 0.0
doppler_bin: 8
bearing: -4.39870548248
intensity: 21.7318630219
---
header: 
  seq: 909805
  stamp: 
    secs: 1561867578
    nsecs: 506982423
  frame_id: "ti_mmwave"
point_id: 8
x: 1.73046875
y: -0.0
z: -0.31640625
range: 1.87380969524
velocity: 0.0
doppler_bin: 8
bearing: -0.0
intensity: 27.9028511047
---
header: 
  seq: 909806
  stamp: 
    secs: 1561867578
    nsecs: 507002103
  frame_id: "ti_mmwave"
point_id: 9
x: 1.7734375
y: 0.056640625
z: -0.306640625
range: 1.91738677025
velocity: 0.0
doppler_bin: 8
bearing: 1.8293094635
intensity: 27.5050830841
---
header: 
  seq: 909807
  stamp: 
    secs: 1561867578
    nsecs: 507010772
  frame_id: "ti_mmwave"
point_id: 10
x: 2.619140625
y: -0.17578125
z: 1.0390625
range: 3.00681090355
velocity: 0.0
doppler_bin: 8
bearing: -3.83959650993
intensity: 28.9927310944
---
header: 
  seq: 909808
  stamp: 
    secs: 1561867578
    nsecs: 507018862
  frame_id: "ti_mmwave"
point_id: 11
x: 2.6875
y: -0.08984375
z: 0.982421875
range: 3.05038785934
velocity: 0.0
doppler_bin: 8
bearing: -1.91469812393
intensity: 32.1616592407
---
header: 
  seq: 909809
  stamp: 
    secs: 1561867578
    nsecs: 507024138
  frame_id: "ti_mmwave"
point_id: 12
x: 2.765625
y: -0.0
z: 0.890625
range: 3.09396481514
velocity: 0.0
doppler_bin: 8
bearing: -0.0
intensity: 31.1025295258
---
header: 
  seq: 909810
  stamp: 
    secs: 1561867578
    nsecs: 507035714
  frame_id: "ti_mmwave"
point_id: 13
x: 4.396484375
y: -0.142578125
z: 1.126953125
range: 4.83704376221
velocity: 0.0
doppler_bin: 8
bearing: -1.85745286942
intensity: 28.1157493591
---
header: 
  seq: 909811
  stamp: 
    secs: 1561867578
    nsecs: 507092491
  frame_id: "ti_mmwave"
point_id: 14
x: 4.408203125
y: -0.142578125
z: 1.23828125
range: 4.88062095642
velocity: 0.0
doppler_bin: 8
bearing: -1.85251843929
intensity: 31.3513259888
---
header: 
  seq: 909812
  stamp: 
    secs: 1561867578
    nsecs: 507102518
  frame_id: "ti_mmwave"
point_id: 15
x: 4.443359375
y: -0.14453125
z: 1.263671875
range: 4.9241976738
velocity: 0.0
doppler_bin: 8
bearing: -1.86303019524
intensity: 30.9447116852
---
header: 
  seq: 909813
  stamp: 
    secs: 1561867578
    nsecs: 507112487
  frame_id: "ti_mmwave"
point_id: 16
x: 4.890625
y: -0.30859375
z: 0.697265625
range: 5.27281332016
velocity: 0.0
doppler_bin: 8
bearing: -3.61052203178
intensity: 30.8707122803
---
header: 
  seq: 909814
  stamp: 
    secs: 1561867578
    nsecs: 507120740
  frame_id: "ti_mmwave"
point_id: 17
x: 4.951171875
y: -0.623046875
z: 0.099609375
range: 5.31639051437
velocity: 0.0
doppler_bin: 8
bearing: -7.17230129242
intensity: 29.4051647186
---
header: 
  seq: 909815
  stamp: 
    secs: 1561867578
    nsecs: 507129054
  frame_id: "ti_mmwave"
point_id: 18
x: 0.009765625
y: 0.03125
z: 0.025390625
range: 0.0435769706964
velocity: 0.0
doppler_bin: 8
bearing: 72.6459732056
intensity: 29.2788333893
---
header: 
  seq: 909816
  stamp: 
    secs: 1561867578
    nsecs: 507136931
  frame_id: "ti_mmwave"
point_id: 19
x: 0.041015625
y: -0.033203125
z: 0.0625
range: 0.0871539413929
velocity: 0.0
doppler_bin: 8
bearing: -38.9909973145
intensity: 30.0860023499
---
header: 
  seq: 909817
  stamp: 
    secs: 1561867578
    nsecs: 507144556
  frame_id: "ti_mmwave"
point_id: 20
x: 0.044921875
y: -0.046875
z: 0.103515625
range: 0.130730912089
velocity: 0.0
doppler_bin: 8
bearing: -46.218875885
intensity: 28.9927310944
---
header: 
  seq: 909818
  stamp: 
    secs: 1561867578
    nsecs: 508250411
  frame_id: "ti_mmwave"
point_id: 0
x: 0.01171875
y: -0.0390625
z: -0.0078125
range: 0.0435769706964
velocity: 0.0
doppler_bin: 8
bearing: -73.3007583618
intensity: 30.6445808411
---
header: 
  seq: 909819
  stamp: 
    secs: 1561867578
    nsecs: 508301806
  frame_id: "ti_mmwave"
point_id: 1
x: 0.017578125
y: -0.080078125
z: -0.0078125
range: 0.0871539413929
velocity: 0.0
doppler_bin: 8
bearing: -77.6192398071
intensity: 31.8977088928
---
header: 
  seq: 909820
  stamp: 
    secs: 1561867578
    nsecs: 508313047
  frame_id: "ti_mmwave"
point_id: 2
x: 0.029296875
y: -0.119140625
z: -0.005859375
range: 0.130730912089
velocity: 0.0
doppler_bin: 8
bearing: -76.1849746704
intensity: 30.1157035828
---
header: 
  seq: 909821
  stamp: 
    secs: 1561867578
    nsecs: 508322998
  frame_id: "ti_mmwave"
point_id: 3
x: 0.056640625
y: -0.154296875
z: 0.005859375
range: 0.174307882786
velocity: 0.0
doppler_bin: 8
bearing: -69.8423843384
intensity: 25.4406795502
---
header: 
  seq: 909822
  stamp: 
    secs: 1561867578
    nsecs: 508332243
  frame_id: "ti_mmwave"
point_id: 4
x: 0.177734375
y: -0.080078125
z: 1.25390625
range: 1.35088610649
velocity: 0.0
doppler_bin: 8
bearing: -24.2539196014
intensity: 23.138671875
---
header: 
  seq: 909823
  stamp: 
    secs: 1561867578
    nsecs: 508340902
  frame_id: "ti_mmwave"
