header: 
  seq: 784193
  stamp: 
    secs: 1561867363
    nsecs: 946519315
  frame_id: "ti_mmwave"
point_id: 0
x: 0.01171875
y: -0.0390625
z: -0.0078125
range: 0.0435769706964
velocity: 0.0
doppler_bin: 8
bearing: -73.3007583618
intensity: 30.6483230591
---
header: 
  seq: 784194
  stamp: 
    secs: 1561867363
    nsecs: 946593001
  frame_id: "ti_mmwave"
point_id: 1
x: 0.017578125
y: -0.080078125
z: -0.0078125
range: 0.0871539413929
velocity: 0.0
doppler_bin: 8
bearing: -77.6192398071
intensity: 31.9033164978
---
header: 
  seq: 784195
  stamp: 
    secs: 1561867363
    nsecs: 946604119
  frame_id: "ti_mmwave"
point_id: 2
x: 0.029296875
y: -0.119140625
z: -0.005859375
range: 0.130730912089
velocity: 0.0
doppler_bin: 8
bearing: -76.1849746704
intensity: 30.1199302673
---
header: 
  seq: 784196
  stamp: 
    secs: 1561867363
    nsecs: 946612739
  frame_id: "ti_mmwave"
point_id: 3
x: 0.056640625
y: -0.154296875
z: 0.0078125
range: 0.174307882786
velocity: 0.0
doppler_bin: 8
bearing: -69.8423843384
intensity: 25.4406795502
---
header: 
  seq: 784197
  stamp: 
    secs: 1561867363
    nsecs: 946624960
  frame_id: "ti_mmwave"
point_id: 4
x: 0.056640625
y: -0.080078125
z: 1.263671875
range: 1.35088610649
velocity: 0.0
doppler_bin: 8
bearing: -54.7275772095
intensity: 23.0749607086
---
header: 
  seq: 784198
  stamp: 
    secs: 1561867363
    nsecs: 946635237
  frame_id: "ti_mmwave"
point_id: 6
x: 0.4375
y: -0.083984375
z: -1.2734375
range: 1.43804001808
velocity: 0.0
doppler_bin: 8
bearing: -10.8665513992
intensity: 23.1175384521
---
header: 
  seq: 784199
  stamp: 
    secs: 1561867363
    nsecs: 946643335
  frame_id: "ti_mmwave"
point_id: 7
x: 0.580078125
y: -0.04296875
z: -1.263671875
range: 1.48161697388
velocity: 0.0
doppler_bin: 8
bearing: -4.2363948822
intensity: 21.7318630219
---
header: 
  seq: 784200
  stamp: 
    secs: 1561867363
    nsecs: 946651194
  frame_id: "ti_mmwave"
point_id: 8
x: 1.701171875
y: -0.052734375
z: -0.234375
range: 1.83023273945
velocity: 0.0
doppler_bin: 8
bearing: -1.77553474903
intensity: 31.8497524261
---
header: 
  seq: 784201
  stamp: 
    secs: 1561867363
    nsecs: 946660234
  frame_id: "ti_mmwave"
point_id: 9
x: 1.75
y: -0.0546875
z: -0.17578125
range: 1.87380969524
velocity: 0.0
doppler_bin: 8
bearing: -1.7899106741
intensity: 33.3605918884
---
header: 
  seq: 784202
  stamp: 
    secs: 1561867363
    nsecs: 946668237
  frame_id: "ti_mmwave"
point_id: 10
x: 1.787109375
y: -0.0
z: -0.21484375
range: 1.91738677025
velocity: 0.0
doppler_bin: 8
bearing: -0.0
intensity: 31.2645606995
---
header: 
  seq: 784203
  stamp: 
    secs: 1561867363
    nsecs: 946676112
  frame_id: "ti_mmwave"
point_id: 11
x: 1.81640625
y: 0.056640625
z: -0.29296875
range: 1.96096372604
velocity: 0.0
doppler_bin: 8
bearing: 1.78606379032
intensity: 28.0888595581
---
header: 
  seq: 784204
  stamp: 
    secs: 1561867363
    nsecs: 946685659
  frame_id: "ti_mmwave"
point_id: 12
x: 1.857421875
y: 0.1171875
z: -0.275390625
range: 2.00454068184
velocity: 0.0
doppler_bin: 8
bearing: 3.61009049416
intensity: 26.6558094025
---
header: 
  seq: 784205
  stamp: 
    secs: 1561867363
    nsecs: 946695060
  frame_id: "ti_mmwave"
point_id: 13
x: 2.62109375
y: -0.17578125
z: 1.03125
range: 3.00681090355
velocity: 0.0
doppler_bin: 8
bearing: -3.83674383163
intensity: 28.8592624664
---
header: 
  seq: 784206
  stamp: 
    secs: 1561867363
    nsecs: 946703534
  frame_id: "ti_mmwave"
point_id: 14
x: 2.65625
y: -0.1796875
z: 1.052734375
range: 3.05038785934
velocity: 0.0
doppler_bin: 8
bearing: -3.86999511719
intensity: 32.0817260742
---
header: 
  seq: 784207
  stamp: 
    secs: 1561867363
    nsecs: 946711710
  frame_id: "ti_mmwave"
point_id: 15
x: 2.751953125
y: -0.08984375
z: 0.923828125
range: 3.09396481514
velocity: 0.0
doppler_bin: 8
bearing: -1.86988639832
intensity: 31.1394329071
---
header: 
  seq: 784208
  stamp: 
    secs: 1561867363
    nsecs: 946722272
  frame_id: "ti_mmwave"
point_id: 17
x: 0.041015625
y: -0.033203125
z: 0.0625
range: 0.0871539413929
velocity: 0.0
doppler_bin: 8
bearing: -38.9909973145
intensity: 30.0902576447
---
header: 
  seq: 784209
  stamp: 
    secs: 1561867363
    nsecs: 946730715
  frame_id: "ti_mmwave"
point_id: 18
x: 0.044921875
y: -0.046875
z: 0.103515625
range: 0.130730912089
velocity: 0.0
doppler_bin: 8
bearing: -46.218875885
intensity: 29.0036716461
---
header: 
  seq: 784210
  stamp: 
    secs: 1561867363
    nsecs: 947563205
  frame_id: "ti_mmwave"
point_id: 0
x: 0.01171875
y: -0.0390625
z: -0.0078125
range: 0.0435769706964
velocity: 0.0
doppler_bin: 8
bearing: -73.3007583618
intensity: 30.6445808411
---
header: 
  seq: 784211
  stamp: 
    secs: 1561867363
    nsecs: 947630210
  frame_id: "ti_mmwave"
point_id: 1
x: 0.017578125
y: -0.080078125
z: -0.0078125
range: 0.0871539413929
velocity: 0.0
doppler_bin: 8
bearing: -77.6192398071
intensity: 31.9033164978
---
header: 
  seq: 784212
  stamp: 
    secs: 1561867363
    nsecs: 947647047
  frame_id: "ti_mmwave"
point_id: 2
x: 0.029296875
y: -0.119140625
z: -0.005859375
range: 0.130730912089
velocity: 0.0
doppler_bin: 8
bearing: -76.1849746704
intensity: 30.1283721924
---
header: 
  seq: 784213
  stamp: 
    secs: 1561867363
    nsecs: 947662522
  frame_id: "ti_mmwave"
point_id: 3
x: 0.056640625
y: -0.154296875
z: 0.005859375
range: 0.174307882786
velocity: 0.0
doppler_bin: 8
bearing: -69.8423843384
intensity: 25.4530715942
---
header: 
  seq: 784214
  stamp: 
    secs: 1561867363
    nsecs: 947677577
  frame_id: "ti_mmwave"
point_id: 4
x: 0.150390625
y: -0.080078125
z: 1.255859375
range: 1.35088610649
velocity: 0.0
doppler_bin: 8
bearing: -28.0338516235
intensity: 23.0749607086
---
header: 
  seq: 784215
  stamp: 
    secs: 1561867363
    nsecs: 947694925
  frame_id: "ti_mmwave"
point_id: 6
x: 0.3828125
y: -0.083984375
z: -1.291015625
range: 1.43804001808
velocity: 0.0
doppler_bin: 8
bearing: -12.3739547729
intensity: 23.0749607086
---
header: 
  seq: 784216
  stamp: 
    secs: 1561867363
    nsecs: 947709284
  frame_id: "ti_mmwave"
point_id: 7
x: 0.546875
y: -0.04296875
z: -1.279296875
range: 1.48161697388
velocity: 0.0
doppler_bin: 8
bearing: -4.49258184433
intensity: 21.6435279846
---
header: 
  seq: 784217
  stamp: 
    secs: 1561867363
    nsecs: 947725951
  frame_id: "ti_mmwave"
point_id: 8
x: 1.6484375
y: 0.1640625
z: -0.591796875
range: 1.87380969524
velocity: 0.0
doppler_bin: 8
bearing: 5.68370628357
intensity: 26.8930892944
---
header: 
  seq: 784218
  stamp: 
    secs: 1561867363
    nsecs: 947739402
  frame_id: "ti_mmwave"
point_id: 9
x: 1.734375
y: 0.056640625
z: -0.478515625
range: 1.91738677025
velocity: 0.0
doppler_bin: 8
bearing: 1.87048101425
intensity: 29.0955600739
---
header: 
  seq: 784219
  stamp: 
    secs: 1561867363
    nsecs: 947754465
  frame_id: "ti_mmwave"
point_id: 10
x: 1.798828125
y: -0.0
z: -0.39453125
range: 1.96096372604
velocity: 0.0
doppler_bin: 8
bearing: -0.0
intensity: 29.7173957825
---
header: 
  seq: 784220
  stamp: 
    secs: 1561867363
    nsecs: 947768596
  frame_id: "ti_mmwave"
point_id: 11
x: 1.83984375
y: -0.05859375
z: -0.388671875
range: 2.00454068184
velocity: 0.0
doppler_bin: 8
bearing: -1.82409000397
intensity: 27.4896278381
---
header: 
  seq: 784221
  stamp: 
    secs: 1561867363
    nsecs: 947782876
  frame_id: "ti_mmwave"
point_id: 12
x: 2.59765625
y: -0.17578125
z: 1.08984375
range: 3.00681090355
velocity: 0.0
doppler_bin: 8
bearing: -3.87125635147
intensity: 28.8081359863
---
header: 
  seq: 784222
  stamp: 
    secs: 1561867363
    nsecs: 947796547
  frame_id: "ti_mmwave"
point_id: 13
x: 2.685546875
y: -0.08984375
z: 0.9921875
range: 3.05038785934
velocity: 0.0
doppler_bin: 8
bearing: -1.91608965397
intensity: 32.0547485352
---
header: 
  seq: 784223
  stamp: 
    secs: 1561867363
    nsecs: 947810998
  frame_id: "ti_mmwave"
point_id: 14
x: 2.75
y: -0.08984375
z: 0.9296875
range: 3.09396481514
velocity: 0.0
doppler_bin: 8
bearing: -1.87121355534
intensity: 31.0890312195
---
header: 
  seq: 784224
  stamp: 
    secs: 1561867363
    nsecs: 947828835
  frame_id: "ti_mmwave"
point_id: 16
x: 0.041015625
y: -0.033203125
z: 0.0625
range: 0.0871539413929
velocity: 0.0
doppler_bin: 8
bearing: -38.9909973145
intensity: 30.0945091248
---
header: 
  seq: 784225
  stamp: 
    secs: 1561867363
    nsecs: 947842990
  frame_id: "ti_mmwave"
point_id: 17
x: 0.046875
y: -0.046875
z: 0.103515625
range: 0.130730912089
velocity: 0.0
doppler_bin: 8
bearing: -45.0
intensity: 29.0036716461
---
header: 
  seq: 784226
  stamp: 
    secs: 1561867364
    nsecs:   6706244
  frame_id: "ti_mmwave"
point_id: 0
x: 0.01171875
y: -0.0390625
z: -0.0078125
range: 0.0435769706964
velocity: 0.0
doppler_bin: 8
bearing: -73.3007583618
intensity: 30.6520614624
---
header: 
  seq: 784227
  stamp: 
    secs: 1561867364
    nsecs:   6781505
  frame_id: "ti_mmwave"
point_id: 1
x: 0.017578125
y: -0.080078125
z: -0.0078125
range: 0.0871539413929
velocity: 0.0
doppler_bin: 8
bearing: -77.6192398071
intensity: 31.9061183929
---
header: 
  seq: 784228
  stamp: 
    secs: 1561867364
    nsecs:   6795703
  frame_id: "ti_mmwave"
point_id: 2
x: 0.029296875
y: -0.119140625
z: -0.005859375
range: 0.130730912089
velocity: 0.0
doppler_bin: 8
bearing: -76.1849746704
intensity: 30.1325874329
---
header: 
  seq: 784229
  stamp: 
    secs: 1561867364
    nsecs:   6808520
  frame_id: "ti_mmwave"
point_id: 3
x: 0.056640625
y: -0.154296875
z: 0.005859375
range: 0.174307882786
velocity: 0.0
doppler_bin: 8
bearing: -69.8423843384
intensity: 25.4654273987
---
header: 
  seq: 784230
  stamp: 
    secs: 1561867364
    nsecs:   6821366
  frame_id: "ti_mmwave"
point_id: 4
x: 0.166015625
y: -0.080078125
z: 1.25390625
range: 1.35088610649
velocity: 0.0
doppler_bin: 8
bearing: -25.7504749298
intensity: 23.0535144806
---
header: 
  seq: 784231
  stamp: 
    secs: 1561867364
    nsecs:   6830219
  frame_id: "ti_mmwave"
point_id: 5
x: 0.080078125
y: -0.08203125
z: 1.3046875
range: 1.39446306229
velocity: 0.0
doppler_bin: 8
bearing: -45.6902770996
intensity: 24.6239795685
---
header: 
  seq: 784232
  stamp: 
    secs: 1561867364
    nsecs:   6840806
  frame_id: "ti_mmwave"
point_id: 6
x: 0.41796875
y: -0.083984375
z: -1.28125
range: 1.43804001808
velocity: 0.0
doppler_bin: 8
bearing: -11.3614110947
intensity: 23.0749607086
---
header: 
  seq: 784233
  stamp: 
    secs: 1561867364
    nsecs:   6925742
  frame_id: "ti_mmwave"
point_id: 7
x: 0.552734375
y: -0.04296875
z: -1.275390625
range: 1.48161697388
velocity: 0.0
doppler_bin: 8
bearing: -4.44514894485
intensity: 21.7026176453
---
header: 
  seq: 784234
  stamp: 
    secs: 1561867364
    nsecs:   6935435
  frame_id: "ti_mmwave"
point_id: 8
x: 1.740234375
y: 0.056640625
z: -0.455078125
range: 1.91738677025
velocity: 0.0
doppler_bin: 8
bearing: 1.86418759823
intensity: 26.541765213
---
header: 
  seq: 784235
  stamp: 
    secs: 1561867364
    nsecs:   6943038
  frame_id: "ti_mmwave"
point_id: 9
x: 1.798828125
y: 0.056640625
z: -0.390625
range: 1.96096372604
velocity: 0.0
doppler_bin: 8
bearing: 1.8035056591
intensity: 27.7085208893
---
header: 
  seq: 784236
  stamp: 
    secs: 1561867364
    nsecs:   6950731
  frame_id: "ti_mmwave"
point_id: 10
x: 2.609375
y: -0.17578125
z: 1.060546875
range: 3.00681090355
velocity: 0.0
doppler_bin: 8
bearing: -3.85392260551
intensity: 28.8366146088
---
header: 
  seq: 784237
  stamp: 
    secs: 1561867364
    nsecs:   6961290
  frame_id: "ti_mmwave"
point_id: 11
x: 2.658203125
y: -0.1796875
z: 1.046875
range: 3.05038785934
velocity: 0.0
doppler_bin: 8
bearing: -3.86716008186
intensity: 32.0924682617
---
header: 
  seq: 784238
  stamp: 
    secs: 1561867364
    nsecs:   6969278
  frame_id: "ti_mmwave"
point_id: 12
x: 2.7578125
y: -0.08984375
z: 0.90625
range: 3.09396481514
velocity: 0.0
doppler_bin: 8
bearing: -1.86591637135
intensity: 31.1159858704
---
header: 
  seq: 784239
  stamp: 
    secs: 1561867364
    nsecs:   6979094
  frame_id: "ti_mmwave"
point_id: 14
x: 0.041015625
y: -0.033203125
z: 0.0625
range: 0.0871539413929
velocity: 0.0
doppler_bin: 8
bearing: -38.9909973145
intensity: 30.0987567902
---
header: 
  seq: 784240
  stamp: 
    secs: 1561867364
    nsecs:   6986658
  frame_id: "ti_mmwave"
point_id: 15
x: 0.044921875
y: -0.046875
z: 0.103515625
range: 0.130730912089
velocity: 0.0
doppler_bin: 8
bearing: -46.218875885
intensity: 29.0091304779
---
header: 
  seq: 784241
  stamp: 
    secs: 1561867364
    nsecs:   7872720
  frame_id: "ti_mmwave"
point_id: 0
x: 0.01171875
y: -0.0390625
z: -0.0078125
range: 0.0435769706964
velocity: 0.0
doppler_bin: 8
bearing: -73.3007583618
intensity: 30.6445808411
---
header: 
  seq: 784242
  stamp: 
    secs: 1561867364
    nsecs:   7921536
  frame_id: "ti_mmwave"
point_id: 1
x: 0.017578125
y: -0.080078125
z: -0.0078125
range: 0.0871539413929
velocity: 0.0
doppler_bin: 8
bearing: -77.6192398071
intensity: 31.9061183929
---
header: 
  seq: 784243
  stamp: 
    secs: 1561867364
    nsecs:   7933607
  frame_id: "ti_mmwave"
point_id: 2
x: 0.029296875
y: -0.119140625
z: -0.005859375
range: 0.130730912089
velocity: 0.0
doppler_bin: 8
bearing: -76.1849746704
intensity: 30.1283721924
---
header: 
  seq: 784244
  stamp: 
    secs: 1561867364
    nsecs:   7979338
  frame_id: "ti_mmwave"
point_id: 3
x: 0.056640625
y: -0.154296875
z: 0.005859375
range: 0.174307882786
velocity: 0.0
doppler_bin: 8
bearing: -69.8423843384
intensity: 25.4530715942
---
header: 
  seq: 784245
  stamp: 
    secs: 1561867364
    nsecs:   8007829
  frame_id: "ti_mmwave"
point_id: 4
x: 0.142578125
y: -0.080078125
z: 1.2578125
range: 1.35088610649
velocity: 0.0
doppler_bin: 8
bearing: -29.3204746246
intensity: 23.0749607086
---
header: 
  seq: 784246
  stamp: 
    secs: 1561867364
    nsecs:   8025561
  frame_id: "ti_mmwave"
point_id: 6
x: 0.419921875
y: -0.083984375
z: -1.279296875
range: 1.43804001808
velocity: 0.0
doppler_bin: 8
bearing: -11.3099327087
intensity: 23.0963020325
---
header: 
  seq: 784247
  stamp: 
    secs: 1561867364
    nsecs:   8080208
  frame_id: "ti_mmwave"
point_id: 7
x: 0.55859375
y: -0.04296875
z: -1.2734375
range: 1.48161697388
velocity: 0.0
doppler_bin: 8
bearing: -4.39870548248
intensity: 21.6731739044
---
header: 
  seq: 784248
  stamp: 
    secs: 1561867364
    nsecs:   8089358
  frame_id: "ti_mmwave"
point_id: 8
x: 1.671875
y: -0.052734375
z: 0.109375
range: 1.78665578365
velocity: 0.0
doppler_bin: 8
bearing: -1.8066277504
intensity: 29.5375976562
---
header: 
  seq: 784249
  stamp: 
    secs: 1561867364
    nsecs:   8097125
  frame_id: "ti_mmwave"
point_id: 9
x: 1.69921875
y: -0.052734375
z: -0.25
range: 1.83023273945
velocity: 0.0
doppler_bin: 8
bearing: -1.77757430077
intensity: 32.1932258606
---
header: 
  seq: 784250
  stamp: 
    secs: 1561867364
    nsecs:   8106273
  frame_id: "ti_mmwave"
point_id: 10
x: 1.73828125
y: -0.0546875
z: -0.26171875
range: 1.87380969524
velocity: 0.0
doppler_bin: 8
bearing: -1.80196928978
intensity: 32.4204406738
---
header: 
  seq: 784251
  stamp: 
    secs: 1561867364
    nsecs:   8114186
  frame_id: "ti_mmwave"
point_id: 11
x: 1.78125
y: -0.056640625
z: -0.24609375
range: 1.91738677025
velocity: 0.0
doppler_bin: 8
bearing: -1.8212916851
intensity: 29.9913063049
---
header: 
  seq: 784252
  stamp: 
    secs: 1561867364
    nsecs:   8124014
  frame_id: "ti_mmwave"
point_id: 12
x: 2.615234375
y: -0.17578125
z: 1.048828125
range: 3.00681090355
velocity: 0.0
doppler_bin: 8
bearing: -3.84531402588
intensity: 29.020029068
---
header: 
  seq: 784253
  stamp: 
    secs: 1561867364
    nsecs:   8136957
  frame_id: "ti_mmwave"
point_id: 13
x: 2.69140625
y: -0.08984375
z: 0.974609375
range: 3.05038785934
velocity: 0.0
doppler_bin: 8
bearing: -1.91192126274
intensity: 32.1906051636
---
header: 
  seq: 784254
  stamp: 
    secs: 1561867364
    nsecs:   8148040
  frame_id: "ti_mmwave"
point_id: 14
x: 2.748046875
y: -0.08984375
z: 0.93359375
range: 3.09396481514
velocity: 0.0
doppler_bin: 8
bearing: -1.8725425005
intensity: 31.205739975
---
header: 
  seq: 784255
  stamp: 
    secs: 1561867364
    nsecs:   8157007
  frame_id: "ti_mmwave"
point_id: 15
x: 0.009765625
y: 0.03125
z: 0.025390625
range: 0.0435769706964
velocity: 0.0
doppler_bin: 8
bearing: 72.6459732056
intensity: 29.2890777588
---
header: 
  seq: 784256
  stamp: 
    secs: 1561867364
    nsecs:   8206375
  frame_id: "ti_mmwave"
point_id: 16
x: 0.041015625
y: -0.033203125
z: 0.0625
range: 0.0871539413929
velocity: 0.0
doppler_bin: 8
bearing: -38.9909973145
intensity: 30.0902576447
---
header: 
  seq: 784257
  stamp: 
    secs: 1561867364
    nsecs:   8224187
  frame_id: "ti_mmwave"
point_id: 17
x: 0.046875
y: -0.046875
z: 0.103515625
range: 0.130730912089
velocity: 0.0
doppler_bin: 8
bearing: -45.0
intensity: 29.0036716461
---
header: 
  seq: 784258
  stamp: 
    secs: 1561867364
    nsecs:  66581433
  frame_id: "ti_mmwave"
point_id: 0
x: 0.01171875
y: -0.0390625
z: -0.0078125
range: 0.0435769706964
velocity: 0.0
doppler_bin: 8
bearing: -73.3007583618
intensity: 30.6483230591
---
header: 
  seq: 784259
  stamp: 
    secs: 1561867364
    nsecs:  66654601
  frame_id: "ti_mmwave"
point_id: 1
x: 0.017578125
y: -0.080078125
z: -0.0078125
range: 0.0871539413929
velocity: 0.0
doppler_bin: 8
bearing: -77.6192398071
intensity: 31.9033164978
---
header: 
  seq: 784260
  stamp: 
    secs: 1561867364
    nsecs:  66665730
  frame_id: "ti_mmwave"
point_id: 2
x: 0.029296875
y: -0.119140625
z: -0.005859375
range: 0.130730912089
velocity: 0.0
doppler_bin: 8
bearing: -76.1849746704
intensity: 30.1283721924
---
header: 
  seq: 784261
  stamp: 
    secs: 1561867364
    nsecs:  66676733
  frame_id: "ti_mmwave"
point_id: 3
x: 0.056640625
y: -0.154296875
z: 0.0078125
range: 0.174307882786
velocity: 0.0
doppler_bin: 8
bearing: -69.8423843384
intensity: 25.4530715942
---
header: 
  seq: 784262
  stamp: 
    secs: 1561867364
    nsecs:  66685836
  frame_id: "ti_mmwave"
point_id: 4
x: 0.154296875
y: -0.080078125
z: 1.255859375
range: 1.35088610649
velocity: 0.0
doppler_bin: 8
bearing: -27.4287414551
intensity: 23.1597042084
---
header: 
  seq: 784263
  stamp: 
    secs: 1561867364
    nsecs:  66697576
  frame_id: "ti_mmwave"
point_id: 6
x: 0.4140625
y: -0.083984375
z: -1.28125
range: 1.43804001808
velocity: 0.0
doppler_bin: 8
bearing: -11.4657688141
intensity: 23.138671875
---
header: 
  seq: 784264
  stamp: 
    secs: 1561867364
    nsecs:  66705618
  frame_id: "ti_mmwave"
point_id: 7
x: 0.576171875
y: -0.04296875
z: -1.265625
range: 1.48161697388
velocity: 0.0
doppler_bin: 8
bearing: -4.2650103569
intensity: 21.7026176453
---
header: 
  seq: 784265
  stamp: 
    secs: 1561867364
    nsecs:  66713596
  frame_id: "ti_mmwave"
point_id: 8
x: 1.6484375
y: 0.052734375
z: -0.3046875
range: 1.78665578365
velocity: 0.0
doppler_bin: 8
bearing: 1.8322968483
intensity: 28.9097957611
---
header: 
  seq: 784266
  stamp: 
    secs: 1561867364
    nsecs:  66721715
  frame_id: "ti_mmwave"
point_id: 9
x: 1.701171875
y: 0.052734375
z: -0.2265625
range: 1.83023273945
velocity: 0.0
doppler_bin: 8
bearing: 1.77553474903
intensity: 32.6834373474
---
header: 
  seq: 784267
  stamp: 
    secs: 1561867364
    nsecs:  66729846
  frame_id: "ti_mmwave"
point_id: 10
x: 1.7421875
y: 0.0546875
z: -0.240234375
range: 1.87380969524
velocity: 0.0
doppler_bin: 8
bearing: 1.79793179035
intensity: 33.0362815857
---
header: 
  seq: 784268
  stamp: 
    secs: 1561867364
    nsecs:  66737410
  frame_id: "ti_mmwave"
point_id: 11
x: 1.7734375
y: 0.11328125
z: -0.287109375
range: 1.91738677025
velocity: 0.0
doppler_bin: 8
bearing: 3.65489697456
intensity: 30.700378418
---
header: 
  seq: 784269
  stamp: 
    secs: 1561867364
    nsecs:  66747186
  frame_id: "ti_mmwave"
point_id: 12
x: 1.806640625
y: 0.115234375
z: -0.333984375
range: 1.96096372604
velocity: 0.0
doppler_bin: 8
bearing: 3.64959812164
intensity: 26.7302093506
---
header: 
  seq: 784270
  stamp: 
    secs: 1561867364
    nsecs:  66757339
  frame_id: "ti_mmwave"
point_id: 13
x: 2.6171875
y: -0.17578125
z: 1.041015625
range: 3.00681090355
velocity: 0.0
doppler_bin: 8
bearing: -3.84245300293
intensity: 29.0633506775
---
header: 
  seq: 784271
  stamp: 
    secs: 1561867364
    nsecs:  66765412
  frame_id: "ti_mmwave"
point_id: 14
x: 2.658203125
y: -0.1796875
z: 1.048828125
range: 3.05038785934
velocity: 0.0
doppler_bin: 8
bearing: -3.86716008186
intensity: 32.1774711609
---
header: 
  seq: 784272
  stamp: 
    secs: 1561867364
    nsecs:  66773826
  frame_id: "ti_mmwave"
point_id: 15
x: 2.75390625
y: -0.08984375
z: 0.916015625
range: 3.09396481514
velocity: 0.0
doppler_bin: 8
bearing: -1.86856126785
intensity: 31.172712326
---
header: 
  seq: 784273
  stamp: 
    secs: 1561867364
    nsecs:  66784460
  frame_id: "ti_mmwave"
point_id: 17
x: 0.041015625
y: -0.033203125
z: 0.0625
range: 0.0871539413929
velocity: 0.0
doppler_bin: 8
bearing: -38.9909973145
intensity: 30.0945091248
---
header: 
  seq: 784274
  stamp: 
    secs: 1561867364
    nsecs:  66792738
  frame_id: "ti_mmwave"
point_id: 18
x: 0.046875
y: -0.046875
z: 0.103515625
range: 0.130730912089
velocity: 0.0
doppler_bin: 8
bearing: -45.0
intensity: 29.0036716461
---
header: 
  seq: 784275
  stamp: 
    secs: 1561867364
    nsecs:  67786805
  frame_id: "ti_mmwave"
point_id: 0
x: 0.01171875
y: -0.0390625
z: -0.0078125
range: 0.0435769706964
velocity: 0.0
doppler_bin: 8
bearing: -73.3007583618
intensity: 30.6520614624
---
header: 
  seq: 784276
  stamp: 
    secs: 1561867364
    nsecs:  67852094
  frame_id: "ti_mmwave"
point_id: 1
x: 0.017578125
y: -0.080078125
z: -0.0078125
range: 0.0871539413929
velocity: 0.0
doppler_bin: 8
bearing: -77.6192398071
intensity: 31.9061183929
---
header: 
  seq: 784277
  stamp: 
    secs: 1561867364
    nsecs:  67871376
  frame_id: "ti_mmwave"
point_id: 2
x: 0.029296875
y: -0.119140625
z: -0.005859375
range: 0.130730912089
velocity: 0.0
doppler_bin: 8
bearing: -76.1849746704
intensity: 30.1283721924
---
header: 
  seq: 784278
  stamp: 
    secs: 1561867364
    nsecs:  67883623
  frame_id: "ti_mmwave"
point_id: 3
x: 0.056640625
y: -0.154296875
z: 0.0078125
range: 0.174307882786
velocity: 0.0
doppler_bin: 8
bearing: -69.8423843384
intensity: 25.4530715942
---
header: 
  seq: 784279
  stamp: 
    secs: 1561867364
    nsecs:  67981539
  frame_id: "ti_mmwave"
point_id: 4
x: 0.0390625
y: -0.080078125
z: 1.265625
range: 1.35088610649
velocity: 0.0
doppler_bin: 8
bearing: -63.9966545105
intensity: 23.0963020325
---
header: 
  seq: 784280
  stamp: 
    secs: 1561867364
    nsecs:  67999654
  frame_id: "ti_mmwave"
point_id: 6
x: 0.40234375
y: -0.083984375
z: -1.28515625
range: 1.43804001808
velocity: 0.0
doppler_bin: 8
bearing: -11.7905015945
intensity: 23.0535144806
---
header: 
  seq: 784281
  stamp: 
    secs: 1561867364
    nsecs:  68011471
  frame_id: "ti_mmwave"
point_id: 7
x: 0.537109375
y: -0.04296875
z: -1.28125
range: 1.48161697388
velocity: 0.0
doppler_bin: 8
bearing: -4.57392120361
intensity: 21.6731739044
---
header: 
  seq: 784282
  stamp: 
    secs: 1561867364
    nsecs:  68022388
  frame_id: "ti_mmwave"
point_id: 8
x: 1.67578125
y: -0.0
z: 0.056640625
range: 1.78665578365
velocity: 0.0
doppler_bin: 8
bearing: -0.0
intensity: 29.8452739716
---
header: 
  seq: 784283
  stamp: 
    secs: 1561867364
    nsecs:  68034947
  frame_id: "ti_mmwave"
point_id: 9
x: 1.716796875
y: -0.0
z: 0.03515625
range: 1.83023273945
velocity: 0.0
doppler_bin: 8
bearing: -0.0
intensity: 33.3984870911
---
header: 
  seq: 784284
  stamp: 
    secs: 1561867364
    nsecs:  68045750
  frame_id: "ti_mmwave"
point_id: 10
x: 1.7578125
y: -0.0
z: -0.05078125
range: 1.87380969524
velocity: 0.0
doppler_bin: 8
bearing: -0.0
intensity: 33.5774421692
---
header: 
  seq: 784285
  stamp: 
    secs: 1561867364
    nsecs:  68058649
  frame_id: "ti_mmwave"
point_id: 11
x: 1.794921875
y: 0.056640625
z: -0.12890625
range: 1.91738677025
velocity: 0.0
doppler_bin: 8
bearing: 1.80742812157
intensity: 30.8026561737
---
header: 
  seq: 784286
  stamp: 
    secs: 1561867364
    nsecs:  68066483
  frame_id: "ti_mmwave"
point_id: 12
x: 2.623046875
y: -0.17578125
z: 1.02734375
range: 3.00681090355
velocity: 0.0
doppler_bin: 8
bearing: -3.83389568329
intensity: 28.9652614594
---
header: 
  seq: 784287
  stamp: 
    secs: 1561867364
    nsecs:  68095946
  frame_id: "ti_mmwave"
point_id: 13
x: 2.6953125
y: -0.08984375
z: 0.962890625
range: 3.05038785934
velocity: 0.0
doppler_bin: 8
bearing: -1.90915250778
intensity: 32.1537322998
---
header: 
  seq: 784288
  stamp: 
    secs: 1561867364
    nsecs:  68107353
  frame_id: "ti_mmwave"
point_id: 14
x: 2.7578125
y: -0.08984375
z: 0.90625
range: 3.09396481514
velocity: 0.0
doppler_bin: 8
bearing: -1.86591637135
intensity: 31.1561050415
---
header: 
  seq: 784289
  stamp: 
    secs: 1561867364
    nsecs:  68294155
  frame_id: "ti_mmwave"
point_id: 15
x: 1.8203125
y: 0.171875
z: -0.2109375
range: 1.96096372604
velocity: -0.614668667316
doppler_bin: 7
bearing: 5.39391040802
intensity: 25.3275432587
---
header: 
  seq: 784290
  stamp: 
    secs: 1561867364
    nsecs:  68315555
  frame_id: "ti_mmwave"
point_id: 17
x: 0.041015625
y: -0.033203125
z: 0.0625
range: 0.0871539413929
velocity: 0.0
doppler_bin: 8
bearing: -38.9909973145
intensity: 30.0987567902
---
header: 
  seq: 784291
  stamp: 
    secs: 1561867364
    nsecs:  68328042
  frame_id: "ti_mmwave"
point_id: 18
x: 0.044921875
y: -0.046875
z: 0.103515625
range: 0.130730912089
velocity: 0.0
doppler_bin: 8
bearing: -46.218875885
intensity: 29.0091304779
---
header: 
  seq: 784292
  stamp: 
    secs: 1561867364
    nsecs: 127069894
  frame_id: "ti_mmwave"
point_id: 0
x: 0.01171875
y: -0.0390625
z: -0.0078125
range: 0.0435769706964
velocity: 0.0
doppler_bin: 8
bearing: -73.3007583618
intensity: 30.6483230591
---
header: 
  seq: 784293
  stamp: 
    secs: 1561867364
    nsecs: 127175840
  frame_id: "ti_mmwave"
point_id: 1
x: 0.017578125
y: -0.080078125
z: -0.0078125
range: 0.0871539413929
velocity: 0.0
doppler_bin: 8
bearing: -77.6192398071
intensity: 31.9033164978
---
header: 
  seq: 784294
  stamp: 
    secs: 1561867364
    nsecs: 127196298
  frame_id: "ti_mmwave"
point_id: 2
x: 0.029296875
y: -0.119140625
z: -0.005859375
range: 0.130730912089
velocity: 0.0
doppler_bin: 8
bearing: -76.1849746704
intensity: 30.1283721924
---
header: 
  seq: 784295
  stamp: 
    secs: 1561867364
    nsecs: 127209999
  frame_id: "ti_mmwave"
point_id: 3
x: 0.056640625
y: -0.154296875
z: 0.0078125
range: 0.174307882786
velocity: 0.0
doppler_bin: 8
bearing: -69.8423843384
intensity: 25.4406795502
---
header: 
  seq: 784296
  stamp: 
    secs: 1561867364
    nsecs: 127223161
  frame_id: "ti_mmwave"
point_id: 4
x: 0.12890625
y: -0.080078125
z: 1.259765625
range: 1.35088610649
velocity: 0.0
doppler_bin: 8
bearing: -31.8490524292
intensity: 23.1175384521
---
header: 
  seq: 784297
  stamp: 
    secs: 1561867364
    nsecs: 127233504
  frame_id: "ti_mmwave"
point_id: 6
x: 0.412109375
y: -0.083984375
z: -1.283203125
range: 1.43804001808
velocity: 0.0
doppler_bin: 8
bearing: -11.518658638
intensity: 23.0749607086
---
header: 
  seq: 784298
  stamp: 
    secs: 1561867364
    nsecs: 127241869
  frame_id: "ti_mmwave"
point_id: 7
x: 0.54296875
y: -0.04296875
z: -1.279296875
range: 1.48161697388
velocity: 0.0
doppler_bin: 8
bearing: -4.52476835251
intensity: 21.6435279846
---
header: 
  seq: 784299
  stamp: 
    secs: 1561867364
    nsecs: 127249849
  frame_id: "ti_mmwave"
point_id: 8
x: 1.67578125
y: 0.052734375
z: -0.01171875
range: 1.78665578365
velocity: 0.0
doppler_bin: 8
bearing: 1.80241930485
intensity: 31.550321579
---
header: 
  seq: 784300
  stamp: 
    secs: 1561867364
    nsecs: 127257957
  frame_id: "ti_mmwave"
point_id: 9
x: 1.71875
y: -0.0
z: -0.017578125
range: 1.83023273945
velocity: 0.0
doppler_bin: 8
bearing: -0.0
intensity: 34.1363487244
---
header: 
  seq: 784301
  stamp: 
    secs: 1561867364
    nsecs: 127267661
  frame_id: "ti_mmwave"
point_id: 10
x: 1.755859375
y: 0.0546875
z: -0.095703125
range: 1.87380969524
velocity: 0.0
doppler_bin: 8
bearing: 1.78394150734
intensity: 33.2139129639
---
header: 
  seq: 784302
  stamp: 
    secs: 1561867364
    nsecs: 127275632
  frame_id: "ti_mmwave"
point_id: 11
x: 1.787109375
y: 0.11328125
z: -0.19140625
range: 1.91738677025
velocity: 0.0
doppler_bin: 8
bearing: 3.62701106071
intensity: 29.6661090851
---
header: 
  seq: 784303
  stamp: 
    secs: 1561867364
    nsecs: 127285738
  frame_id: "ti_mmwave"
point_id: 12
x: 1.814453125
y: 0.287109375
z: -0.126953125
range: 1.96096372604
velocity: 0.0
doppler_bin: 8
bearing: 8.99162769318
intensity: 26.1595001221
---
header: 
  seq: 784304
  stamp: 
    secs: 1561867364
    nsecs: 127293827
  frame_id: "ti_mmwave"
point_id: 13
x: 2.607421875
y: -0.17578125
z: 1.064453125
range: 3.00681090355
velocity: 0.0
doppler_bin: 8
bearing: -3.8568007946
intensity: 28.9872512817
---
header: 
  seq: 784305
  stamp: 
    secs: 1561867364
    nsecs: 127301423
  frame_id: "ti_mmwave"
point_id: 14
x: 2.6875
y: -0.08984375
z: 0.986328125
range: 3.05038785934
velocity: 0.0
doppler_bin: 8
bearing: -1.91469812393
intensity: 32.1457901001
---
header: 
  seq: 784306
  stamp: 
    secs: 1561867364
    nsecs: 127309745
  frame_id: "ti_mmwave"
point_id: 15
x: 2.748046875
y: -0.08984375
z: 0.93359375
range: 3.09396481514
velocity: 0.0
doppler_bin: 8
bearing: -1.8725425005
intensity: 31.1660766602
---
header: 
  seq: 784307
  stamp: 
    secs: 1561867364
    nsecs: 127317773
  frame_id: "ti_mmwave"
point_id: 16
x: 0.009765625
y: 0.03125
z: 0.025390625
range: 0.0435769706964
velocity: 0.0
doppler_bin: 8
bearing: 72.6459732056
intensity: 29.2890777588
---
header: 
  seq: 784308
  stamp: 
    secs: 1561867364
    nsecs: 127325946
  frame_id: "ti_mmwave"
point_id: 17
x: 0.041015625
y: -0.033203125
z: 0.0625
range: 0.0871539413929
velocity: 0.0
doppler_bin: 8
bearing: -38.9909973145
intensity: 30.0945091248
---
header: 
  seq: 784309
  stamp: 
    secs: 1561867364
    nsecs: 127336181
  frame_id: "ti_mmwave"
point_id: 18
x: 0.044921875
y: -0.046875
z: 0.103515625
range: 0.130730912089
velocity: 0.0
doppler_bin: 8
bearing: -46.218875885
intensity: 29.0091304779
---
header: 
  seq: 784310
  stamp: 
    secs: 1561867364
    nsecs: 127353376
  frame_id: "ti_mmwave"
point_id: 20
x: 1.67578125
y: -0.052734375
z: 0.05078125
range: 1.78665578365
velocity: 0.0
doppler_bin: 8
bearing: -1.80241930485
intensity: 31.5259399414
---
header: 
  seq: 784311
  stamp: 
    secs: 1561867364
    nsecs: 127368464
  frame_id: "ti_mmwave"
point_id: 21
x: 0.935546875
y: -0.40234375
z: -1.533203125
range: 1.96096372604
velocity: 0.0
doppler_bin: 8
bearing: -23.2707328796
intensity: 24.7567119598
---
header: 
  seq: 784312
  stamp: 
    secs: 1561867364
    nsecs: 186832342
  frame_id: "ti_mmwave"
point_id: 0
x: 0.01171875
y: -0.0390625
z: -0.0078125
range: 0.0435769706964
velocity: 0.0
doppler_bin: 8
bearing: -73.3007583618
intensity: 30.6370849609
---
header: 
  seq: 784313
  stamp: 
    secs: 1561867364
    nsecs: 186908494
  frame_id: "ti_mmwave"
point_id: 1
x: 0.017578125
y: -0.080078125
z: -0.0078125
range: 0.0871539413929
velocity: 0.0
doppler_bin: 8
bearing: -77.6192398071
intensity: 31.9033164978
---
header: 
  seq: 784314
  stamp: 
    secs: 1561867364
    nsecs: 186920029
  frame_id: "ti_mmwave"
point_id: 2
x: 0.029296875
y: -0.119140625
z: -0.005859375
range: 0.130730912089
velocity: 0.0
doppler_bin: 8
bearing: -76.1849746704
intensity: 30.1241531372
---
header: 
  seq: 784315
  stamp: 
    secs: 1561867364
    nsecs: 186929195
  frame_id: "ti_mmwave"
point_id: 3
x: 0.056640625
y: -0.154296875
z: 0.005859375
range: 0.174307882786
velocity: 0.0
doppler_bin: 8
bearing: -69.8423843384
intensity: 25.4406795502
---
header: 
  seq: 784316
  stamp: 
    secs: 1561867364
    nsecs: 186940149
  frame_id: "ti_mmwave"
point_id: 4
x: 0.169921875
y: -0.080078125
z: 1.25390625
range: 1.35088610649
velocity: 0.0
doppler_bin: 8
bearing: -25.232831955
intensity: 23.0535144806
---
header: 
  seq: 784317
  stamp: 
    secs: 1561867364
    nsecs: 186952662
  frame_id: "ti_mmwave"
point_id: 6
x: 0.40234375
y: -0.083984375
z: -1.28515625
range: 1.43804001808
velocity: 0.0
doppler_bin: 8
bearing: -11.7905015945
intensity: 23.0963020325
---
header: 
  seq: 784318
  stamp: 
    secs: 1561867364
    nsecs: 186961653
  frame_id: "ti_mmwave"
point_id: 7
x: 0.58203125
y: -0.04296875
z: -1.26171875
range: 1.48161697388
velocity: 0.0
doppler_bin: 8
bearing: -4.22222995758
intensity: 21.6731739044
---
header: 
  seq: 784319
  stamp: 
    secs: 1561867364
    nsecs: 186970202
  frame_id: "ti_mmwave"
point_id: 8
x: 1.6328125
y: -0.0
z: 0.099609375
range: 1.74307882786
velocity: 0.0
doppler_bin: 8
bearing: -0.0
intensity: 28.4323272705
---
header: 
  seq: 784320
  stamp: 
    secs: 1561867364
    nsecs: 186978745
  frame_id: "ti_mmwave"
point_id: 9
x: 1.673828125
y: -0.052734375
z: 0.09765625
range: 1.78665578365
velocity: 0.0
doppler_bin: 8
bearing: -1.80452108383
intensity: 33.300075531
---
header: 
  seq: 784321
  stamp: 
    secs: 1561867364
    nsecs: 186987009
  frame_id: "ti_mmwave"
point_id: 10
x: 1.71484375
y: -0.0
z: 0.107421875
range: 1.83023273945
velocity: 0.0
doppler_bin: 8
bearing: -0.0
intensity: 34.0790061951
---
header: 
  seq: 784322
  stamp: 
    secs: 1561867364
    nsecs: 186994832
  frame_id: "ti_mmwave"
point_id: 11
x: 2.65625
y: -0.087890625
z: 0.951171875
range: 3.00681090355
velocity: 0.0
doppler_bin: 8
bearing: -1.89512503147
intensity: 28.9486961365
---
header: 
  seq: 784323
  stamp: 
    secs: 1561867364
    nsecs: 187168987
  frame_id: "ti_mmwave"
point_id: 12
x: 2.693359375
y: -0.08984375
z: 0.966796875
range: 3.05038785934
velocity: 0.0
doppler_bin: 8
bearing: -1.91053581238
intensity: 32.2141418457
---
header: 
  seq: 784324
  stamp: 
    secs: 1561867364
    nsecs: 187188153
  frame_id: "ti_mmwave"
point_id: 13
x: 2.755859375
y: -0.08984375
z: 0.912109375
range: 3.09396481514
velocity: 0.0
doppler_bin: 8
bearing: -1.86723792553
intensity: 31.1958580017
---
header: 
  seq: 784325
  stamp: 
    secs: 1561867364
    nsecs: 187198612
  frame_id: "ti_mmwave"
point_id: 14
x: 1.759765625
y: -0.0
z: -0.009765625
range: 1.87380969524
velocity: -0.614668667316
doppler_bin: 7
bearing: -0.0
intensity: 31.1660766602
---
header: 
  seq: 784326
  stamp: 
    secs: 1561867364
    nsecs: 187209240
  frame_id: "ti_mmwave"
point_id: 16
x: 0.041015625
y: -0.033203125
z: 0.0625
range: 0.0871539413929
velocity: 0.0
doppler_bin: 8
bearing: -38.9909973145
intensity: 30.0902576447
---
header: 
  seq: 784327
  stamp: 
    secs: 1561867364
    nsecs: 187217202
  frame_id: "ti_mmwave"
point_id: 17
x: 0.044921875
y: -0.046875
z: 0.103515625
range: 0.130730912089
velocity: 0.0
doppler_bin: 8
bearing: -46.218875885
intensity: 29.0036716461
---
header: 
  seq: 784328
  stamp: 
    secs: 1561867364
    nsecs: 188113237
  frame_id: "ti_mmwave"
point_id: 0
x: 0.01171875
y: -0.0390625
z: -0.0078125
range: 0.0435769706964
velocity: 0.0
doppler_bin: 8
bearing: -73.3007583618
intensity: 30.6483230591
---
header: 
  seq: 784329
  stamp: 
    secs: 1561867364
    nsecs: 188185005
  frame_id: "ti_mmwave"
point_id: 1
x: 0.017578125
y: -0.080078125
z: -0.0078125
range: 0.0871539413929
velocity: 0.0
doppler_bin: 8
bearing: -77.6192398071
intensity: 31.9061183929
---
header: 
  seq: 784330
  stamp: 
    secs: 1561867364
    nsecs: 188206820
  frame_id: "ti_mmwave"
point_id: 2
x: 0.029296875
y: -0.119140625
z: -0.005859375
range: 0.130730912089
velocity: 0.0
doppler_bin: 8
bearing: -76.1849746704
intensity: 30.1283721924
---
header: 
  seq: 784331
  stamp: 
    secs: 1561867364
    nsecs: 188226661
  frame_id: "ti_mmwave"
point_id: 3
x: 0.056640625
y: -0.154296875
z: 0.005859375
range: 0.174307882786
velocity: 0.0
doppler_bin: 8
bearing: -69.8423843384
intensity: 25.4530715942
---
header: 
  seq: 784332
  stamp: 
    secs: 1561867364
    nsecs: 188291100
  frame_id: "ti_mmwave"
point_id: 4
x: 0.103515625
y: -0.080078125
z: 1.26171875
range: 1.35088610649
velocity: 0.0
doppler_bin: 8
bearing: -37.7249946594
intensity: 23.0749607086
---
header: 
  seq: 784333
  stamp: 
    secs: 1561867364
    nsecs: 188309847
  frame_id: "ti_mmwave"
point_id: 6
x: 0.40625
y: -0.083984375
z: -1.28515625
range: 1.43804001808
velocity: 0.0
doppler_bin: 8
bearing: -11.6802606583
intensity: 23.031961441
---
header: 
  seq: 784334
  stamp: 
    secs: 1561867364
    nsecs: 188325209
  frame_id: "ti_mmwave"
point_id: 7
x: 0.529296875
y: -0.04296875
z: -1.28515625
range: 1.48161697388
velocity: 0.0
doppler_bin: 8
bearing: -4.64113998413
intensity: 21.6435279846
---
header: 
  seq: 784335
  stamp: 
    secs: 1561867364
    nsecs: 188338308
  frame_id: "ti_mmwave"
point_id: 8
x: 1.6328125
y: -0.0
z: 0.11328125
range: 1.74307882786
velocity: 0.0
doppler_bin: 8
bearing: -0.0
intensity: 28.9431610107
---
header: 
  seq: 784336
  stamp: 
    secs: 1561867364
    nsecs: 188352446
  frame_id: "ti_mmwave"
point_id: 9
x: 1.67578125
y: -0.0
z: 0.0546875
range: 1.78665578365
velocity: 0.0
doppler_bin: 8
bearing: -0.0
intensity: 33.1513023376
---
header: 
  seq: 784337
  stamp: 
    secs: 1561867364
    nsecs: 188364683
  frame_id: "ti_mmwave"
point_id: 10
x: 1.716796875
y: 0.052734375
z: 0.03125
range: 1.83023273945
velocity: 0.0
doppler_bin: 8
bearing: 1.75938534737
intensity: 33.6229400635
---
header: 
  seq: 784338
  stamp: 
    secs: 1561867364
    nsecs: 188419355
  frame_id: "ti_mmwave"
point_id: 11
x: 1.7578125
y: -0.0
z: 0.04296875
range: 1.87380969524
velocity: 0.0
doppler_bin: 8
bearing: -0.0
intensity: 30.358297348
---
header: 
  seq: 784339
  stamp: 
    secs: 1561867364
    nsecs: 188500187
  frame_id: "ti_mmwave"
point_id: 12
x: 2.623046875
y: -0.17578125
z: 1.02734375
range: 3.00681090355
velocity: 0.0
doppler_bin: 8
bearing: -3.83389568329
intensity: 29.1855449677
---
header: 
  seq: 784340
  stamp: 
    secs: 1561867364
    nsecs: 188518779
  frame_id: "ti_mmwave"
point_id: 13
x: 2.6875
y: -0.08984375
z: 0.984375
range: 3.05038785934
velocity: 0.0
doppler_bin: 8
bearing: -1.91469812393
intensity: 32.3095970154
---
header: 
  seq: 784341
  stamp: 
    secs: 1561867364
    nsecs: 188532308
  frame_id: "ti_mmwave"
point_id: 14
x: 2.767578125
y: -0.0
z: 0.87890625
range: 3.09396481514
velocity: 0.0
doppler_bin: 8
bearing: -0.0
intensity: 31.3161869049
---
header: 
  seq: 784342
  stamp: 
    secs: 1561867364
    nsecs: 188547009
  frame_id: "ti_mmwave"
point_id: 16
x: 0.041015625
y: -0.033203125
z: 0.0625
range: 0.0871539413929
velocity: 0.0
doppler_bin: 8
bearing: -38.9909973145
intensity: 30.0987567902
---
header: 
  seq: 784343
  stamp: 
    secs: 1561867364
    nsecs: 188563764
  frame_id: "ti_mmwave"
point_id: 17
x: 0.044921875
y: -0.046875
z: 0.103515625
range: 0.130730912089
velocity: 0.0
doppler_bin: 8
bearing: -46.218875885
intensity: 29.0091304779
---
header: 
  seq: 784344
  stamp: 
    secs: 1561867364
    nsecs: 188580184
  frame_id: "ti_mmwave"
point_id: 19
x: 2.7265625
y: -0.181640625
z: 0.986328125
range: 3.09396481514
velocity: 0.0
doppler_bin: 8
bearing: -3.81135106087
intensity: 31.3001194
---
header: 
  seq: 784345
  stamp: 
    secs: 1561867364
    nsecs: 246873244
  frame_id: "ti_mmwave"
point_id: 0
x: 0.01171875
y: -0.0390625
z: -0.0078125
range: 0.0435769706964
velocity: 0.0
doppler_bin: 8
bearing: -73.3007583618
intensity: 30.6520614624
---
header: 
  seq: 784346
  stamp: 
    secs: 1561867364
    nsecs: 246950250
  frame_id: "ti_mmwave"
point_id: 1
x: 0.017578125
y: -0.080078125
z: -0.0078125
range: 0.0871539413929
velocity: 0.0
doppler_bin: 8
bearing: -77.6192398071
intensity: 31.9061183929
---
header: 
  seq: 784347
  stamp: 
    secs: 1561867364
    nsecs: 246961613
  frame_id: "ti_mmwave"
point_id: 2
x: 0.029296875
y: -0.119140625
z: -0.005859375
range: 0.130730912089
velocity: 0.0
doppler_bin: 8
bearing: -76.1849746704
intensity: 30.1283721924
---
header: 
  seq: 784348
  stamp: 
    secs: 1561867364
    nsecs: 246971030
  frame_id: "ti_mmwave"
point_id: 3
x: 0.056640625
y: -0.154296875
z: 0.005859375
range: 0.174307882786
velocity: 0.0
doppler_bin: 8
bearing: -69.8423843384
intensity: 25.4530715942
---
header: 
  seq: 784349
  stamp: 
    secs: 1561867364
    nsecs: 246983926
  frame_id: "ti_mmwave"
point_id: 4
x: 0.181640625
y: -0.080078125
z: 1.251953125
range: 1.35088610649
velocity: 0.0
doppler_bin: 8
bearing: -23.7907733917
intensity: 23.138671875
---
header: 
  seq: 784350
  stamp: 
    secs: 1561867364
    nsecs: 246995369
  frame_id: "ti_mmwave"
point_id: 5
x: 0.11328125
y: -0.08203125
z: 1.30078125
range: 1.39446306229
velocity: 0.0
doppler_bin: 8
bearing: -35.9097213745
intensity: 24.6538276672
---
header: 
  seq: 784351
  stamp: 
    secs: 1561867364
    nsecs: 247004027
  frame_id: "ti_mmwave"
point_id: 6
x: 0.392578125
y: -0.083984375
z: -1.2890625
range: 1.43804001808
velocity: 0.0
doppler_bin: 8
bearing: -12.0752887726
intensity: 23.0749607086
---
header: 
  seq: 784352
  stamp: 
    secs: 1561867364
    nsecs: 247012515
  frame_id: "ti_mmwave"
point_id: 7
x: 0.5234375
y: -0.04296875
z: -1.287109375
range: 1.48161697388
velocity: 0.0
doppler_bin: 8
bearing: -4.69286251068
intensity: 21.6435279846
---
header: 
  seq: 784353
  stamp: 
    secs: 1561867364
    nsecs: 247020885
  frame_id: "ti_mmwave"
point_id: 8
x: 1.716796875
y: 0.052734375
z: -0.025390625
range: 1.83023273945
velocity: 0.0
doppler_bin: 8
bearing: 1.75938534737
intensity: 27.8816833496
---
header: 
  seq: 784354
  stamp: 
    secs: 1561867364
    nsecs: 247032344
  frame_id: "ti_mmwave"
point_id: 9
x: 1.736328125
y: 0.1640625
z: -0.224609375
range: 1.87380969524
velocity: 0.0
doppler_bin: 8
bearing: 5.39774847031
intensity: 26.4836006165
---
header: 
  seq: 784355
  stamp: 
    secs: 1561867364
    nsecs: 247182952
  frame_id: "ti_mmwave"
point_id: 10
x: 2.6171875
y: -0.17578125
z: 1.04296875
range: 3.00681090355
velocity: 0.0
doppler_bin: 8
bearing: -3.84245300293
intensity: 29.0363254547
---
header: 
  seq: 784356
  stamp: 
    secs: 1561867364
    nsecs: 247204348
  frame_id: "ti_mmwave"
point_id: 11
x: 2.693359375
y: -0.08984375
z: 0.966796875
range: 3.05038785934
velocity: 0.0
doppler_bin: 8
bearing: -1.91053581238
intensity: 32.1984634399
---
header: 
  seq: 784357
  stamp: 
    secs: 1561867364
    nsecs: 247215791
  frame_id: "ti_mmwave"
point_id: 12
x: 2.775390625
y: -0.0
z: 0.85546875
range: 3.09396481514
velocity: 0.0
doppler_bin: 8
bearing: -0.0
intensity: 31.1693973541
---
header: 
  seq: 784358
  stamp: 
    secs: 1561867364
    nsecs: 247221041
  frame_id: "ti_mmwave"
point_id: 13
x: 4.400390625
y: -0.287109375
z: 1.24609375
range: 4.88062095642
velocity: 0.0
doppler_bin: 8
bearing: -3.73304843903
intensity: 30.6370849609
---
header: 
  seq: 784359
  stamp: 
    secs: 1561867364
    nsecs: 247246454
  frame_id: "ti_mmwave"
point_id: 14
x: 4.453125
y: -0.14453125
z: 1.23046875
range: 4.9241976738
velocity: 0.0
doppler_bin: 8
bearing: -1.85894739628
intensity: 30.3181228638
---
header: 
  seq: 784360
  stamp: 
    secs: 1561867364
    nsecs: 247254927
  frame_id: "ti_mmwave"
point_id: 15
x: 1.49609375
y: -0.046875
z: 0.228515625
range: 1.61234796047
velocity: -0.614668667316
doppler_bin: 7
bearing: -1.79458093643
intensity: 24.1497325897
---
header: 
  seq: 784361
  stamp: 
    secs: 1561867364
    nsecs: 247269822
  frame_id: "ti_mmwave"
point_id: 16
x: 1.537109375
y: -0.0
z: 0.23046875
range: 1.65592491627
velocity: -0.614668667316
doppler_bin: 7
bearing: -0.0
intensity: 27.1180725098
---
header: 
  seq: 784362
  stamp: 
    secs: 1561867364
    nsecs: 247284016
  frame_id: "ti_mmwave"
point_id: 17
x: 1.578125
y: -0.0
z: 0.232421875
range: 1.69950187206
velocity: -0.614668667316
doppler_bin: 7
bearing: -0.0
intensity: 26.7577838898
---
header: 
  seq: 784363
  stamp: 
    secs: 1561867364
    nsecs: 247298890
  frame_id: "ti_mmwave"
point_id: 18
x: 1.634765625
y: -0.0
z: 0.0546875
range: 1.74307882786
velocity: -0.614668667316
doppler_bin: 7
bearing: -0.0
intensity: 26.3447723389
---
header: 
  seq: 784364
  stamp: 
    secs: 1561867364
    nsecs: 247312655
  frame_id: "ti_mmwave"
point_id: 19
x: 1.677734375
y: -0.0
z: -0.015625
range: 1.78665578365
velocity: -0.614668667316
doppler_bin: 7
bearing: -0.0
intensity: 28.3058872223
---
header: 
  seq: 784365
  stamp: 
    secs: 1561867364
    nsecs: 247330572
  frame_id: "ti_mmwave"
point_id: 21
x: 0.041015625
y: -0.033203125
z: 0.0625
range: 0.0871539413929
velocity: 0.0
doppler_bin: 8
bearing: -38.9909973145
intensity: 30.1029987335
---
header: 
  seq: 784366
  stamp: 
    secs: 1561867364
    nsecs: 247339426
  frame_id: "ti_mmwave"
point_id: 22
x: 0.046875
y: -0.046875
z: 0.103515625
range: 0.130730912089
velocity: 0.0
doppler_bin: 8
bearing: -45.0
intensity: 29.0145835876
---
header: 
  seq: 784367
  stamp: 
    secs: 1561867364
    nsecs: 247417143
  frame_id: "ti_mmwave"
point_id: 24
x: 2.732421875
y: -0.181640625
z: 0.96484375
range: 3.09396481514
velocity: 0.0
doppler_bin: 8
bearing: -3.80320167542
intensity: 31.1527767181
---
header: 
  seq: 784368
  stamp: 
    secs: 1561867364
    nsecs: 248101248
  frame_id: "ti_mmwave"
point_id: 0
x: 0.01171875
y: -0.0390625
z: -0.0078125
range: 0.0435769706964
velocity: 0.0
doppler_bin: 8
bearing: -73.3007583618
intensity: 30.6557979584
---
header: 
  seq: 784369
  stamp: 
    secs: 1561867364
    nsecs: 248171676
  frame_id: "ti_mmwave"
point_id: 1
x: 0.017578125
y: -0.080078125
z: -0.0078125
range: 0.0871539413929
velocity: 0.0
doppler_bin: 8
bearing: -77.6192398071
intensity: 31.9089164734
---
header: 
  seq: 784370
  stamp: 
    secs: 1561867364
    nsecs: 248192576
  frame_id: "ti_mmwave"
point_id: 2
x: 0.029296875
y: -0.119140625
z: -0.005859375
range: 0.130730912089
velocity: 0.0
doppler_bin: 8
bearing: -76.1849746704
intensity: 30.1283721924
---
header: 
  seq: 784371
  stamp: 
    secs: 1561867364
    nsecs: 248207905
  frame_id: "ti_mmwave"
point_id: 3
x: 0.056640625
y: -0.154296875
z: 0.005859375
range: 0.174307882786
velocity: 0.0
doppler_bin: 8
bearing: -69.8423843384
intensity: 25.4530715942
---
header: 
  seq: 784372
  stamp: 
    secs: 1561867364
    nsecs: 248220432
  frame_id: "ti_mmwave"
point_id: 4
x: 0.142578125
y: -0.080078125
z: 1.2578125
range: 1.35088610649
velocity: 0.0
doppler_bin: 8
bearing: -29.3204746246
intensity: 23.1175384521
---
header: 
  seq: 784373
  stamp: 
    secs: 1561867364
    nsecs: 248237681
  frame_id: "ti_mmwave"
point_id: 6
x: 0.4296875
y: -0.083984375
z: -1.27734375
range: 1.43804001808
velocity: 0.0
doppler_bin: 8
bearing: -11.0592975616
intensity: 23.138671875
---
header: 
  seq: 784374
  stamp: 
    secs: 1561867364
    nsecs: 248351246
  frame_id: "ti_mmwave"
point_id: 7
x: 0.55859375
y: -0.04296875
z: -1.2734375
range: 1.48161697388
velocity: 0.0
doppler_bin: 8
bearing: -4.39870548248
intensity: 21.6731739044
---
header: 
  seq: 784375
  stamp: 
    secs: 1561867364
    nsecs: 248380981
  frame_id: "ti_mmwave"
point_id: 8
x: 2.6171875
y: -0.17578125
z: 1.04296875
range: 3.00681090355
velocity: 0.0
doppler_bin: 8
bearing: -3.84245300293
intensity: 28.9872512817
---
header: 
  seq: 784376
  stamp: 
    secs: 1561867364
    nsecs: 248397976
  frame_id: "ti_mmwave"
point_id: 9
x: 2.69140625
y: -0.08984375
z: 0.97265625
range: 3.05038785934
velocity: 0.0
doppler_bin: 8
bearing: -1.91192126274
intensity: 32.1800994873
---
header: 
  seq: 784377
  stamp: 
    secs: 1561867364
    nsecs: 248407501
  frame_id: "ti_mmwave"
point_id: 10
x: 2.75390625
y: -0.08984375
z: 0.91796875
range: 3.09396481514
velocity: 0.0
doppler_bin: 8
bearing: -1.86856126785
intensity: 31.1594314575
---
header: 
  seq: 784378
  stamp: 
    secs: 1561867364
    nsecs: 248441719
  frame_id: "ti_mmwave"
point_id: 11
x: 4.400390625
y: -0.142578125
z: 1.109375
range: 4.83704376221
velocity: 0.0
doppler_bin: 8
bearing: -1.85580503941
intensity: 28.4260921478
---
header: 
  seq: 784379
  stamp: 
    secs: 1561867364
    nsecs: 248466000
  frame_id: "ti_mmwave"
point_id: 12
x: 4.41015625
y: -0.142578125
z: 1.23046875
range: 4.88062095642
velocity: 0.0
doppler_bin: 8
bearing: -1.85169863701
intensity: 31.7868919373
---
header: 
  seq: 784380
  stamp: 
    secs: 1561867364
    nsecs: 248487405
  frame_id: "ti_mmwave"
point_id: 13
x: 4.44140625
y: -0.14453125
z: 1.271484375
range: 4.9241976738
velocity: 0.0
doppler_bin: 8
bearing: -1.86384868622
intensity: 31.3735408783
---
header: 
  seq: 784381
  stamp: 
    secs: 1561867364
    nsecs: 248506921
  frame_id: "ti_mmwave"
point_id: 14
x: 1.509765625
y: -0.0
z: 0.107421875
range: 1.61234796047
velocity: -0.614668667316
doppler_bin: 7
bearing: -0.0
intensity: 27.6342792511
---
header: 
  seq: 784382
  stamp: 
    secs: 1561867364
    nsecs: 248530030
  frame_id: "ti_mmwave"
point_id: 15
x: 1.548828125
y: -0.0
z: 0.123046875
range: 1.65592491627
velocity: -0.614668667316
doppler_bin: 7
bearing: -0.0
intensity: 28.2865982056
---
header: 
  seq: 784383
  stamp: 
    secs: 1561867364
    nsecs: 248644149
  frame_id: "ti_mmwave"
point_id: 16
x: 0.009765625
y: 0.03125
z: 0.025390625
range: 0.0435769706964
velocity: 0.0
doppler_bin: 8
bearing: 72.6459732056
intensity: 29.2941894531
---
header: 
  seq: 784384
  stamp: 
    secs: 1561867364
    nsecs: 248666671
  frame_id: "ti_mmwave"
point_id: 17
x: 0.041015625
y: -0.033203125
z: 0.0625
range: 0.0871539413929
velocity: 0.0
doppler_bin: 8
bearing: -38.9909973145
intensity: 30.0987567902
---
header: 
  seq: 784385
  stamp: 
    secs: 1561867364
    nsecs: 248680581
  frame_id: "ti_mmwave"
point_id: 18
x: 0.044921875
y: -0.046875
z: 0.103515625
range: 0.130730912089
velocity: 0.0
doppler_bin: 8
bearing: -46.218875885
intensity: 29.0036716461
---
header: 
  seq: 784386
  stamp: 
    secs: 1561867364
    nsecs: 306632803
  frame_id: "ti_mmwave"
point_id: 0
x: 0.01171875
y: -0.0390625
z: -0.0078125
range: 0.0435769706964
velocity: 0.0
doppler_bin: 8
bearing: -73.3007583618
intensity: 30.6520614624
---
header: 
  seq: 784387
  stamp: 
    secs: 1561867364
    nsecs: 306700911
  frame_id: "ti_mmwave"
point_id: 1
x: 0.017578125
y: -0.080078125
z: -0.0078125
range: 0.0871539413929
velocity: 0.0
doppler_bin: 8
bearing: -77.6192398071
intensity: 31.9089164734
---
header: 
  seq: 784388
  stamp: 
    secs: 1561867364
    nsecs: 306712057
  frame_id: "ti_mmwave"
point_id: 2
x: 0.029296875
y: -0.119140625
z: -0.005859375
range: 0.130730912089
velocity: 0.0
doppler_bin: 8
bearing: -76.1849746704
intensity: 30.1283721924
---
header: 
  seq: 784389
  stamp: 
    secs: 1561867364
    nsecs: 306724857
  frame_id: "ti_mmwave"
point_id: 3
x: 0.056640625
y: -0.154296875
z: 0.0078125
range: 0.174307882786
velocity: 0.0
doppler_bin: 8
bearing: -69.8423843384
intensity: 25.4530715942
---
header: 
  seq: 784390
  stamp: 
    secs: 1561867364
    nsecs: 306736376
  frame_id: "ti_mmwave"
point_id: 4
x: 0.099609375
y: -0.080078125
z: 1.26171875
range: 1.35088610649
velocity: 0.0
doppler_bin: 8
bearing: -38.7965545654
intensity: 23.0749607086
---
header: 
  seq: 784391
  stamp: 
    secs: 1561867364
    nsecs: 306751029
  frame_id: "ti_mmwave"
point_id: 6
x: 0.419921875
y: -0.083984375
z: -1.279296875
range: 1.43804001808
velocity: 0.0
doppler_bin: 8
bearing: -11.3099327087
intensity: 23.0749607086
---
header: 
  seq: 784392
  stamp: 
    secs: 1561867364
    nsecs: 306764251
  frame_id: "ti_mmwave"
point_id: 7
x: 1.642578125
y: 0.26171875
z: 0.216796875
range: 1.78665578365
velocity: 0.0
doppler_bin: 8
bearing: 9.05307292938
intensity: 27.774269104
---
header: 
  seq: 784393
  stamp: 
    secs: 1561867364
    nsecs: 306787600
  frame_id: "ti_mmwave"
point_id: 8
x: 1.666015625
y: 0.267578125
z: 0.322265625
range: 1.83023273945
velocity: 0.0
doppler_bin: 8
bearing: 9.12433052063
intensity: 27.5434837341
---
header: 
  seq: 784394
  stamp: 
    secs: 1561867364
    nsecs: 306798157
  frame_id: "ti_mmwave"
point_id: 9
x: 2.623046875
y: -0.17578125
z: 1.02734375
range: 3.00681090355
velocity: 0.0
doppler_bin: 8
bearing: -3.83389568329
intensity: 28.8986167908
---
header: 
  seq: 784395
  stamp: 
    secs: 1561867364
    nsecs: 306950255
  frame_id: "ti_mmwave"
point_id: 10
x: 2.693359375
y: -0.08984375
z: 0.966796875
range: 3.05038785934
velocity: 0.0
doppler_bin: 8
bearing: -1.91053581238
intensity: 32.1404876709
---
header: 
  seq: 784396
  stamp: 
    secs: 1561867364
    nsecs: 306973236
  frame_id: "ti_mmwave"
point_id: 11
x: 2.755859375
y: -0.08984375
z: 0.912109375
range: 3.09396481514
velocity: 0.0
doppler_bin: 8
bearing: -1.86723792553
intensity: 31.222158432
---
header: 
  seq: 784397
  stamp: 
    secs: 1561867364
    nsecs: 306983268
  frame_id: "ti_mmwave"
point_id: 12
x: 4.39453125
y: -0.142578125
z: 1.130859375
range: 4.83704376221
velocity: 0.0
doppler_bin: 8
bearing: -1.8582777977
intensity: 28.0618000031
---
header: 
  seq: 784398
  stamp: 
    secs: 1561867364
    nsecs: 306991277
  frame_id: "ti_mmwave"
point_id: 13
x: 4.408203125
y: -0.142578125
z: 1.2421875
range: 4.88062095642
velocity: 0.0
doppler_bin: 8
bearing: -1.85251843929
intensity: 31.4113616943
---
header: 
  seq: 784399
  stamp: 
    secs: 1561867364
    nsecs: 306998975
  frame_id: "ti_mmwave"
point_id: 14
x: 4.4453125
y: -0.14453125
z: 1.2578125
range: 4.9241976738
velocity: 0.0
doppler_bin: 8
bearing: -1.86221218109
intensity: 30.8493366241
---
header: 
  seq: 784400
  stamp: 
    secs: 1561867364
    nsecs: 307007016
  frame_id: "ti_mmwave"
point_id: 15
x: 4.91796875
y: -0.30859375
z: 0.45703125
range: 5.27281332016
velocity: 0.0
doppler_bin: 8
bearing: -3.59050059319
intensity: 30.0945091248
---
header: 
  seq: 784401
  stamp: 
    secs: 1561867364
    nsecs: 307015117
  frame_id: "ti_mmwave"
point_id: 16
x: 1.462890625
y: -0.0
z: 0.17578125
range: 1.56877088547
velocity: -0.614668667316
doppler_bin: 7
bearing: -0.0
intensity: 23.9619941711
---
header: 
  seq: 784402
  stamp: 
    secs: 1561867364
    nsecs: 307023391
  frame_id: "ti_mmwave"
point_id: 17
x: 1.509765625
y: -0.0
z: 0.119140625
range: 1.61234796047
velocity: -0.614668667316
doppler_bin: 7
bearing: -0.0
intensity: 27.8461723328
---
header: 
  seq: 784403
  stamp: 
    secs: 1561867364
    nsecs: 307114604
  frame_id: "ti_mmwave"
point_id: 18
x: 1.548828125
y: 0.048828125
z: 0.115234375
range: 1.65592491627
velocity: -0.614668667316
doppler_bin: 7
bearing: 1.80570006371
intensity: 28.2282161713
---
header: 
  seq: 784404
  stamp: 
    secs: 1561867364
    nsecs: 307130703
  frame_id: "ti_mmwave"
point_id: 19
x: 1.587890625
y: 0.099609375
z: 0.12890625
range: 1.69950187206
velocity: -0.614668667316
doppler_bin: 7
bearing: 3.58949661255
intensity: 25.6110134125
---
header: 
  seq: 784405
  stamp: 
    secs: 1561867364
    nsecs: 307147953
  frame_id: "ti_mmwave"
point_id: 21
x: 0.041015625
y: -0.033203125
z: 0.0625
range: 0.0871539413929
velocity: 0.0
doppler_bin: 8
bearing: -38.9909973145
intensity: 30.0902576447
---
header: 
  seq: 784406
  stamp: 
    secs: 1561867364
    nsecs: 307160411
  frame_id: "ti_mmwave"
point_id: 22
x: 0.044921875
y: -0.046875
z: 0.103515625
range: 0.130730912089
velocity: 0.0
doppler_bin: 8
bearing: -46.218875885
intensity: 29.0036716461
---
header: 
  seq: 784407
  stamp: 
    secs: 1561867364
    nsecs: 307173737
  frame_id: "ti_mmwave"
point_id: 24
x: 1.26171875
y: -0.314453125
z: -1.060546875
range: 1.78665578365
velocity: 0.0
doppler_bin: 8
bearing: -13.9944972992
intensity: 25.7403125763
---
header: 
  seq: 784408
  stamp: 
    secs: 1561867364
    nsecs: 307184520
  frame_id: "ti_mmwave"
point_id: 25
x: 1.369140625
y: -0.322265625
z: -0.986328125
range: 1.83023273945
velocity: 0.0
doppler_bin: 8
bearing: -13.2450752258
intensity: 26.2736587524
---
header: 
  seq: 784409
  stamp: 
    secs: 1561867364
    nsecs: 308155036
  frame_id: "ti_mmwave"
point_id: 0
x: 0.01171875
y: -0.0390625
z: -0.0078125
range: 0.0435769706964
velocity: 0.0
doppler_bin: 8
bearing: -73.3007583618
intensity: 30.6445808411
---
header: 
  seq: 784410
  stamp: 
    secs: 1561867364
    nsecs: 308198612
  frame_id: "ti_mmwave"
point_id: 1
x: 0.017578125
y: -0.080078125
z: -0.0078125
range: 0.0871539413929
velocity: 0.0
doppler_bin: 8
bearing: -77.6192398071
intensity: 31.9061183929
---
header: 
  seq: 784411
  stamp: 
    secs: 1561867364
    nsecs: 308208935
  frame_id: "ti_mmwave"
point_id: 2
x: 0.029296875
y: -0.119140625
z: -0.005859375
range: 0.130730912089
velocity: 0.0
doppler_bin: 8
bearing: -76.1849746704
intensity: 30.1283721924
---
header: 
  seq: 784412
  stamp: 
    secs: 1561867364
    nsecs: 308218530
  frame_id: "ti_mmwave"
point_id: 3
x: 0.056640625
y: -0.154296875
z: 0.005859375
range: 0.174307882786
velocity: 0.0
doppler_bin: 8
bearing: -69.8423843384
intensity: 25.4530715942
---
header: 
  seq: 784413
  stamp: 
    secs: 1561867364
    nsecs: 308229813
  frame_id: "ti_mmwave"
point_id: 4
x: 0.173828125
y: -0.080078125
z: 1.25390625
range: 1.35088610649
velocity: 0.0
doppler_bin: 8
bearing: -24.7343044281
intensity: 23.0963020325
---
header: 
  seq: 784414
  stamp: 
    secs: 1561867364
    nsecs: 308238585
  frame_id: "ti_mmwave"
point_id: 5
x: 0.0546875
y: -0.08203125
z: 1.3046875
range: 1.39446306229
velocity: 0.0
doppler_bin: 8
bearing: -56.3099327087
intensity: 24.6239795685
---
header: 
  seq: 784415
  stamp: 
    secs: 1561867364
    nsecs: 308256570
  frame_id: "ti_mmwave"
point_id: 6
x: 0.3984375
y: -0.083984375
z: -1.287109375
range: 1.43804001808
velocity: 0.0
doppler_bin: 8
bearing: -11.9028120041
intensity: 23.0749607086
---
header: 
  seq: 784416
  stamp: 
    secs: 1561867364
    nsecs: 308268408
  frame_id: "ti_mmwave"
point_id: 7
x: 1.51171875
y: -0.0
z: 0.0625
range: 1.61234796047
velocity: 0.0
doppler_bin: 8
bearing: -0.0
intensity: 26.170003891
---
header: 
  seq: 784417
  stamp: 
    secs: 1561867364
    nsecs: 308324725
  frame_id: "ti_mmwave"
point_id: 8
x: 1.5546875
y: -0.0
z: 0.041015625
range: 1.65592491627
velocity: 0.0
doppler_bin: 8
bearing: -0.0
intensity: 26.2634029388
---
header: 
  seq: 784418
  stamp: 
    secs: 1561867364
    nsecs: 308333911
  frame_id: "ti_mmwave"
point_id: 9
x: 1.654296875
y: -0.052734375
z: -0.265625
range: 1.78665578365
velocity: 0.0
doppler_bin: 8
bearing: -1.82581138611
intensity: 29.8136558533
---
header: 
  seq: 784419
  stamp: 
    secs: 1561867364
    nsecs: 308342791
  frame_id: "ti_mmwave"
point_id: 10
x: 1.701171875
y: -0.052734375
z: -0.228515625
range: 1.83023273945
velocity: 0.0
doppler_bin: 8
bearing: -1.77553474903
intensity: 30.7298469543
---
header: 
  seq: 784420
  stamp: 
    secs: 1561867364
    nsecs: 308350748
  frame_id: "ti_mmwave"
point_id: 11
x: 1.748046875
y: -0.0
z: -0.197265625
range: 1.87380969524
velocity: 0.0
doppler_bin: 8
bearing: -0.0
intensity: 27.9587993622
---
header: 
  seq: 784421
  stamp: 
    secs: 1561867364
    nsecs: 308359957
  frame_id: "ti_mmwave"
point_id: 12
x: 2.626953125
y: -0.17578125
z: 1.015625
range: 3.00681090355
velocity: 0.0
doppler_bin: 8
bearing: -3.82821130753
intensity: 29.0363254547
---
header: 
  seq: 784422
  stamp: 
    secs: 1561867364
    nsecs: 308367328
  frame_id: "ti_mmwave"
point_id: 13
x: 2.6953125
y: -0.08984375
z: 0.962890625
range: 3.05038785934
velocity: 0.0
doppler_bin: 8
bearing: -1.90915250778
intensity: 32.2427406311
---
header: 
  seq: 784423
  stamp: 
    secs: 1561867364
    nsecs: 308376432
  frame_id: "ti_mmwave"
point_id: 14
x: 2.76171875
y: -0.08984375
z: 0.896484375
range: 3.09396481514
velocity: 0.0
doppler_bin: 8
bearing: -1.86327898502
intensity: 31.2872219086
---
header: 
  seq: 784424
  stamp: 
    secs: 1561867364
    nsecs: 308383979
  frame_id: "ti_mmwave"
point_id: 15
x: 4.40234375
y: -0.142578125
z: 1.263671875
range: 4.88062095642
velocity: 0.0
doppler_bin: 8
bearing: -1.85498249531
intensity: 31.2483005524
---
header: 
  seq: 784425
  stamp: 
    secs: 1561867364
    nsecs: 308391373
  frame_id: "ti_mmwave"
point_id: 16
x: 4.435546875
y: -0.14453125
z: 1.291015625
range: 4.9241976738
velocity: 0.0
doppler_bin: 8
bearing: -1.86630904675
intensity: 30.7591171265
---
header: 
  seq: 784426
  stamp: 
    secs: 1561867364
    nsecs: 308398885
  frame_id: "ti_mmwave"
point_id: 17
