header: 
  seq: 936374
  stamp: 
    secs: 1561867626
    nsecs: 566568771
  frame_id: "ti_mmwave"
point_id: 0
x: 0.01171875
y: -0.0390625
z: -0.0078125
range: 0.0435769706964
velocity: 0.0
doppler_bin: 8
bearing: -73.3007583618
intensity: 30.6370849609
---
header: 
  seq: 936375
  stamp: 
    secs: 1561867626
    nsecs: 566666664
  frame_id: "ti_mmwave"
point_id: 1
x: 0.017578125
y: -0.080078125
z: -0.0078125
range: 0.0871539413929
velocity: 0.0
doppler_bin: 8
bearing: -77.6192398071
intensity: 31.894903183
---
header: 
  seq: 936376
  stamp: 
    secs: 1561867626
    nsecs: 566682740
  frame_id: "ti_mmwave"
point_id: 2
x: 0.029296875
y: -0.119140625
z: -0.005859375
range: 0.130730912089
velocity: 0.0
doppler_bin: 8
bearing: -76.1849746704
intensity: 30.1199302673
---
header: 
  seq: 936377
  stamp: 
    secs: 1561867626
    nsecs: 566696641
  frame_id: "ti_mmwave"
point_id: 3
x: 0.056640625
y: -0.154296875
z: 0.005859375
range: 0.174307882786
velocity: 0.0
doppler_bin: 8
bearing: -69.8423843384
intensity: 25.4530715942
---
header: 
  seq: 936378
  stamp: 
    secs: 1561867626
    nsecs: 566706422
  frame_id: "ti_mmwave"
point_id: 4
x: 0.138671875
y: -0.080078125
z: 1.2578125
range: 1.35088610649
velocity: 0.0
doppler_bin: 8
bearing: -30.0049190521
intensity: 23.1597042084
---
header: 
  seq: 936379
  stamp: 
    secs: 1561867626
    nsecs: 566725089
  frame_id: "ti_mmwave"
point_id: 6
x: 0.42578125
y: -0.083984375
z: -1.27734375
range: 1.43804001808
velocity: 0.0
doppler_bin: 8
bearing: -11.1582231522
intensity: 23.138671875
---
header: 
  seq: 936380
  stamp: 
    secs: 1561867626
    nsecs: 566737850
  frame_id: "ti_mmwave"
point_id: 7
x: 1.73046875
y: -0.1640625
z: -0.2734375
range: 1.87380969524
velocity: 0.0
doppler_bin: 8
bearing: -5.41591691971
intensity: 24.8429985046
---
header: 
  seq: 936381
  stamp: 
    secs: 1561867626
    nsecs: 566751766
  frame_id: "ti_mmwave"
point_id: 8
x: 1.791015625
y: -0.16796875
z: 0.0
range: 1.91738677025
velocity: 0.0
doppler_bin: 8
bearing: -5.35776042938
intensity: 27.4272518158
---
header: 
  seq: 936382
  stamp: 
    secs: 1561867626
    nsecs: 566763490
  frame_id: "ti_mmwave"
point_id: 9
x: 1.83203125
y: -0.115234375
z: 0.140625
range: 1.96096372604
velocity: 0.0
doppler_bin: 8
bearing: -3.59915065765
intensity: 27.2916469574
---
header: 
  seq: 936383
  stamp: 
    secs: 1561867626
    nsecs: 566787157
  frame_id: "ti_mmwave"
point_id: 10
x: 2.599609375
y: -0.17578125
z: 1.0859375
range: 3.00681090355
velocity: 0.0
doppler_bin: 8
bearing: -3.86835670471
intensity: 28.9486961365
---
header: 
  seq: 936384
  stamp: 
    secs: 1561867626
    nsecs: 566806547
  frame_id: "ti_mmwave"
point_id: 11
x: 2.65234375
y: -0.1796875
z: 1.0625
range: 3.05038785934
velocity: 0.0
doppler_bin: 8
bearing: -3.87567687035
intensity: 32.1457901001
---
header: 
  seq: 936385
  stamp: 
    secs: 1561867626
    nsecs: 566900964
  frame_id: "ti_mmwave"
point_id: 12
x: 2.751953125
y: -0.08984375
z: 0.921875
range: 3.09396481514
velocity: 0.0
doppler_bin: 8
bearing: -1.86988639832
intensity: 31.1793384552
---
header: 
  seq: 936386
  stamp: 
    secs: 1561867626
    nsecs: 566919238
  frame_id: "ti_mmwave"
point_id: 13
x: 0.009765625
y: 0.03125
z: 0.025390625
range: 0.0435769706964
velocity: 0.0
doppler_bin: 8
bearing: 72.6459732056
intensity: 29.2737045288
---
header: 
  seq: 936387
  stamp: 
    secs: 1561867626
    nsecs: 566933600
  frame_id: "ti_mmwave"
point_id: 14
x: 0.041015625
y: -0.033203125
z: 0.0625
range: 0.0871539413929
velocity: 0.0
doppler_bin: 8
bearing: -38.9909973145
intensity: 30.0860023499
---
header: 
  seq: 936388
  stamp: 
    secs: 1561867626
    nsecs: 566945323
  frame_id: "ti_mmwave"
point_id: 15
x: 0.044921875
y: -0.046875
z: 0.103515625
range: 0.130730912089
velocity: 0.0
doppler_bin: 8
bearing: -46.218875885
intensity: 28.9982051849
---
header: 
  seq: 936389
  stamp: 
    secs: 1561867626
    nsecs: 566957407
  frame_id: "ti_mmwave"
point_id: 17
x: 1.82421875
y: -0.23046875
z: 0.072265625
range: 1.96096372604
velocity: 0.0
doppler_bin: 8
bearing: -7.20050477982
intensity: 27.2754135132
---
header: 
  seq: 936390
  stamp: 
    secs: 1561867626
    nsecs: 567832736
  frame_id: "ti_mmwave"
point_id: 0
x: 0.01171875
y: -0.0390625
z: -0.0078125
range: 0.0435769706964
velocity: 0.0
doppler_bin: 8
bearing: -73.3007583618
intensity: 30.6333332062
---
header: 
  seq: 936391
  stamp: 
    secs: 1561867626
    nsecs: 567879914
  frame_id: "ti_mmwave"
point_id: 1
x: 0.017578125
y: -0.080078125
z: -0.0078125
range: 0.0871539413929
velocity: 0.0
doppler_bin: 8
bearing: -77.6192398071
intensity: 31.894903183
---
header: 
  seq: 936392
  stamp: 
    secs: 1561867626
    nsecs: 567898330
  frame_id: "ti_mmwave"
point_id: 2
x: 0.029296875
y: -0.119140625
z: -0.005859375
range: 0.130730912089
velocity: 0.0
doppler_bin: 8
bearing: -76.1849746704
intensity: 30.1157035828
---
header: 
  seq: 936393
  stamp: 
    secs: 1561867626
    nsecs: 567911669
  frame_id: "ti_mmwave"
point_id: 3
x: 0.056640625
y: -0.154296875
z: 0.005859375
range: 0.174307882786
velocity: 0.0
doppler_bin: 8
bearing: -69.8423843384
intensity: 25.4406795502
---
header: 
  seq: 936394
  stamp: 
    secs: 1561867626
    nsecs: 567924274
  frame_id: "ti_mmwave"
point_id: 4
x: 0.126953125
y: -0.080078125
z: 1.259765625
range: 1.35088610649
velocity: 0.0
doppler_bin: 8
bearing: -32.2424697876
intensity: 23.1175384521
---
header: 
  seq: 936395
  stamp: 
    secs: 1561867626
    nsecs: 567938235
  frame_id: "ti_mmwave"
point_id: 5
x: 0.046875
y: -0.08203125
z: 1.3046875
range: 1.39446306229
velocity: 0.0
doppler_bin: 8
bearing: -60.255115509
intensity: 24.6389293671
---
header: 
  seq: 936396
  stamp: 
    secs: 1561867626
    nsecs: 568022726
  frame_id: "ti_mmwave"
point_id: 6
x: 0.408203125
y: -0.083984375
z: -1.283203125
range: 1.43804001808
velocity: 0.0
doppler_bin: 8
bearing: -11.6258993149
intensity: 23.1175384521
---
header: 
  seq: 936397
  stamp: 
    secs: 1561867626
    nsecs: 568047490
  frame_id: "ti_mmwave"
point_id: 7
x: 0.55078125
y: -0.04296875
z: -1.27734375
range: 1.48161697388
velocity: 0.0
doppler_bin: 8
bearing: -4.46084880829
intensity: 21.7318630219
---
header: 
  seq: 936398
  stamp: 
    secs: 1561867626
    nsecs: 568068885
  frame_id: "ti_mmwave"
point_id: 8
x: 1.791015625
y: -0.056640625
z: 0.17578125
range: 1.91738677025
velocity: 0.0
doppler_bin: 8
bearing: -1.81136763096
intensity: 28.6391735077
---
header: 
  seq: 936399
  stamp: 
    secs: 1561867626
    nsecs: 568154985
  frame_id: "ti_mmwave"
point_id: 9
x: 1.822265625
y: -0.115234375
z: 0.23828125
range: 1.96096372604
velocity: 0.0
doppler_bin: 8
bearing: -3.61838746071
intensity: 27.1516742706
---
header: 
  seq: 936400
  stamp: 
    secs: 1561867626
    nsecs: 568164636
  frame_id: "ti_mmwave"
point_id: 10
x: 2.62109375
y: -0.17578125
z: 1.03125
range: 3.00681090355
velocity: 0.0
doppler_bin: 8
bearing: -3.83674383163
intensity: 29.0633506775
---
header: 
  seq: 936401
  stamp: 
    secs: 1561867626
    nsecs: 568173386
  frame_id: "ti_mmwave"
point_id: 11
x: 2.666015625
y: -0.1796875
z: 1.03125
range: 3.05038785934
velocity: 0.0
doppler_bin: 8
bearing: -3.85586214066
intensity: 32.1932258606
---
header: 
  seq: 936402
  stamp: 
    secs: 1561867626
    nsecs: 568181986
  frame_id: "ti_mmwave"
point_id: 12
x: 2.7578125
y: -0.08984375
z: 0.908203125
range: 3.09396481514
velocity: 0.0
doppler_bin: 8
bearing: -1.86591637135
intensity: 31.1793384552
---
header: 
  seq: 936403
  stamp: 
    secs: 1561867626
    nsecs: 568193294
  frame_id: "ti_mmwave"
point_id: 14
x: 0.041015625
y: -0.033203125
z: 0.0625
range: 0.0871539413929
velocity: 0.0
doppler_bin: 8
bearing: -38.9909973145
intensity: 30.0902576447
---
header: 
  seq: 936404
  stamp: 
    secs: 1561867626
    nsecs: 568201131
  frame_id: "ti_mmwave"
point_id: 15
x: 0.044921875
y: -0.046875
z: 0.103515625
range: 0.130730912089
velocity: 0.0
doppler_bin: 8
bearing: -46.218875885
intensity: 29.0036716461
---
header: 
  seq: 936405
  stamp: 
    secs: 1561867626
    nsecs: 626616298
  frame_id: "ti_mmwave"
point_id: 0
x: 0.01171875
y: -0.0390625
z: -0.0078125
range: 0.0435769706964
velocity: 0.0
doppler_bin: 8
bearing: -73.3007583618
intensity: 30.6333332062
---
header: 
  seq: 936406
  stamp: 
    secs: 1561867626
    nsecs: 626667799
  frame_id: "ti_mmwave"
point_id: 1
x: 0.017578125
y: -0.080078125
z: -0.0078125
range: 0.0871539413929
velocity: 0.0
doppler_bin: 8
bearing: -77.6192398071
intensity: 31.8920955658
---
header: 
  seq: 936407
  stamp: 
    secs: 1561867626
    nsecs: 626675208
  frame_id: "ti_mmwave"
point_id: 2
x: 0.029296875
y: -0.119140625
z: -0.005859375
range: 0.130730912089
velocity: 0.0
doppler_bin: 8
bearing: -76.1849746704
intensity: 30.1114730835
---
header: 
  seq: 936408
  stamp: 
    secs: 1561867626
    nsecs: 626681200
  frame_id: "ti_mmwave"
point_id: 3
x: 0.056640625
y: -0.154296875
z: 0.005859375
range: 0.174307882786
velocity: 0.0
doppler_bin: 8
bearing: -69.8423843384
intensity: 25.4282550812
---
header: 
  seq: 936409
  stamp: 
    secs: 1561867626
    nsecs: 626687407
  frame_id: "ti_mmwave"
point_id: 4
x: 0.16796875
y: -0.080078125
z: 1.25390625
range: 1.35088610649
velocity: 0.0
doppler_bin: 8
bearing: -25.489200592
intensity: 23.138671875
---
header: 
  seq: 936410
  stamp: 
    secs: 1561867626
    nsecs: 626693178
  frame_id: "ti_mmwave"
point_id: 5
x: 0.095703125
y: -0.08203125
z: 1.302734375
range: 1.39446306229
velocity: 0.0
doppler_bin: 8
bearing: -40.6012954712
intensity: 24.6538276672
---
header: 
  seq: 936411
  stamp: 
    secs: 1561867626
    nsecs: 626700365
  frame_id: "ti_mmwave"
point_id: 6
x: 0.392578125
y: -0.083984375
z: -1.2890625
range: 1.43804001808
velocity: 0.0
doppler_bin: 8
bearing: -12.0752887726
intensity: 23.1597042084
---
header: 
  seq: 936412
  stamp: 
    secs: 1561867626
    nsecs: 626707034
  frame_id: "ti_mmwave"
point_id: 7
x: 0.5390625
y: -0.04296875
z: -1.28125
range: 1.48161697388
velocity: 0.0
doppler_bin: 8
bearing: -4.55741930008
intensity: 21.8469142914
---
header: 
  seq: 936413
  stamp: 
    secs: 1561867626
    nsecs: 626712878
  frame_id: "ti_mmwave"
point_id: 8
x: 1.66015625
y: -0.0
z: -0.2421875
range: 1.78665578365
velocity: 0.0
doppler_bin: 8
bearing: -0.0
intensity: 30.0389118195
---
header: 
  seq: 936414
  stamp: 
    secs: 1561867626
    nsecs: 626718105
  frame_id: "ti_mmwave"
point_id: 9
x: 1.70703125
y: -0.0
z: -0.197265625
range: 1.83023273945
velocity: 0.0
doppler_bin: 8
bearing: -0.0
intensity: 32.9446640015
---
header: 
  seq: 936415
  stamp: 
    secs: 1561867626
    nsecs: 626837511
  frame_id: "ti_mmwave"
point_id: 10
x: 1.75390625
y: 0.0546875
z: -0.115234375
range: 1.87380969524
velocity: 0.0
doppler_bin: 8
bearing: 1.78592669964
intensity: 31.8497524261
---
header: 
  seq: 936416
  stamp: 
    secs: 1561867626
    nsecs: 626854733
  frame_id: "ti_mmwave"
point_id: 11
x: 1.58203125
y: -0.337890625
z: -0.7890625
range: 1.91738677025
velocity: 0.0
doppler_bin: 8
bearing: -12.0561056137
intensity: 27.0243053436
---
header: 
  seq: 936417
  stamp: 
    secs: 1561867626
    nsecs: 626862470
  frame_id: "ti_mmwave"
point_id: 12
x: 1.76171875
y: -0.23046875
z: -0.48046875
range: 1.96096372604
velocity: 0.0
doppler_bin: 8
bearing: -7.45313167572
intensity: 28.645111084
---
header: 
  seq: 936418
  stamp: 
    secs: 1561867626
    nsecs: 626869975
  frame_id: "ti_mmwave"
point_id: 13
x: 2.615234375
y: -0.17578125
z: 1.048828125
range: 3.00681090355
velocity: 0.0
doppler_bin: 8
bearing: -3.84531402588
intensity: 29.122220993
---
header: 
  seq: 936419
  stamp: 
    secs: 1561867626
    nsecs: 626878225
  frame_id: "ti_mmwave"
point_id: 14
x: 2.650390625
y: -0.1796875
z: 1.068359375
range: 3.05038785934
velocity: 0.0
doppler_bin: 8
bearing: -3.87852454185
intensity: 32.1642990112
---
header: 
  seq: 936420
  stamp: 
    secs: 1561867626
    nsecs: 626900033
  frame_id: "ti_mmwave"
point_id: 15
x: 2.73828125
y: -0.08984375
z: 0.962890625
range: 3.09396481514
velocity: 0.0
doppler_bin: 8
bearing: -1.87921595573
intensity: 31.095785141
---
header: 
  seq: 936421
  stamp: 
    secs: 1561867626
    nsecs: 626917350
  frame_id: "ti_mmwave"
point_id: 17
x: 0.041015625
y: -0.033203125
z: 0.0625
range: 0.0871539413929
velocity: 0.0
doppler_bin: 8
bearing: -38.9909973145
intensity: 30.081741333
---
header: 
  seq: 936422
  stamp: 
    secs: 1561867626
    nsecs: 626966993
  frame_id: "ti_mmwave"
point_id: 18
x: 0.044921875
y: -0.046875
z: 0.103515625
range: 0.130730912089
velocity: 0.0
doppler_bin: 8
bearing: -46.218875885
intensity: 28.9927310944
---
header: 
  seq: 936423
  stamp: 
    secs: 1561867626
    nsecs: 626980487
  frame_id: "ti_mmwave"
point_id: 20
x: 1.7109375
y: 0.28125
z: 0.484375
range: 1.91738677025
velocity: 0.0
doppler_bin: 8
bearing: 9.3349981308
intensity: 26.0959434509
---
header: 
  seq: 936424
  stamp: 
    secs: 1561867626
    nsecs: 626989120
  frame_id: "ti_mmwave"
point_id: 21
x: 0.990234375
y: 0.40234375
z: 1.498046875
range: 1.96096372604
velocity: 0.0
doppler_bin: 8
bearing: 22.1124801636
intensity: 25.6466598511
---
header: 
  seq: 936425
  stamp: 
    secs: 1561867626
    nsecs: 686558126
  frame_id: "ti_mmwave"
point_id: 0
x: 0.01171875
y: -0.0390625
z: -0.0078125
range: 0.0435769706964
velocity: 0.0
doppler_bin: 8
bearing: -73.3007583618
intensity: 30.6295776367
---
header: 
  seq: 936426
  stamp: 
    secs: 1561867626
    nsecs: 686628828
  frame_id: "ti_mmwave"
point_id: 1
x: 0.017578125
y: -0.080078125
z: -0.0078125
range: 0.0871539413929
velocity: 0.0
doppler_bin: 8
bearing: -77.6192398071
intensity: 31.8920955658
---
header: 
  seq: 936427
  stamp: 
    secs: 1561867626
    nsecs: 686658960
  frame_id: "ti_mmwave"
point_id: 2
x: 0.029296875
y: -0.119140625
z: -0.005859375
range: 0.130730912089
velocity: 0.0
doppler_bin: 8
bearing: -76.1849746704
intensity: 30.1114730835
---
header: 
  seq: 936428
  stamp: 
    secs: 1561867626
    nsecs: 686667364
  frame_id: "ti_mmwave"
point_id: 3
x: 0.056640625
y: -0.154296875
z: 0.005859375
range: 0.174307882786
velocity: 0.0
doppler_bin: 8
bearing: -69.8423843384
intensity: 25.4406795502
---
header: 
  seq: 936429
  stamp: 
    secs: 1561867626
    nsecs: 686676664
  frame_id: "ti_mmwave"
point_id: 4
x: 0.16796875
y: -0.080078125
z: 1.25390625
range: 1.35088610649
velocity: 0.0
doppler_bin: 8
bearing: -25.489200592
intensity: 23.138671875
---
header: 
  seq: 936430
  stamp: 
    secs: 1561867626
    nsecs: 686687418
  frame_id: "ti_mmwave"
point_id: 5
x: 0.09375
y: -0.08203125
z: 1.302734375
range: 1.39446306229
velocity: 0.0
doppler_bin: 8
bearing: -41.18592453
intensity: 24.6686763763
---
header: 
  seq: 936431
  stamp: 
    secs: 1561867626
    nsecs: 686698600
  frame_id: "ti_mmwave"
point_id: 6
x: 0.41796875
y: -0.083984375
z: -1.28125
range: 1.43804001808
velocity: 0.0
doppler_bin: 8
bearing: -11.3614110947
intensity: 23.1597042084
---
header: 
  seq: 936432
  stamp: 
    secs: 1561867626
    nsecs: 686712787
  frame_id: "ti_mmwave"
point_id: 7
x: 0.576171875
y: -0.04296875
z: -1.265625
range: 1.48161697388
velocity: 0.0
doppler_bin: 8
bearing: -4.2650103569
intensity: 21.7897701263
---
header: 
  seq: 936433
  stamp: 
    secs: 1561867626
    nsecs: 686724602
  frame_id: "ti_mmwave"
point_id: 8
x: 1.779296875
y: -0.224609375
z: 0.1484375
range: 1.91738677025
velocity: 0.0
doppler_bin: 8
bearing: -7.1946721077
intensity: 27.7959651947
---
header: 
  seq: 936434
  stamp: 
    secs: 1561867626
    nsecs: 686735495
  frame_id: "ti_mmwave"
point_id: 9
x: 1.83203125
y: -0.171875
z: -0.046875
range: 1.96096372604
velocity: 0.0
doppler_bin: 8
bearing: -5.35960912704
intensity: 28.8252449036
---
header: 
  seq: 936435
  stamp: 
    secs: 1561867626
    nsecs: 686759240
  frame_id: "ti_mmwave"
point_id: 10
x: 1.87109375
y: -0.1171875
z: -0.166015625
range: 2.00454068184
velocity: 0.0
doppler_bin: 8
bearing: -3.58378148079
intensity: 27.3319721222
---
header: 
  seq: 936436
  stamp: 
    secs: 1561867626
    nsecs: 686776405
  frame_id: "ti_mmwave"
point_id: 11
x: 2.630859375
y: -0.17578125
z: 1.005859375
range: 3.00681090355
velocity: 0.0
doppler_bin: 8
bearing: -3.82254433632
intensity: 28.8366146088
---
header: 
  seq: 936437
  stamp: 
    secs: 1561867626
    nsecs: 686808519
  frame_id: "ti_mmwave"
point_id: 12
x: 2.66796875
y: -0.1796875
z: 1.0234375
range: 3.05038785934
velocity: 0.0
doppler_bin: 8
bearing: -3.85304760933
intensity: 32.0871009827
---
header: 
  seq: 936438
  stamp: 
    secs: 1561867626
    nsecs: 686902679
  frame_id: "ti_mmwave"
point_id: 13
x: 2.759765625
y: -0.08984375
z: 0.8984375
range: 3.09396481514
velocity: 0.0
doppler_bin: 8
bearing: -1.86459684372
intensity: 31.0311927795
---
header: 
  seq: 936439
  stamp: 
    secs: 1561867626
    nsecs: 686923164
  frame_id: "ti_mmwave"
point_id: 15
x: 0.041015625
y: -0.033203125
z: 0.0625
range: 0.0871539413929
velocity: 0.0
doppler_bin: 8
bearing: -38.9909973145
intensity: 30.081741333
---
header: 
  seq: 936440
  stamp: 
    secs: 1561867626
    nsecs: 686934977
  frame_id: "ti_mmwave"
point_id: 16
x: 0.044921875
y: -0.046875
z: 0.103515625
range: 0.130730912089
velocity: 0.0
doppler_bin: 8
bearing: -46.218875885
intensity: 28.9927310944
---
header: 
  seq: 936441
  stamp: 
    secs: 1561867626
    nsecs: 687577157
  frame_id: "ti_mmwave"
point_id: 0
x: 0.01171875
y: -0.0390625
z: -0.0078125
range: 0.0435769706964
velocity: 0.0
doppler_bin: 8
bearing: -73.3007583618
intensity: 30.6370849609
---
header: 
  seq: 936442
  stamp: 
    secs: 1561867626
    nsecs: 687625090
  frame_id: "ti_mmwave"
point_id: 1
x: 0.017578125
y: -0.080078125
z: -0.0078125
range: 0.0871539413929
velocity: 0.0
doppler_bin: 8
bearing: -77.6192398071
intensity: 31.894903183
---
header: 
  seq: 936443
  stamp: 
    secs: 1561867626
    nsecs: 687641506
  frame_id: "ti_mmwave"
point_id: 2
x: 0.029296875
y: -0.119140625
z: -0.005859375
range: 0.130730912089
velocity: 0.0
doppler_bin: 8
bearing: -76.1849746704
intensity: 30.1157035828
---
header: 
  seq: 936444
  stamp: 
    secs: 1561867626
    nsecs: 687653464
  frame_id: "ti_mmwave"
point_id: 3
x: 0.056640625
y: -0.154296875
z: 0.005859375
range: 0.174307882786
velocity: 0.0
doppler_bin: 8
bearing: -69.8423843384
intensity: 25.4406795502
---
header: 
  seq: 936445
  stamp: 
    secs: 1561867626
    nsecs: 687808256
  frame_id: "ti_mmwave"
point_id: 4
x: 0.14453125
y: -0.080078125
z: 1.2578125
range: 1.35088610649
velocity: 0.0
doppler_bin: 8
bearing: -28.9888248444
intensity: 23.1175384521
---
header: 
  seq: 936446
  stamp: 
    secs: 1561867626
    nsecs: 687848184
  frame_id: "ti_mmwave"
point_id: 5
x: 0.0625
y: -0.08203125
z: 1.3046875
range: 1.39446306229
velocity: 0.0
doppler_bin: 8
bearing: -52.6960487366
intensity: 24.6538276672
---
header: 
  seq: 936447
  stamp: 
    secs: 1561867626
    nsecs: 687860606
  frame_id: "ti_mmwave"
point_id: 6
x: 0.4296875
y: -0.083984375
z: -1.27734375
range: 1.43804001808
velocity: 0.0
doppler_bin: 8
bearing: -11.0592975616
intensity: 23.0963020325
---
header: 
  seq: 936448
  stamp: 
    secs: 1561867626
    nsecs: 687869106
  frame_id: "ti_mmwave"
point_id: 7
x: 0.58203125
y: -0.04296875
z: -1.263671875
range: 1.48161697388
velocity: 0.0
doppler_bin: 8
bearing: -4.22222995758
intensity: 21.7318630219
---
header: 
  seq: 936449
  stamp: 
    secs: 1561867626
    nsecs: 687907699
  frame_id: "ti_mmwave"
point_id: 8
x: 1.6640625
y: -0.0
z: -0.20703125
range: 1.78665578365
velocity: 0.0
doppler_bin: 8
bearing: -0.0
intensity: 29.5520648956
---
header: 
  seq: 936450
  stamp: 
    secs: 1561867626
    nsecs: 687919877
  frame_id: "ti_mmwave"
point_id: 9
x: 1.697265625
y: -0.0
z: -0.259765625
range: 1.83023273945
velocity: 0.0
doppler_bin: 8
bearing: -0.0
intensity: 32.4353408813
---
header: 
  seq: 936451
  stamp: 
    secs: 1561867626
    nsecs: 687933530
  frame_id: "ti_mmwave"
point_id: 10
x: 1.71484375
y: 0.0546875
z: -0.384765625
range: 1.87380969524
velocity: 0.0
doppler_bin: 8
bearing: 1.8265812397
intensity: 31.1461105347
---
header: 
  seq: 936452
  stamp: 
    secs: 1561867626
    nsecs: 687980429
  frame_id: "ti_mmwave"
point_id: 11
x: 1.662109375
y: 0.224609375
z: -0.654296875
range: 1.91738677025
velocity: 0.0
doppler_bin: 8
bearing: 7.6960515976
intensity: 25.9879055023
---
header: 
  seq: 936453
  stamp: 
    secs: 1561867626
    nsecs: 688010142
  frame_id: "ti_mmwave"
point_id: 12
x: 1.81640625
y: -0.23046875
z: 0.189453125
range: 1.96096372604
velocity: 0.0
doppler_bin: 8
bearing: -7.23114776611
intensity: 25.9879055023
---
header: 
  seq: 936454
  stamp: 
    secs: 1561867626
    nsecs: 688028096
  frame_id: "ti_mmwave"
point_id: 13
x: 2.658203125
y: -0.1796875
z: 1.05078125
range: 3.05038785934
velocity: 0.0
doppler_bin: 8
bearing: -3.86716008186
intensity: 32.1138763428
---
header: 
  seq: 936455
  stamp: 
    secs: 1561867626
    nsecs: 688076578
  frame_id: "ti_mmwave"
point_id: 14
x: 2.75390625
y: -0.08984375
z: 0.91796875
range: 3.09396481514
velocity: 0.0
doppler_bin: 8
bearing: -1.86856126785
intensity: 31.1025295258
---
header: 
  seq: 936456
  stamp: 
    secs: 1561867626
    nsecs: 688094204
  frame_id: "ti_mmwave"
point_id: 16
x: 0.041015625
y: -0.033203125
z: 0.0625
range: 0.0871539413929
velocity: 0.0
doppler_bin: 8
bearing: -38.9909973145
intensity: 30.0860023499
---
header: 
  seq: 936457
  stamp: 
    secs: 1561867626
    nsecs: 688104691
  frame_id: "ti_mmwave"
point_id: 17
x: 0.044921875
y: -0.046875
z: 0.103515625
range: 0.130730912089
velocity: 0.0
doppler_bin: 8
bearing: -46.218875885
intensity: 28.9982051849
---
header: 
  seq: 936458
  stamp: 
    secs: 1561867626
    nsecs: 688116504
  frame_id: "ti_mmwave"
point_id: 19
x: 1.6640625
y: -0.39453125
z: 0.5625
range: 1.91738677025
velocity: 0.0
doppler_bin: 8
bearing: -13.3379364014
intensity: 25.1188335419
---
header: 
  seq: 936459
  stamp: 
    secs: 1561867626
    nsecs: 746771014
  frame_id: "ti_mmwave"
point_id: 0
x: 0.01171875
y: -0.0390625
z: -0.0078125
range: 0.0435769706964
velocity: 0.0
doppler_bin: 8
bearing: -73.3007583618
intensity: 30.6258201599
---
header: 
  seq: 936460
  stamp: 
    secs: 1561867626
    nsecs: 746848444
  frame_id: "ti_mmwave"
point_id: 1
x: 0.017578125
y: -0.080078125
z: -0.0078125
range: 0.0871539413929
velocity: 0.0
doppler_bin: 8
bearing: -77.6192398071
intensity: 31.8920955658
---
header: 
  seq: 936461
  stamp: 
    secs: 1561867626
    nsecs: 746864545
  frame_id: "ti_mmwave"
point_id: 2
x: 0.029296875
y: -0.119140625
z: -0.005859375
range: 0.130730912089
velocity: 0.0
doppler_bin: 8
bearing: -76.1849746704
intensity: 30.1114730835
---
header: 
  seq: 936462
  stamp: 
    secs: 1561867626
    nsecs: 746878999
  frame_id: "ti_mmwave"
point_id: 3
x: 0.056640625
y: -0.154296875
z: 0.005859375
range: 0.174307882786
velocity: 0.0
doppler_bin: 8
bearing: -69.8423843384
intensity: 25.4530715942
---
header: 
  seq: 936463
  stamp: 
    secs: 1561867626
    nsecs: 746890986
  frame_id: "ti_mmwave"
point_id: 4
x: 0.16796875
y: -0.080078125
z: 1.25390625
range: 1.35088610649
velocity: 0.0
doppler_bin: 8
bearing: -25.489200592
intensity: 23.138671875
---
header: 
  seq: 936464
  stamp: 
    secs: 1561867626
    nsecs: 746963223
  frame_id: "ti_mmwave"
point_id: 5
x: 0.08203125
y: -0.08203125
z: 1.3046875
range: 1.39446306229
velocity: 0.0
doppler_bin: 8
bearing: -45.0
intensity: 24.6538276672
---
header: 
  seq: 936465
  stamp: 
    secs: 1561867626
    nsecs: 746979058
  frame_id: "ti_mmwave"
point_id: 6
x: 0.416015625
y: -0.083984375
z: -1.28125
range: 1.43804001808
velocity: 0.0
doppler_bin: 8
bearing: -11.4133548737
intensity: 23.138671875
---
header: 
  seq: 936466
  stamp: 
    secs: 1561867626
    nsecs: 746990255
  frame_id: "ti_mmwave"
point_id: 7
x: 0.58203125
y: -0.04296875
z: -1.263671875
range: 1.48161697388
velocity: 0.0
doppler_bin: 8
bearing: -4.22222995758
intensity: 21.7609119415
---
header: 
  seq: 936467
  stamp: 
    secs: 1561867626
    nsecs: 747003365
  frame_id: "ti_mmwave"
point_id: 8
x: 1.666015625
y: 0.052734375
z: -0.19140625
range: 1.78665578365
velocity: 0.0
doppler_bin: 8
bearing: 1.8129774332
intensity: 29.6754798889
---
header: 
  seq: 936468
  stamp: 
    secs: 1561867626
    nsecs: 747014208
  frame_id: "ti_mmwave"
point_id: 9
x: 1.7109375
y: -0.0
z: -0.166015625
range: 1.83023273945
velocity: 0.0
doppler_bin: 8
bearing: -0.0
intensity: 33.2735900879
---
header: 
  seq: 936469
  stamp: 
    secs: 1561867626
    nsecs: 747024632
  frame_id: "ti_mmwave"
point_id: 10
x: 1.751953125
y: 0.0546875
z: -0.146484375
range: 1.87380969524
velocity: 0.0
doppler_bin: 8
bearing: 1.78791642189
intensity: 33.2939796448
---
header: 
  seq: 936470
  stamp: 
    secs: 1561867626
    nsecs: 747035367
  frame_id: "ti_mmwave"
point_id: 11
x: 1.796875
y: 0.056640625
z: -0.10546875
range: 1.91738677025
velocity: 0.0
doppler_bin: 8
bearing: 1.80546462536
intensity: 30.0389118195
---
header: 
  seq: 936471
  stamp: 
    secs: 1561867626
    nsecs: 747052255
  frame_id: "ti_mmwave"
point_id: 14
x: 2.6171875
y: -0.17578125
z: 1.041015625
range: 3.00681090355
velocity: 0.0
doppler_bin: 8
bearing: -3.84245300293
intensity: 28.7966918945
---
header: 
  seq: 936472
  stamp: 
    secs: 1561867626
    nsecs: 747066386
  frame_id: "ti_mmwave"
point_id: 15
x: 2.689453125
y: -0.08984375
z: 0.9765625
range: 3.05038785934
velocity: 0.0
doppler_bin: 8
bearing: -1.91330885887
intensity: 32.1112060547
---
header: 
  seq: 936473
  stamp: 
    secs: 1561867626
    nsecs: 747079591
  frame_id: "ti_mmwave"
point_id: 16
x: 2.748046875
y: -0.08984375
z: 0.9375
range: 3.09396481514
velocity: 0.0
doppler_bin: 8
bearing: -1.8725425005
intensity: 31.0890312195
---
header: 
  seq: 936474
  stamp: 
    secs: 1561867626
    nsecs: 747092040
  frame_id: "ti_mmwave"
point_id: 18
x: 0.041015625
y: -0.033203125
z: 0.0625
range: 0.0871539413929
velocity: 0.0
doppler_bin: 8
bearing: -38.9909973145
intensity: 30.0860023499
---
header: 
  seq: 936475
  stamp: 
    secs: 1561867626
    nsecs: 747156758
  frame_id: "ti_mmwave"
point_id: 19
x: 0.044921875
y: -0.046875
z: 0.103515625
range: 0.130730912089
velocity: 0.0
doppler_bin: 8
bearing: -46.218875885
intensity: 28.9927310944
---
header: 
  seq: 936476
  stamp: 
    secs: 1561867626
    nsecs: 747939639
  frame_id: "ti_mmwave"
point_id: 0
x: 0.01171875
y: -0.0390625
z: -0.0078125
range: 0.0435769706964
velocity: 0.0
doppler_bin: 8
bearing: -73.3007583618
intensity: 30.6295776367
---
header: 
  seq: 936477
  stamp: 
    secs: 1561867626
    nsecs: 748039677
  frame_id: "ti_mmwave"
point_id: 1
x: 0.017578125
y: -0.080078125
z: -0.0078125
range: 0.0871539413929
velocity: 0.0
doppler_bin: 8
bearing: -77.6192398071
intensity: 31.894903183
---
header: 
  seq: 936478
  stamp: 
    secs: 1561867626
    nsecs: 748060452
  frame_id: "ti_mmwave"
point_id: 2
x: 0.029296875
y: -0.119140625
z: -0.005859375
range: 0.130730912089
velocity: 0.0
doppler_bin: 8
bearing: -76.1849746704
intensity: 30.1199302673
---
header: 
  seq: 936479
  stamp: 
    secs: 1561867626
    nsecs: 748074836
  frame_id: "ti_mmwave"
point_id: 3
x: 0.056640625
y: -0.154296875
z: 0.005859375
range: 0.174307882786
velocity: 0.0
doppler_bin: 8
bearing: -69.8423843384
intensity: 25.4530715942
---
header: 
  seq: 936480
  stamp: 
    secs: 1561867626
    nsecs: 748136041
  frame_id: "ti_mmwave"
point_id: 4
x: 0.150390625
y: -0.080078125
z: 1.255859375
range: 1.35088610649
velocity: 0.0
doppler_bin: 8
bearing: -28.0338516235
intensity: 23.138671875
---
header: 
  seq: 936481
  stamp: 
    secs: 1561867626
    nsecs: 748149523
  frame_id: "ti_mmwave"
point_id: 5
x: 0.064453125
y: -0.08203125
z: 1.3046875
range: 1.39446306229
velocity: 0.0
doppler_bin: 8
bearing: -51.8427734375
intensity: 24.6538276672
---
header: 
  seq: 936482
  stamp: 
    secs: 1561867626
    nsecs: 748161508
  frame_id: "ti_mmwave"
point_id: 6
x: 0.40234375
y: -0.083984375
z: -1.28515625
range: 1.43804001808
velocity: 0.0
doppler_bin: 8
bearing: -11.7905015945
intensity: 23.1175384521
---
header: 
  seq: 936483
  stamp: 
    secs: 1561867626
    nsecs: 748174505
  frame_id: "ti_mmwave"
point_id: 7
x: 0.55078125
y: -0.04296875
z: -1.27734375
range: 1.48161697388
velocity: 0.0
doppler_bin: 8
bearing: -4.46084880829
intensity: 21.7897701263
---
header: 
  seq: 936484
  stamp: 
    secs: 1561867626
    nsecs: 748186148
  frame_id: "ti_mmwave"
point_id: 8
x: 1.716796875
y: -0.0
z: -0.044921875
range: 1.83023273945
velocity: 0.0
doppler_bin: 8
bearing: -0.0
intensity: 27.2427577972
---
header: 
  seq: 936485
  stamp: 
    secs: 1561867626
    nsecs: 748200295
  frame_id: "ti_mmwave"
point_id: 9
x: 2.62890625
y: -0.17578125
z: 1.01171875
range: 3.00681090355
velocity: 0.0
doppler_bin: 8
bearing: -3.82537555695
intensity: 28.9542255402
---
header: 
  seq: 936486
  stamp: 
    secs: 1561867626
    nsecs: 748213515
  frame_id: "ti_mmwave"
point_id: 10
x: 2.6640625
y: -0.1796875
z: 1.033203125
range: 3.05038785934
velocity: 0.0
doppler_bin: 8
bearing: -3.85868024826
intensity: 32.1245384216
---
header: 
  seq: 936487
  stamp: 
    secs: 1561867626
    nsecs: 748225992
  frame_id: "ti_mmwave"
point_id: 11
x: 2.755859375
y: -0.08984375
z: 0.91015625
range: 3.09396481514
velocity: 0.0
doppler_bin: 8
bearing: -1.86723792553
intensity: 31.0822658539
---
header: 
  seq: 936488
  stamp: 
    secs: 1561867626
    nsecs: 748295315
  frame_id: "ti_mmwave"
point_id: 13
x: 0.041015625
y: -0.033203125
z: 0.0625
range: 0.0871539413929
velocity: 0.0
doppler_bin: 8
bearing: -38.9909973145
intensity: 30.0945091248
---
header: 
  seq: 936489
  stamp: 
    secs: 1561867626
    nsecs: 748309687
  frame_id: "ti_mmwave"
point_id: 14
x: 0.044921875
y: -0.046875
z: 0.103515625
range: 0.130730912089
velocity: 0.0
doppler_bin: 8
bearing: -46.218875885
intensity: 29.0036716461
---
header: 
  seq: 936490
  stamp: 
    secs: 1561867626
    nsecs: 806568046
  frame_id: "ti_mmwave"
point_id: 0
x: 0.01171875
y: -0.0390625
z: -0.0078125
range: 0.0435769706964
velocity: 0.0
doppler_bin: 8
bearing: -73.3007583618
intensity: 30.6220588684
---
header: 
  seq: 936491
  stamp: 
    secs: 1561867626
    nsecs: 806647003
  frame_id: "ti_mmwave"
point_id: 1
x: 0.017578125
y: -0.080078125
z: -0.0078125
range: 0.0871539413929
velocity: 0.0
doppler_bin: 8
bearing: -77.6192398071
intensity: 31.8920955658
---
header: 
  seq: 936492
  stamp: 
    secs: 1561867626
    nsecs: 806662895
  frame_id: "ti_mmwave"
point_id: 2
x: 0.029296875
y: -0.119140625
z: -0.005859375
range: 0.130730912089
velocity: 0.0
doppler_bin: 8
bearing: -76.1849746704
intensity: 30.1157035828
---
header: 
  seq: 936493
  stamp: 
    secs: 1561867626
    nsecs: 806676812
  frame_id: "ti_mmwave"
point_id: 3
x: 0.056640625
y: -0.154296875
z: 0.0078125
range: 0.174307882786
velocity: 0.0
doppler_bin: 8
bearing: -69.8423843384
intensity: 25.4406795502
---
header: 
  seq: 936494
  stamp: 
    secs: 1561867626
    nsecs: 806688987
  frame_id: "ti_mmwave"
point_id: 4
x: 0.08984375
y: -0.080078125
z: 1.26171875
range: 1.35088610649
velocity: 0.0
doppler_bin: 8
bearing: -41.7107582092
intensity: 23.138671875
---
header: 
  seq: 936495
  stamp: 
    secs: 1561867626
    nsecs: 806766671
  frame_id: "ti_mmwave"
point_id: 5
x: 0.033203125
y: -0.08203125
z: -1.306640625
range: 1.39446306229
velocity: 0.0
doppler_bin: 8
bearing: -67.9637680054
intensity: 24.6389293671
---
header: 
  seq: 936496
  stamp: 
    secs: 1561867626
    nsecs: 806780331
  frame_id: "ti_mmwave"
point_id: 6
x: 0.443359375
y: -0.083984375
z: -1.271484375
range: 1.43804001808
velocity: 0.0
doppler_bin: 8
bearing: -10.7262945175
intensity: 23.0749607086
---
header: 
  seq: 936497
  stamp: 
    secs: 1561867626
    nsecs: 806791290
  frame_id: "ti_mmwave"
point_id: 7
x: 0.580078125
y: -0.04296875
z: -1.263671875
range: 1.48161697388
velocity: 0.0
doppler_bin: 8
bearing: -4.2363948822
intensity: 21.7026176453
---
header: 
  seq: 936498
  stamp: 
    secs: 1561867626
    nsecs: 806804583
  frame_id: "ti_mmwave"
point_id: 8
x: 1.705078125
y: -0.0
z: -0.216796875
range: 1.83023273945
velocity: 0.0
doppler_bin: 8
bearing: -0.0
intensity: 30.9447116852
---
header: 
  seq: 936499
  stamp: 
    secs: 1561867626
    nsecs: 806816415
  frame_id: "ti_mmwave"
point_id: 9
x: 1.748046875
y: -0.0
z: -0.1953125
range: 1.87380969524
velocity: 0.0
doppler_bin: 8
bearing: -0.0
intensity: 31.9312458038
---
header: 
  seq: 936500
  stamp: 
    secs: 1561867626
    nsecs: 806827737
  frame_id: "ti_mmwave"
point_id: 10
x: 1.794921875
y: -0.0
z: -0.13671875
range: 1.91738677025
velocity: 0.0
doppler_bin: 8
bearing: -0.0
intensity: 29.0254669189
---
header: 
  seq: 936501
  stamp: 
    secs: 1561867626
    nsecs: 806840104
  frame_id: "ti_mmwave"
point_id: 11
x: 2.6171875
y: -0.17578125
z: 1.041015625
range: 3.00681090355
velocity: 0.0
doppler_bin: 8
bearing: -3.84245300293
intensity: 29.0741138458
---
header: 
  seq: 936502
  stamp: 
    secs: 1561867626
    nsecs: 806852075
  frame_id: "ti_mmwave"
point_id: 12
x: 2.66015625
y: -0.1796875
z: 1.04296875
range: 3.05038785934
velocity: 0.0
doppler_bin: 8
bearing: -3.86432933807
intensity: 32.2167510986
---
header: 
  seq: 936503
  stamp: 
    secs: 1561867626
    nsecs: 806862846
  frame_id: "ti_mmwave"
point_id: 13
x: 2.7734375
y: -0.0
z: 0.861328125
range: 3.09396481514
velocity: 0.0
doppler_bin: 8
bearing: -0.0
intensity: 31.1494445801
---
header: 
  seq: 936504
  stamp: 
    secs: 1561867626
    nsecs: 806880181
  frame_id: "ti_mmwave"
point_id: 15
x: 0.041015625
y: -0.033203125
z: 0.0625
range: 0.0871539413929
velocity: 0.0
doppler_bin: 8
bearing: -38.9909973145
intensity: 30.0860023499
---
header: 
  seq: 936505
  stamp: 
    secs: 1561867626
    nsecs: 806893383
  frame_id: "ti_mmwave"
point_id: 16
x: 0.046875
y: -0.046875
z: 0.103515625
range: 0.130730912089
velocity: 0.0
doppler_bin: 8
bearing: -45.0
intensity: 28.9982051849
---
header: 
  seq: 936506
  stamp: 
    secs: 1561867626
    nsecs: 806962416
  frame_id: "ti_mmwave"
point_id: 18
x: 2.732421875
y: -0.181640625
z: 0.966796875
range: 3.09396481514
velocity: 0.0
doppler_bin: 8
bearing: -3.80320167542
intensity: 31.1461105347
---
header: 
  seq: 936507
  stamp: 
    secs: 1561867626
    nsecs: 807739761
  frame_id: "ti_mmwave"
point_id: 0
x: 0.01171875
y: -0.0390625
z: -0.0078125
range: 0.0435769706964
velocity: 0.0
doppler_bin: 8
bearing: -73.3007583618
intensity: 30.6258201599
---
header: 
  seq: 936508
  stamp: 
    secs: 1561867626
    nsecs: 807814480
  frame_id: "ti_mmwave"
point_id: 1
x: 0.017578125
y: -0.080078125
z: -0.0078125
range: 0.0871539413929
velocity: 0.0
doppler_bin: 8
bearing: -77.6192398071
intensity: 31.8920955658
---
header: 
  seq: 936509
  stamp: 
    secs: 1561867626
    nsecs: 807832616
  frame_id: "ti_mmwave"
point_id: 2
x: 0.029296875
y: -0.119140625
z: -0.005859375
range: 0.130730912089
velocity: 0.0
doppler_bin: 8
bearing: -76.1849746704
intensity: 30.1157035828
---
header: 
  seq: 936510
  stamp: 
    secs: 1561867626
    nsecs: 807846415
  frame_id: "ti_mmwave"
point_id: 3
x: 0.056640625
y: -0.154296875
z: 0.0078125
range: 0.174307882786
velocity: 0.0
doppler_bin: 8
bearing: -69.8423843384
intensity: 25.4282550812
---
header: 
  seq: 936511
  stamp: 
    secs: 1561867626
    nsecs: 807862450
  frame_id: "ti_mmwave"
point_id: 4
x: 0.158203125
y: -0.080078125
z: 1.255859375
range: 1.35088610649
velocity: 0.0
doppler_bin: 8
bearing: -26.8472938538
intensity: 23.1597042084
---
header: 
  seq: 936512
  stamp: 
    secs: 1561867626
    nsecs: 807879908
  frame_id: "ti_mmwave"
point_id: 6
x: 0.431640625
y: -0.083984375
z: -1.275390625
range: 1.43804001808
velocity: 0.0
doppler_bin: 8
bearing: -11.0104799271
intensity: 23.138671875
---
header: 
  seq: 936513
  stamp: 
    secs: 1561867626
    nsecs: 807893046
  frame_id: "ti_mmwave"
point_id: 7
x: 0.576171875
y: -0.04296875
z: -1.265625
range: 1.48161697388
velocity: 0.0
doppler_bin: 8
bearing: -4.2650103569
intensity: 21.7026176453
---
header: 
  seq: 936514
  stamp: 
    secs: 1561867626
    nsecs: 807907433
  frame_id: "ti_mmwave"
point_id: 8
x: 1.708984375
y: 0.052734375
z: -0.16015625
range: 1.83023273945
velocity: 0.0
doppler_bin: 8
bearing: 1.76742315292
intensity: 30.7077655792
---
header: 
  seq: 936515
  stamp: 
    secs: 1561867626
    nsecs: 807921379
  frame_id: "ti_mmwave"
point_id: 9
x: 1.75390625
y: 0.0546875
z: -0.107421875
range: 1.87380969524
velocity: 0.0
doppler_bin: 8
bearing: 1.78592669964
intensity: 31.0482845306
---
header: 
  seq: 936516
  stamp: 
    secs: 1561867626
    nsecs: 807933886
  frame_id: "ti_mmwave"
point_id: 10
x: 1.796875
y: 0.056640625
z: -0.09765625
range: 1.91738677025
velocity: 0.0
doppler_bin: 8
bearing: 1.80546462536
intensity: 27.8816833496
---
header: 
  seq: 936517
  stamp: 
    secs: 1561867626
    nsecs: 808163933
  frame_id: "ti_mmwave"
point_id: 11
x: 2.619140625
y: -0.17578125
z: 1.037109375
range: 3.00681090355
velocity: 0.0
doppler_bin: 8
bearing: -3.83959650993
intensity: 28.8592624664
---
header: 
  seq: 936518
  stamp: 
    secs: 1561867626
    nsecs: 808203366
  frame_id: "ti_mmwave"
point_id: 12
x: 2.6875
y: -0.08984375
z: 0.982421875
range: 3.05038785934
velocity: 0.0
doppler_bin: 8
bearing: -1.91469812393
intensity: 32.04662323
---
header: 
  seq: 936519
  stamp: 
    secs: 1561867626
    nsecs: 808218492
  frame_id: "ti_mmwave"
point_id: 13
x: 2.75390625
y: -0.08984375
z: 0.91796875
range: 3.09396481514
velocity: 0.0
doppler_bin: 8
bearing: -1.86856126785
intensity: 31.058506012
---
header: 
  seq: 936520
  stamp: 
    secs: 1561867626
    nsecs: 808234286
  frame_id: "ti_mmwave"
point_id: 15
x: 0.041015625
y: -0.033203125
z: 0.0625
range: 0.0871539413929
velocity: 0.0
doppler_bin: 8
bearing: -38.9909973145
intensity: 30.0860023499
---
header: 
  seq: 936521
  stamp: 
    secs: 1561867626
    nsecs: 808247776
  frame_id: "ti_mmwave"
point_id: 16
x: 0.046875
y: -0.046875
z: 0.103515625
range: 0.130730912089
velocity: 0.0
doppler_bin: 8
bearing: -45.0
intensity: 28.9982051849
---
header: 
  seq: 936522
  stamp: 
    secs: 1561867626
    nsecs: 866668222
  frame_id: "ti_mmwave"
point_id: 0
x: 0.01171875
y: -0.0390625
z: -0.0078125
range: 0.0435769706964
velocity: 0.0
doppler_bin: 8
bearing: -73.3007583618
intensity: 30.6295776367
---
header: 
  seq: 936523
  stamp: 
    secs: 1561867626
    nsecs: 866767875
  frame_id: "ti_mmwave"
point_id: 1
x: 0.017578125
y: -0.080078125
z: -0.0078125
range: 0.0871539413929
velocity: 0.0
doppler_bin: 8
bearing: -77.6192398071
intensity: 31.8920955658
---
header: 
  seq: 936524
  stamp: 
    secs: 1561867626
    nsecs: 866783261
  frame_id: "ti_mmwave"
point_id: 2
x: 0.029296875
y: -0.119140625
z: -0.005859375
range: 0.130730912089
velocity: 0.0
doppler_bin: 8
bearing: -76.1849746704
intensity: 30.1157035828
---
header: 
  seq: 936525
  stamp: 
    secs: 1561867626
    nsecs: 866791652
  frame_id: "ti_mmwave"
point_id: 3
x: 0.056640625
y: -0.154296875
z: 0.0078125
range: 0.174307882786
velocity: 0.0
doppler_bin: 8
bearing: -69.8423843384
intensity: 25.4530715942
---
header: 
  seq: 936526
  stamp: 
    secs: 1561867626
    nsecs: 866800864
  frame_id: "ti_mmwave"
point_id: 4
x: 0.138671875
y: -0.080078125
z: 1.2578125
range: 1.35088610649
velocity: 0.0
doppler_bin: 8
bearing: -30.0049190521
intensity: 23.138671875
---
header: 
  seq: 936527
  stamp: 
    secs: 1561867626
    nsecs: 866810260
  frame_id: "ti_mmwave"
point_id: 5
x: 0.09765625
y: -0.08203125
z: 1.302734375
range: 1.39446306229
velocity: 0.0
doppler_bin: 8
bearing: -40.0302581787
intensity: 24.6686763763
---
header: 
  seq: 936528
  stamp: 
    secs: 1561867626
    nsecs: 866818868
  frame_id: "ti_mmwave"
point_id: 6
x: 0.392578125
y: -0.083984375
z: -1.2890625
range: 1.43804001808
velocity: 0.0
doppler_bin: 8
bearing: -12.0752887726
intensity: 23.1806335449
---
header: 
  seq: 936529
  stamp: 
    secs: 1561867626
    nsecs: 866827223
  frame_id: "ti_mmwave"
point_id: 7
x: 0.5546875
y: -0.04296875
z: -1.275390625
range: 1.48161697388
velocity: 0.0
doppler_bin: 8
bearing: -4.42955970764
intensity: 21.8184356689
---
header: 
  seq: 936530
  stamp: 
    secs: 1561867626
    nsecs: 866839166
  frame_id: "ti_mmwave"
point_id: 8
x: 1.671875
y: -0.0
z: 0.130859375
range: 1.78665578365
velocity: 0.0
doppler_bin: 8
bearing: -0.0
intensity: 31.225435257
---
header: 
  seq: 936531
  stamp: 
    secs: 1561867626
    nsecs: 866934145
  frame_id: "ti_mmwave"
point_id: 9
x: 1.716796875
y: -0.0
z: 0.05859375
range: 1.83023273945
velocity: 0.0
doppler_bin: 8
bearing: -0.0
intensity: 33.6361198425
---
header: 
  seq: 936532
  stamp: 
    secs: 1561867626
    nsecs: 866944580
  frame_id: "ti_mmwave"
point_id: 10
x: 1.7578125
y: 0.0546875
z: 0.05859375
range: 1.87380969524
velocity: 0.0
doppler_bin: 8
bearing: 1.78196060658
intensity: 32.9885292053
---
header: 
  seq: 936533
  stamp: 
    secs: 1561867626
    nsecs: 866953093
  frame_id: "ti_mmwave"
point_id: 11
x: 1.79296875
y: 0.11328125
z: 0.115234375
range: 1.91738677025
velocity: 0.0
doppler_bin: 8
bearing: 3.61518931389
intensity: 28.4010601044
---
header: 
  seq: 936534
  stamp: 
    secs: 1561867626
    nsecs: 866960656
  frame_id: "ti_mmwave"
point_id: 12
x: 2.61328125
y: -0.17578125
z: 1.0546875
range: 3.00681090355
velocity: 0.0
doppler_bin: 8
bearing: -3.84817934036
intensity: 28.7506122589
---
header: 
  seq: 936535
  stamp: 
    secs: 1561867626
    nsecs: 866968248
  frame_id: "ti_mmwave"
point_id: 13
x: 2.69140625
y: -0.08984375
z: 0.9765625
range: 3.05038785934
velocity: 0.0
doppler_bin: 8
bearing: -1.91192126274
intensity: 32.0628585815
---
header: 
  seq: 936536
  stamp: 
    secs: 1561867626
    nsecs: 866975978
  frame_id: "ti_mmwave"
point_id: 14
x: 2.75390625
y: -0.08984375
z: 0.91796875
range: 3.09396481514
velocity: 0.0
doppler_bin: 8
bearing: -1.86856126785
intensity: 31.0720996857
---
header: 
  seq: 936537
  stamp: 
    secs: 1561867626
    nsecs: 866983681
  frame_id: "ti_mmwave"
point_id: 15
x: 4.419921875
y: -0.142578125
z: 1.19921875
range: 4.88062095642
velocity: 0.0
doppler_bin: 8
bearing: -1.847610116
intensity: 29.863237381
---
header: 
  seq: 936538
  stamp: 
    secs: 1561867626
    nsecs: 866992916
  frame_id: "ti_mmwave"
point_id: 16
x: 4.4609375
y: -0.0
z: 1.212890625
range: 4.9241976738
velocity: 0.0
doppler_bin: 8
bearing: -0.0
intensity: 29.31457901
---
header: 
  seq: 936539
  stamp: 
    secs: 1561867626
    nsecs: 867001784
  frame_id: "ti_mmwave"
point_id: 17
x: 1.623046875
y: -0.0
z: 0.208984375
range: 1.74307882786
velocity: -0.614668667316
doppler_bin: 7
bearing: -0.0
intensity: 27.6417617798
---
header: 
  seq: 936540
  stamp: 
    secs: 1561867626
    nsecs: 867011498
  frame_id: "ti_mmwave"
point_id: 19
x: 0.041015625
y: -0.033203125
z: 0.0625
range: 0.0871539413929
velocity: 0.0
doppler_bin: 8
bearing: -38.9909973145
intensity: 30.0902576447
---
header: 
  seq: 936541
  stamp: 
    secs: 1561867626
    nsecs: 867019069
  frame_id: "ti_mmwave"
point_id: 20
x: 0.046875
y: -0.046875
z: 0.103515625
range: 0.130730912089
velocity: 0.0
doppler_bin: 8
bearing: -45.0
intensity: 28.9927310944
---
header: 
  seq: 936542
  stamp: 
    secs: 1561867626
    nsecs: 868088134
  frame_id: "ti_mmwave"
point_id: 0
x: 0.01171875
y: -0.0390625
z: -0.0078125
range: 0.0435769706964
velocity: 0.0
doppler_bin: 8
bearing: -73.3007583618
intensity: 30.6333332062
---
header: 
  seq: 936543
  stamp: 
    secs: 1561867626
    nsecs: 868148230
  frame_id: "ti_mmwave"
point_id: 1
x: 0.017578125
y: -0.080078125
z: -0.0078125
range: 0.0871539413929
velocity: 0.0
doppler_bin: 8
bearing: -77.6192398071
intensity: 31.8977088928
---
header: 
  seq: 936544
  stamp: 
    secs: 1561867626
    nsecs: 868160581
  frame_id: "ti_mmwave"
point_id: 2
x: 0.029296875
y: -0.119140625
z: -0.005859375
range: 0.130730912089
velocity: 0.0
doppler_bin: 8
bearing: -76.1849746704
intensity: 30.1199302673
---
header: 
  seq: 936545
  stamp: 
    secs: 1561867626
    nsecs: 868170105
  frame_id: "ti_mmwave"
point_id: 3
x: 0.056640625
y: -0.154296875
z: 0.005859375
range: 0.174307882786
velocity: 0.0
doppler_bin: 8
bearing: -69.8423843384
intensity: 25.4406795502
---
header: 
  seq: 936546
  stamp: 
    secs: 1561867626
    nsecs: 868179468
  frame_id: "ti_mmwave"
point_id: 4
x: 0.150390625
y: -0.080078125
z: 1.255859375
range: 1.35088610649
velocity: 0.0
doppler_bin: 8
bearing: -28.0338516235
intensity: 23.138671875
---
header: 
  seq: 936547
  stamp: 
    secs: 1561867626
    nsecs: 868189728
  frame_id: "ti_mmwave"
point_id: 5
x: 0.05078125
y: -0.08203125
z: 1.3046875
range: 1.39446306229
velocity: 0.0
doppler_bin: 8
bearing: -58.2405166626
intensity: 24.6538276672
---
header: 
  seq: 936548
  stamp: 
    secs: 1561867626
    nsecs: 868246712
  frame_id: "ti_mmwave"
point_id: 6
x: 0.419921875
y: -0.083984375
z: -1.279296875
range: 1.43804001808
velocity: 0.0
doppler_bin: 8
bearing: -11.3099327087
intensity: 23.1175384521
---
header: 
  seq: 936549
  stamp: 
    secs: 1561867626
    nsecs: 868256630
  frame_id: "ti_mmwave"
point_id: 7
x: 0.5546875
y: -0.04296875
z: -1.275390625
range: 1.48161697388
velocity: 0.0
doppler_bin: 8
bearing: -4.42955970764
intensity: 21.7897701263
---
header: 
  seq: 936550
  stamp: 
    secs: 1561867626
    nsecs: 868264671
  frame_id: "ti_mmwave"
point_id: 8
x: 1.67578125
y: 0.052734375
z: 0.05859375
range: 1.78665578365
velocity: 0.0
doppler_bin: 8
bearing: 1.80241930485
intensity: 29.4398880005
---
header: 
  seq: 936551
  stamp: 
    secs: 1561867626
    nsecs: 868273330
  frame_id: "ti_mmwave"
point_id: 9
x: 1.716796875
y: 0.052734375
z: -0.046875
range: 1.83023273945
velocity: 0.0
doppler_bin: 8
bearing: 1.75938534737
intensity: 31.8610839844
---
header: 
  seq: 936552
  stamp: 
    secs: 1561867626
    nsecs: 868281801
  frame_id: "ti_mmwave"
point_id: 10
x: 1.755859375
y: 0.0546875
z: -0.10546875
range: 1.87380969524
velocity: 0.0
doppler_bin: 8
bearing: 1.78394150734
intensity: 31.1461105347
---
header: 
  seq: 936553
  stamp: 
    secs: 1561867626
    nsecs: 868292610
  frame_id: "ti_mmwave"
point_id: 11
x: 1.78125
y: 0.11328125
z: -0.23828125
range: 1.91738677025
velocity: 0.0
doppler_bin: 8
bearing: 3.63891005516
intensity: 27.2098579407
---
header: 
  seq: 936554
  stamp: 
    secs: 1561867626
    nsecs: 868305135
  frame_id: "ti_mmwave"
point_id: 12
x: 2.625
y: -0.17578125
z: 1.021484375
range: 3.00681090355
velocity: 0.0
doppler_bin: 8
bearing: -3.83105134964
intensity: 29.0794849396
---
header: 
  seq: 936555
  stamp: 
    secs: 1561867626
    nsecs: 868318259
  frame_id: "ti_mmwave"
point_id: 13
x: 2.6640625
y: -0.1796875
z: 1.037109375
range: 3.05038785934
velocity: 0.0
doppler_bin: 8
bearing: -3.85868024826
intensity: 32.2167510986
---
header: 
  seq: 936556
  stamp: 
    secs: 1561867626
    nsecs: 868331217
  frame_id: "ti_mmwave"
point_id: 14
x: 2.7578125
y: -0.08984375
z: 0.904296875
range: 3.09396481514
velocity: 0.0
doppler_bin: 8
bearing: -1.86591637135
intensity: 31.1226978302
---
header: 
  seq: 936557
  stamp: 
    secs: 1561867626
    nsecs: 868377061
  frame_id: "ti_mmwave"
point_id: 15
x: 4.400390625
y: -0.142578125
z: 1.111328125
range: 4.83704376221
velocity: 0.0
doppler_bin: 8
bearing: -1.85580503941
intensity: 28.325088501
---
header: 
  seq: 936558
  stamp: 
    secs: 1561867626
    nsecs: 868394297
  frame_id: "ti_mmwave"
point_id: 16
x: 4.416015625
y: -0.142578125
z: 1.208984375
range: 4.88062095642
velocity: 0.0
doppler_bin: 8
bearing: -1.84924340248
intensity: 31.9479179382
---
header: 
  seq: 936559
  stamp: 
    secs: 1561867626
    nsecs: 868406087
  frame_id: "ti_mmwave"
point_id: 17
x: 4.455078125
y: -0.14453125
z: 1.220703125
range: 4.9241976738
velocity: 0.0
doppler_bin: 8
bearing: -1.85813295841
intensity: 31.5926628113
---
header: 
  seq: 936560
  stamp: 
    secs: 1561867626
    nsecs: 868418564
  frame_id: "ti_mmwave"
point_id: 18
x: 1.607421875
y: -0.0
z: 0.3046875
range: 1.74307882786
velocity: -0.614668667316
doppler_bin: 7
bearing: -0.0
intensity: 26.5513839722
---
header: 
  seq: 936561
  stamp: 
    secs: 1561867626
    nsecs: 868434333
  frame_id: "ti_mmwave"
point_id: 20
x: 0.041015625
y: -0.033203125
z: 0.0625
range: 0.0871539413929
velocity: 0.0
doppler_bin: 8
bearing: -38.9909973145
intensity: 30.081741333
---
header: 
  seq: 936562
  stamp: 
    secs: 1561867626
    nsecs: 868447296
  frame_id: "ti_mmwave"
point_id: 21
x: 0.046875
y: -0.046875
z: 0.103515625
range: 0.130730912089
velocity: 0.0
doppler_bin: 8
bearing: -45.0
intensity: 28.9927310944
---
header: 
  seq: 936563
  stamp: 
    secs: 1561867626
    nsecs: 926806866
  frame_id: "ti_mmwave"
point_id: 0
x: 0.01171875
y: -0.0390625
z: -0.0078125
range: 0.0435769706964
velocity: 0.0
doppler_bin: 8
bearing: -73.3007583618
intensity: 30.6333332062
---
header: 
  seq: 936564
  stamp: 
    secs: 1561867626
    nsecs: 926888073
  frame_id: "ti_mmwave"
point_id: 1
x: 0.017578125
y: -0.080078125
z: -0.0078125
range: 0.0871539413929
velocity: 0.0
doppler_bin: 8
bearing: -77.6192398071
intensity: 31.8977088928
---
header: 
  seq: 936565
  stamp: 
    secs: 1561867626
    nsecs: 926905900
  frame_id: "ti_mmwave"
point_id: 2
x: 0.029296875
y: -0.119140625
z: -0.005859375
range: 0.130730912089
velocity: 0.0
doppler_bin: 8
bearing: -76.1849746704
intensity: 30.1199302673
---
header: 
  seq: 936566
  stamp: 
    secs: 1561867626
    nsecs: 926918651
  frame_id: "ti_mmwave"
point_id: 3
x: 0.056640625
y: -0.154296875
z: 0.005859375
range: 0.174307882786
velocity: 0.0
doppler_bin: 8
bearing: -69.8423843384
intensity: 25.4530715942
---
header: 
  seq: 936567
  stamp: 
    secs: 1561867626
    nsecs: 926933794
  frame_id: "ti_mmwave"
point_id: 4
x: 0.150390625
y: -0.080078125
z: 1.255859375
range: 1.35088610649
velocity: 0.0
doppler_bin: 8
bearing: -28.0338516235
intensity: 23.138671875
---
header: 
  seq: 936568
  stamp: 
    secs: 1561867626
    nsecs: 927050350
  frame_id: "ti_mmwave"
point_id: 5
x: 0.064453125
y: -0.08203125
z: 1.3046875
range: 1.39446306229
velocity: 0.0
doppler_bin: 8
bearing: -51.8427734375
intensity: 24.6239795685
---
header: 
  seq: 936569
  stamp: 
    secs: 1561867626
    nsecs: 927075570
  frame_id: "ti_mmwave"
point_id: 6
x: 0.431640625
y: -0.083984375
z: -1.275390625
range: 1.43804001808
velocity: 0.0
doppler_bin: 8
bearing: -11.0104799271
intensity: 23.0535144806
---
header: 
  seq: 936570
  stamp: 
    secs: 1561867626
    nsecs: 927088378
  frame_id: "ti_mmwave"
point_id: 7
x: 0.58203125
y: -0.04296875
z: -1.26171875
range: 1.48161697388
velocity: 0.0
doppler_bin: 8
bearing: -4.22222995758
intensity: 21.7026176453
---
header: 
  seq: 936571
  stamp: 
    secs: 1561867626
    nsecs: 927105714
  frame_id: "ti_mmwave"
point_id: 8
x: 1.666015625
y: -0.0
z: -0.193359375
range: 1.78665578365
velocity: 0.0
doppler_bin: 8
bearing: -0.0
intensity: 30.2694168091
---
header: 
  seq: 936572
  stamp: 
    secs: 1561867626
    nsecs: 927155219
  frame_id: "ti_mmwave"
point_id: 9
x: 1.7109375
y: -0.0
z: -0.154296875
range: 1.83023273945
velocity: 0.0
doppler_bin: 8
bearing: -0.0
intensity: 33.5983543396
---
header: 
  seq: 936573
  stamp: 
    secs: 1561867626
    nsecs: 927169849
  frame_id: "ti_mmwave"
point_id: 10
x: 1.75390625
y: -0.0
z: -0.130859375
range: 1.87380969524
velocity: 0.0
doppler_bin: 8
bearing: -0.0
intensity: 32.7508087158
---
header: 
  seq: 936574
  stamp: 
    secs: 1561867626
    nsecs: 927181866
  frame_id: "ti_mmwave"
point_id: 11
x: 1.798828125
y: -0.0
z: -0.01953125
range: 1.91738677025
velocity: 0.0
doppler_bin: 8
bearing: -0.0
intensity: 27.3399925232
---
header: 
  seq: 936575
  stamp: 
    secs: 1561867626
    nsecs: 927194794
  frame_id: "ti_mmwave"
point_id: 12
x: 2.62109375
y: -0.17578125
z: 1.03125
range: 3.00681090355
velocity: 0.0
doppler_bin: 8
bearing: -3.83674383163
intensity: 29.0254669189
---
header: 
  seq: 936576
  stamp: 
    secs: 1561867626
    nsecs: 927226016
  frame_id: "ti_mmwave"
point_id: 13
x: 2.662109375
y: -0.1796875
z: 1.041015625
range: 3.05038785934
velocity: 0.0
doppler_bin: 8
bearing: -3.86150240898
intensity: 32.2010803223
---
header: 
  seq: 936577
  stamp: 
    secs: 1561867626
    nsecs: 927248711
  frame_id: "ti_mmwave"
point_id: 14
x: 2.75390625
y: -0.08984375
z: 0.919921875
range: 3.09396481514
velocity: 0.0
doppler_bin: 8
bearing: -1.86856126785
intensity: 31.1527767181
---
header: 
  seq: 936578
  stamp: 
    secs: 1561867626
    nsecs: 927270944
  frame_id: "ti_mmwave"
point_id: 15
x: 4.388671875
y: -0.142578125
z: 1.16015625
range: 4.83704376221
velocity: 0.0
doppler_bin: 8
bearing: -1.86075723171
intensity: 28.2085800171
---
header: 
  seq: 936579
  stamp: 
    secs: 1561867626
    nsecs: 927293420
  frame_id: "ti_mmwave"
point_id: 16
x: 4.40234375
y: -0.142578125
z: 1.263671875
range: 4.88062095642
velocity: 0.0
doppler_bin: 8
bearing: -1.85498249531
intensity: 31.2742881775
---
header: 
  seq: 936580
  stamp: 
    secs: 1561867626
    nsecs: 927316619
  frame_id: "ti_mmwave"
point_id: 17
x: 4.43359375
y: -0.14453125
z: 1.302734375
range: 4.9241976738
velocity: 0.0
doppler_bin: 8
bearing: -1.86713063717
intensity: 30.7518177032
---
header: 
  seq: 936581
  stamp: 
    secs: 1561867626
    nsecs: 927481157
  frame_id: "ti_mmwave"
point_id: 18
x: 0.009765625
y: 0.03125
z: 0.025390625
range: 0.0435769706964
velocity: 0.0
doppler_bin: 8
bearing: 72.6459732056
intensity: 29.2737045288
---
header: 
  seq: 936582
  stamp: 
    secs: 1561867626
    nsecs: 927496832
  frame_id: "ti_mmwave"
point_id: 19
x: 0.041015625
y: -0.033203125
z: 0.0625
range: 0.0871539413929
velocity: 0.0
doppler_bin: 8
bearing: -38.9909973145
intensity: 30.0902576447
---
header: 
  seq: 936583
  stamp: 
    secs: 1561867626
    nsecs: 927520811
  frame_id: "ti_mmwave"
point_id: 20
x: 0.046875
y: -0.046875
z: 0.103515625
range: 0.130730912089
velocity: 0.0
doppler_bin: 8
bearing: -45.0
intensity: 29.0036716461
---
header: 
  seq: 936584
  stamp: 
    secs: 1561867626
    nsecs: 986672551
  frame_id: "ti_mmwave"
point_id: 0
x: 0.01171875
y: -0.0390625
z: -0.0078125
range: 0.0435769706964
velocity: 0.0
doppler_bin: 8
bearing: -73.3007583618
intensity: 30.6333332062
---
header: 
  seq: 936585
  stamp: 
    secs: 1561867626
    nsecs: 986747771
  frame_id: "ti_mmwave"
point_id: 1
x: 0.017578125
y: -0.080078125
z: -0.0078125
range: 0.0871539413929
velocity: 0.0
doppler_bin: 8
bearing: -77.6192398071
intensity: 31.8920955658
---
header: 
  seq: 936586
  stamp: 
    secs: 1561867626
    nsecs: 986758825
  frame_id: "ti_mmwave"
point_id: 2
x: 0.029296875
y: -0.119140625
z: -0.005859375
range: 0.130730912089
velocity: 0.0
doppler_bin: 8
bearing: -76.1849746704
intensity: 30.1114730835
---
header: 
  seq: 936587
  stamp: 
    secs: 1561867626
    nsecs: 986769954
  frame_id: "ti_mmwave"
point_id: 3
x: 0.056640625
y: -0.154296875
z: 0.005859375
range: 0.174307882786
velocity: 0.0
doppler_bin: 8
bearing: -69.8423843384
intensity: 25.4282550812
---
header: 
  seq: 936588
  stamp: 
    secs: 1561867626
    nsecs: 986781063
  frame_id: "ti_mmwave"
point_id: 4
x: 0.169921875
y: -0.080078125
z: 1.25390625
range: 1.35088610649
velocity: 0.0
doppler_bin: 8
bearing: -25.232831955
intensity: 23.138671875
---
header: 
  seq: 936589
  stamp: 
    secs: 1561867626
    nsecs: 986797030
  frame_id: "ti_mmwave"
point_id: 6
x: 0.419921875
y: -0.083984375
z: -1.279296875
range: 1.43804001808
velocity: 0.0
doppler_bin: 8
bearing: -11.3099327087
intensity: 23.138671875
---
header: 
  seq: 936590
  stamp: 
    secs: 1561867626
    nsecs: 986806747
  frame_id: "ti_mmwave"
point_id: 7
x: 0.57421875
y: -0.04296875
z: -1.265625
range: 1.48161697388
velocity: 0.0
doppler_bin: 8
bearing: -4.27946329117
intensity: 21.7897701263
---
header: 
  seq: 936591
  stamp: 
    secs: 1561867626
    nsecs: 986816952
  frame_id: "ti_mmwave"
point_id: 8
x: 1.59375
y: -0.0
z: -0.521484375
range: 1.78665578365
velocity: 0.0
doppler_bin: 8
bearing: -0.0
intensity: 28.4571800232
---
header: 
  seq: 936592
  stamp: 
    secs: 1561867626
    nsecs: 986825033
  frame_id: "ti_mmwave"
point_id: 9
x: 1.6953125
y: -0.0
z: -0.27734375
range: 1.83023273945
velocity: 0.0
doppler_bin: 8
bearing: -0.0
intensity: 32.8891944885
---
header: 
  seq: 936593
  stamp: 
    secs: 1561867626
    nsecs: 986980888
  frame_id: "ti_mmwave"
point_id: 10
x: 1.7421875
y: 0.0546875
z: -0.23828125
range: 1.87380969524
velocity: 0.0
doppler_bin: 8
bearing: 1.79793179035
intensity: 32.6528968811
---
header: 
  seq: 936594
  stamp: 
    secs: 1561867626
    nsecs: 986999675
  frame_id: "ti_mmwave"
point_id: 11
x: 1.787109375
y: 0.056640625
z: -0.205078125
range: 1.91738677025
velocity: 0.0
doppler_bin: 8
bearing: 1.81532406807
intensity: 28.6213130951
---
header: 
  seq: 936595
  stamp: 
    secs: 1561867626
    nsecs: 987010905
  frame_id: "ti_mmwave"
point_id: 12
x: 2.638671875
y: -0.17578125
z: 0.98828125
range: 3.00681090355
velocity: 0.0
doppler_bin: 8
bearing: -3.81125974655
intensity: 29.020029068
---
header: 
  seq: 936596
  stamp: 
    secs: 1561867626
    nsecs: 987049817
  frame_id: "ti_mmwave"
point_id: 13
x: 2.69921875
y: -0.08984375
z: 0.951171875
range: 3.05038785934
velocity: 0.0
doppler_bin: 8
bearing: -1.90639162064
intensity: 32.2245635986
---
header: 
  seq: 936597
  stamp: 
    secs: 1561867626
    nsecs: 987059754
  frame_id: "ti_mmwave"
point_id: 14
x: 2.759765625
y: -0.08984375
z: 0.8984375
range: 3.09396481514
velocity: 0.0
doppler_bin: 8
bearing: -1.86459684372
intensity: 31.2188796997
---
header: 
  seq: 936598
  stamp: 
    secs: 1561867626
    nsecs: 987069683
  frame_id: "ti_mmwave"
point_id: 15
x: 4.384765625
y: -0.283203125
z: 1.14453125
range: 4.83704376221
velocity: 0.0
doppler_bin: 8
bearing: -3.69548535347
intensity: 28.1624126434
---
header: 
  seq: 936599
  stamp: 
    secs: 1561867626
    nsecs: 987075640
  frame_id: "ti_mmwave"
point_id: 16
x: 4.41015625
y: -0.142578125
z: 1.234375
range: 4.88062095642
velocity: 0.0
doppler_bin: 8
bearing: -1.85169863701
intensity: 31.5836257935
---
header: 
  seq: 936600
  stamp: 
    secs: 1561867626
    nsecs: 987100080
  frame_id: "ti_mmwave"
point_id: 17
x: 4.4453125
y: -0.14453125
z: 1.255859375
range: 4.9241976738
velocity: 0.0
doppler_bin: 8
bearing: -1.86221218109
intensity: 31.1260509491
---
header: 
  seq: 936601
  stamp: 
    secs: 1561867626
    nsecs: 987117193
  frame_id: "ti_mmwave"
point_id: 18
x: 4.896484375
y: -0.30859375
z: 0.65234375
range: 5.27281332016
velocity: 0.0
doppler_bin: 8
bearing: -3.6062130928
intensity: 31.1958580017
---
header: 
  seq: 936602
  stamp: 
    secs: 1561867626
    nsecs: 987130489
  frame_id: "ti_mmwave"
point_id: 19
x: 4.951171875
y: -0.623046875
z: 0.078125
range: 5.31639051437
velocity: 0.0
doppler_bin: 8
bearing: -7.17230129242
intensity: 29.9694919586
---
header: 
  seq: 936603
  stamp: 
    secs: 1561867626
    nsecs: 987139951
  frame_id: "ti_mmwave"
point_id: 20
x: 1.587890625
y: 0.05078125
z: 0.142578125
range: 1.69950187206
velocity: -0.614668667316
doppler_bin: 7
bearing: 1.83171308041
intensity: 29.1487178802
---
header: 
  seq: 936604
  stamp: 
    secs: 1561867626
    nsecs: 987257504
  frame_id: "ti_mmwave"
point_id: 21
x: 1.625
y: 0.05078125
z: 0.18359375
range: 1.74307882786
velocity: -0.614668667316
doppler_bin: 7
bearing: 1.7899106741
intensity: 29.6754798889
---
header: 
  seq: 936605
  stamp: 
    secs: 1561867626
    nsecs: 987296629
  frame_id: "ti_mmwave"
point_id: 23
x: 0.041015625
y: -0.033203125
z: 0.0625
range: 0.0871539413929
velocity: 0.0
doppler_bin: 8
bearing: -38.9909973145
intensity: 30.081741333
---
header: 
  seq: 936606
  stamp: 
    secs: 1561867626
    nsecs: 987307842
  frame_id: "ti_mmwave"
point_id: 24
x: 0.044921875
y: -0.046875
z: 0.103515625
range: 0.130730912089
velocity: 0.0
doppler_bin: 8
bearing: -46.218875885
intensity: 28.9927310944
---
header: 
  seq: 936607
  stamp: 
    secs: 1561867626
    nsecs: 988166697
  frame_id: "ti_mmwave"
point_id: 0
x: 0.01171875
y: -0.0390625
z: -0.0078125
range: 0.0435769706964
velocity: 0.0
doppler_bin: 8
