header: 
  seq: 758410
  stamp: 
    secs: 1561867315
    nsecs: 946577529
  frame_id: "ti_mmwave"
point_id: 0
x: 0.01171875
y: -0.0390625
z: -0.0078125
range: 0.0435769706964
velocity: 0.0
doppler_bin: 8
bearing: -73.3007583618
intensity: 30.6445808411
---
header: 
  seq: 758411
  stamp: 
    secs: 1561867315
    nsecs: 946649116
  frame_id: "ti_mmwave"
point_id: 1
x: 0.017578125
y: -0.080078125
z: -0.0078125
range: 0.0871539413929
velocity: 0.0
doppler_bin: 8
bearing: -77.6192398071
intensity: 31.9117145538
---
header: 
  seq: 758412
  stamp: 
    secs: 1561867315
    nsecs: 946660050
  frame_id: "ti_mmwave"
point_id: 2
x: 0.029296875
y: -0.119140625
z: -0.005859375
range: 0.130730912089
velocity: 0.0
doppler_bin: 8
bearing: -76.1849746704
intensity: 30.1367969513
---
header: 
  seq: 758413
  stamp: 
    secs: 1561867315
    nsecs: 946668873
  frame_id: "ti_mmwave"
point_id: 3
x: 0.056640625
y: -0.154296875
z: 0.005859375
range: 0.174307882786
velocity: 0.0
doppler_bin: 8
bearing: -69.8423843384
intensity: 25.4530715942
---
header: 
  seq: 758414
  stamp: 
    secs: 1561867315
    nsecs: 946679304
  frame_id: "ti_mmwave"
point_id: 4
x: 0.13671875
y: -0.080078125
z: 1.2578125
range: 1.35088610649
velocity: 0.0
doppler_bin: 8
bearing: -30.3581142426
intensity: 23.138671875
---
header: 
  seq: 758415
  stamp: 
    secs: 1561867315
    nsecs: 946689274
  frame_id: "ti_mmwave"
point_id: 5
x: 0.052734375
y: -0.08203125
z: -1.3046875
range: 1.39446306229
velocity: 0.0
doppler_bin: 8
bearing: -57.2647743225
intensity: 24.6389293671
---
header: 
  seq: 758416
  stamp: 
    secs: 1561867315
    nsecs: 946700703
  frame_id: "ti_mmwave"
point_id: 6
x: 0.4609375
y: -0.083984375
z: -1.265625
range: 1.43804001808
velocity: 0.0
doppler_bin: 8
bearing: -10.3262090683
intensity: 23.0749607086
---
header: 
  seq: 758417
  stamp: 
    secs: 1561867315
    nsecs: 946711466
  frame_id: "ti_mmwave"
point_id: 7
x: 0.578125
y: -0.04296875
z: -1.263671875
range: 1.48161697388
velocity: 0.0
doppler_bin: 8
bearing: -4.25065469742
intensity: 21.6435279846
---
header: 
  seq: 758418
  stamp: 
    secs: 1561867315
    nsecs: 946719927
  frame_id: "ti_mmwave"
point_id: 8
x: 1.619140625
y: -0.0
z: -0.23828125
range: 1.74307882786
velocity: 0.0
doppler_bin: 8
bearing: -0.0
intensity: 27.5204849243
---
header: 
  seq: 758419
  stamp: 
    secs: 1561867315
    nsecs: 946729264
  frame_id: "ti_mmwave"
point_id: 9
x: 1.66796875
y: -0.0
z: -0.1796875
range: 1.78665578365
velocity: 0.0
doppler_bin: 8
bearing: -0.0
intensity: 32.0547485352
---
header: 
  seq: 758420
  stamp: 
    secs: 1561867315
    nsecs: 946737400
  frame_id: "ti_mmwave"
point_id: 10
x: 1.708984375
y: -0.0
z: -0.171875
range: 1.83023273945
velocity: 0.0
doppler_bin: 8
bearing: -0.0
intensity: 32.3019332886
---
header: 
  seq: 758421
  stamp: 
    secs: 1561867315
    nsecs: 946747237
  frame_id: "ti_mmwave"
point_id: 11
x: 1.75390625
y: -0.0
z: -0.140625
range: 1.87380969524
velocity: 0.0
doppler_bin: 8
bearing: -0.0
intensity: 28.6687774658
---
header: 
  seq: 758422
  stamp: 
    secs: 1561867315
    nsecs: 946756091
  frame_id: "ti_mmwave"
point_id: 12
x: 2.619140625
y: -0.17578125
z: 1.037109375
range: 3.00681090355
velocity: 0.0
doppler_bin: 8
bearing: -3.83959650993
intensity: 29.0363254547
---
header: 
  seq: 758423
  stamp: 
    secs: 1561867315
    nsecs: 946764679
  frame_id: "ti_mmwave"
point_id: 13
x: 2.66015625
y: -0.1796875
z: 1.044921875
range: 3.05038785934
velocity: 0.0
doppler_bin: 8
bearing: -3.86432933807
intensity: 32.2141418457
---
header: 
  seq: 758424
  stamp: 
    secs: 1561867315
    nsecs: 946773487
  frame_id: "ti_mmwave"
point_id: 14
x: 2.75390625
y: -0.08984375
z: 0.91796875
range: 3.09396481514
velocity: 0.0
doppler_bin: 8
bearing: -1.86856126785
intensity: 31.1627559662
---
header: 
  seq: 758425
  stamp: 
    secs: 1561867315
    nsecs: 946781783
  frame_id: "ti_mmwave"
point_id: 15
x: 4.388671875
y: -0.283203125
z: 1.12890625
range: 4.83704376221
velocity: 0.0
doppler_bin: 8
bearing: -3.69220519066
intensity: 27.9865055084
---
header: 
  seq: 758426
  stamp: 
    secs: 1561867315
    nsecs: 946792595
  frame_id: "ti_mmwave"
point_id: 16
x: 4.408203125
y: -0.142578125
z: 1.240234375
range: 4.88062095642
velocity: 0.0
doppler_bin: 8
bearing: -1.85251843929
intensity: 31.5956726074
---
header: 
  seq: 758427
  stamp: 
    secs: 1561867315
    nsecs: 946867787
  frame_id: "ti_mmwave"
point_id: 17
x: 4.4453125
y: -0.14453125
z: 1.26171875
range: 4.9241976738
velocity: 0.0
doppler_bin: 8
bearing: -1.86221218109
intensity: 31.332195282
---
header: 
  seq: 758428
  stamp: 
    secs: 1561867315
    nsecs: 946878728
  frame_id: "ti_mmwave"
point_id: 18
x: 1.50390625
y: -0.0
z: 0.171875
range: 1.61234796047
velocity: 0.614668667316
doppler_bin: 9
bearing: -0.0
intensity: 24.0823993683
---
header: 
  seq: 758429
  stamp: 
    secs: 1561867315
    nsecs: 946886244
  frame_id: "ti_mmwave"
point_id: 19
x: 1.54296875
y: -0.0
z: 0.19140625
range: 1.65592491627
velocity: 0.614668667316
doppler_bin: 9
bearing: -0.0
intensity: 27.481880188
---
header: 
  seq: 758430
  stamp: 
    secs: 1561867315
    nsecs: 946893847
  frame_id: "ti_mmwave"
point_id: 20
x: 1.58203125
y: -0.0
z: 0.205078125
range: 1.69950187206
velocity: 0.614668667316
doppler_bin: 9
bearing: -0.0
intensity: 26.6838588715
---
header: 
  seq: 758431
  stamp: 
    secs: 1561867315
    nsecs: 946901738
  frame_id: "ti_mmwave"
point_id: 21
x: 0.009765625
y: 0.03125
z: 0.025390625
range: 0.0435769706964
velocity: 0.0
doppler_bin: 8
bearing: 72.6459732056
intensity: 29.2941894531
---
header: 
  seq: 758432
  stamp: 
    secs: 1561867315
    nsecs: 946909580
  frame_id: "ti_mmwave"
point_id: 22
x: 0.041015625
y: -0.033203125
z: 0.0625
range: 0.0871539413929
velocity: 0.0
doppler_bin: 8
bearing: -38.9909973145
intensity: 30.0987567902
---
header: 
  seq: 758433
  stamp: 
    secs: 1561867315
    nsecs: 946917203
  frame_id: "ti_mmwave"
point_id: 23
x: 0.044921875
y: -0.046875
z: 0.103515625
range: 0.130730912089
velocity: 0.0
doppler_bin: 8
bearing: -46.218875885
intensity: 29.0091304779
---
header: 
  seq: 758434
  stamp: 
    secs: 1561867315
    nsecs: 948200121
  frame_id: "ti_mmwave"
point_id: 0
x: 0.01171875
y: -0.0390625
z: -0.0078125
range: 0.0435769706964
velocity: 0.0
doppler_bin: 8
bearing: -73.3007583618
intensity: 30.6595306396
---
header: 
  seq: 758435
  stamp: 
    secs: 1561867315
    nsecs: 948273436
  frame_id: "ti_mmwave"
point_id: 1
x: 0.017578125
y: -0.080078125
z: -0.0078125
range: 0.0871539413929
velocity: 0.0
doppler_bin: 8
bearing: -77.6192398071
intensity: 31.9145107269
---
header: 
  seq: 758436
  stamp: 
    secs: 1561867315
    nsecs: 948286369
  frame_id: "ti_mmwave"
point_id: 2
x: 0.029296875
y: -0.119140625
z: -0.005859375
range: 0.130730912089
velocity: 0.0
doppler_bin: 8
bearing: -76.1849746704
intensity: 30.1367969513
---
header: 
  seq: 758437
  stamp: 
    secs: 1561867315
    nsecs: 948294593
  frame_id: "ti_mmwave"
point_id: 3
x: 0.056640625
y: -0.154296875
z: 0.005859375
range: 0.174307882786
velocity: 0.0
doppler_bin: 8
bearing: -69.8423843384
intensity: 25.4530715942
---
header: 
  seq: 758438
  stamp: 
    secs: 1561867315
    nsecs: 948303091
  frame_id: "ti_mmwave"
point_id: 4
x: 0.126953125
y: -0.080078125
z: 1.259765625
range: 1.35088610649
velocity: 0.0
doppler_bin: 8
bearing: -32.2424697876
intensity: 23.1175384521
---
header: 
  seq: 758439
  stamp: 
    secs: 1561867315
    nsecs: 948313128
  frame_id: "ti_mmwave"
point_id: 6
x: 0.423828125
y: -0.083984375
z: -1.279296875
range: 1.43804001808
velocity: 0.0
doppler_bin: 8
bearing: -11.2083444595
intensity: 23.0749607086
---
header: 
  seq: 758440
  stamp: 
    secs: 1561867315
    nsecs: 948321951
  frame_id: "ti_mmwave"
point_id: 7
x: 0.55859375
y: -0.04296875
z: -1.2734375
range: 1.48161697388
velocity: 0.0
doppler_bin: 8
bearing: -4.39870548248
intensity: 21.6731739044
---
header: 
  seq: 758441
  stamp: 
    secs: 1561867315
    nsecs: 948333562
  frame_id: "ti_mmwave"
point_id: 8
x: 1.65234375
y: 0.158203125
z: 0.2421875
range: 1.78665578365
velocity: 0.0
doppler_bin: 8
bearing: 5.4690952301
intensity: 27.9098854065
---
header: 
  seq: 758442
  stamp: 
    secs: 1561867315
    nsecs: 948349341
  frame_id: "ti_mmwave"
point_id: 9
x: 1.650390625
y: 0.267578125
z: 0.392578125
range: 1.83023273945
velocity: 0.0
doppler_bin: 8
bearing: 9.20924091339
intensity: 28.1954402924
---
header: 
  seq: 758443
  stamp: 
    secs: 1561867315
    nsecs: 948363728
  frame_id: "ti_mmwave"
point_id: 10
x: 2.609375
y: -0.17578125
z: 1.05859375
range: 3.00681090355
velocity: 0.0
doppler_bin: 8
bearing: -3.85392260551
intensity: 28.9542255402
---
header: 
  seq: 758444
  stamp: 
    secs: 1561867315
    nsecs: 948376620
  frame_id: "ti_mmwave"
point_id: 11
x: 2.689453125
y: -0.08984375
z: 0.9765625
range: 3.05038785934
velocity: 0.0
doppler_bin: 8
bearing: -1.91330885887
intensity: 32.1932258606
---
header: 
  seq: 758445
  stamp: 
    secs: 1561867315
    nsecs: 948465514
  frame_id: "ti_mmwave"
point_id: 12
x: 2.7578125
y: -0.08984375
z: 0.908203125
range: 3.09396481514
velocity: 0.0
doppler_bin: 8
bearing: -1.86591637135
intensity: 31.2968997955
---
header: 
  seq: 758446
  stamp: 
    secs: 1561867315
    nsecs: 948482740
  frame_id: "ti_mmwave"
point_id: 13
x: 4.41015625
y: -0.142578125
z: 1.23046875
range: 4.88062095642
velocity: 0.0
doppler_bin: 8
bearing: -1.85169863701
intensity: 28.9265098572
---
header: 
  seq: 758447
  stamp: 
    secs: 1561867315
    nsecs: 948495468
  frame_id: "ti_mmwave"
point_id: 14
x: 4.458984375
y: -0.0
z: 1.21875
range: 4.9241976738
velocity: 0.0
doppler_bin: 8
bearing: -0.0
intensity: 28.70403862
---
header: 
  seq: 758448
  stamp: 
    secs: 1561867315
    nsecs: 948507720
  frame_id: "ti_mmwave"
point_id: 15
x: 1.552734375
y: -0.0
z: 0.3671875
range: 1.69950187206
velocity: 0.614668667316
doppler_bin: 9
bearing: -0.0
intensity: 26.503074646
---
header: 
  seq: 758449
  stamp: 
    secs: 1561867315
    nsecs: 948523057
  frame_id: "ti_mmwave"
point_id: 16
x: 1.60546875
y: -0.0
z: 0.31640625
range: 1.74307882786
velocity: 0.614668667316
doppler_bin: 9
bearing: -0.0
intensity: 26.2531242371
---
header: 
  seq: 758450
  stamp: 
    secs: 1561867315
    nsecs: 948537722
  frame_id: "ti_mmwave"
point_id: 18
x: 0.041015625
y: -0.033203125
z: 0.0625
range: 0.0871539413929
velocity: 0.0
doppler_bin: 8
bearing: -38.9909973145
intensity: 30.1029987335
---
header: 
  seq: 758451
  stamp: 
    secs: 1561867315
    nsecs: 948552875
  frame_id: "ti_mmwave"
point_id: 19
x: 0.046875
y: -0.046875
z: 0.103515625
range: 0.130730912089
velocity: 0.0
doppler_bin: 8
bearing: -45.0
intensity: 29.0145835876
---
header: 
  seq: 758452
  stamp: 
    secs: 1561867315
    nsecs: 948566912
  frame_id: "ti_mmwave"
point_id: 21
x: 1.517578125
y: -0.314453125
z: -0.640625
range: 1.78665578365
velocity: 0.0
doppler_bin: 8
bearing: -11.7064361572
intensity: 25.7403125763
---
header: 
  seq: 758453
  stamp: 
    secs: 1561867315
    nsecs: 948579115
  frame_id: "ti_mmwave"
point_id: 22
x: 1.5703125
y: -0.322265625
z: -0.619140625
range: 1.83023273945
velocity: 0.0
doppler_bin: 8
bearing: -11.5974349976
intensity: 27.5050830841
---
header: 
  seq: 758454
  stamp: 
    secs: 1561867316
    nsecs:   6683834
  frame_id: "ti_mmwave"
point_id: 0
x: 0.01171875
y: -0.0390625
z: -0.0078125
range: 0.0435769706964
velocity: 0.0
doppler_bin: 8
bearing: -73.3007583618
intensity: 30.6557979584
---
header: 
  seq: 758455
  stamp: 
    secs: 1561867316
    nsecs:   6760974
  frame_id: "ti_mmwave"
point_id: 1
x: 0.017578125
y: -0.080078125
z: -0.0078125
range: 0.0871539413929
velocity: 0.0
doppler_bin: 8
bearing: -77.6192398071
intensity: 31.9117145538
---
header: 
  seq: 758456
  stamp: 
    secs: 1561867316
    nsecs:   6772458
  frame_id: "ti_mmwave"
point_id: 2
x: 0.029296875
y: -0.119140625
z: -0.005859375
range: 0.130730912089
velocity: 0.0
doppler_bin: 8
bearing: -76.1849746704
intensity: 30.1325874329
---
header: 
  seq: 758457
  stamp: 
    secs: 1561867316
    nsecs:   6780771
  frame_id: "ti_mmwave"
point_id: 3
x: 0.056640625
y: -0.154296875
z: 0.005859375
range: 0.174307882786
velocity: 0.0
doppler_bin: 8
bearing: -69.8423843384
intensity: 25.4654273987
---
header: 
  seq: 758458
  stamp: 
    secs: 1561867316
    nsecs:   6791763
  frame_id: "ti_mmwave"
point_id: 4
x: 0.109375
y: -0.080078125
z: 1.26171875
range: 1.35088610649
velocity: 0.0
doppler_bin: 8
bearing: -36.2094573975
intensity: 23.0963020325
---
header: 
  seq: 758459
  stamp: 
    secs: 1561867316
    nsecs:   6803908
  frame_id: "ti_mmwave"
point_id: 6
x: 0.41796875
y: -0.083984375
z: -1.28125
range: 1.43804001808
velocity: 0.0
doppler_bin: 8
bearing: -11.3614110947
intensity: 23.0963020325
---
header: 
  seq: 758460
  stamp: 
    secs: 1561867316
    nsecs:   6812342
  frame_id: "ti_mmwave"
point_id: 7
x: 2.626953125
y: -0.17578125
z: 1.017578125
range: 3.00681090355
velocity: 0.0
doppler_bin: 8
bearing: -3.82821130753
intensity: 29.0091304779
---
header: 
  seq: 758461
  stamp: 
    secs: 1561867316
    nsecs:   6820266
  frame_id: "ti_mmwave"
point_id: 8
x: 2.6640625
y: -0.1796875
z: 1.033203125
range: 3.05038785934
velocity: 0.0
doppler_bin: 8
bearing: -3.85868024826
intensity: 32.1984634399
---
header: 
  seq: 758462
  stamp: 
    secs: 1561867316
    nsecs:   6994596
  frame_id: "ti_mmwave"
point_id: 9
x: 2.755859375
y: -0.08984375
z: 0.91015625
range: 3.09396481514
velocity: 0.0
doppler_bin: 8
bearing: -1.86723792553
intensity: 31.2287101746
---
header: 
  seq: 758463
  stamp: 
    secs: 1561867316
    nsecs:   7015842
  frame_id: "ti_mmwave"
point_id: 11
x: 0.041015625
y: -0.033203125
z: 0.0625
range: 0.0871539413929
velocity: 0.0
doppler_bin: 8
bearing: -38.9909973145
intensity: 30.0987567902
---
header: 
  seq: 758464
  stamp: 
    secs: 1561867316
    nsecs:   7024199
  frame_id: "ti_mmwave"
point_id: 12
x: 0.046875
y: -0.046875
z: 0.103515625
range: 0.130730912089
velocity: 0.0
doppler_bin: 8
bearing: -45.0
intensity: 29.0091304779
---
header: 
  seq: 758465
  stamp: 
    secs: 1561867316
    nsecs:   7752289
  frame_id: "ti_mmwave"
point_id: 0
x: 0.01171875
y: -0.0390625
z: -0.0078125
range: 0.0435769706964
velocity: 0.0
doppler_bin: 8
bearing: -73.3007583618
intensity: 30.6520614624
---
header: 
  seq: 758466
  stamp: 
    secs: 1561867316
    nsecs:   7812776
  frame_id: "ti_mmwave"
point_id: 1
x: 0.017578125
y: -0.080078125
z: -0.0078125
range: 0.0871539413929
velocity: 0.0
doppler_bin: 8
bearing: -77.6192398071
intensity: 31.9089164734
---
header: 
  seq: 758467
  stamp: 
    secs: 1561867316
    nsecs:   7834770
  frame_id: "ti_mmwave"
point_id: 2
x: 0.029296875
y: -0.119140625
z: -0.005859375
range: 0.130730912089
velocity: 0.0
doppler_bin: 8
bearing: -76.1849746704
intensity: 30.1283721924
---
header: 
  seq: 758468
  stamp: 
    secs: 1561867316
    nsecs:   7850679
  frame_id: "ti_mmwave"
point_id: 3
x: 0.056640625
y: -0.154296875
z: 0.005859375
range: 0.174307882786
velocity: 0.0
doppler_bin: 8
bearing: -69.8423843384
intensity: 25.4530715942
---
header: 
  seq: 758469
  stamp: 
    secs: 1561867316
    nsecs:   7863794
  frame_id: "ti_mmwave"
point_id: 4
x: 0.173828125
y: -0.080078125
z: 1.25390625
range: 1.35088610649
velocity: 0.0
doppler_bin: 8
bearing: -24.7343044281
intensity: 23.1597042084
---
header: 
  seq: 758470
  stamp: 
    secs: 1561867316
    nsecs:   7878822
  frame_id: "ti_mmwave"
point_id: 6
x: 0.443359375
y: -0.083984375
z: -1.271484375
range: 1.43804001808
velocity: 0.0
doppler_bin: 8
bearing: -10.7262945175
intensity: 23.0749607086
---
header: 
  seq: 758471
  stamp: 
    secs: 1561867316
    nsecs:   7890925
  frame_id: "ti_mmwave"
point_id: 7
x: 1.67578125
y: -0.0
z: -0.044921875
range: 1.78665578365
velocity: 0.0
doppler_bin: 8
bearing: -0.0
intensity: 33.0877761841
---
header: 
  seq: 758472
  stamp: 
    secs: 1561867316
    nsecs:   7903619
  frame_id: "ti_mmwave"
point_id: 8
x: 1.716796875
y: -0.052734375
z: -0.048828125
range: 1.83023273945
velocity: 0.0
doppler_bin: 8
bearing: -1.75938534737
intensity: 34.1413726807
---
header: 
  seq: 758473
  stamp: 
    secs: 1561867316
    nsecs:   7916584
  frame_id: "ti_mmwave"
point_id: 9
x: 1.7578125
y: -0.0
z: -0.076171875
range: 1.87380969524
velocity: 0.0
doppler_bin: 8
bearing: -0.0
intensity: 31.7289466858
---
header: 
  seq: 758474
  stamp: 
    secs: 1561867316
    nsecs:   8031895
  frame_id: "ti_mmwave"
point_id: 10
x: 2.630859375
y: -0.17578125
z: 1.009765625
range: 3.00681090355
velocity: 0.0
doppler_bin: 8
bearing: -3.82254433632
intensity: 28.9486961365
---
header: 
  seq: 758475
  stamp: 
    secs: 1561867316
    nsecs:   8055123
  frame_id: "ti_mmwave"
point_id: 11
x: 2.693359375
y: -0.08984375
z: 0.970703125
range: 3.05038785934
velocity: 0.0
doppler_bin: 8
bearing: -1.91053581238
intensity: 32.1853561401
---
header: 
  seq: 758476
  stamp: 
    secs: 1561867316
    nsecs:   8068589
  frame_id: "ti_mmwave"
point_id: 12
x: 2.7734375
y: -0.0
z: 0.859375
range: 3.09396481514
velocity: 0.0
doppler_bin: 8
bearing: -0.0
intensity: 31.1627559662
---
header: 
  seq: 758477
  stamp: 
    secs: 1561867316
    nsecs:   8080349
  frame_id: "ti_mmwave"
point_id: 13
x: 1.5625
y: -0.05078125
z: 0.314453125
range: 1.69950187206
velocity: 0.614668667316
doppler_bin: 9
bearing: -1.86145746708
intensity: 26.3447723389
---
header: 
  seq: 758478
  stamp: 
    secs: 1561867316
    nsecs:   8092214
  frame_id: "ti_mmwave"
point_id: 14
x: 1.6171875
y: -0.05078125
z: 0.25
range: 1.74307882786
velocity: 0.614668667316
doppler_bin: 9
bearing: -1.79855191708
intensity: 28.9153747559
---
header: 
  seq: 758479
  stamp: 
    secs: 1561867316
    nsecs:   8106911
  frame_id: "ti_mmwave"
point_id: 16
x: 0.041015625
y: -0.033203125
z: 0.0625
range: 0.0871539413929
velocity: 0.0
doppler_bin: 8
bearing: -38.9909973145
intensity: 30.0987567902
---
header: 
  seq: 758480
  stamp: 
    secs: 1561867316
    nsecs:   8116121
  frame_id: "ti_mmwave"
point_id: 17
x: 0.046875
y: -0.046875
z: 0.103515625
range: 0.130730912089
velocity: 0.0
doppler_bin: 8
bearing: -45.0
intensity: 29.0091304779
---
header: 
  seq: 758481
  stamp: 
    secs: 1561867316
    nsecs:   8147244
  frame_id: "ti_mmwave"
point_id: 19
x: 2.734375
y: -0.181640625
z: 0.962890625
range: 3.09396481514
velocity: 0.0
doppler_bin: 8
bearing: -3.80049324036
intensity: 31.1494445801
---
header: 
  seq: 758482
  stamp: 
    secs: 1561867316
    nsecs:  66540810
  frame_id: "ti_mmwave"
point_id: 0
x: 0.01171875
y: -0.0390625
z: -0.0078125
range: 0.0435769706964
velocity: 0.0
doppler_bin: 8
bearing: -73.3007583618
intensity: 30.6520614624
---
header: 
  seq: 758483
  stamp: 
    secs: 1561867316
    nsecs:  66619860
  frame_id: "ti_mmwave"
point_id: 1
x: 0.017578125
y: -0.080078125
z: -0.0078125
range: 0.0871539413929
velocity: 0.0
doppler_bin: 8
bearing: -77.6192398071
intensity: 31.9117145538
---
header: 
  seq: 758484
  stamp: 
    secs: 1561867316
    nsecs:  66631711
  frame_id: "ti_mmwave"
point_id: 2
x: 0.029296875
y: -0.119140625
z: -0.005859375
range: 0.130730912089
velocity: 0.0
doppler_bin: 8
bearing: -76.1849746704
intensity: 30.1325874329
---
header: 
  seq: 758485
  stamp: 
    secs: 1561867316
    nsecs:  66640605
  frame_id: "ti_mmwave"
point_id: 3
x: 0.056640625
y: -0.154296875
z: 0.005859375
range: 0.174307882786
velocity: 0.0
doppler_bin: 8
bearing: -69.8423843384
intensity: 25.4530715942
---
header: 
  seq: 758486
  stamp: 
    secs: 1561867316
    nsecs:  66649004
  frame_id: "ti_mmwave"
point_id: 4
x: 0.15234375
y: -0.080078125
z: 1.255859375
range: 1.35088610649
velocity: 0.0
doppler_bin: 8
bearing: -27.7282581329
intensity: 23.1597042084
---
header: 
  seq: 758487
  stamp: 
    secs: 1561867316
    nsecs:  66659275
  frame_id: "ti_mmwave"
point_id: 6
x: 0.435546875
y: -0.083984375
z: -1.275390625
range: 1.43804001808
velocity: 0.0
doppler_bin: 8
bearing: -10.9141130447
intensity: 23.1175384521
---
header: 
  seq: 758488
  stamp: 
    secs: 1561867316
    nsecs:  66670250
  frame_id: "ti_mmwave"
point_id: 7
x: 1.63671875
y: -0.0
z: -0.0234375
range: 1.74307882786
velocity: 0.0
doppler_bin: 8
bearing: -0.0
intensity: 27.9657440186
---
header: 
  seq: 758489
  stamp: 
    secs: 1561867316
    nsecs:  66678485
  frame_id: "ti_mmwave"
point_id: 8
x: 1.677734375
y: -0.0
z: -0.013671875
range: 1.78665578365
velocity: 0.0
doppler_bin: 8
bearing: -0.0
intensity: 33.3445358276
---
header: 
  seq: 758490
  stamp: 
    secs: 1561867316
    nsecs:  66687109
  frame_id: "ti_mmwave"
point_id: 9
x: 1.71875
y: -0.0
z: -0.025390625
range: 1.83023273945
velocity: 0.0
doppler_bin: 8
bearing: -0.0
intensity: 34.6314620972
---
header: 
  seq: 758491
  stamp: 
    secs: 1561867316
    nsecs:  66696464
  frame_id: "ti_mmwave"
point_id: 10
x: 1.7578125
y: -0.0
z: -0.072265625
range: 1.87380969524
velocity: 0.0
doppler_bin: 8
bearing: -0.0
intensity: 32.6528968811
---
header: 
  seq: 758492
  stamp: 
    secs: 1561867316
    nsecs:  66705085
  frame_id: "ti_mmwave"
point_id: 11
x: 1.787109375
y: 0.056640625
z: -0.19921875
range: 1.91738677025
velocity: 0.0
doppler_bin: 8
bearing: 1.81532406807
intensity: 28.0888595581
---
header: 
  seq: 758493
  stamp: 
    secs: 1561867316
    nsecs:  66712711
  frame_id: "ti_mmwave"
point_id: 12
x: 2.62109375
y: -0.17578125
z: 1.029296875
range: 3.00681090355
velocity: 0.0
doppler_bin: 8
bearing: -3.83674383163
intensity: 28.7909584045
---
header: 
  seq: 758494
  stamp: 
    secs: 1561867316
    nsecs:  66887410
  frame_id: "ti_mmwave"
point_id: 13
x: 2.658203125
y: -0.1796875
z: 1.048828125
range: 3.05038785934
velocity: 0.0
doppler_bin: 8
bearing: -3.86716008186
intensity: 32.1192092896
---
header: 
  seq: 758495
  stamp: 
    secs: 1561867316
    nsecs:  66912027
  frame_id: "ti_mmwave"
point_id: 14
x: 2.748046875
y: -0.08984375
z: 0.93359375
range: 3.09396481514
velocity: 0.0
doppler_bin: 8
bearing: -1.8725425005
intensity: 31.205739975
---
header: 
  seq: 758496
  stamp: 
    secs: 1561867316
    nsecs:  66963855
  frame_id: "ti_mmwave"
point_id: 16
x: 0.041015625
y: -0.033203125
z: 0.0625
range: 0.0871539413929
velocity: 0.0
doppler_bin: 8
bearing: -38.9909973145
intensity: 30.0987567902
---
header: 
  seq: 758497
  stamp: 
    secs: 1561867316
    nsecs:  66977294
  frame_id: "ti_mmwave"
point_id: 17
x: 0.046875
y: -0.046875
z: 0.103515625
range: 0.130730912089
velocity: 0.0
doppler_bin: 8
bearing: -45.0
intensity: 29.0091304779
---
header: 
  seq: 758498
  stamp: 
    secs: 1561867316
    nsecs:  67855022
  frame_id: "ti_mmwave"
point_id: 0
x: 0.01171875
y: -0.0390625
z: -0.0078125
range: 0.0435769706964
velocity: 0.0
doppler_bin: 8
bearing: -73.3007583618
intensity: 30.6520614624
---
header: 
  seq: 758499
  stamp: 
    secs: 1561867316
    nsecs:  67927431
  frame_id: "ti_mmwave"
point_id: 1
x: 0.017578125
y: -0.080078125
z: -0.0078125
range: 0.0871539413929
velocity: 0.0
doppler_bin: 8
bearing: -77.6192398071
intensity: 31.9089164734
---
header: 
  seq: 758500
  stamp: 
    secs: 1561867316
    nsecs:  67979203
  frame_id: "ti_mmwave"
point_id: 2
x: 0.029296875
y: -0.119140625
z: -0.005859375
range: 0.130730912089
velocity: 0.0
doppler_bin: 8
bearing: -76.1849746704
intensity: 30.1283721924
---
header: 
  seq: 758501
  stamp: 
    secs: 1561867316
    nsecs:  67999603
  frame_id: "ti_mmwave"
point_id: 3
x: 0.056640625
y: -0.154296875
z: 0.005859375
range: 0.174307882786
velocity: 0.0
doppler_bin: 8
bearing: -69.8423843384
intensity: 25.4530715942
---
header: 
  seq: 758502
  stamp: 
    secs: 1561867316
    nsecs:  68012447
  frame_id: "ti_mmwave"
point_id: 4
x: 0.095703125
y: -0.080078125
z: 1.26171875
range: 1.35088610649
velocity: 0.0
doppler_bin: 8
bearing: -39.9203910828
intensity: 23.1175384521
---
header: 
  seq: 758503
  stamp: 
    secs: 1561867316
    nsecs:  68093072
  frame_id: "ti_mmwave"
point_id: 6
x: 0.419921875
y: -0.083984375
z: -1.279296875
range: 1.43804001808
velocity: 0.0
doppler_bin: 8
bearing: -11.3099327087
intensity: 23.0749607086
---
header: 
  seq: 758504
  stamp: 
    secs: 1561867316
    nsecs:  68107859
  frame_id: "ti_mmwave"
point_id: 7
x: 0.556640625
y: -0.04296875
z: -1.2734375
range: 1.48161697388
velocity: 0.0
doppler_bin: 8
bearing: -4.41407871246
intensity: 21.6136798859
---
header: 
  seq: 758505
  stamp: 
    secs: 1561867316
    nsecs:  68119061
  frame_id: "ti_mmwave"
point_id: 8
x: 2.619140625
y: -0.17578125
z: 1.037109375
range: 3.00681090355
velocity: 0.0
doppler_bin: 8
bearing: -3.83959650993
intensity: 28.9097957611
---
header: 
  seq: 758506
  stamp: 
    secs: 1561867316
    nsecs:  68130216
  frame_id: "ti_mmwave"
point_id: 9
x: 2.6875
y: -0.08984375
z: 0.982421875
range: 3.05038785934
velocity: 0.0
doppler_bin: 8
bearing: -1.91469812393
intensity: 32.156375885
---
header: 
  seq: 758507
  stamp: 
    secs: 1561867316
    nsecs:  68143745
  frame_id: "ti_mmwave"
point_id: 10
x: 2.75
y: -0.08984375
z: 0.931640625
range: 3.09396481514
velocity: 0.0
doppler_bin: 8
bearing: -1.87121355534
intensity: 31.1892566681
---
header: 
  seq: 758508
  stamp: 
    secs: 1561867316
    nsecs:  68170980
  frame_id: "ti_mmwave"
point_id: 11
x: 1.654296875
y: -0.052734375
z: 0.275390625
range: 1.78665578365
velocity: 0.614668667316
doppler_bin: 9
bearing: -1.82581138611
intensity: 27.6042251587
---
header: 
  seq: 758509
  stamp: 
    secs: 1561867316
    nsecs:  68192995
  frame_id: "ti_mmwave"
point_id: 12
x: 1.70703125
y: -0.052734375
z: 0.1875
range: 1.83023273945
velocity: 0.614668667316
doppler_bin: 9
bearing: -1.76944422722
intensity: 29.5760726929
---
header: 
  seq: 758510
  stamp: 
    secs: 1561867316
    nsecs:  68213532
  frame_id: "ti_mmwave"
point_id: 13
x: 1.75390625
y: -0.0546875
z: 0.134765625
range: 1.87380969524
velocity: 0.614668667316
doppler_bin: 9
bearing: -1.78592669964
intensity: 28.4135951996
---
header: 
  seq: 758511
  stamp: 
    secs: 1561867316
    nsecs:  68233185
  frame_id: "ti_mmwave"
point_id: 14
x: 0.009765625
y: 0.03125
z: 0.025390625
range: 0.0435769706964
velocity: 0.0
doppler_bin: 8
bearing: 72.6459732056
intensity: 29.2941894531
---
header: 
  seq: 758512
  stamp: 
    secs: 1561867316
    nsecs:  68258877
  frame_id: "ti_mmwave"
point_id: 15
x: 0.041015625
y: -0.033203125
z: 0.0625
range: 0.0871539413929
velocity: 0.0
doppler_bin: 8
bearing: -38.9909973145
intensity: 30.1029987335
---
header: 
  seq: 758513
  stamp: 
    secs: 1561867316
    nsecs:  68287359
  frame_id: "ti_mmwave"
point_id: 16
x: 0.044921875
y: -0.046875
z: 0.103515625
range: 0.130730912089
velocity: 0.0
doppler_bin: 8
bearing: -46.218875885
intensity: 29.0145835876
---
header: 
  seq: 758514
  stamp: 
    secs: 1561867316
    nsecs: 126642079
  frame_id: "ti_mmwave"
point_id: 0
x: 0.01171875
y: -0.0390625
z: -0.0078125
range: 0.0435769706964
velocity: 0.0
doppler_bin: 8
bearing: -73.3007583618
intensity: 30.6483230591
---
header: 
  seq: 758515
  stamp: 
    secs: 1561867316
    nsecs: 126717463
  frame_id: "ti_mmwave"
point_id: 1
x: 0.017578125
y: -0.080078125
z: -0.0078125
range: 0.0871539413929
velocity: 0.0
doppler_bin: 8
bearing: -77.6192398071
intensity: 31.9089164734
---
header: 
  seq: 758516
  stamp: 
    secs: 1561867316
    nsecs: 126733583
  frame_id: "ti_mmwave"
point_id: 2
x: 0.029296875
y: -0.119140625
z: -0.005859375
range: 0.130730912089
velocity: 0.0
doppler_bin: 8
bearing: -76.1849746704
intensity: 30.1325874329
---
header: 
  seq: 758517
  stamp: 
    secs: 1561867316
    nsecs: 126746088
  frame_id: "ti_mmwave"
point_id: 3
x: 0.056640625
y: -0.154296875
z: 0.005859375
range: 0.174307882786
velocity: 0.0
doppler_bin: 8
bearing: -69.8423843384
intensity: 25.4654273987
---
header: 
  seq: 758518
  stamp: 
    secs: 1561867316
    nsecs: 126761729
  frame_id: "ti_mmwave"
point_id: 4
x: 0.16015625
y: -0.080078125
z: 1.255859375
range: 1.35088610649
velocity: 0.0
doppler_bin: 8
bearing: -26.5650501251
intensity: 23.0963020325
---
header: 
  seq: 758519
  stamp: 
    secs: 1561867316
    nsecs: 126772634
  frame_id: "ti_mmwave"
point_id: 5
x: 0.0546875
y: -0.08203125
z: 1.3046875
range: 1.39446306229
velocity: 0.0
doppler_bin: 8
bearing: -56.3099327087
intensity: 24.6239795685
---
header: 
  seq: 758520
  stamp: 
    secs: 1561867316
    nsecs: 126849407
  frame_id: "ti_mmwave"
point_id: 6
x: 0.4140625
y: -0.083984375
z: -1.28125
range: 1.43804001808
velocity: 0.0
doppler_bin: 8
bearing: -11.4657688141
intensity: 23.0749607086
---
header: 
  seq: 758521
  stamp: 
    secs: 1561867316
    nsecs: 126866448
  frame_id: "ti_mmwave"
point_id: 7
x: 0.55859375
y: -0.04296875
z: -1.2734375
range: 1.48161697388
velocity: 0.0
doppler_bin: 8
bearing: -4.39870548248
intensity: 21.7026176453
---
header: 
  seq: 758522
  stamp: 
    secs: 1561867316
    nsecs: 126878484
  frame_id: "ti_mmwave"
point_id: 8
x: 1.796875
y: -0.115234375
z: -0.3828125
range: 1.96096372604
velocity: 0.0
doppler_bin: 8
bearing: -3.66937828064
intensity: 27.5281639099
---
header: 
  seq: 758523
  stamp: 
    secs: 1561867316
    nsecs: 126892209
  frame_id: "ti_mmwave"
point_id: 9
x: 1.8515625
y: -0.0
z: -0.33203125
range: 2.00454068184
velocity: 0.0
doppler_bin: 8
bearing: -0.0
intensity: 26.7942790985
---
header: 
  seq: 758524
  stamp: 
    secs: 1561867316
    nsecs: 126903255
  frame_id: "ti_mmwave"
point_id: 10
x: 2.658203125
y: -0.1796875
z: 1.048828125
range: 3.05038785934
velocity: 0.0
doppler_bin: 8
bearing: -3.86716008186
intensity: 32.2063102722
---
header: 
  seq: 758525
  stamp: 
    secs: 1561867316
    nsecs: 126914246
  frame_id: "ti_mmwave"
point_id: 11
x: 2.755859375
y: -0.08984375
z: 0.9140625
range: 3.09396481514
velocity: 0.0
doppler_bin: 8
bearing: -1.86723792553
intensity: 31.2319812775
---
header: 
  seq: 758526
  stamp: 
    secs: 1561867316
    nsecs: 126925883
  frame_id: "ti_mmwave"
point_id: 12
x: 1.69921875
y: -0.052734375
z: 0.24609375
range: 1.83023273945
velocity: 0.614668667316
doppler_bin: 9
bearing: -1.77757430077
intensity: 25.7978363037
---
header: 
  seq: 758527
  stamp: 
    secs: 1561867316
    nsecs: 126936358
  frame_id: "ti_mmwave"
point_id: 13
x: 1.73828125
y: -0.0546875
z: 0.26171875
range: 1.87380969524
velocity: 0.614668667316
doppler_bin: 9
bearing: -1.80196928978
intensity: 26.8484535217
---
header: 
  seq: 758528
  stamp: 
    secs: 1561867316
    nsecs: 126954755
  frame_id: "ti_mmwave"
point_id: 15
x: 0.041015625
y: -0.033203125
z: 0.0625
range: 0.0871539413929
velocity: 0.0
doppler_bin: 8
bearing: -38.9909973145
intensity: 30.0987567902
---
header: 
  seq: 758529
  stamp: 
    secs: 1561867316
    nsecs: 126968444
  frame_id: "ti_mmwave"
point_id: 16
x: 0.044921875
y: -0.046875
z: 0.103515625
range: 0.130730912089
velocity: 0.0
doppler_bin: 8
bearing: -46.218875885
intensity: 29.0036716461
---
header: 
  seq: 758530
  stamp: 
    secs: 1561867316
    nsecs: 186825173
  frame_id: "ti_mmwave"
point_id: 0
x: 0.01171875
y: -0.0390625
z: -0.0078125
range: 0.0435769706964
velocity: 0.0
doppler_bin: 8
bearing: -73.3007583618
intensity: 30.6520614624
---
header: 
  seq: 758531
  stamp: 
    secs: 1561867316
    nsecs: 186903719
  frame_id: "ti_mmwave"
point_id: 1
x: 0.017578125
y: -0.080078125
z: -0.0078125
range: 0.0871539413929
velocity: 0.0
doppler_bin: 8
bearing: -77.6192398071
intensity: 31.9145107269
---
header: 
  seq: 758532
  stamp: 
    secs: 1561867316
    nsecs: 186919857
  frame_id: "ti_mmwave"
point_id: 2
x: 0.029296875
y: -0.119140625
z: -0.005859375
range: 0.130730912089
velocity: 0.0
doppler_bin: 8
bearing: -76.1849746704
intensity: 30.1367969513
---
header: 
  seq: 758533
  stamp: 
    secs: 1561867316
    nsecs: 186931353
  frame_id: "ti_mmwave"
point_id: 3
x: 0.056640625
y: -0.154296875
z: 0.0078125
range: 0.174307882786
velocity: 0.0
doppler_bin: 8
bearing: -69.8423843384
intensity: 25.4654273987
---
header: 
  seq: 758534
  stamp: 
    secs: 1561867316
    nsecs: 186948677
  frame_id: "ti_mmwave"
point_id: 4
x: 0.1484375
y: -0.080078125
z: 1.2578125
range: 1.35088610649
velocity: 0.0
doppler_bin: 8
bearing: -28.3456954956
intensity: 23.0749607086
---
header: 
  seq: 758535
  stamp: 
    secs: 1561867316
    nsecs: 186961423
  frame_id: "ti_mmwave"
point_id: 6
x: 0.44140625
y: -0.083984375
z: -1.2734375
range: 1.43804001808
velocity: 0.0
doppler_bin: 8
bearing: -10.7726478577
intensity: 23.0749607086
---
header: 
  seq: 758536
  stamp: 
    secs: 1561867316
    nsecs: 187033162
  frame_id: "ti_mmwave"
point_id: 7
x: 0.5625
y: -0.04296875
z: -1.271484375
range: 1.48161697388
velocity: 0.0
doppler_bin: 8
bearing: -4.36827754974
intensity: 21.7026176453
---
header: 
  seq: 758537
  stamp: 
    secs: 1561867316
    nsecs: 187046719
  frame_id: "ti_mmwave"
point_id: 8
x: 1.67578125
y: -0.052734375
z: -0.0390625
range: 1.78665578365
velocity: 0.0
doppler_bin: 8
bearing: -1.80241930485
intensity: 27.7378635406
---
header: 
  seq: 758538
  stamp: 
    secs: 1561867316
    nsecs: 187057573
  frame_id: "ti_mmwave"
point_id: 9
x: 1.716796875
y: -0.052734375
z: 0.0078125
range: 1.83023273945
velocity: 0.0
doppler_bin: 8
bearing: -1.75938534737
intensity: 29.2427921295
---
header: 
  seq: 758539
  stamp: 
    secs: 1561867316
    nsecs: 187070042
  frame_id: "ti_mmwave"
point_id: 10
x: 1.755859375
y: 0.0546875
z: 0.06640625
range: 1.87380969524
velocity: 0.0
doppler_bin: 8
bearing: 1.78394150734
intensity: 27.5050830841
---
header: 
  seq: 758540
  stamp: 
    secs: 1561867316
    nsecs: 187080835
  frame_id: "ti_mmwave"
point_id: 11
x: 1.740234375
y: -0.287109375
z: -0.529296875
range: 1.96096372604
velocity: 0.0
doppler_bin: 8
bearing: -9.3684463501
intensity: 26.3245735168
---
header: 
  seq: 758541
  stamp: 
    secs: 1561867316
    nsecs: 187093405
  frame_id: "ti_mmwave"
point_id: 12
x: 2.630859375
y: -0.17578125
z: 1.005859375
range: 3.00681090355
velocity: 0.0
doppler_bin: 8
bearing: -3.82254433632
intensity: 29.1487178802
---
header: 
  seq: 758542
  stamp: 
    secs: 1561867316
    nsecs: 187104406
  frame_id: "ti_mmwave"
point_id: 13
x: 2.693359375
y: -0.08984375
z: 0.96875
range: 3.05038785934
velocity: 0.0
doppler_bin: 8
bearing: -1.91053581238
intensity: 32.2788658142
---
header: 
  seq: 758543
  stamp: 
    secs: 1561867316
    nsecs: 187115880
  frame_id: "ti_mmwave"
point_id: 14
x: 2.7734375
y: -0.0
z: 0.86328125
range: 3.09396481514
velocity: 0.0
doppler_bin: 8
bearing: -0.0
intensity: 31.2417812347
---
header: 
  seq: 758544
  stamp: 
    secs: 1561867316
    nsecs: 187127510
  frame_id: "ti_mmwave"
point_id: 15
x: 0.009765625
y: 0.03125
z: 0.025390625
range: 0.0435769706964
velocity: 0.0
doppler_bin: 8
bearing: 72.6459732056
intensity: 29.2941894531
---
header: 
  seq: 758545
  stamp: 
    secs: 1561867316
    nsecs: 187141147
  frame_id: "ti_mmwave"
point_id: 16
x: 0.041015625
y: -0.033203125
z: 0.0625
range: 0.0871539413929
velocity: 0.0
doppler_bin: 8
bearing: -38.9909973145
intensity: 30.0987567902
---
header: 
  seq: 758546
  stamp: 
    secs: 1561867316
    nsecs: 187154143
  frame_id: "ti_mmwave"
point_id: 17
x: 0.044921875
y: -0.046875
z: 0.103515625
range: 0.130730912089
velocity: 0.0
doppler_bin: 8
bearing: -46.218875885
intensity: 29.0091304779
---
header: 
  seq: 758547
  stamp: 
    secs: 1561867316
    nsecs: 187166698
  frame_id: "ti_mmwave"
point_id: 19
x: 1.576171875
y: 0.345703125
z: 0.884765625
range: 1.96096372604
velocity: 0.0
doppler_bin: 8
bearing: 12.370844841
intensity: 23.5410842896
---
header: 
  seq: 758548
  stamp: 
    secs: 1561867316
    nsecs: 187904097
  frame_id: "ti_mmwave"
point_id: 0
x: 0.01171875
y: -0.0390625
z: -0.0078125
range: 0.0435769706964
velocity: 0.0
doppler_bin: 8
bearing: -73.3007583618
intensity: 30.6445808411
---
header: 
  seq: 758549
  stamp: 
    secs: 1561867316
    nsecs: 187996172
  frame_id: "ti_mmwave"
point_id: 1
x: 0.017578125
y: -0.080078125
z: -0.0078125
range: 0.0871539413929
velocity: 0.0
doppler_bin: 8
bearing: -77.6192398071
intensity: 31.9089164734
---
header: 
  seq: 758550
  stamp: 
    secs: 1561867316
    nsecs: 188015307
  frame_id: "ti_mmwave"
point_id: 2
x: 0.029296875
y: -0.119140625
z: -0.005859375
range: 0.130730912089
velocity: 0.0
doppler_bin: 8
bearing: -76.1849746704
intensity: 30.1325874329
---
header: 
  seq: 758551
  stamp: 
    secs: 1561867316
    nsecs: 188027384
  frame_id: "ti_mmwave"
point_id: 3
x: 0.056640625
y: -0.154296875
z: 0.0078125
range: 0.174307882786
velocity: 0.0
doppler_bin: 8
bearing: -69.8423843384
intensity: 25.4654273987
---
header: 
  seq: 758552
  stamp: 
    secs: 1561867316
    nsecs: 188042002
  frame_id: "ti_mmwave"
point_id: 4
x: 0.19140625
y: -0.080078125
z: 1.251953125
range: 1.35088610649
velocity: 0.0
doppler_bin: 8
bearing: -22.7028427124
intensity: 23.0749607086
---
header: 
  seq: 758553
  stamp: 
    secs: 1561867316
    nsecs: 188055325
  frame_id: "ti_mmwave"
point_id: 5
x: 0.052734375
y: -0.08203125
z: 1.3046875
range: 1.39446306229
velocity: 0.0
doppler_bin: 8
bearing: -57.2647743225
intensity: 24.6389293671
---
header: 
  seq: 758554
  stamp: 
    secs: 1561867316
    nsecs: 188070818
  frame_id: "ti_mmwave"
point_id: 6
x: 0.408203125
y: -0.083984375
z: -1.283203125
range: 1.43804001808
velocity: 0.0
doppler_bin: 8
bearing: -11.6258993149
intensity: 23.0749607086
---
header: 
  seq: 758555
  stamp: 
    secs: 1561867316
    nsecs: 188093677
  frame_id: "ti_mmwave"
point_id: 7
x: 1.666015625
y: -0.052734375
z: -0.189453125
range: 1.78665578365
velocity: 0.0
doppler_bin: 8
bearing: -1.8129774332
intensity: 31.3385810852
---
header: 
  seq: 758556
  stamp: 
    secs: 1561867316
    nsecs: 188109573
  frame_id: "ti_mmwave"
point_id: 8
x: 1.705078125
y: -0.052734375
z: -0.201171875
range: 1.83023273945
velocity: 0.0
doppler_bin: 8
bearing: -1.77146971226
intensity: 33.793056488
---
header: 
  seq: 758557
  stamp: 
    secs: 1561867316
    nsecs: 188184160
  frame_id: "ti_mmwave"
point_id: 9
x: 1.74609375
y: -0.0546875
z: -0.201171875
range: 1.87380969524
velocity: 0.0
doppler_bin: 8
bearing: -1.79391229153
intensity: 32.4821853638
---
header: 
  seq: 758558
  stamp: 
    secs: 1561867316
    nsecs: 188198238
  frame_id: "ti_mmwave"
point_id: 10
x: 1.759765625
y: 0.056640625
z: -0.53515625
range: 1.96096372604
velocity: 0.0
doppler_bin: 8
bearing: 1.84351181984
intensity: 27.3319721222
---
header: 
  seq: 758559
  stamp: 
    secs: 1561867316
    nsecs: 188209526
  frame_id: "ti_mmwave"
point_id: 11
x: 2.609375
y: -0.17578125
z: 1.0625
range: 3.00681090355
velocity: 0.0
doppler_bin: 8
bearing: -3.85392260551
intensity: 29.0525608063
---
header: 
  seq: 758560
  stamp: 
    secs: 1561867316
    nsecs: 188220964
  frame_id: "ti_mmwave"
point_id: 12
x: 2.6875
y: -0.08984375
z: 0.986328125
range: 3.05038785934
velocity: 0.0
doppler_bin: 8
bearing: -1.91469812393
intensity: 32.1932258606
---
header: 
  seq: 758561
  stamp: 
    secs: 1561867316
    nsecs: 188235637
  frame_id: "ti_mmwave"
point_id: 13
x: 2.75
y: -0.08984375
z: 0.927734375
range: 3.09396481514
velocity: 0.0
doppler_bin: 8
bearing: -1.87121355534
intensity: 31.2483005524
---
header: 
  seq: 758562
  stamp: 
    secs: 1561867316
    nsecs: 188250443
  frame_id: "ti_mmwave"
point_id: 15
x: 0.041015625
y: -0.033203125
z: 0.0625
range: 0.0871539413929
velocity: 0.0
doppler_bin: 8
bearing: -38.9909973145
intensity: 30.0987567902
---
header: 
  seq: 758563
  stamp: 
    secs: 1561867316
    nsecs: 188261491
  frame_id: "ti_mmwave"
point_id: 16
x: 0.044921875
y: -0.046875
z: 0.103515625
range: 0.130730912089
velocity: 0.0
doppler_bin: 8
bearing: -46.218875885
intensity: 29.0145835876
---
header: 
  seq: 758564
  stamp: 
    secs: 1561867316
    nsecs: 246578808
  frame_id: "ti_mmwave"
point_id: 0
x: 0.01171875
y: -0.0390625
z: -0.0078125
range: 0.0435769706964
velocity: 0.0
doppler_bin: 8
bearing: -73.3007583618
intensity: 30.6520614624
---
header: 
  seq: 758565
  stamp: 
    secs: 1561867316
    nsecs: 246654066
  frame_id: "ti_mmwave"
point_id: 1
x: 0.017578125
y: -0.080078125
z: -0.0078125
range: 0.0871539413929
velocity: 0.0
doppler_bin: 8
bearing: -77.6192398071
intensity: 31.9061183929
---
header: 
  seq: 758566
  stamp: 
    secs: 1561867316
    nsecs: 246664965
  frame_id: "ti_mmwave"
point_id: 2
x: 0.029296875
y: -0.119140625
z: -0.005859375
range: 0.130730912089
velocity: 0.0
doppler_bin: 8
bearing: -76.1849746704
intensity: 30.1283721924
---
header: 
  seq: 758567
  stamp: 
    secs: 1561867316
    nsecs: 246675857
  frame_id: "ti_mmwave"
point_id: 3
x: 0.056640625
y: -0.154296875
z: 0.005859375
range: 0.174307882786
velocity: 0.0
doppler_bin: 8
bearing: -69.8423843384
intensity: 25.4530715942
---
header: 
  seq: 758568
  stamp: 
    secs: 1561867316
    nsecs: 246684584
  frame_id: "ti_mmwave"
point_id: 4
x: 0.166015625
y: -0.080078125
z: 1.25390625
range: 1.35088610649
velocity: 0.0
doppler_bin: 8
bearing: -25.7504749298
intensity: 23.1175384521
---
header: 
  seq: 758569
  stamp: 
    secs: 1561867316
    nsecs: 246695090
  frame_id: "ti_mmwave"
point_id: 6
x: 0.40625
y: -0.083984375
z: -1.28515625
range: 1.43804001808
velocity: 0.0
doppler_bin: 8
bearing: -11.6802606583
intensity: 23.0749607086
---
header: 
  seq: 758570
  stamp: 
    secs: 1561867316
    nsecs: 246703495
  frame_id: "ti_mmwave"
point_id: 7
x: 0.546875
y: -0.04296875
z: -1.27734375
range: 1.48161697388
velocity: 0.0
doppler_bin: 8
bearing: -4.49258184433
intensity: 21.6731739044
---
header: 
  seq: 758571
  stamp: 
    secs: 1561867316
    nsecs: 246712965
  frame_id: "ti_mmwave"
point_id: 8
x: 1.677734375
y: -0.107421875
z: -0.35546875
range: 1.83023273945
velocity: 0.0
doppler_bin: 8
bearing: -3.66352987289
intensity: 29.0471553802
---
header: 
  seq: 758572
  stamp: 
    secs: 1561867316
    nsecs: 246721132
  frame_id: "ti_mmwave"
point_id: 9
x: 1.720703125
y: -0.0546875
z: -0.361328125
range: 1.87380969524
velocity: 0.0
doppler_bin: 8
bearing: -1.82036530972
intensity: 28.8422870636
---
header: 
  seq: 758573
  stamp: 
    secs: 1561867316
    nsecs: 246729078
  frame_id: "ti_mmwave"
point_id: 10
x: 1.740234375
y: -0.11328125
z: -0.443359375
range: 1.91738677025
velocity: 0.0
doppler_bin: 8
bearing: -3.72443675995
intensity: 28.4260921478
---
header: 
  seq: 758574
  stamp: 
    secs: 1561867316
    nsecs: 246738607
  frame_id: "ti_mmwave"
point_id: 11
x: 1.771484375
y: -0.115234375
z: -0.486328125
range: 1.96096372604
velocity: 0.0
doppler_bin: 8
bearing: -3.721824646
intensity: 27.9028511047
---
header: 
  seq: 758575
  stamp: 
    secs: 1561867316
    nsecs: 246747183
  frame_id: "ti_mmwave"
point_id: 12
x: 2.662109375
y: -0.1796875
z: 1.041015625
range: 3.05038785934
velocity: 0.0
doppler_bin: 8
bearing: -3.86150240898
intensity: 32.1457901001
---
header: 
  seq: 758576
  stamp: 
    secs: 1561867316
    nsecs: 246755429
  frame_id: "ti_mmwave"
point_id: 13
x: 2.759765625
y: -0.08984375
z: 0.900390625
range: 3.09396481514
velocity: 0.0
doppler_bin: 8
bearing: -1.86459684372
intensity: 31.2548122406
---
header: 
  seq: 758577
  stamp: 
    secs: 1561867316
    nsecs: 246765799
  frame_id: "ti_mmwave"
point_id: 15
x: 0.041015625
y: -0.033203125
z: 0.0625
range: 0.0871539413929
velocity: 0.0
doppler_bin: 8
bearing: -38.9909973145
intensity: 30.1029987335
---
header: 
  seq: 758578
  stamp: 
    secs: 1561867316
    nsecs: 246912277
  frame_id: "ti_mmwave"
point_id: 16
x: 0.044921875
y: -0.046875
z: 0.103515625
range: 0.130730912089
velocity: 0.0
doppler_bin: 8
bearing: -46.218875885
intensity: 29.0091304779
---
header: 
  seq: 758579
  stamp: 
    secs: 1561867316
    nsecs: 247848287
  frame_id: "ti_mmwave"
point_id: 0
x: 0.01171875
y: -0.0390625
z: -0.0078125
range: 0.0435769706964
velocity: 0.0
doppler_bin: 8
bearing: -73.3007583618
intensity: 30.6520614624
---
header: 
  seq: 758580
  stamp: 
    secs: 1561867316
    nsecs: 247919074
  frame_id: "ti_mmwave"
point_id: 1
x: 0.017578125
y: -0.080078125
z: -0.0078125
range: 0.0871539413929
velocity: 0.0
doppler_bin: 8
bearing: -77.6192398071
intensity: 31.9117145538
---
header: 
  seq: 758581
  stamp: 
    secs: 1561867316
    nsecs: 247979585
  frame_id: "ti_mmwave"
point_id: 2
x: 0.029296875
y: -0.119140625
z: -0.005859375
range: 0.130730912089
velocity: 0.0
doppler_bin: 8
bearing: -76.1849746704
intensity: 30.1325874329
---
header: 
  seq: 758582
  stamp: 
    secs: 1561867316
    nsecs: 248007502
  frame_id: "ti_mmwave"
point_id: 3
x: 0.056640625
y: -0.154296875
z: 0.005859375
range: 0.174307882786
velocity: 0.0
doppler_bin: 8
bearing: -69.8423843384
intensity: 25.4530715942
---
header: 
  seq: 758583
  stamp: 
    secs: 1561867316
    nsecs: 248024011
  frame_id: "ti_mmwave"
point_id: 4
x: 0.08984375
y: -0.080078125
z: 1.26171875
range: 1.35088610649
velocity: 0.0
doppler_bin: 8
bearing: -41.7107582092
intensity: 23.1597042084
---
header: 
  seq: 758584
  stamp: 
    secs: 1561867316
    nsecs: 248124461
  frame_id: "ti_mmwave"
point_id: 6
x: 0.412109375
y: -0.083984375
z: -1.283203125
range: 1.43804001808
velocity: 0.0
doppler_bin: 8
bearing: -11.518658638
intensity: 23.0963020325
---
header: 
  seq: 758585
  stamp: 
    secs: 1561867316
    nsecs: 248145924
  frame_id: "ti_mmwave"
point_id: 7
x: 1.671875
y: -0.0
z: -0.140625
range: 1.78665578365
velocity: 0.0
doppler_bin: 8
bearing: -0.0
intensity: 27.8390350342
---
header: 
  seq: 758586
  stamp: 
    secs: 1561867316
    nsecs: 248157657
  frame_id: "ti_mmwave"
point_id: 8
x: 1.712890625
y: -0.0
z: -0.134765625
range: 1.83023273945
velocity: 0.0
doppler_bin: 8
bearing: -0.0
intensity: 31.6435279846
---
header: 
  seq: 758587
  stamp: 
    secs: 1561867316
    nsecs: 248171358
  frame_id: "ti_mmwave"
point_id: 9
x: 1.75390625
y: -0.0
z: -0.134765625
range: 1.87380969524
velocity: 0.0
doppler_bin: 8
bearing: -0.0
intensity: 31.4643821716
---
header: 
  seq: 758588
  stamp: 
    secs: 1561867316
    nsecs: 248206997
  frame_id: "ti_mmwave"
point_id: 10
x: 1.794921875
y: -0.056640625
z: -0.1328125
range: 1.91738677025
velocity: 0.0
doppler_bin: 8
bearing: -1.80742812157
intensity: 27.4585514069
---
header: 
  seq: 758589
  stamp: 
    secs: 1561867316
    nsecs: 248215984
  frame_id: "ti_mmwave"
point_id: 11
x: 2.60546875
y: -0.17578125
z: 1.0703125
range: 3.00681090355
velocity: 0.0
doppler_bin: 8
bearing: -3.85968351364
intensity: 28.8138465881
---
header: 
  seq: 758590
  stamp: 
    secs: 1561867316
    nsecs: 248223924
  frame_id: "ti_mmwave"
point_id: 12
x: 2.689453125
y: -0.08984375
z: 0.978515625
range: 3.05038785934
velocity: 0.0
doppler_bin: 8
bearing: -1.91330885887
intensity: 32.1642990112
---
header: 
  seq: 758591
  stamp: 
    secs: 1561867316
    nsecs: 248231938
  frame_id: "ti_mmwave"
point_id: 13
x: 2.775390625
y: -0.0
z: 0.859375
range: 3.09396481514
velocity: 0.0
doppler_bin: 8
bearing: -0.0
intensity: 31.1461105347
---
header: 
  seq: 758592
  stamp: 
    secs: 1561867316
    nsecs: 248242078
  frame_id: "ti_mmwave"
point_id: 15
x: 0.041015625
y: -0.033203125
z: 0.0625
range: 0.0871539413929
velocity: 0.0
doppler_bin: 8
bearing: -38.9909973145
intensity: 30.0987567902
---
header: 
  seq: 758593
  stamp: 
    secs: 1561867316
    nsecs: 248249800
  frame_id: "ti_mmwave"
point_id: 16
x: 0.044921875
y: -0.046875
z: 0.103515625
range: 0.130730912089
velocity: 0.0
doppler_bin: 8
bearing: -46.218875885
intensity: 29.0036716461
---
header: 
  seq: 758594
  stamp: 
    secs: 1561867316
    nsecs: 248262758
  frame_id: "ti_mmwave"
point_id: 18
x: 2.732421875
y: -0.181640625
z: 0.96875
range: 3.09396481514
velocity: 0.0
doppler_bin: 8
bearing: -3.80320167542
intensity: 31.1360912323
---
header: 
  seq: 758595
  stamp: 
    secs: 1561867316
    nsecs: 306591226
  frame_id: "ti_mmwave"
point_id: 0
x: 0.01171875
y: -0.0390625
z: -0.0078125
range: 0.0435769706964
velocity: 0.0
doppler_bin: 8
bearing: -73.3007583618
intensity: 30.6557979584
---
header: 
  seq: 758596
  stamp: 
    secs: 1561867316
    nsecs: 306663871
  frame_id: "ti_mmwave"
point_id: 1
x: 0.017578125
y: -0.080078125
z: -0.0078125
range: 0.0871539413929
velocity: 0.0
doppler_bin: 8
bearing: -77.6192398071
intensity: 31.9117145538
---
header: 
  seq: 758597
  stamp: 
    secs: 1561867316
    nsecs: 306674341
  frame_id: "ti_mmwave"
point_id: 2
x: 0.029296875
y: -0.119140625
z: -0.005859375
range: 0.130730912089
velocity: 0.0
doppler_bin: 8
bearing: -76.1849746704
intensity: 30.1325874329
---
header: 
  seq: 758598
  stamp: 
    secs: 1561867316
    nsecs: 306682905
  frame_id: "ti_mmwave"
point_id: 3
x: 0.056640625
y: -0.154296875
z: 0.005859375
range: 0.174307882786
velocity: 0.0
doppler_bin: 8
bearing: -69.8423843384
intensity: 25.4530715942
---
header: 
  seq: 758599
  stamp: 
    secs: 1561867316
    nsecs: 306691128
  frame_id: "ti_mmwave"
point_id: 4
x: 0.185546875
y: -0.080078125
z: 1.251953125
range: 1.35088610649
velocity: 0.0
doppler_bin: 8
bearing: -23.3440113068
intensity: 23.0963020325
---
header: 
  seq: 758600
  stamp: 
    secs: 1561867316
    nsecs: 306702987
  frame_id: "ti_mmwave"
point_id: 6
x: 0.431640625
y: -0.083984375
z: -1.275390625
range: 1.43804001808
velocity: 0.0
doppler_bin: 8
bearing: -11.0104799271
intensity: 23.031961441
---
header: 
  seq: 758601
  stamp: 
    secs: 1561867316
    nsecs: 306711264
  frame_id: "ti_mmwave"
point_id: 7
x: 0.56640625
y: -0.04296875
z: -1.26953125
range: 1.48161697388
velocity: 0.0
doppler_bin: 8
bearing: -4.33826684952
intensity: 21.6136798859
---
header: 
  seq: 758602
  stamp: 
    secs: 1561867316
    nsecs: 306719042
  frame_id: "ti_mmwave"
point_id: 8
x: 1.65234375
y: -0.0
z: -0.291015625
range: 1.78665578365
velocity: 0.0
doppler_bin: 8
bearing: -0.0
intensity: 28.3884906769
---
header: 
  seq: 758603
  stamp: 
    secs: 1561867316
    nsecs: 306728503
  frame_id: "ti_mmwave"
point_id: 9
x: 1.689453125
y: -0.0
z: -0.310546875
range: 1.83023273945
velocity: 0.0
doppler_bin: 8
bearing: -0.0
intensity: 30.8564720154
---
header: 
  seq: 758604
  stamp: 
    secs: 1561867316
    nsecs: 306736738
  frame_id: "ti_mmwave"
point_id: 10
x: 1.7265625
y: 0.0546875
z: -0.330078125
range: 1.87380969524
velocity: 0.0
doppler_bin: 8
bearing: 1.81419193745
intensity: 29.0687351227
---
header: 
  seq: 758605
  stamp: 
    secs: 1561867316
    nsecs: 306744621
  frame_id: "ti_mmwave"
point_id: 11
x: 2.658203125
y: -0.1796875
z: 1.05078125
range: 3.05038785934
velocity: 0.0
doppler_bin: 8
bearing: -3.86716008186
intensity: 32.1827278137
---
header: 
  seq: 758606
  stamp: 
    secs: 1561867316
    nsecs: 306753508
  frame_id: "ti_mmwave"
point_id: 12
x: 2.7578125
y: -0.08984375
z: 0.904296875
range: 3.09396481514
velocity: 0.0
doppler_bin: 8
bearing: -1.86591637135
intensity: 31.1958580017
---
header: 
  seq: 758607
  stamp: 
    secs: 1561867316
    nsecs: 306765072
  frame_id: "ti_mmwave"
point_id: 14
x: 0.041015625
y: -0.033203125
z: 0.0625
range: 0.0871539413929
velocity: 0.0
doppler_bin: 8
bearing: -38.9909973145
intensity: 30.1029987335
---
header: 
  seq: 758608
  stamp: 
    secs: 1561867316
    nsecs: 306773463
  frame_id: "ti_mmwave"
point_id: 15
x: 0.044921875
y: -0.046875
z: 0.103515625
range: 0.130730912089
velocity: 0.0
doppler_bin: 8
bearing: -46.218875885
intensity: 29.0145835876
---
header: 
  seq: 758609
  stamp: 
    secs: 1561867316
    nsecs: 307846799
  frame_id: "ti_mmwave"
point_id: 0
x: 0.01171875
y: -0.0390625
z: -0.0078125
range: 0.0435769706964
velocity: 0.0
doppler_bin: 8
bearing: -73.3007583618
intensity: 30.6520614624
---
header: 
  seq: 758610
  stamp: 
    secs: 1561867316
    nsecs: 307910632
  frame_id: "ti_mmwave"
point_id: 1
x: 0.017578125
y: -0.080078125
z: -0.0078125
range: 0.0871539413929
velocity: 0.0
doppler_bin: 8
bearing: -77.6192398071
intensity: 31.9117145538
---
header: 
  seq: 758611
  stamp: 
    secs: 1561867316
    nsecs: 307929231
  frame_id: "ti_mmwave"
point_id: 2
x: 0.029296875
y: -0.119140625
z: -0.005859375
range: 0.130730912089
velocity: 0.0
doppler_bin: 8
bearing: -76.1849746704
intensity: 30.1367969513
---
header: 
  seq: 758612
  stamp: 
    secs: 1561867316
    nsecs: 308062430
  frame_id: "ti_mmwave"
point_id: 3
x: 0.056640625
y: -0.154296875
z: 0.0078125
range: 0.174307882786
velocity: 0.0
doppler_bin: 8
bearing: -69.8423843384
intensity: 25.4654273987
---
header: 
  seq: 758613
  stamp: 
    secs: 1561867316
    nsecs: 308081100
  frame_id: "ti_mmwave"
point_id: 4
x: 0.14453125
y: -0.080078125
z: 1.2578125
range: 1.35088610649
velocity: 0.0
doppler_bin: 8
bearing: -28.9888248444
intensity: 23.0963020325
---
header: 
  seq: 758614
  stamp: 
    secs: 1561867316
    nsecs: 308098439
  frame_id: "ti_mmwave"
point_id: 6
x: 0.423828125
y: -0.083984375
z: -1.279296875
range: 1.43804001808
velocity: 0.0
doppler_bin: 8
bearing: -11.2083444595
intensity: 23.0535144806
---
header: 
  seq: 758615
  stamp: 
    secs: 1561867316
    nsecs: 308140336
  frame_id: "ti_mmwave"
point_id: 7
x: 0.556640625
y: -0.04296875
z: -1.2734375
range: 1.48161697388
velocity: 0.0
doppler_bin: 8
bearing: -4.41407871246
intensity: 21.7318630219
---
header: 
  seq: 758616
  stamp: 
    secs: 1561867316
    nsecs: 308155628
  frame_id: "ti_mmwave"
point_id: 8
x: 1.712890625
y: -0.107421875
z: -0.068359375
range: 1.83023273945
velocity: 0.0
doppler_bin: 8
bearing: -3.58853602409
intensity: 28.9652614594
---
header: 
  seq: 758617
  stamp: 
    secs: 1561867316
    nsecs: 308179345
  frame_id: "ti_mmwave"
point_id: 9
x: 1.755859375
y: -0.0546875
z: -0.095703125
range: 1.87380969524
velocity: 0.0
doppler_bin: 8
bearing: -1.78394150734
intensity: 28.4385547638
---
header: 
  seq: 758618
  stamp: 
    secs: 1561867316
    nsecs: 308200851
  frame_id: "ti_mmwave"
point_id: 10
x: 2.615234375
y: -0.17578125
z: 1.048828125
range: 3.00681090355
velocity: 0.0
doppler_bin: 8
bearing: -3.84531402588
intensity: 28.8817958832
---
header: 
  seq: 758619
  stamp: 
    secs: 1561867316
    nsecs: 308224763
  frame_id: "ti_mmwave"
point_id: 11
x: 2.6875
y: -0.08984375
z: 0.986328125
range: 3.05038785934
velocity: 0.0
doppler_bin: 8
bearing: -1.91469812393
intensity: 32.1827278137
---
header: 
  seq: 758620
  stamp: 
    secs: 1561867316
    nsecs: 308283970
  frame_id: "ti_mmwave"
point_id: 12
x: 2.75390625
y: -0.08984375
z: 0.916015625
range: 3.09396481514
velocity: 0.0
doppler_bin: 8
bearing: -1.86856126785
intensity: 31.235250473
---
header: 
  seq: 758621
  stamp: 
    secs: 1561867316
    nsecs: 308301876
  frame_id: "ti_mmwave"
point_id: 14
x: 0.041015625
y: -0.033203125
z: 0.0625
range: 0.0871539413929
velocity: 0.0
doppler_bin: 8
bearing: -38.9909973145
intensity: 30.1029987335
---
header: 
  seq: 758622
  stamp: 
    secs: 1561867316
    nsecs: 308315233
  frame_id: "ti_mmwave"
point_id: 15
x: 0.044921875
y: -0.046875
z: 0.103515625
range: 0.130730912089
velocity: 0.0
doppler_bin: 8
bearing: -46.218875885
intensity: 29.0145835876
---
header: 
  seq: 758623
  stamp: 
    secs: 1561867316
    nsecs: 366724065
  frame_id: "ti_mmwave"
point_id: 0
x: 0.01171875
y: -0.0390625
z: -0.0078125
range: 0.0435769706964
velocity: 0.0
doppler_bin: 8
bearing: -73.3007583618
intensity: 30.6520614624
---
header: 
  seq: 758624
  stamp: 
    secs: 1561867316
    nsecs: 366815543
  frame_id: "ti_mmwave"
point_id: 1
x: 0.017578125
y: -0.080078125
z: -0.0078125
range: 0.0871539413929
velocity: 0.0
doppler_bin: 8
bearing: -77.6192398071
intensity: 31.9117145538
---
header: 
  seq: 758625
  stamp: 
    secs: 1561867316
    nsecs: 366833072
  frame_id: "ti_mmwave"
point_id: 2
x: 0.029296875
y: -0.119140625
z: -0.005859375
range: 0.130730912089
velocity: 0.0
doppler_bin: 8
bearing: -76.1849746704
intensity: 30.1325874329
---
header: 
  seq: 758626
  stamp: 
    secs: 1561867316
    nsecs: 366850031
  frame_id: "ti_mmwave"
point_id: 3
x: 0.056640625
y: -0.154296875
z: 0.0078125
range: 0.174307882786
velocity: 0.0
doppler_bin: 8
bearing: -69.8423843384
intensity: 25.4654273987
---
header: 
  seq: 758627
  stamp: 
    secs: 1561867316
    nsecs: 366866361
  frame_id: "ti_mmwave"
point_id: 4
x: 0.1796875
y: -0.080078125
z: 1.251953125
range: 1.35088610649
velocity: 0.0
doppler_bin: 8
bearing: -24.0202465057
intensity: 23.138671875
---
header: 
  seq: 758628
  stamp: 
    secs: 1561867316
    nsecs: 366882243
  frame_id: "ti_mmwave"
point_id: 6
x: 0.4296875
y: -0.083984375
z: -1.27734375
range: 1.43804001808
velocity: 0.0
doppler_bin: 8
bearing: -11.0592975616
intensity: 23.0749607086
---
header: 
  seq: 758629
  stamp: 
    secs: 1561867316
    nsecs: 366897127
  frame_id: "ti_mmwave"
point_id: 7
x: 0.560546875
y: -0.04296875
z: -1.271484375
range: 1.48161697388
velocity: 0.0
doppler_bin: 8
bearing: -4.38343858719
intensity: 21.6435279846
---
header: 
  seq: 758630
  stamp: 
    secs: 1561867316
    nsecs: 366910644
  frame_id: "ti_mmwave"
point_id: 8
x: 1.791015625
y: 0.11328125
z: -0.138671875
range: 1.91738677025
velocity: 0.0
doppler_bin: 8
bearing: 3.61912178993
intensity: 25.7634143829
---
header: 
  seq: 758631
  stamp: 
    secs: 1561867316
    nsecs: 366924930
  frame_id: "ti_mmwave"
point_id: 9
x: 1.830078125
y: 0.171875
z: -0.111328125
range: 1.96096372604
velocity: 0.0
doppler_bin: 8
bearing: 5.36529636383
intensity: 26.0852603912
---
header: 
  seq: 758632
  stamp: 
    secs: 1561867316
    nsecs: 366938339
  frame_id: "ti_mmwave"
point_id: 10
x: 2.62890625
y: -0.17578125
z: 1.013671875
range: 3.00681090355
velocity: 0.0
doppler_bin: 8
bearing: -3.82537555695
intensity: 28.864906311
---
header: 
  seq: 758633
  stamp: 
    secs: 1561867316
    nsecs: 366953862
  frame_id: "ti_mmwave"
point_id: 11
x: 2.66015625
y: -0.1796875
z: 1.046875
range: 3.05038785934
velocity: 0.0
doppler_bin: 8
bearing: -3.86432933807
intensity: 32.1378326416
---
header: 
  seq: 758634
  stamp: 
    secs: 1561867316
    nsecs: 367037348
  frame_id: "ti_mmwave"
point_id: 12
x: 2.748046875
y: -0.08984375
z: 0.9375
range: 3.09396481514
velocity: 0.0
doppler_bin: 8
bearing: -1.8725425005
intensity: 31.209028244
---
header: 
  seq: 758635
  stamp: 
    secs: 1561867316
    nsecs: 367058695
  frame_id: "ti_mmwave"
point_id: 14
x: 0.041015625
y: -0.033203125
z: 0.0625
range: 0.0871539413929
velocity: 0.0
doppler_bin: 8
bearing: -38.9909973145
intensity: 30.0945091248
---
header: 
  seq: 758636
  stamp: 
    secs: 1561867316
    nsecs: 367072548
  frame_id: "ti_mmwave"
point_id: 15
x: 0.046875
y: -0.046875
z: 0.103515625
range: 0.130730912089
velocity: 0.0
doppler_bin: 8
bearing: -45.0
intensity: 29.0091304779
---
header: 
  seq: 758637
  stamp: 
    secs: 1561867316
    nsecs: 367088774
  frame_id: "ti_mmwave"
point_id: 17
x: 1.18359375
y: -0.40234375
z: -1.3515625
range: 1.96096372604
velocity: 0.0
doppler_bin: 8
bearing: -18.7746429443
intensity: 24.1161975861
---
header: 
  seq: 758638
  stamp: 
    secs: 1561867316
    nsecs: 368110019
  frame_id: "ti_mmwave"
point_id: 0
x: 0.01171875
y: -0.0390625
z: -0.0078125
range: 0.0435769706964
velocity: 0.0
doppler_bin: 8
bearing: -73.3007583618
intensity: 30.6595306396
---
header: 
  seq: 758639
  stamp: 
    secs: 1561867316
    nsecs: 368161043
  frame_id: "ti_mmwave"
point_id: 1
x: 0.017578125
y: -0.080078125
z: -0.0078125
range: 0.0871539413929
velocity: 0.0
doppler_bin: 8
bearing: -77.6192398071
intensity: 31.9117145538
---
header: 
  seq: 758640
  stamp: 
    secs: 1561867316
    nsecs: 368177270
  frame_id: "ti_mmwave"
point_id: 2
x: 0.029296875
y: -0.119140625
z: -0.005859375
range: 0.130730912089
velocity: 0.0
doppler_bin: 8
bearing: -76.1849746704
intensity: 30.1283721924
---
header: 
  seq: 758641
  stamp: 
    secs: 1561867316
    nsecs: 368201013
  frame_id: "ti_mmwave"
point_id: 3
x: 0.056640625
y: -0.154296875
z: 0.005859375
range: 0.174307882786
velocity: 0.0
doppler_bin: 8
bearing: -69.8423843384
intensity: 25.4406795502
---
header: 
  seq: 758642
  stamp: 
    secs: 1561867316
    nsecs: 368253842
  frame_id: "ti_mmwave"
point_id: 4
x: 0.16796875
y: -0.080078125
z: 1.25390625
range: 1.35088610649
velocity: 0.0
doppler_bin: 8
bearing: -25.489200592
intensity: 23.1175384521
---
header: 
  seq: 758643
  stamp: 
    secs: 1561867316
    nsecs: 368273101
  frame_id: "ti_mmwave"
point_id: 6
