header: 
  seq: 798042
  stamp: 
    secs: 1561867388
    nsecs: 906647506
  frame_id: "ti_mmwave"
point_id: 0
x: 0.01171875
y: -0.0390625
z: -0.0078125
range: 0.0435769706964
velocity: 0.0
doppler_bin: 8
bearing: -73.3007583618
intensity: 30.6408348083
---
header: 
  seq: 798043
  stamp: 
    secs: 1561867388
    nsecs: 906718964
  frame_id: "ti_mmwave"
point_id: 1
x: 0.017578125
y: -0.080078125
z: -0.0078125
range: 0.0871539413929
velocity: 0.0
doppler_bin: 8
bearing: -77.6192398071
intensity: 31.9033164978
---
header: 
  seq: 798044
  stamp: 
    secs: 1561867388
    nsecs: 906731844
  frame_id: "ti_mmwave"
point_id: 2
x: 0.029296875
y: -0.119140625
z: -0.005859375
range: 0.130730912089
velocity: 0.0
doppler_bin: 8
bearing: -76.1849746704
intensity: 30.1241531372
---
header: 
  seq: 798045
  stamp: 
    secs: 1561867388
    nsecs: 906740552
  frame_id: "ti_mmwave"
point_id: 3
x: 0.056640625
y: -0.154296875
z: 0.005859375
range: 0.174307882786
velocity: 0.0
doppler_bin: 8
bearing: -69.8423843384
intensity: 25.4406795502
---
header: 
  seq: 798046
  stamp: 
    secs: 1561867388
    nsecs: 906749697
  frame_id: "ti_mmwave"
point_id: 4
x: 0.1640625
y: -0.080078125
z: 1.255859375
range: 1.35088610649
velocity: 0.0
doppler_bin: 8
bearing: -26.0167827606
intensity: 23.0963020325
---
header: 
  seq: 798047
  stamp: 
    secs: 1561867388
    nsecs: 906761256
  frame_id: "ti_mmwave"
point_id: 6
x: 0.3984375
y: -0.083984375
z: -1.287109375
range: 1.43804001808
velocity: 0.0
doppler_bin: 8
bearing: -11.9028120041
intensity: 23.0963020325
---
header: 
  seq: 798048
  stamp: 
    secs: 1561867388
    nsecs: 906769451
  frame_id: "ti_mmwave"
point_id: 7
x: 0.55078125
y: -0.04296875
z: -1.275390625
range: 1.48161697388
velocity: 0.0
doppler_bin: 8
bearing: -4.46084880829
intensity: 21.6731739044
---
header: 
  seq: 798049
  stamp: 
    secs: 1561867388
    nsecs: 906777405
  frame_id: "ti_mmwave"
point_id: 8
x: 1.640625
y: 0.10546875
z: -0.333984375
range: 1.78665578365
velocity: 0.0
doppler_bin: 8
bearing: 3.67823863029
intensity: 28.633228302
---
header: 
  seq: 798050
  stamp: 
    secs: 1561867388
    nsecs: 906785686
  frame_id: "ti_mmwave"
point_id: 9
x: 1.685546875
y: 0.107421875
z: -0.3125
range: 1.83023273945
velocity: 0.0
doppler_bin: 8
bearing: 3.64659523964
intensity: 30.9516925812
---
header: 
  seq: 798051
  stamp: 
    secs: 1561867388
    nsecs: 906793798
  frame_id: "ti_mmwave"
point_id: 10
x: 1.728515625
y: 0.109375
z: -0.30078125
range: 1.87380969524
velocity: 0.0
doppler_bin: 8
bearing: 3.62066841125
intensity: 29.9475688934
---
header: 
  seq: 798052
  stamp: 
    secs: 1561867388
    nsecs: 906803382
  frame_id: "ti_mmwave"
point_id: 11
x: 2.61328125
y: -0.17578125
z: 1.048828125
range: 3.00681090355
velocity: 0.0
doppler_bin: 8
bearing: -3.84817934036
intensity: 29.0848503113
---
header: 
  seq: 798053
  stamp: 
    secs: 1561867388
    nsecs: 906812689
  frame_id: "ti_mmwave"
point_id: 12
x: 2.662109375
y: -0.1796875
z: 1.0390625
range: 3.05038785934
velocity: 0.0
doppler_bin: 8
bearing: -3.86150240898
intensity: 32.2115325928
---
header: 
  seq: 798054
  stamp: 
    secs: 1561867388
    nsecs: 906822516
  frame_id: "ti_mmwave"
point_id: 13
x: 2.7578125
y: -0.08984375
z: 0.90625
range: 3.09396481514
velocity: 0.0
doppler_bin: 8
bearing: -1.86591637135
intensity: 31.1892566681
---
header: 
  seq: 798055
  stamp: 
    secs: 1561867388
    nsecs: 906831148
  frame_id: "ti_mmwave"
point_id: 14
x: 4.40234375
y: -0.142578125
z: 1.10546875
range: 4.83704376221
velocity: 0.0
doppler_bin: 8
bearing: -1.85498249531
intensity: 27.9795970917
---
header: 
  seq: 798056
  stamp: 
    secs: 1561867388
    nsecs: 906839849
  frame_id: "ti_mmwave"
point_id: 15
x: 4.408203125
y: -0.142578125
z: 1.23828125
range: 4.88062095642
velocity: 0.0
doppler_bin: 8
bearing: -1.85251843929
intensity: 31.2742881775
---
header: 
  seq: 798057
  stamp: 
    secs: 1561867388
    nsecs: 906848055
  frame_id: "ti_mmwave"
point_id: 16
x: 4.4453125
y: -0.14453125
z: 1.259765625
range: 4.9241976738
velocity: 0.0
doppler_bin: 8
bearing: -1.86221218109
intensity: 30.7954292297
---
header: 
  seq: 798058
  stamp: 
    secs: 1561867388
    nsecs: 906856631
  frame_id: "ti_mmwave"
point_id: 17
x: 4.888671875
y: -0.30859375
z: 0.71484375
range: 5.27281332016
velocity: 0.0
doppler_bin: 8
bearing: -3.61196112633
intensity: 30.7224998474
---
header: 
  seq: 798059
  stamp: 
    secs: 1561867388
    nsecs: 906865291
  frame_id: "ti_mmwave"
point_id: 18
x: 1.55078125
y: 0.048828125
z: 0.09375
range: 1.65592491627
velocity: 0.614668667316
doppler_bin: 9
bearing: 1.80342757702
intensity: 27.6267852783
---
header: 
  seq: 798060
  stamp: 
    secs: 1561867388
    nsecs: 906888335
  frame_id: "ti_mmwave"
point_id: 19
x: 1.591796875
y: 0.05078125
z: 0.08203125
range: 1.69950187206
velocity: 0.614668667316
doppler_bin: 9
bearing: 1.82722115517
intensity: 27.8746051788
---
header: 
  seq: 798061
  stamp: 
    secs: 1561867388
    nsecs: 906906493
  frame_id: "ti_mmwave"
point_id: 21
x: 0.041015625
y: -0.033203125
z: 0.0625
range: 0.0871539413929
velocity: 0.0
doppler_bin: 8
bearing: -38.9909973145
intensity: 30.0945091248
---
header: 
  seq: 798062
  stamp: 
    secs: 1561867388
    nsecs: 906921202
  frame_id: "ti_mmwave"
point_id: 22
x: 0.044921875
y: -0.046875
z: 0.103515625
range: 0.130730912089
velocity: 0.0
doppler_bin: 8
bearing: -46.218875885
intensity: 29.0036716461
---
header: 
  seq: 798063
  stamp: 
    secs: 1561867388
    nsecs: 907939798
  frame_id: "ti_mmwave"
point_id: 0
x: 0.01171875
y: -0.0390625
z: -0.0078125
range: 0.0435769706964
velocity: 0.0
doppler_bin: 8
bearing: -73.3007583618
intensity: 30.6408348083
---
header: 
  seq: 798064
  stamp: 
    secs: 1561867388
    nsecs: 908031065
  frame_id: "ti_mmwave"
point_id: 1
x: 0.017578125
y: -0.080078125
z: -0.0078125
range: 0.0871539413929
velocity: 0.0
doppler_bin: 8
bearing: -77.6192398071
intensity: 31.9033164978
---
header: 
  seq: 798065
  stamp: 
    secs: 1561867388
    nsecs: 908050105
  frame_id: "ti_mmwave"
point_id: 2
x: 0.029296875
y: -0.119140625
z: -0.005859375
range: 0.130730912089
velocity: 0.0
doppler_bin: 8
bearing: -76.1849746704
intensity: 30.1241531372
---
header: 
  seq: 798066
  stamp: 
    secs: 1561867388
    nsecs: 908073746
  frame_id: "ti_mmwave"
point_id: 3
x: 0.056640625
y: -0.154296875
z: 0.005859375
range: 0.174307882786
velocity: 0.0
doppler_bin: 8
bearing: -69.8423843384
intensity: 25.4530715942
---
header: 
  seq: 798067
  stamp: 
    secs: 1561867388
    nsecs: 908099270
  frame_id: "ti_mmwave"
point_id: 4
x: 0.1640625
y: -0.080078125
z: 1.255859375
range: 1.35088610649
velocity: 0.0
doppler_bin: 8
bearing: -26.0167827606
intensity: 23.0749607086
---
header: 
  seq: 798068
  stamp: 
    secs: 1561867388
    nsecs: 908120781
  frame_id: "ti_mmwave"
point_id: 5
x: 0.083984375
y: -0.08203125
z: 1.3046875
range: 1.39446306229
velocity: 0.0
doppler_bin: 8
bearing: -44.3259658813
intensity: 24.6389293671
---
header: 
  seq: 798069
  stamp: 
    secs: 1561867388
    nsecs: 908134469
  frame_id: "ti_mmwave"
point_id: 6
x: 0.40625
y: -0.083984375
z: -1.28515625
range: 1.43804001808
velocity: 0.0
doppler_bin: 8
bearing: -11.6802606583
intensity: 23.0963020325
---
header: 
  seq: 798070
  stamp: 
    secs: 1561867388
    nsecs: 908155344
  frame_id: "ti_mmwave"
point_id: 7
x: 0.564453125
y: -0.04296875
z: -1.26953125
range: 1.48161697388
velocity: 0.0
doppler_bin: 8
bearing: -4.35321998596
intensity: 21.6731739044
---
header: 
  seq: 798071
  stamp: 
    secs: 1561867388
    nsecs: 908172743
  frame_id: "ti_mmwave"
point_id: 8
x: 1.65625
y: 0.052734375
z: -0.255859375
range: 1.78665578365
velocity: 0.0
doppler_bin: 8
bearing: 1.82366013527
intensity: 28.1690387726
---
header: 
  seq: 798072
  stamp: 
    secs: 1561867388
    nsecs: 908193303
  frame_id: "ti_mmwave"
point_id: 9
x: 1.69921875
y: 0.107421875
z: -0.22265625
range: 1.83023273945
velocity: 0.0
doppler_bin: 8
bearing: 3.61733317375
intensity: 29.380191803
---
header: 
  seq: 798073
  stamp: 
    secs: 1561867388
    nsecs: 908216023
  frame_id: "ti_mmwave"
point_id: 10
x: 1.7421875
y: 0.1640625
z: -0.173828125
range: 1.87380969524
velocity: 0.0
doppler_bin: 8
bearing: 5.37970161438
intensity: 27.0842094421
---
header: 
  seq: 798074
  stamp: 
    secs: 1561867388
    nsecs: 908237226
  frame_id: "ti_mmwave"
point_id: 11
x: 2.626953125
y: -0.17578125
z: 1.015625
range: 3.00681090355
velocity: 0.0
doppler_bin: 8
bearing: -3.82821130753
intensity: 28.9597473145
---
header: 
  seq: 798075
  stamp: 
    secs: 1561867388
    nsecs: 908262933
  frame_id: "ti_mmwave"
point_id: 12
x: 2.69140625
y: -0.08984375
z: 0.97265625
range: 3.05038785934
velocity: 0.0
doppler_bin: 8
bearing: -1.91192126274
intensity: 32.229763031
---
header: 
  seq: 798076
  stamp: 
    secs: 1561867388
    nsecs: 908281111
  frame_id: "ti_mmwave"
point_id: 13
x: 2.75390625
y: -0.08984375
z: 0.919921875
range: 3.09396481514
velocity: 0.0
doppler_bin: 8
bearing: -1.86856126785
intensity: 31.2645606995
---
header: 
  seq: 798077
  stamp: 
    secs: 1561867388
    nsecs: 908396656
  frame_id: "ti_mmwave"
point_id: 14
x: 4.40234375
y: -0.142578125
z: 1.263671875
range: 4.88062095642
velocity: 0.0
doppler_bin: 8
bearing: -1.85498249531
intensity: 31.1892566681
---
header: 
  seq: 798078
  stamp: 
    secs: 1561867388
    nsecs: 908419697
  frame_id: "ti_mmwave"
point_id: 15
x: 4.431640625
y: -0.14453125
z: 1.302734375
range: 4.9241976738
velocity: 0.0
doppler_bin: 8
bearing: -1.86795306206
intensity: 30.5766601562
---
header: 
  seq: 798079
  stamp: 
    secs: 1561867388
    nsecs: 908432451
  frame_id: "ti_mmwave"
point_id: 16
x: 4.892578125
y: -0.30859375
z: 0.677734375
range: 5.27281332016
velocity: 0.0
doppler_bin: 8
bearing: -3.60908436775
intensity: 31.319393158
---
header: 
  seq: 798080
  stamp: 
    secs: 1561867388
    nsecs: 908443829
  frame_id: "ti_mmwave"
point_id: 17
x: 4.96875
y: -0.46875
z: 0.02734375
range: 5.31639051437
velocity: 0.0
doppler_bin: 8
bearing: -5.38931179047
intensity: 29.8452739716
---
header: 
  seq: 798081
  stamp: 
    secs: 1561867388
    nsecs: 908460589
  frame_id: "ti_mmwave"
point_id: 19
x: 0.041015625
y: -0.033203125
z: 0.0625
range: 0.0871539413929
velocity: 0.0
doppler_bin: 8
bearing: -38.9909973145
intensity: 30.0945091248
---
header: 
  seq: 798082
  stamp: 
    secs: 1561867388
    nsecs: 908471756
  frame_id: "ti_mmwave"
point_id: 20
x: 0.044921875
y: -0.046875
z: 0.103515625
range: 0.130730912089
velocity: 0.0
doppler_bin: 8
bearing: -46.218875885
intensity: 29.0036716461
---
header: 
  seq: 798083
  stamp: 
    secs: 1561867388
    nsecs: 966575216
  frame_id: "ti_mmwave"
point_id: 0
x: 0.01171875
y: -0.0390625
z: -0.0078125
range: 0.0435769706964
velocity: 0.0
doppler_bin: 8
bearing: -73.3007583618
intensity: 30.6445808411
---
header: 
  seq: 798084
  stamp: 
    secs: 1561867388
    nsecs: 966626080
  frame_id: "ti_mmwave"
point_id: 1
x: 0.017578125
y: -0.080078125
z: -0.0078125
range: 0.0871539413929
velocity: 0.0
doppler_bin: 8
bearing: -77.6192398071
intensity: 31.9061183929
---
header: 
  seq: 798085
  stamp: 
    secs: 1561867388
    nsecs: 966633193
  frame_id: "ti_mmwave"
point_id: 2
x: 0.029296875
y: -0.119140625
z: -0.005859375
range: 0.130730912089
velocity: 0.0
doppler_bin: 8
bearing: -76.1849746704
intensity: 30.1283721924
---
header: 
  seq: 798086
  stamp: 
    secs: 1561867388
    nsecs: 966639030
  frame_id: "ti_mmwave"
point_id: 3
x: 0.056640625
y: -0.154296875
z: 0.0078125
range: 0.174307882786
velocity: 0.0
doppler_bin: 8
bearing: -69.8423843384
intensity: 25.4406795502
---
header: 
  seq: 798087
  stamp: 
    secs: 1561867388
    nsecs: 966646370
  frame_id: "ti_mmwave"
point_id: 4
x: 0.150390625
y: -0.080078125
z: 1.255859375
range: 1.35088610649
velocity: 0.0
doppler_bin: 8
bearing: -28.0338516235
intensity: 23.0749607086
---
header: 
  seq: 798088
  stamp: 
    secs: 1561867388
    nsecs: 966651777
  frame_id: "ti_mmwave"
point_id: 5
x: 0.068359375
y: -0.08203125
z: 1.3046875
range: 1.39446306229
velocity: 0.0
doppler_bin: 8
bearing: -50.1944313049
intensity: 24.6389293671
---
header: 
  seq: 798089
  stamp: 
    secs: 1561867388
    nsecs: 966657101
  frame_id: "ti_mmwave"
point_id: 6
x: 0.408203125
y: -0.083984375
z: -1.283203125
range: 1.43804001808
velocity: 0.0
doppler_bin: 8
bearing: -11.6258993149
intensity: 23.0963020325
---
header: 
  seq: 798090
  stamp: 
    secs: 1561867388
    nsecs: 966662393
  frame_id: "ti_mmwave"
point_id: 7
x: 0.556640625
y: -0.04296875
z: -1.2734375
range: 1.48161697388
velocity: 0.0
doppler_bin: 8
bearing: -4.41407871246
intensity: 21.6731739044
---
header: 
  seq: 798091
  stamp: 
    secs: 1561867388
    nsecs: 966667786
  frame_id: "ti_mmwave"
point_id: 8
x: 1.65234375
y: 0.10546875
z: -0.267578125
range: 1.78665578365
velocity: 0.0
doppler_bin: 8
bearing: 3.65222287178
intensity: 27.481880188
---
header: 
  seq: 798092
  stamp: 
    secs: 1561867388
    nsecs: 966674420
  frame_id: "ti_mmwave"
point_id: 9
x: 1.689453125
y: 0.107421875
z: -0.291015625
range: 1.83023273945
velocity: 0.0
doppler_bin: 8
bearing: 3.63818645477
intensity: 28.2020149231
---
header: 
  seq: 798093
  stamp: 
    secs: 1561867388
    nsecs: 966679517
  frame_id: "ti_mmwave"
point_id: 10
x: 2.625
y: -0.17578125
z: 1.0234375
range: 3.00681090355
velocity: 0.0
doppler_bin: 8
bearing: -3.83105134964
intensity: 29.0145835876
---
header: 
  seq: 798094
  stamp: 
    secs: 1561867388
    nsecs: 966685710
  frame_id: "ti_mmwave"
point_id: 11
x: 2.666015625
y: -0.1796875
z: 1.03125
range: 3.05038785934
velocity: 0.0
doppler_bin: 8
bearing: -3.85586214066
intensity: 32.2036972046
---
header: 
  seq: 798095
  stamp: 
    secs: 1561867388
    nsecs: 966691090
  frame_id: "ti_mmwave"
point_id: 12
x: 2.759765625
y: -0.08984375
z: 0.900390625
range: 3.09396481514
velocity: 0.0
doppler_bin: 8
bearing: -1.86459684372
intensity: 31.2319812775
---
header: 
  seq: 798096
  stamp: 
    secs: 1561867388
    nsecs: 966696828
  frame_id: "ti_mmwave"
point_id: 13
x: 4.404296875
y: -0.142578125
z: 1.255859375
range: 4.88062095642
velocity: 0.0
doppler_bin: 8
bearing: -1.85416030884
intensity: 31.1394329071
---
header: 
  seq: 798097
  stamp: 
    secs: 1561867388
    nsecs: 966702691
  frame_id: "ti_mmwave"
point_id: 14
x: 4.435546875
y: -0.14453125
z: 1.2890625
range: 4.9241976738
velocity: 0.0
doppler_bin: 8
bearing: -1.86630904675
intensity: 30.6520614624
---
header: 
  seq: 798098
  stamp: 
    secs: 1561867388
    nsecs: 966708255
  frame_id: "ti_mmwave"
point_id: 15
x: 4.900390625
y: -0.30859375
z: 0.626953125
range: 5.27281332016
velocity: 0.0
doppler_bin: 8
bearing: -3.60334610939
intensity: 30.3901729584
---
header: 
  seq: 798099
  stamp: 
    secs: 1561867388
    nsecs: 966714008
  frame_id: "ti_mmwave"
point_id: 16
x: 4.9296875
y: -0.779296875
z: -0.01953125
range: 5.31639051437
velocity: 0.0
doppler_bin: 8
bearing: -8.98311805725
intensity: 29.2839584351
---
header: 
  seq: 798100
  stamp: 
    secs: 1561867388
    nsecs: 966723174
  frame_id: "ti_mmwave"
point_id: 18
x: 0.041015625
y: -0.033203125
z: 0.0625
range: 0.0871539413929
velocity: 0.0
doppler_bin: 8
bearing: -38.9909973145
intensity: 30.0902576447
---
header: 
  seq: 798101
  stamp: 
    secs: 1561867388
    nsecs: 966830028
  frame_id: "ti_mmwave"
point_id: 19
x: 0.046875
y: -0.046875
z: 0.103515625
range: 0.130730912089
velocity: 0.0
doppler_bin: 8
bearing: -45.0
intensity: 29.0036716461
---
header: 
  seq: 798102
  stamp: 
    secs: 1561867388
    nsecs: 967523983
  frame_id: "ti_mmwave"
point_id: 0
x: 0.01171875
y: -0.0390625
z: -0.0078125
range: 0.0435769706964
velocity: 0.0
doppler_bin: 8
bearing: -73.3007583618
intensity: 30.6445808411
---
header: 
  seq: 798103
  stamp: 
    secs: 1561867388
    nsecs: 967558598
  frame_id: "ti_mmwave"
point_id: 1
x: 0.017578125
y: -0.080078125
z: -0.0078125
range: 0.0871539413929
velocity: 0.0
doppler_bin: 8
bearing: -77.6192398071
intensity: 31.9061183929
---
header: 
  seq: 798104
  stamp: 
    secs: 1561867388
    nsecs: 967569392
  frame_id: "ti_mmwave"
point_id: 2
x: 0.029296875
y: -0.119140625
z: -0.005859375
range: 0.130730912089
velocity: 0.0
doppler_bin: 8
bearing: -76.1849746704
intensity: 30.1283721924
---
header: 
  seq: 798105
  stamp: 
    secs: 1561867388
    nsecs: 967577990
  frame_id: "ti_mmwave"
point_id: 3
x: 0.056640625
y: -0.154296875
z: 0.0078125
range: 0.174307882786
velocity: 0.0
doppler_bin: 8
bearing: -69.8423843384
intensity: 25.4530715942
---
header: 
  seq: 798106
  stamp: 
    secs: 1561867388
    nsecs: 967619272
  frame_id: "ti_mmwave"
point_id: 4
x: 0.11328125
y: -0.080078125
z: 1.259765625
range: 1.35088610649
velocity: 0.0
doppler_bin: 8
bearing: -35.2563591003
intensity: 23.0963020325
---
header: 
  seq: 798107
  stamp: 
    secs: 1561867388
    nsecs: 967631218
  frame_id: "ti_mmwave"
point_id: 6
x: 0.41796875
y: -0.083984375
z: -1.28125
range: 1.43804001808
velocity: 0.0
doppler_bin: 8
bearing: -11.3614110947
intensity: 23.0963020325
---
header: 
  seq: 798108
  stamp: 
    secs: 1561867388
    nsecs: 967640048
  frame_id: "ti_mmwave"
point_id: 7
x: 1.658203125
y: -0.052734375
z: -0.25
range: 1.78665578365
velocity: 0.0
doppler_bin: 8
bearing: -1.82151353359
intensity: 27.1180725098
---
header: 
  seq: 798109
  stamp: 
    secs: 1561867388
    nsecs: 967648085
  frame_id: "ti_mmwave"
point_id: 8
x: 1.705078125
y: -0.0
z: -0.205078125
range: 1.83023273945
velocity: 0.0
doppler_bin: 8
bearing: -0.0
intensity: 28.5913829803
---
header: 
  seq: 798110
  stamp: 
    secs: 1561867388
    nsecs: 967655966
  frame_id: "ti_mmwave"
point_id: 9
x: 2.615234375
y: -0.17578125
z: 1.046875
range: 3.00681090355
velocity: 0.0
doppler_bin: 8
bearing: -3.84531402588
intensity: 29.0471553802
---
header: 
  seq: 798111
  stamp: 
    secs: 1561867388
    nsecs: 967664423
  frame_id: "ti_mmwave"
point_id: 10
x: 2.685546875
y: -0.08984375
z: 0.98828125
range: 3.05038785934
velocity: 0.0
doppler_bin: 8
bearing: -1.91608965397
intensity: 32.2063102722
---
header: 
  seq: 798112
  stamp: 
    secs: 1561867388
    nsecs: 967700887
  frame_id: "ti_mmwave"
point_id: 11
x: 2.75
y: -0.08984375
z: 0.9296875
range: 3.09396481514
velocity: 0.0
doppler_bin: 8
bearing: -1.87121355534
intensity: 31.1958580017
---
header: 
  seq: 798113
  stamp: 
    secs: 1561867388
    nsecs: 967710245
  frame_id: "ti_mmwave"
point_id: 12
x: 4.396484375
y: -0.142578125
z: 1.123046875
range: 4.83704376221
velocity: 0.0
doppler_bin: 8
bearing: -1.85745286942
intensity: 28.0888595581
---
header: 
  seq: 798114
  stamp: 
    secs: 1561867388
    nsecs: 967719953
  frame_id: "ti_mmwave"
point_id: 13
x: 4.40625
y: -0.142578125
z: 1.24609375
range: 4.88062095642
velocity: 0.0
doppler_bin: 8
bearing: -1.85333895683
intensity: 31.3033370972
---
header: 
  seq: 798115
  stamp: 
    secs: 1561867388
    nsecs: 967727966
  frame_id: "ti_mmwave"
point_id: 14
x: 4.439453125
y: -0.14453125
z: 1.28125
range: 4.9241976738
velocity: 0.0
doppler_bin: 8
bearing: -1.86466813087
intensity: 30.7481651306
---
header: 
  seq: 798116
  stamp: 
    secs: 1561867388
    nsecs: 967736133
  frame_id: "ti_mmwave"
point_id: 15
x: 4.892578125
y: -0.30859375
z: 0.6875
range: 5.27281332016
velocity: 0.0
doppler_bin: 8
bearing: -3.60908436775
intensity: 30.9272060394
---
header: 
  seq: 798117
  stamp: 
    secs: 1561867388
    nsecs: 967746518
  frame_id: "ti_mmwave"
point_id: 16
x: 4.951171875
y: -0.623046875
z: 0.033203125
range: 5.31639051437
velocity: 0.0
doppler_bin: 8
bearing: -7.17230129242
intensity: 29.4448261261
---
header: 
  seq: 798118
  stamp: 
    secs: 1561867388
    nsecs: 967774068
  frame_id: "ti_mmwave"
point_id: 18
x: 0.041015625
y: -0.033203125
z: 0.0625
range: 0.0871539413929
velocity: 0.0
doppler_bin: 8
bearing: -38.9909973145
intensity: 30.0902576447
---
header: 
  seq: 798119
  stamp: 
    secs: 1561867388
    nsecs: 967783591
  frame_id: "ti_mmwave"
point_id: 19
x: 0.044921875
y: -0.046875
z: 0.103515625
range: 0.130730912089
velocity: 0.0
doppler_bin: 8
bearing: -46.218875885
intensity: 29.0036716461
---
header: 
  seq: 798120
  stamp: 
    secs: 1561867389
    nsecs:  26900100
  frame_id: "ti_mmwave"
point_id: 0
x: 0.01171875
y: -0.0390625
z: -0.0078125
range: 0.0435769706964
velocity: 0.0
doppler_bin: 8
bearing: -73.3007583618
intensity: 30.6483230591
---
header: 
  seq: 798121
  stamp: 
    secs: 1561867389
    nsecs:  26967672
  frame_id: "ti_mmwave"
point_id: 1
x: 0.017578125
y: -0.080078125
z: -0.0078125
range: 0.0871539413929
velocity: 0.0
doppler_bin: 8
bearing: -77.6192398071
intensity: 31.9089164734
---
header: 
  seq: 798122
  stamp: 
    secs: 1561867389
    nsecs:  26978369
  frame_id: "ti_mmwave"
point_id: 2
x: 0.029296875
y: -0.119140625
z: -0.005859375
range: 0.130730912089
velocity: 0.0
doppler_bin: 8
bearing: -76.1849746704
intensity: 30.1325874329
---
header: 
  seq: 798123
  stamp: 
    secs: 1561867389
    nsecs:  26987360
  frame_id: "ti_mmwave"
point_id: 3
x: 0.056640625
y: -0.154296875
z: 0.0078125
range: 0.174307882786
velocity: 0.0
doppler_bin: 8
bearing: -69.8423843384
intensity: 25.4654273987
---
header: 
  seq: 798124
  stamp: 
    secs: 1561867389
    nsecs:  26998560
  frame_id: "ti_mmwave"
point_id: 4
x: 0.1484375
y: -0.080078125
z: 1.2578125
range: 1.35088610649
velocity: 0.0
doppler_bin: 8
bearing: -28.3456954956
intensity: 23.0963020325
---
header: 
  seq: 798125
  stamp: 
    secs: 1561867389
    nsecs:  27009901
  frame_id: "ti_mmwave"
point_id: 6
x: 0.412109375
y: -0.083984375
z: -1.283203125
range: 1.43804001808
velocity: 0.0
doppler_bin: 8
bearing: -11.518658638
intensity: 23.0749607086
---
header: 
  seq: 798126
  stamp: 
    secs: 1561867389
    nsecs:  27018549
  frame_id: "ti_mmwave"
point_id: 7
x: 0.55078125
y: -0.04296875
z: -1.275390625
range: 1.48161697388
velocity: 0.0
doppler_bin: 8
bearing: -4.46084880829
intensity: 21.6731739044
---
header: 
  seq: 798127
  stamp: 
    secs: 1561867389
    nsecs:  27043542
  frame_id: "ti_mmwave"
point_id: 8
x: 1.638671875
y: 0.052734375
z: -0.35546875
range: 1.78665578365
velocity: 0.0
doppler_bin: 8
bearing: 1.84320914745
intensity: 27.2345561981
---
header: 
  seq: 798128
  stamp: 
    secs: 1561867389
    nsecs:  27051733
  frame_id: "ti_mmwave"
point_id: 9
x: 1.6953125
y: 0.107421875
z: -0.259765625
range: 1.83023273945
velocity: 0.0
doppler_bin: 8
bearing: 3.62564587593
intensity: 28.3378429413
---
header: 
  seq: 798129
  stamp: 
    secs: 1561867389
    nsecs:  27255938
  frame_id: "ti_mmwave"
point_id: 10
x: 2.615234375
y: -0.17578125
z: 1.044921875
range: 3.00681090355
velocity: 0.0
doppler_bin: 8
bearing: -3.84531402588
intensity: 29.1009063721
---
header: 
  seq: 798130
  stamp: 
    secs: 1561867389
    nsecs:  27287105
  frame_id: "ti_mmwave"
point_id: 11
x: 2.65625
y: -0.1796875
z: 1.056640625
range: 3.05038785934
velocity: 0.0
doppler_bin: 8
bearing: -3.86999511719
intensity: 32.1827278137
---
header: 
  seq: 798131
  stamp: 
    secs: 1561867389
    nsecs:  27300026
  frame_id: "ti_mmwave"
point_id: 12
x: 2.75390625
y: -0.08984375
z: 0.916015625
range: 3.09396481514
velocity: 0.0
doppler_bin: 8
bearing: -1.86856126785
intensity: 31.2385158539
---
header: 
  seq: 798132
  stamp: 
    secs: 1561867389
    nsecs:  27325193
  frame_id: "ti_mmwave"
point_id: 13
x: 4.400390625
y: -0.142578125
z: 1.26953125
range: 4.88062095642
velocity: 0.0
doppler_bin: 8
bearing: -1.85580503941
intensity: 31.3129787445
---
header: 
  seq: 798133
  stamp: 
    secs: 1561867389
    nsecs:  27382180
  frame_id: "ti_mmwave"
point_id: 14
x: 4.4375
y: -0.14453125
z: 1.2890625
range: 4.9241976738
velocity: 0.0
doppler_bin: 8
bearing: -1.86548817158
intensity: 30.9096298218
---
header: 
  seq: 798134
  stamp: 
    secs: 1561867389
    nsecs:  27400012
  frame_id: "ti_mmwave"
point_id: 15
x: 4.904296875
y: -0.30859375
z: 0.59375
range: 5.27281332016
velocity: 0.0
doppler_bin: 8
bearing: -3.60048341751
intensity: 30.8493366241
---
header: 
  seq: 798135
  stamp: 
    secs: 1561867389
    nsecs:  27409421
  frame_id: "ti_mmwave"
point_id: 16
x: 4.96875
y: -0.46875
z: -0.029296875
range: 5.31639051437
velocity: 0.0
doppler_bin: 8
bearing: -5.38931179047
intensity: 29.4596061707
---
header: 
  seq: 798136
  stamp: 
    secs: 1561867389
    nsecs:  27432834
  frame_id: "ti_mmwave"
point_id: 17
x: 0.009765625
y: 0.03125
z: 0.025390625
range: 0.0435769706964
velocity: 0.0
doppler_bin: 8
bearing: 72.6459732056
intensity: 29.2890777588
---
header: 
  seq: 798137
  stamp: 
    secs: 1561867389
    nsecs:  27452435
  frame_id: "ti_mmwave"
point_id: 18
x: 0.041015625
y: -0.033203125
z: 0.0625
range: 0.0871539413929
velocity: 0.0
doppler_bin: 8
bearing: -38.9909973145
intensity: 30.0945091248
---
header: 
  seq: 798138
  stamp: 
    secs: 1561867389
    nsecs:  27558149
  frame_id: "ti_mmwave"
point_id: 19
x: 0.046875
y: -0.046875
z: 0.103515625
range: 0.130730912089
velocity: 0.0
doppler_bin: 8
bearing: -45.0
intensity: 29.0036716461
---
header: 
  seq: 798139
  stamp: 
    secs: 1561867389
    nsecs:  86855964
  frame_id: "ti_mmwave"
point_id: 0
x: 0.01171875
y: -0.0390625
z: -0.0078125
range: 0.0435769706964
velocity: 0.0
doppler_bin: 8
bearing: -73.3007583618
intensity: 30.6408348083
---
header: 
  seq: 798140
  stamp: 
    secs: 1561867389
    nsecs:  86936892
  frame_id: "ti_mmwave"
point_id: 1
x: 0.017578125
y: -0.080078125
z: -0.0078125
range: 0.0871539413929
velocity: 0.0
doppler_bin: 8
bearing: -77.6192398071
intensity: 31.9033164978
---
header: 
  seq: 798141
  stamp: 
    secs: 1561867389
    nsecs:  86952873
  frame_id: "ti_mmwave"
point_id: 2
x: 0.029296875
y: -0.119140625
z: -0.005859375
range: 0.130730912089
velocity: 0.0
doppler_bin: 8
bearing: -76.1849746704
intensity: 30.1199302673
---
header: 
  seq: 798142
  stamp: 
    secs: 1561867389
    nsecs:  86964207
  frame_id: "ti_mmwave"
point_id: 3
x: 0.056640625
y: -0.154296875
z: 0.005859375
range: 0.174307882786
velocity: 0.0
doppler_bin: 8
bearing: -69.8423843384
intensity: 25.4406795502
---
header: 
  seq: 798143
  stamp: 
    secs: 1561867389
    nsecs:  86982082
  frame_id: "ti_mmwave"
point_id: 5
x: 0.076171875
y: -0.08203125
z: -1.3046875
range: 1.39446306229
velocity: 0.0
doppler_bin: 8
bearing: -47.1210975647
intensity: 24.6538276672
---
header: 
  seq: 798144
  stamp: 
    secs: 1561867389
    nsecs:  86992214
  frame_id: "ti_mmwave"
point_id: 6
x: 0.443359375
y: -0.083984375
z: -1.271484375
range: 1.43804001808
velocity: 0.0
doppler_bin: 8
bearing: -10.7262945175
intensity: 23.1175384521
---
header: 
  seq: 798145
  stamp: 
    secs: 1561867389
    nsecs:  87072593
  frame_id: "ti_mmwave"
point_id: 7
x: 0.568359375
y: -0.04296875
z: -1.267578125
range: 1.48161697388
velocity: 0.0
doppler_bin: 8
bearing: -4.32341527939
intensity: 21.6435279846
---
header: 
  seq: 798146
  stamp: 
    secs: 1561867389
    nsecs:  87087366
  frame_id: "ti_mmwave"
point_id: 8
x: 1.662109375
y: -0.0
z: -0.216796875
range: 1.78665578365
velocity: 0.0
doppler_bin: 8
bearing: -0.0
intensity: 31.5044937134
---
header: 
  seq: 798147
  stamp: 
    secs: 1561867389
    nsecs:  87100157
  frame_id: "ti_mmwave"
point_id: 9
x: 1.705078125
y: -0.0
z: -0.2109375
range: 1.83023273945
velocity: 0.0
doppler_bin: 8
bearing: -0.0
intensity: 33.2715454102
---
header: 
  seq: 798148
  stamp: 
    secs: 1561867389
    nsecs:  87113236
  frame_id: "ti_mmwave"
point_id: 10
x: 1.748046875
y: -0.0
z: -0.203125
range: 1.87380969524
velocity: 0.0
doppler_bin: 8
bearing: -0.0
intensity: 31.6405525208
---
header: 
  seq: 798149
  stamp: 
    secs: 1561867389
    nsecs:  87124319
  frame_id: "ti_mmwave"
point_id: 11
x: 1.7890625
y: -0.0
z: -0.19140625
range: 1.91738677025
velocity: 0.0
doppler_bin: 8
bearing: -0.0
intensity: 26.3144378662
---
header: 
  seq: 798150
  stamp: 
    secs: 1561867389
    nsecs:  87135124
  frame_id: "ti_mmwave"
point_id: 12
x: 2.619140625
y: -0.17578125
z: 1.0390625
range: 3.00681090355
velocity: 0.0
doppler_bin: 8
bearing: -3.83959650993
intensity: 28.9817657471
---
header: 
  seq: 798151
  stamp: 
    secs: 1561867389
    nsecs:  87146677
  frame_id: "ti_mmwave"
point_id: 13
x: 2.6875
y: -0.08984375
z: 0.982421875
range: 3.05038785934
velocity: 0.0
doppler_bin: 8
bearing: -1.91469812393
intensity: 32.2010803223
---
header: 
  seq: 798152
  stamp: 
    secs: 1561867389
    nsecs:  87159833
  frame_id: "ti_mmwave"
point_id: 14
x: 2.744140625
y: -0.08984375
z: 0.9453125
range: 3.09396481514
velocity: 0.0
doppler_bin: 8
bearing: -1.87520623207
intensity: 31.2155990601
---
header: 
  seq: 798153
  stamp: 
    secs: 1561867389
    nsecs:  87171079
  frame_id: "ti_mmwave"
point_id: 15
x: 4.38671875
y: -0.283203125
z: 1.13671875
range: 4.83704376221
velocity: 0.0
doppler_bin: 8
bearing: -3.69384431839
intensity: 28.0821094513
---
header: 
  seq: 798154
  stamp: 
    secs: 1561867389
    nsecs:  87184242
  frame_id: "ti_mmwave"
point_id: 16
x: 4.41015625
y: -0.142578125
z: 1.234375
range: 4.88062095642
velocity: 0.0
doppler_bin: 8
bearing: -1.85169863701
intensity: 31.205739975
---
header: 
  seq: 798155
  stamp: 
    secs: 1561867389
    nsecs:  87197862
  frame_id: "ti_mmwave"
point_id: 17
x: 4.44140625
y: -0.14453125
z: 1.275390625
range: 4.9241976738
velocity: 0.0
doppler_bin: 8
bearing: -1.86384868622
intensity: 30.4336223602
---
header: 
  seq: 798156
  stamp: 
    secs: 1561867389
    nsecs:  87212500
  frame_id: "ti_mmwave"
point_id: 18
x: 4.91796875
y: -0.30859375
z: 0.458984375
range: 5.27281332016
velocity: 0.0
doppler_bin: 8
bearing: -3.59050059319
intensity: 29.8272342682
---
header: 
  seq: 798157
  stamp: 
    secs: 1561867389
    nsecs:  87283783
  frame_id: "ti_mmwave"
point_id: 20
x: 0.041015625
y: -0.033203125
z: 0.0625
range: 0.0871539413929
velocity: 0.0
doppler_bin: 8
bearing: -38.9909973145
intensity: 30.0945091248
---
header: 
  seq: 798158
  stamp: 
    secs: 1561867389
    nsecs:  87301212
  frame_id: "ti_mmwave"
point_id: 21
x: 0.044921875
y: -0.046875
z: 0.103515625
range: 0.130730912089
velocity: 0.0
doppler_bin: 8
bearing: -46.218875885
intensity: 29.0036716461
---
header: 
  seq: 798159
  stamp: 
    secs: 1561867389
    nsecs:  88860515
  frame_id: "ti_mmwave"
point_id: 0
x: 0.01171875
y: -0.0390625
z: -0.0078125
range: 0.0435769706964
velocity: 0.0
doppler_bin: 8
bearing: -73.3007583618
intensity: 30.6445808411
---
header: 
  seq: 798160
  stamp: 
    secs: 1561867389
    nsecs:  88918802
  frame_id: "ti_mmwave"
point_id: 1
x: 0.017578125
y: -0.080078125
z: -0.0078125
range: 0.0871539413929
velocity: 0.0
doppler_bin: 8
bearing: -77.6192398071
intensity: 31.9033164978
---
header: 
  seq: 798161
  stamp: 
    secs: 1561867389
    nsecs:  88930533
  frame_id: "ti_mmwave"
point_id: 2
x: 0.029296875
y: -0.119140625
z: -0.005859375
range: 0.130730912089
velocity: 0.0
doppler_bin: 8
bearing: -76.1849746704
intensity: 30.1241531372
---
header: 
  seq: 798162
  stamp: 
    secs: 1561867389
    nsecs:  88940720
  frame_id: "ti_mmwave"
point_id: 3
x: 0.056640625
y: -0.154296875
z: 0.005859375
range: 0.174307882786
velocity: 0.0
doppler_bin: 8
bearing: -69.8423843384
intensity: 25.4530715942
---
header: 
  seq: 798163
  stamp: 
    secs: 1561867389
    nsecs:  88958642
  frame_id: "ti_mmwave"
point_id: 4
x: 0.158203125
y: -0.080078125
z: 1.255859375
range: 1.35088610649
velocity: 0.0
doppler_bin: 8
bearing: -26.8472938538
intensity: 23.0535144806
---
header: 
  seq: 798164
  stamp: 
    secs: 1561867389
    nsecs:  89021170
  frame_id: "ti_mmwave"
point_id: 6
x: 0.42578125
y: -0.083984375
z: -1.27734375
range: 1.43804001808
velocity: 0.0
doppler_bin: 8
bearing: -11.1582231522
intensity: 23.0535144806
---
header: 
  seq: 798165
  stamp: 
    secs: 1561867389
    nsecs:  89030827
  frame_id: "ti_mmwave"
point_id: 7
x: 1.634765625
y: 0.05078125
z: 0.017578125
range: 1.74307882786
velocity: 0.0
doppler_bin: 8
bearing: 1.77922511101
intensity: 27.1933135986
---
header: 
  seq: 798166
  stamp: 
    secs: 1561867389
    nsecs:  89038945
  frame_id: "ti_mmwave"
point_id: 8
x: 1.67578125
y: -0.0
z: -0.0625
range: 1.78665578365
velocity: 0.0
doppler_bin: 8
bearing: -0.0
intensity: 32.5983276367
---
header: 
  seq: 798167
  stamp: 
    secs: 1561867389
    nsecs:  89049116
  frame_id: "ti_mmwave"
point_id: 9
x: 1.712890625
y: 0.052734375
z: -0.107421875
range: 1.83023273945
velocity: 0.0
doppler_bin: 8
bearing: 1.76339519024
intensity: 34.3980636597
---
header: 
  seq: 798168
  stamp: 
    secs: 1561867389
    nsecs:  89056791
  frame_id: "ti_mmwave"
point_id: 10
x: 1.75390625
y: 0.0546875
z: -0.12109375
range: 1.87380969524
velocity: 0.0
doppler_bin: 8
bearing: 1.78592669964
intensity: 32.8397941589
---
header: 
  seq: 798169
  stamp: 
    secs: 1561867389
    nsecs:  89064790
  frame_id: "ti_mmwave"
point_id: 11
x: 1.783203125
y: 0.16796875
z: -0.171875
range: 1.91738677025
velocity: 0.0
doppler_bin: 8
bearing: 5.38109636307
intensity: 27.8390350342
---
header: 
  seq: 798170
  stamp: 
    secs: 1561867389
    nsecs:  89073094
  frame_id: "ti_mmwave"
point_id: 12
x: 2.62890625
y: -0.17578125
z: 1.015625
range: 3.00681090355
velocity: 0.0
doppler_bin: 8
bearing: -3.82537555695
intensity: 28.9542255402
---
header: 
  seq: 798171
  stamp: 
    secs: 1561867389
    nsecs:  89090898
  frame_id: "ti_mmwave"
point_id: 13
x: 2.693359375
y: -0.08984375
z: 0.96484375
range: 3.05038785934
velocity: 0.0
doppler_bin: 8
bearing: -1.91053581238
intensity: 32.1932258606
---
header: 
  seq: 798172
  stamp: 
    secs: 1561867389
    nsecs:  89107347
  frame_id: "ti_mmwave"
point_id: 14
x: 2.7734375
y: -0.0
z: 0.86328125
range: 3.09396481514
velocity: 0.0
doppler_bin: 8
bearing: -0.0
intensity: 31.1627559662
---
header: 
  seq: 798173
  stamp: 
    secs: 1561867389
    nsecs:  89122423
  frame_id: "ti_mmwave"
point_id: 15
x: 4.392578125
y: -0.142578125
z: 1.142578125
range: 4.83704376221
velocity: 0.0
doppler_bin: 8
bearing: -1.85910367966
intensity: 28.6391735077
---
header: 
  seq: 798174
  stamp: 
    secs: 1561867389
    nsecs:  89130970
  frame_id: "ti_mmwave"
point_id: 16
x: 4.408203125
y: -0.142578125
z: 1.236328125
range: 4.88062095642
velocity: 0.0
doppler_bin: 8
bearing: -1.85251843929
intensity: 31.9865703583
---
header: 
  seq: 798175
  stamp: 
    secs: 1561867389
    nsecs:  89139002
  frame_id: "ti_mmwave"
point_id: 17
x: 4.447265625
y: -0.14453125
z: 1.251953125
range: 4.9241976738
velocity: 0.0
doppler_bin: 8
bearing: -1.86139500141
intensity: 31.7172641754
---
header: 
  seq: 798176
  stamp: 
    secs: 1561867389
    nsecs:  89146852
  frame_id: "ti_mmwave"
point_id: 18
x: 0.009765625
y: 0.03125
z: 0.025390625
range: 0.0435769706964
velocity: 0.0
doppler_bin: 8
bearing: 72.6459732056
intensity: 29.2839584351
---
header: 
  seq: 798177
  stamp: 
    secs: 1561867389
    nsecs:  89155660
  frame_id: "ti_mmwave"
point_id: 19
x: 0.041015625
y: -0.033203125
z: 0.0625
range: 0.0871539413929
velocity: 0.0
doppler_bin: 8
bearing: -38.9909973145
intensity: 30.0902576447
---
header: 
  seq: 798178
  stamp: 
    secs: 1561867389
    nsecs:  89167314
  frame_id: "ti_mmwave"
point_id: 20
x: 0.044921875
y: -0.046875
z: 0.103515625
range: 0.130730912089
velocity: 0.0
doppler_bin: 8
bearing: -46.218875885
intensity: 29.0036716461
---
header: 
  seq: 798179
  stamp: 
    secs: 1561867389
    nsecs:  89181123
  frame_id: "ti_mmwave"
point_id: 22
x: 2.732421875
y: -0.181640625
z: 0.96875
range: 3.09396481514
velocity: 0.0
doppler_bin: 8
bearing: -3.80320167542
intensity: 31.1594314575
---
header: 
  seq: 798180
  stamp: 
    secs: 1561867389
    nsecs: 146656606
  frame_id: "ti_mmwave"
point_id: 0
x: 0.01171875
y: -0.0390625
z: -0.0078125
range: 0.0435769706964
velocity: 0.0
doppler_bin: 8
bearing: -73.3007583618
intensity: 30.6445808411
---
header: 
  seq: 798181
  stamp: 
    secs: 1561867389
    nsecs: 146747813
  frame_id: "ti_mmwave"
point_id: 1
x: 0.017578125
y: -0.080078125
z: -0.0078125
range: 0.0871539413929
velocity: 0.0
doppler_bin: 8
bearing: -77.6192398071
intensity: 31.9061183929
---
header: 
  seq: 798182
  stamp: 
    secs: 1561867389
    nsecs: 146771507
  frame_id: "ti_mmwave"
point_id: 2
x: 0.029296875
y: -0.119140625
z: -0.005859375
range: 0.130730912089
velocity: 0.0
doppler_bin: 8
bearing: -76.1849746704
intensity: 30.1283721924
---
header: 
  seq: 798183
  stamp: 
    secs: 1561867389
    nsecs: 146785950
  frame_id: "ti_mmwave"
point_id: 3
x: 0.056640625
y: -0.154296875
z: 0.005859375
range: 0.174307882786
velocity: 0.0
doppler_bin: 8
bearing: -69.8423843384
intensity: 25.4530715942
---
header: 
  seq: 798184
  stamp: 
    secs: 1561867389
    nsecs: 146799122
  frame_id: "ti_mmwave"
point_id: 4
x: 0.08984375
y: -0.080078125
z: 1.26171875
range: 1.35088610649
velocity: 0.0
doppler_bin: 8
bearing: -41.7107582092
intensity: 23.0963020325
---
header: 
  seq: 798185
  stamp: 
    secs: 1561867389
    nsecs: 146815628
  frame_id: "ti_mmwave"
point_id: 6
x: 0.423828125
y: -0.083984375
z: -1.279296875
range: 1.43804001808
velocity: 0.0
doppler_bin: 8
bearing: -11.2083444595
intensity: 23.0749607086
---
header: 
  seq: 798186
  stamp: 
    secs: 1561867389
    nsecs: 146829453
  frame_id: "ti_mmwave"
point_id: 7
x: 0.560546875
y: -0.04296875
z: -1.271484375
range: 1.48161697388
velocity: 0.0
doppler_bin: 8
bearing: -4.38343858719
intensity: 21.7026176453
---
header: 
  seq: 798187
  stamp: 
    secs: 1561867389
    nsecs: 146845216
  frame_id: "ti_mmwave"
point_id: 8
x: 1.67578125
y: -0.0
z: -0.046875
range: 1.78665578365
velocity: 0.0
doppler_bin: 8
bearing: -0.0
intensity: 32.2659988403
---
header: 
  seq: 798188
  stamp: 
    secs: 1561867389
    nsecs: 146859229
  frame_id: "ti_mmwave"
point_id: 9
x: 1.716796875
y: -0.0
z: -0.07421875
range: 1.83023273945
velocity: 0.0
doppler_bin: 8
bearing: -0.0
intensity: 34.2959098816
---
header: 
  seq: 798189
  stamp: 
    secs: 1561867389
    nsecs: 146883762
  frame_id: "ti_mmwave"
point_id: 10
x: 1.7578125
y: -0.0
z: -0.064453125
range: 1.87380969524
velocity: 0.0
doppler_bin: 8
bearing: -0.0
intensity: 32.8780174255
---
header: 
  seq: 798190
  stamp: 
    secs: 1561867389
    nsecs: 146906019
  frame_id: "ti_mmwave"
point_id: 11
x: 1.798828125
y: 0.056640625
z: -0.033203125
range: 1.91738677025
velocity: 0.0
doppler_bin: 8
bearing: 1.8035056591
intensity: 27.8816833496
---
header: 
  seq: 798191
  stamp: 
    secs: 1561867389
    nsecs: 146927201
  frame_id: "ti_mmwave"
point_id: 12
x: 2.626953125
y: -0.17578125
z: 1.015625
range: 3.00681090355
velocity: 0.0
doppler_bin: 8
bearing: -3.82821130753
intensity: 29.0254669189
---
header: 
  seq: 798192
  stamp: 
    secs: 1561867389
    nsecs: 147028330
  frame_id: "ti_mmwave"
point_id: 13
x: 2.693359375
y: -0.08984375
z: 0.966796875
range: 3.05038785934
velocity: 0.0
doppler_bin: 8
bearing: -1.91053581238
intensity: 32.1853561401
---
header: 
  seq: 798193
  stamp: 
    secs: 1561867389
    nsecs: 147047936
  frame_id: "ti_mmwave"
point_id: 14
x: 2.76953125
y: -0.0
z: 0.87109375
range: 3.09396481514
velocity: 0.0
doppler_bin: 8
bearing: -0.0
intensity: 31.0924091339
---
header: 
  seq: 798194
  stamp: 
    secs: 1561867389
    nsecs: 147063179
  frame_id: "ti_mmwave"
point_id: 15
x: 4.404296875
y: -0.287109375
z: 1.232421875
range: 4.88062095642
velocity: 0.0
doppler_bin: 8
bearing: -3.72974681854
intensity: 31.47057724
---
header: 
  seq: 798195
  stamp: 
    secs: 1561867389
    nsecs: 147074811
  frame_id: "ti_mmwave"
point_id: 16
x: 4.455078125
y: -0.14453125
z: 1.224609375
range: 4.9241976738
velocity: 0.0
doppler_bin: 8
bearing: -1.85813295841
intensity: 31.205739975
---
header: 
  seq: 798196
  stamp: 
    secs: 1561867389
    nsecs: 147091356
  frame_id: "ti_mmwave"
point_id: 18
x: 0.041015625
y: -0.033203125
z: 0.0625
range: 0.0871539413929
velocity: 0.0
doppler_bin: 8
bearing: -38.9909973145
intensity: 30.0902576447
---
header: 
  seq: 798197
  stamp: 
    secs: 1561867389
    nsecs: 147103179
  frame_id: "ti_mmwave"
point_id: 19
x: 0.046875
y: -0.046875
z: 0.103515625
range: 0.130730912089
velocity: 0.0
doppler_bin: 8
bearing: -45.0
intensity: 29.0036716461
---
header: 
  seq: 798198
  stamp: 
    secs: 1561867389
    nsecs: 147117054
  frame_id: "ti_mmwave"
point_id: 21
x: 2.728515625
y: -0.181640625
z: 0.9765625
range: 3.09396481514
velocity: 0.0
doppler_bin: 8
bearing: -3.80863046646
intensity: 31.0822658539
---
header: 
  seq: 798199
  stamp: 
    secs: 1561867389
    nsecs: 147939831
  frame_id: "ti_mmwave"
point_id: 0
x: 0.01171875
y: -0.0390625
z: -0.0078125
range: 0.0435769706964
velocity: 0.0
doppler_bin: 8
bearing: -73.3007583618
intensity: 30.6483230591
---
header: 
  seq: 798200
  stamp: 
    secs: 1561867389
    nsecs: 148029190
  frame_id: "ti_mmwave"
point_id: 1
x: 0.017578125
y: -0.080078125
z: -0.0078125
range: 0.0871539413929
velocity: 0.0
doppler_bin: 8
bearing: -77.6192398071
intensity: 31.9033164978
---
header: 
  seq: 798201
  stamp: 
    secs: 1561867389
    nsecs: 148050356
  frame_id: "ti_mmwave"
point_id: 2
x: 0.029296875
y: -0.119140625
z: -0.005859375
range: 0.130730912089
velocity: 0.0
doppler_bin: 8
bearing: -76.1849746704
intensity: 30.1241531372
---
header: 
  seq: 798202
  stamp: 
    secs: 1561867389
    nsecs: 148064334
  frame_id: "ti_mmwave"
point_id: 3
x: 0.056640625
y: -0.154296875
z: 0.005859375
range: 0.174307882786
velocity: 0.0
doppler_bin: 8
bearing: -69.8423843384
intensity: 25.4530715942
---
header: 
  seq: 798203
  stamp: 
    secs: 1561867389
    nsecs: 148144421
  frame_id: "ti_mmwave"
point_id: 4
x: 0.201171875
y: -0.080078125
z: 1.25
range: 1.35088610649
velocity: 0.0
doppler_bin: 8
bearing: -21.7054386139
intensity: 23.0535144806
---
header: 
  seq: 798204
  stamp: 
    secs: 1561867389
    nsecs: 148161220
  frame_id: "ti_mmwave"
point_id: 5
x: 0.07421875
y: -0.08203125
z: 1.3046875
range: 1.39446306229
velocity: 0.0
doppler_bin: 8
bearing: -47.8624038696
intensity: 24.6239795685
---
header: 
  seq: 798205
  stamp: 
    secs: 1561867389
    nsecs: 148168808
  frame_id: "ti_mmwave"
point_id: 6
x: 0.40625
y: -0.083984375
z: -1.28515625
range: 1.43804001808
velocity: 0.0
doppler_bin: 8
bearing: -11.6802606583
intensity: 23.0749607086
---
header: 
  seq: 798206
  stamp: 
    secs: 1561867389
    nsecs: 148176821
  frame_id: "ti_mmwave"
point_id: 7
x: 0.552734375
y: -0.04296875
z: -1.275390625
range: 1.48161697388
velocity: 0.0
doppler_bin: 8
bearing: -4.44514894485
intensity: 21.7026176453
---
header: 
  seq: 798207
  stamp: 
    secs: 1561867389
    nsecs: 148201280
  frame_id: "ti_mmwave"
point_id: 8
x: 1.673828125
y: -0.0
z: -0.09765625
range: 1.78665578365
velocity: 0.0
doppler_bin: 8
bearing: -0.0
intensity: 31.6790771484
---
header: 
  seq: 798208
  stamp: 
    secs: 1561867389
    nsecs: 148209608
  frame_id: "ti_mmwave"
point_id: 9
x: 1.712890625
y: 0.052734375
z: -0.130859375
range: 1.83023273945
velocity: 0.0
doppler_bin: 8
bearing: 1.76339519024
intensity: 33.8039207458
---
header: 
  seq: 798209
  stamp: 
    secs: 1561867389
    nsecs: 148226033
  frame_id: "ti_mmwave"
point_id: 10
x: 1.751953125
y: 0.0546875
z: -0.150390625
range: 1.87380969524
velocity: 0.0
doppler_bin: 8
bearing: 1.78791642189
intensity: 32.4029960632
---
header: 
  seq: 798210
  stamp: 
    secs: 1561867389
    nsecs: 148243470
  frame_id: "ti_mmwave"
point_id: 11
x: 1.76953125
y: 0.16796875
z: -0.287109375
range: 1.91738677025
velocity: 0.0
doppler_bin: 8
bearing: 5.42242527008
intensity: 28.6153450012
---
header: 
  seq: 798211
  stamp: 
    secs: 1561867389
    nsecs: 148251549
  frame_id: "ti_mmwave"
point_id: 12
x: 2.615234375
y: -0.17578125
z: 1.048828125
range: 3.00681090355
velocity: 0.0
doppler_bin: 8
bearing: -3.84531402588
intensity: 28.8366146088
---
header: 
  seq: 798212
  stamp: 
    secs: 1561867389
    nsecs: 148313237
  frame_id: "ti_mmwave"
point_id: 13
x: 2.689453125
y: -0.08984375
z: 0.98046875
range: 3.05038785934
velocity: 0.0
doppler_bin: 8
bearing: -1.91330885887
intensity: 32.1616592407
---
header: 
  seq: 798213
  stamp: 
    secs: 1561867389
    nsecs: 148324659
  frame_id: "ti_mmwave"
point_id: 14
x: 2.75390625
y: -0.08984375
z: 0.91796875
range: 3.09396481514
velocity: 0.0
doppler_bin: 8
bearing: -1.86856126785
intensity: 31.1991539001
---
header: 
  seq: 798214
  stamp: 
    secs: 1561867389
    nsecs: 148342274
  frame_id: "ti_mmwave"
point_id: 15
x: 4.419921875
y: -0.142578125
z: 1.19921875
range: 4.88062095642
velocity: 0.0
doppler_bin: 8
bearing: -1.847610116
intensity: 29.4051647186
---
header: 
  seq: 798215
  stamp: 
    secs: 1561867389
    nsecs: 148355463
  frame_id: "ti_mmwave"
point_id: 16
x: 4.45703125
y: -0.14453125
z: 1.21875
range: 4.9241976738
velocity: 0.0
doppler_bin: 8
bearing: -1.8573192358
intensity: 28.9597473145
---
header: 
  seq: 798216
  stamp: 
    secs: 1561867389
    nsecs: 148370533
  frame_id: "ti_mmwave"
point_id: 18
x: 0.041015625
y: -0.033203125
z: 0.0625
range: 0.0871539413929
velocity: 0.0
doppler_bin: 8
bearing: -38.9909973145
intensity: 30.0945091248
---
header: 
  seq: 798217
  stamp: 
    secs: 1561867389
    nsecs: 148379100
  frame_id: "ti_mmwave"
point_id: 19
x: 0.046875
y: -0.046875
z: 0.103515625
range: 0.130730912089
velocity: 0.0
doppler_bin: 8
bearing: -45.0
intensity: 29.0091304779
---
header: 
  seq: 798218
  stamp: 
    secs: 1561867389
    nsecs: 206630877
  frame_id: "ti_mmwave"
point_id: 0
x: 0.01171875
y: -0.0390625
z: -0.0078125
range: 0.0435769706964
velocity: 0.0
doppler_bin: 8
bearing: -73.3007583618
intensity: 30.6557979584
---
header: 
  seq: 798219
  stamp: 
    secs: 1561867389
    nsecs: 206704525
  frame_id: "ti_mmwave"
point_id: 1
x: 0.017578125
y: -0.080078125
z: -0.0078125
range: 0.0871539413929
velocity: 0.0
doppler_bin: 8
bearing: -77.6192398071
intensity: 31.9061183929
---
header: 
  seq: 798220
  stamp: 
    secs: 1561867389
    nsecs: 206719268
  frame_id: "ti_mmwave"
point_id: 2
x: 0.029296875
y: -0.119140625
z: -0.005859375
range: 0.130730912089
velocity: 0.0
doppler_bin: 8
bearing: -76.1849746704
intensity: 30.1241531372
---
header: 
  seq: 798221
  stamp: 
    secs: 1561867389
    nsecs: 206727965
  frame_id: "ti_mmwave"
point_id: 3
x: 0.056640625
y: -0.154296875
z: 0.0078125
range: 0.174307882786
velocity: 0.0
doppler_bin: 8
bearing: -69.8423843384
intensity: 25.4530715942
---
header: 
  seq: 798222
  stamp: 
    secs: 1561867389
    nsecs: 206736659
  frame_id: "ti_mmwave"
point_id: 4
x: 0.14453125
y: -0.080078125
z: 1.2578125
range: 1.35088610649
velocity: 0.0
doppler_bin: 8
bearing: -28.9888248444
intensity: 23.1175384521
---
header: 
  seq: 798223
  stamp: 
    secs: 1561867389
    nsecs: 206744797
  frame_id: "ti_mmwave"
point_id: 5
x: 0.07421875
y: -0.08203125
z: 1.3046875
range: 1.39446306229
velocity: 0.0
doppler_bin: 8
bearing: -47.8624038696
intensity: 24.6389293671
---
header: 
  seq: 798224
  stamp: 
    secs: 1561867389
    nsecs: 206752803
  frame_id: "ti_mmwave"
point_id: 6
x: 0.392578125
y: -0.083984375
z: -1.2890625
range: 1.43804001808
velocity: 0.0
doppler_bin: 8
bearing: -12.0752887726
intensity: 23.0749607086
---
header: 
  seq: 798225
  stamp: 
    secs: 1561867389
    nsecs: 206761034
  frame_id: "ti_mmwave"
point_id: 7
x: 2.640625
y: -0.17578125
z: 0.978515625
range: 3.00681090355
velocity: 0.0
doppler_bin: 8
bearing: -3.80844950676
intensity: 29.1592712402
---
header: 
  seq: 798226
  stamp: 
    secs: 1561867389
    nsecs: 206769450
  frame_id: "ti_mmwave"
point_id: 8
x: 2.697265625
y: -0.08984375
z: 0.958984375
range: 3.05038785934
velocity: 0.0
doppler_bin: 8
bearing: -1.90777087212
intensity: 32.2659988403
---
header: 
  seq: 798227
  stamp: 
    secs: 1561867389
    nsecs: 206778652
  frame_id: "ti_mmwave"
point_id: 9
x: 2.75390625
y: -0.08984375
z: 0.916015625
range: 3.09396481514
velocity: 0.0
doppler_bin: 8
bearing: -1.86856126785
intensity: 31.2904510498
---
header: 
  seq: 798228
  stamp: 
    secs: 1561867389
    nsecs: 206787878
  frame_id: "ti_mmwave"
point_id: 10
x: 0.009765625
y: 0.03125
z: 0.025390625
range: 0.0435769706964
velocity: 0.0
doppler_bin: 8
bearing: 72.6459732056
intensity: 29.2839584351
---
header: 
  seq: 798229
  stamp: 
    secs: 1561867389
    nsecs: 206796816
  frame_id: "ti_mmwave"
point_id: 11
x: 0.041015625
y: -0.033203125
z: 0.0625
range: 0.0871539413929
velocity: 0.0
doppler_bin: 8
bearing: -38.9909973145
intensity: 30.0860023499
---
header: 
  seq: 798230
  stamp: 
    secs: 1561867389
    nsecs: 206805743
  frame_id: "ti_mmwave"
point_id: 12
x: 0.044921875
y: -0.046875
z: 0.103515625
range: 0.130730912089
velocity: 0.0
doppler_bin: 8
bearing: -46.218875885
intensity: 28.9982051849
---
header: 
  seq: 798231
  stamp: 
    secs: 1561867389
    nsecs: 207731260
  frame_id: "ti_mmwave"
point_id: 0
x: 0.01171875
y: -0.0390625
z: -0.0078125
range: 0.0435769706964
velocity: 0.0
doppler_bin: 8
bearing: -73.3007583618
intensity: 30.6483230591
---
header: 
  seq: 798232
  stamp: 
    secs: 1561867389
    nsecs: 207788998
  frame_id: "ti_mmwave"
point_id: 1
x: 0.017578125
y: -0.080078125
z: -0.0078125
range: 0.0871539413929
velocity: 0.0
doppler_bin: 8
bearing: -77.6192398071
intensity: 31.9061183929
---
header: 
  seq: 798233
  stamp: 
    secs: 1561867389
    nsecs: 207807826
  frame_id: "ti_mmwave"
point_id: 2
x: 0.029296875
y: -0.119140625
z: -0.005859375
range: 0.130730912089
velocity: 0.0
doppler_bin: 8
bearing: -76.1849746704
intensity: 30.1241531372
---
header: 
  seq: 798234
  stamp: 
    secs: 1561867389
    nsecs: 207821272
  frame_id: "ti_mmwave"
point_id: 3
x: 0.056640625
y: -0.154296875
z: 0.005859375
range: 0.174307882786
velocity: 0.0
doppler_bin: 8
bearing: -69.8423843384
intensity: 25.4530715942
---
header: 
  seq: 798235
  stamp: 
    secs: 1561867389
    nsecs: 207997968
  frame_id: "ti_mmwave"
point_id: 4
x: 0.185546875
y: -0.080078125
z: 1.251953125
range: 1.35088610649
velocity: 0.0
doppler_bin: 8
bearing: -23.3440113068
intensity: 23.0963020325
---
header: 
  seq: 798236
  stamp: 
    secs: 1561867389
    nsecs: 208018897
  frame_id: "ti_mmwave"
point_id: 5
x: 0.12109375
y: -0.08203125
z: 1.30078125
range: 1.39446306229
velocity: 0.0
doppler_bin: 8
bearing: -34.1144714355
intensity: 24.6389293671
---
header: 
  seq: 798237
  stamp: 
    secs: 1561867389
    nsecs: 208078167
  frame_id: "ti_mmwave"
point_id: 6
x: 0.392578125
y: -0.083984375
z: -1.2890625
range: 1.43804001808
velocity: 0.0
doppler_bin: 8
bearing: -12.0752887726
intensity: 23.0749607086
---
header: 
  seq: 798238
  stamp: 
    secs: 1561867389
    nsecs: 208092068
  frame_id: "ti_mmwave"
point_id: 7
x: 0.52734375
y: -0.04296875
z: -1.287109375
range: 1.48161697388
velocity: 0.0
doppler_bin: 8
bearing: -4.65825366974
intensity: 21.6731739044
---
header: 
  seq: 798239
  stamp: 
    secs: 1561867389
    nsecs: 208105737
  frame_id: "ti_mmwave"
point_id: 8
x: 1.708984375
y: 0.052734375
z: -0.162109375
range: 1.83023273945
velocity: 0.0
doppler_bin: 8
bearing: 1.76742315292
intensity: 29.2992954254
---
header: 
  seq: 798240
  stamp: 
    secs: 1561867389
    nsecs: 208154469
  frame_id: "ti_mmwave"
point_id: 9
x: 1.736328125
y: 0.109375
z: -0.265625
range: 1.87380969524
velocity: 0.0
doppler_bin: 8
bearing: 3.60442066193
intensity: 27.9934062958
---
header: 
  seq: 798241
  stamp: 
    secs: 1561867389
    nsecs: 208167209
  frame_id: "ti_mmwave"
point_id: 10
x: 2.625
y: -0.17578125
z: 1.0234375
range: 3.00681090355
velocity: 0.0
doppler_bin: 8
bearing: -3.83105134964
intensity: 28.9542255402
---
header: 
  seq: 798242
  stamp: 
    secs: 1561867389
    nsecs: 208180211
  frame_id: "ti_mmwave"
point_id: 11
x: 2.69140625
y: -0.08984375
z: 0.97265625
range: 3.05038785934
velocity: 0.0
doppler_bin: 8
bearing: -1.91192126274
intensity: 32.1984634399
---
header: 
  seq: 798243
  stamp: 
    secs: 1561867389
    nsecs: 208193018
  frame_id: "ti_mmwave"
point_id: 12
x: 2.75
y: -0.08984375
z: 0.927734375
range: 3.09396481514
velocity: 0.0
doppler_bin: 8
bearing: -1.87121355534
intensity: 31.1527767181
---
header: 
  seq: 798244
  stamp: 
    secs: 1561867389
    nsecs: 208290665
  frame_id: "ti_mmwave"
point_id: 13
x: 1.634765625
y: -0.0
z: 0.375
range: 1.78665578365
velocity: 0.614668667316
doppler_bin: 9
bearing: -0.0
intensity: 27.3239383698
---
header: 
  seq: 798245
  stamp: 
    secs: 1561867389
    nsecs: 208371101
  frame_id: "ti_mmwave"
point_id: 15
x: 0.041015625
y: -0.033203125
z: 0.0625
range: 0.0871539413929
velocity: 0.0
doppler_bin: 8
bearing: -38.9909973145
intensity: 30.0902576447
---
header: 
  seq: 798246
  stamp: 
    secs: 1561867389
    nsecs: 208389619
  frame_id: "ti_mmwave"
point_id: 16
x: 0.044921875
y: -0.046875
z: 0.103515625
range: 0.130730912089
velocity: 0.0
doppler_bin: 8
bearing: -46.218875885
intensity: 29.0036716461
---
header: 
  seq: 798247
  stamp: 
    secs: 1561867389
    nsecs: 266508618
  frame_id: "ti_mmwave"
point_id: 0
x: 0.01171875
y: -0.0390625
z: -0.0078125
range: 0.0435769706964
velocity: 0.0
doppler_bin: 8
bearing: -73.3007583618
intensity: 30.6408348083
---
header: 
  seq: 798248
  stamp: 
    secs: 1561867389
    nsecs: 266579195
  frame_id: "ti_mmwave"
point_id: 1
x: 0.017578125
y: -0.080078125
z: -0.0078125
range: 0.0871539413929
velocity: 0.0
doppler_bin: 8
bearing: -77.6192398071
intensity: 31.9033164978
---
header: 
  seq: 798249
  stamp: 
    secs: 1561867389
    nsecs: 266594749
  frame_id: "ti_mmwave"
point_id: 2
x: 0.029296875
y: -0.119140625
z: -0.005859375
range: 0.130730912089
velocity: 0.0
doppler_bin: 8
bearing: -76.1849746704
intensity: 30.1199302673
---
header: 
  seq: 798250
  stamp: 
    secs: 1561867389
    nsecs: 266608456
  frame_id: "ti_mmwave"
point_id: 3
x: 0.056640625
y: -0.154296875
z: 0.0078125
range: 0.174307882786
velocity: 0.0
doppler_bin: 8
bearing: -69.8423843384
intensity: 25.4406795502
---
header: 
  seq: 798251
  stamp: 
    secs: 1561867389
    nsecs: 266629195
  frame_id: "ti_mmwave"
point_id: 4
x: 0.1640625
y: -0.080078125
z: 1.255859375
range: 1.35088610649
velocity: 0.0
doppler_bin: 8
bearing: -26.0167827606
intensity: 23.138671875
---
header: 
  seq: 798252
  stamp: 
    secs: 1561867389
    nsecs: 266700846
  frame_id: "ti_mmwave"
point_id: 5
x: 0.083984375
y: -0.08203125
z: 1.3046875
range: 1.39446306229
velocity: 0.0
doppler_bin: 8
bearing: -44.3259658813
intensity: 24.6686763763
---
header: 
  seq: 798253
  stamp: 
    secs: 1561867389
    nsecs: 266715595
  frame_id: "ti_mmwave"
point_id: 6
x: 0.408203125
y: -0.083984375
z: -1.283203125
range: 1.43804001808
velocity: 0.0
doppler_bin: 8
bearing: -11.6258993149
intensity: 23.138671875
---
header: 
  seq: 798254
  stamp: 
    secs: 1561867389
    nsecs: 266726411
  frame_id: "ti_mmwave"
point_id: 7
x: 0.5625
y: -0.04296875
z: -1.271484375
range: 1.48161697388
velocity: 0.0
doppler_bin: 8
bearing: -4.36827754974
intensity: 21.7318630219
---
header: 
  seq: 798255
  stamp: 
    secs: 1561867389
    nsecs: 266736845
  frame_id: "ti_mmwave"
point_id: 8
x: 2.626953125
y: -0.17578125
z: 1.015625
range: 3.00681090355
velocity: 0.0
doppler_bin: 8
bearing: -3.82821130753
intensity: 29.0254669189
---
header: 
  seq: 798256
  stamp: 
    secs: 1561867389
    nsecs: 266747319
  frame_id: "ti_mmwave"
point_id: 9
x: 2.662109375
y: -0.1796875
z: 1.041015625
range: 3.05038785934
velocity: 0.0
doppler_bin: 8
bearing: -3.86150240898
intensity: 32.1827278137
---
header: 
  seq: 798257
  stamp: 
    secs: 1561867389
    nsecs: 266758432
  frame_id: "ti_mmwave"
point_id: 10
x: 2.748046875
y: -0.08984375
z: 0.93359375
range: 3.09396481514
velocity: 0.0
doppler_bin: 8
bearing: -1.8725425005
intensity: 31.209028244
---
header: 
  seq: 798258
  stamp: 
    secs: 1561867389
    nsecs: 266772391
  frame_id: "ti_mmwave"
point_id: 12
x: 0.041015625
y: -0.033203125
z: 0.0625
range: 0.0871539413929
velocity: 0.0
doppler_bin: 8
bearing: -38.9909973145
intensity: 30.0945091248
---
header: 
  seq: 798259
  stamp: 
    secs: 1561867389
    nsecs: 266783558
  frame_id: "ti_mmwave"
point_id: 13
x: 0.044921875
y: -0.046875
z: 0.103515625
range: 0.130730912089
velocity: 0.0
doppler_bin: 8
bearing: -46.218875885
intensity: 29.0036716461
---
header: 
  seq: 798260
  stamp: 
    secs: 1561867389
    nsecs: 267623945
  frame_id: "ti_mmwave"
point_id: 0
x: 0.01171875
y: -0.0390625
z: -0.0078125
range: 0.0435769706964
velocity: 0.0
doppler_bin: 8
bearing: -73.3007583618
intensity: 30.6483230591
---
header: 
  seq: 798261
  stamp: 
    secs: 1561867389
    nsecs: 267690586
  frame_id: "ti_mmwave"
point_id: 1
x: 0.017578125
y: -0.080078125
z: -0.0078125
range: 0.0871539413929
velocity: 0.0
doppler_bin: 8
bearing: -77.6192398071
intensity: 31.9061183929
---
header: 
  seq: 798262
  stamp: 
    secs: 1561867389
    nsecs: 267710576
  frame_id: "ti_mmwave"
point_id: 2
x: 0.029296875
y: -0.119140625
z: -0.005859375
range: 0.130730912089
velocity: 0.0
doppler_bin: 8
bearing: -76.1849746704
intensity: 30.1283721924
---
header: 
  seq: 798263
  stamp: 
    secs: 1561867389
    nsecs: 267736361
  frame_id: "ti_mmwave"
point_id: 3
x: 0.056640625
y: -0.154296875
z: 0.0078125
range: 0.174307882786
velocity: 0.0
doppler_bin: 8
bearing: -69.8423843384
intensity: 25.4406795502
---
header: 
  seq: 798264
  stamp: 
    secs: 1561867389
    nsecs: 267812086
  frame_id: "ti_mmwave"
point_id: 4
x: 0.1640625
y: -0.080078125
z: 1.255859375
range: 1.35088610649
velocity: 0.0
doppler_bin: 8
bearing: -26.0167827606
intensity: 23.1175384521
---
header: 
  seq: 798265
  stamp: 
    secs: 1561867389
    nsecs: 267831921
  frame_id: "ti_mmwave"
point_id: 5
x: 0.07421875
y: -0.08203125
z: 1.3046875
range: 1.39446306229
velocity: 0.0
doppler_bin: 8
bearing: -47.8624038696
intensity: 24.6389293671
---
header: 
  seq: 798266
  stamp: 
    secs: 1561867389
    nsecs: 267848993
  frame_id: "ti_mmwave"
point_id: 6
x: 0.392578125
y: -0.083984375
z: -1.2890625
range: 1.43804001808
velocity: 0.0
doppler_bin: 8
bearing: -12.0752887726
intensity: 23.0963020325
---
header: 
  seq: 798267
  stamp: 
    secs: 1561867389
    nsecs: 267857290
  frame_id: "ti_mmwave"
point_id: 7
x: 0.5546875
y: -0.04296875
z: -1.275390625
range: 1.48161697388
velocity: 0.0
doppler_bin: 8
bearing: -4.42955970764
intensity: 21.6731739044
---
header: 
  seq: 798268
  stamp: 
    secs: 1561867389
    nsecs: 267884166
  frame_id: "ti_mmwave"
point_id: 8
x: 1.74609375
y: -0.0
z: -0.205078125
range: 1.87380969524
velocity: 0.0
doppler_bin: 8
bearing: -0.0
intensity: 28.4880466461
---
header: 
  seq: 798269
  stamp: 
    secs: 1561867389
    nsecs: 267937920
  frame_id: "ti_mmwave"
point_id: 9
x: 1.798828125
y: 0.056640625
z: 0.03125
range: 1.91738677025
velocity: 0.0
doppler_bin: 8
bearing: 1.8035056591
intensity: 27.3957233429
---
header: 
  seq: 798270
  stamp: 
    secs: 1561867389
    nsecs: 267989680
  frame_id: "ti_mmwave"
point_id: 10
x: 2.611328125
y: -0.17578125
z: 1.05859375
range: 3.00681090355
velocity: 0.0
doppler_bin: 8
bearing: -3.85104894638
intensity: 28.9042110443
---
header: 
  seq: 798271
  stamp: 
    secs: 1561867389
    nsecs: 268004957
  frame_id: "ti_mmwave"
point_id: 11
x: 2.658203125
y: -0.1796875
z: 1.05078125
range: 3.05038785934
velocity: 0.0
doppler_bin: 8
bearing: -3.86716008186
intensity: 32.1510848999
---
header: 
  seq: 798272
  stamp: 
    secs: 1561867389
    nsecs: 268017703
  frame_id: "ti_mmwave"
point_id: 12
x: 2.75390625
y: -0.08984375
z: 0.919921875
range: 3.09396481514
velocity: 0.0
doppler_bin: 8
bearing: -1.86856126785
intensity: 31.1925582886
---
header: 
  seq: 798273
  stamp: 
    secs: 1561867389
    nsecs: 268030837
  frame_id: "ti_mmwave"
point_id: 13
x: 0.009765625
y: 0.03125
z: 0.025390625
range: 0.0435769706964
velocity: 0.0
doppler_bin: 8
bearing: 72.6459732056
intensity: 29.2890777588
---
header: 
  seq: 798274
  stamp: 
    secs: 1561867389
    nsecs: 268043011
  frame_id: "ti_mmwave"
point_id: 14
x: 0.041015625
y: -0.033203125
z: 0.0625
range: 0.0871539413929
velocity: 0.0
doppler_bin: 8
bearing: -38.9909973145
intensity: 30.0945091248
---
header: 
  seq: 798275
  stamp: 
    secs: 1561867389
    nsecs: 268056570
