header: 
  seq: 771078
  stamp: 
    secs: 1561867339
    nsecs: 586593005
  frame_id: "ti_mmwave"
point_id: 0
x: 0.01171875
y: -0.0390625
z: -0.0078125
range: 0.0435769706964
velocity: 0.0
doppler_bin: 8
bearing: -73.3007583618
intensity: 30.6557979584
---
header: 
  seq: 771079
  stamp: 
    secs: 1561867339
    nsecs: 586708340
  frame_id: "ti_mmwave"
point_id: 1
x: 0.017578125
y: -0.080078125
z: -0.0078125
range: 0.0871539413929
velocity: 0.0
doppler_bin: 8
bearing: -77.6192398071
intensity: 31.9117145538
---
header: 
  seq: 771080
  stamp: 
    secs: 1561867339
    nsecs: 586731642
  frame_id: "ti_mmwave"
point_id: 2
x: 0.029296875
y: -0.119140625
z: -0.005859375
range: 0.130730912089
velocity: 0.0
doppler_bin: 8
bearing: -76.1849746704
intensity: 30.1367969513
---
header: 
  seq: 771081
  stamp: 
    secs: 1561867339
    nsecs: 586745759
  frame_id: "ti_mmwave"
point_id: 3
x: 0.056640625
y: -0.154296875
z: 0.0078125
range: 0.174307882786
velocity: 0.0
doppler_bin: 8
bearing: -69.8423843384
intensity: 25.4654273987
---
header: 
  seq: 771082
  stamp: 
    secs: 1561867339
    nsecs: 586760010
  frame_id: "ti_mmwave"
point_id: 4
x: 0.177734375
y: -0.080078125
z: 1.25390625
range: 1.35088610649
velocity: 0.0
doppler_bin: 8
bearing: -24.2539196014
intensity: 23.1175384521
---
header: 
  seq: 771083
  stamp: 
    secs: 1561867339
    nsecs: 586778264
  frame_id: "ti_mmwave"
point_id: 5
x: 0.103515625
y: -0.08203125
z: 1.302734375
range: 1.39446306229
velocity: 0.0
doppler_bin: 8
bearing: -38.3951644897
intensity: 24.6389293671
---
header: 
  seq: 771084
  stamp: 
    secs: 1561867339
    nsecs: 586792576
  frame_id: "ti_mmwave"
point_id: 6
x: 0.376953125
y: -0.083984375
z: -1.29296875
range: 1.43804001808
velocity: 0.0
doppler_bin: 8
bearing: -12.5602369308
intensity: 23.1175384521
---
header: 
  seq: 771085
  stamp: 
    secs: 1561867339
    nsecs: 586810943
  frame_id: "ti_mmwave"
point_id: 7
x: 1.6953125
y: -0.0
z: -0.283203125
range: 1.83023273945
velocity: 0.0
doppler_bin: 8
bearing: -0.0
intensity: 29.31457901
---
header: 
  seq: 771086
  stamp: 
    secs: 1561867339
    nsecs: 586878093
  frame_id: "ti_mmwave"
point_id: 8
x: 1.73828125
y: -0.0
z: -0.265625
range: 1.87380969524
velocity: 0.0
doppler_bin: 8
bearing: -0.0
intensity: 29.0036716461
---
header: 
  seq: 771087
  stamp: 
    secs: 1561867339
    nsecs: 586922655
  frame_id: "ti_mmwave"
point_id: 9
x: 2.625
y: -0.17578125
z: 1.025390625
range: 3.00681090355
velocity: 0.0
doppler_bin: 8
bearing: -3.83105134964
intensity: 29.0633506775
---
header: 
  seq: 771088
  stamp: 
    secs: 1561867339
    nsecs: 586938392
  frame_id: "ti_mmwave"
point_id: 10
x: 2.69140625
y: -0.08984375
z: 0.97265625
range: 3.05038785934
velocity: 0.0
doppler_bin: 8
bearing: -1.91192126274
intensity: 32.2036972046
---
header: 
  seq: 771089
  stamp: 
    secs: 1561867339
    nsecs: 586952094
  frame_id: "ti_mmwave"
point_id: 11
x: 2.755859375
y: -0.08984375
z: 0.912109375
range: 3.09396481514
velocity: 0.0
doppler_bin: 8
bearing: -1.86723792553
intensity: 31.2678050995
---
header: 
  seq: 771090
  stamp: 
    secs: 1561867339
    nsecs: 586966497
  frame_id: "ti_mmwave"
point_id: 12
x: 4.38671875
y: -0.283203125
z: 1.134765625
range: 4.83704376221
velocity: 0.0
doppler_bin: 8
bearing: -3.69384431839
intensity: 28.1358089447
---
header: 
  seq: 771091
  stamp: 
    secs: 1561867339
    nsecs: 586982488
  frame_id: "ti_mmwave"
point_id: 13
x: 4.408203125
y: -0.142578125
z: 1.2421875
range: 4.88062095642
velocity: 0.0
doppler_bin: 8
bearing: -1.85251843929
intensity: 31.3703746796
---
header: 
  seq: 771092
  stamp: 
    secs: 1561867339
    nsecs: 586995917
  frame_id: "ti_mmwave"
point_id: 14
x: 4.435546875
y: -0.14453125
z: 1.29296875
range: 4.9241976738
velocity: 0.0
doppler_bin: 8
bearing: -1.86630904675
intensity: 30.6855697632
---
header: 
  seq: 771093
  stamp: 
    secs: 1561867339
    nsecs: 587010144
  frame_id: "ti_mmwave"
point_id: 15
x: 0.009765625
y: 0.03125
z: 0.025390625
range: 0.0435769706964
velocity: 0.0
doppler_bin: 8
bearing: 72.6459732056
intensity: 29.2941894531
---
header: 
  seq: 771094
  stamp: 
    secs: 1561867339
    nsecs: 587026626
  frame_id: "ti_mmwave"
point_id: 16
x: 0.041015625
y: -0.033203125
z: 0.0625
range: 0.0871539413929
velocity: 0.0
doppler_bin: 8
bearing: -38.9909973145
intensity: 30.1029987335
---
header: 
  seq: 771095
  stamp: 
    secs: 1561867339
    nsecs: 587040063
  frame_id: "ti_mmwave"
point_id: 17
x: 0.044921875
y: -0.046875
z: 0.103515625
range: 0.130730912089
velocity: 0.0
doppler_bin: 8
bearing: -46.218875885
intensity: 29.0091304779
---
header: 
  seq: 771096
  stamp: 
    secs: 1561867339
    nsecs: 588147735
  frame_id: "ti_mmwave"
point_id: 0
x: 0.01171875
y: -0.0390625
z: -0.0078125
range: 0.0435769706964
velocity: 0.0
doppler_bin: 8
bearing: -73.3007583618
intensity: 30.6483230591
---
header: 
  seq: 771097
  stamp: 
    secs: 1561867339
    nsecs: 588232551
  frame_id: "ti_mmwave"
point_id: 1
x: 0.017578125
y: -0.080078125
z: -0.0078125
range: 0.0871539413929
velocity: 0.0
doppler_bin: 8
bearing: -77.6192398071
intensity: 31.9089164734
---
header: 
  seq: 771098
  stamp: 
    secs: 1561867339
    nsecs: 588250315
  frame_id: "ti_mmwave"
point_id: 2
x: 0.029296875
y: -0.119140625
z: -0.005859375
range: 0.130730912089
velocity: 0.0
doppler_bin: 8
bearing: -76.1849746704
intensity: 30.1325874329
---
header: 
  seq: 771099
  stamp: 
    secs: 1561867339
    nsecs: 588267273
  frame_id: "ti_mmwave"
point_id: 3
x: 0.056640625
y: -0.154296875
z: 0.005859375
range: 0.174307882786
velocity: 0.0
doppler_bin: 8
bearing: -69.8423843384
intensity: 25.4654273987
---
header: 
  seq: 771100
  stamp: 
    secs: 1561867339
    nsecs: 588301484
  frame_id: "ti_mmwave"
point_id: 4
x: 0.177734375
y: -0.080078125
z: 1.25390625
range: 1.35088610649
velocity: 0.0
doppler_bin: 8
bearing: -24.2539196014
intensity: 23.1175384521
---
header: 
  seq: 771101
  stamp: 
    secs: 1561867339
    nsecs: 588316302
  frame_id: "ti_mmwave"
point_id: 5
x: 0.064453125
y: -0.08203125
z: 1.3046875
range: 1.39446306229
velocity: 0.0
doppler_bin: 8
bearing: -51.8427734375
intensity: 24.6538276672
---
header: 
  seq: 771102
  stamp: 
    secs: 1561867339
    nsecs: 588330081
  frame_id: "ti_mmwave"
point_id: 6
x: 0.412109375
y: -0.083984375
z: -1.283203125
range: 1.43804001808
velocity: 0.0
doppler_bin: 8
bearing: -11.518658638
intensity: 23.1175384521
---
header: 
  seq: 771103
  stamp: 
    secs: 1561867339
    nsecs: 588343952
  frame_id: "ti_mmwave"
point_id: 7
x: 0.552734375
y: -0.04296875
z: -1.275390625
range: 1.48161697388
velocity: 0.0
doppler_bin: 8
bearing: -4.44514894485
intensity: 21.6731739044
---
header: 
  seq: 771104
  stamp: 
    secs: 1561867339
    nsecs: 588357118
  frame_id: "ti_mmwave"
point_id: 8
x: 1.693359375
y: -0.107421875
z: -0.26953125
range: 1.83023273945
velocity: 0.0
doppler_bin: 8
bearing: -3.62981653214
intensity: 28.1224460602
---
header: 
  seq: 771105
  stamp: 
    secs: 1561867339
    nsecs: 588370625
  frame_id: "ti_mmwave"
point_id: 9
x: 1.703125
y: -0.1640625
z: -0.408203125
range: 1.87380969524
velocity: 0.0
doppler_bin: 8
bearing: -5.50234079361
intensity: 28.1090431213
---
header: 
  seq: 771106
  stamp: 
    secs: 1561867339
    nsecs: 588385022
  frame_id: "ti_mmwave"
point_id: 10
x: 2.611328125
y: -0.17578125
z: 1.0546875
range: 3.00681090355
velocity: 0.0
doppler_bin: 8
bearing: -3.85104894638
intensity: 29.020029068
---
header: 
  seq: 771107
  stamp: 
    secs: 1561867339
    nsecs: 588401236
  frame_id: "ti_mmwave"
point_id: 11
x: 2.689453125
y: -0.08984375
z: 0.9765625
range: 3.05038785934
velocity: 0.0
doppler_bin: 8
bearing: -1.91330885887
intensity: 32.2036972046
---
header: 
  seq: 771108
  stamp: 
    secs: 1561867339
    nsecs: 588414613
  frame_id: "ti_mmwave"
point_id: 12
x: 2.751953125
y: -0.08984375
z: 0.923828125
range: 3.09396481514
velocity: 0.0
doppler_bin: 8
bearing: -1.86988639832
intensity: 31.176027298
---
header: 
  seq: 771109
  stamp: 
    secs: 1561867339
    nsecs: 588427530
  frame_id: "ti_mmwave"
point_id: 13
x: 4.40234375
y: -0.142578125
z: 1.26171875
range: 4.88062095642
velocity: 0.0
doppler_bin: 8
bearing: -1.85498249531
intensity: 31.0788803101
---
header: 
  seq: 771110
  stamp: 
    secs: 1561867339
    nsecs: 588440599
  frame_id: "ti_mmwave"
point_id: 14
x: 4.43359375
y: -0.14453125
z: 1.296875
range: 4.9241976738
velocity: 0.0
doppler_bin: 8
bearing: -1.86713063717
intensity: 30.5918464661
---
header: 
  seq: 771111
  stamp: 
    secs: 1561867339
    nsecs: 588454117
  frame_id: "ti_mmwave"
point_id: 15
x: 4.904296875
y: -0.30859375
z: 0.595703125
range: 5.27281332016
velocity: 0.0
doppler_bin: 8
bearing: -3.60048341751
intensity: 30.9307136536
---
header: 
  seq: 771112
  stamp: 
    secs: 1561867339
    nsecs: 588467327
  frame_id: "ti_mmwave"
point_id: 16
x: 4.96875
y: -0.46875
z: 0.015625
range: 5.31639051437
velocity: 0.0
doppler_bin: 8
bearing: -5.38931179047
intensity: 29.9078273773
---
header: 
  seq: 771113
  stamp: 
    secs: 1561867339
    nsecs: 588480679
  frame_id: "ti_mmwave"
point_id: 17
x: 1.59375
y: -0.0
z: 0.0625
range: 1.69950187206
velocity: -0.614668667316
doppler_bin: 7
bearing: -0.0
intensity: 27.0842094421
---
header: 
  seq: 771114
  stamp: 
    secs: 1561867339
    nsecs: 588498390
  frame_id: "ti_mmwave"
point_id: 18
x: 1.634765625
y: -0.0
z: 0.0703125
range: 1.74307882786
velocity: -0.614668667316
doppler_bin: 7
bearing: -0.0
intensity: 26.1066017151
---
header: 
  seq: 771115
  stamp: 
    secs: 1561867339
    nsecs: 588516988
  frame_id: "ti_mmwave"
point_id: 20
x: 0.041015625
y: -0.033203125
z: 0.0625
range: 0.0871539413929
velocity: 0.0
doppler_bin: 8
bearing: -38.9909973145
intensity: 30.1029987335
---
header: 
  seq: 771116
  stamp: 
    secs: 1561867339
    nsecs: 588531543
  frame_id: "ti_mmwave"
point_id: 21
x: 0.044921875
y: -0.046875
z: 0.103515625
range: 0.130730912089
velocity: 0.0
doppler_bin: 8
bearing: -46.218875885
intensity: 29.0145835876
---
header: 
  seq: 771117
  stamp: 
    secs: 1561867339
    nsecs: 646796896
  frame_id: "ti_mmwave"
point_id: 0
x: 0.01171875
y: -0.0390625
z: -0.0078125
range: 0.0435769706964
velocity: 0.0
doppler_bin: 8
bearing: -73.3007583618
intensity: 30.6557979584
---
header: 
  seq: 771118
  stamp: 
    secs: 1561867339
    nsecs: 646940709
  frame_id: "ti_mmwave"
point_id: 1
x: 0.017578125
y: -0.080078125
z: -0.0078125
range: 0.0871539413929
velocity: 0.0
doppler_bin: 8
bearing: -77.6192398071
intensity: 31.9089164734
---
header: 
  seq: 771119
  stamp: 
    secs: 1561867339
    nsecs: 646961074
  frame_id: "ti_mmwave"
point_id: 2
x: 0.029296875
y: -0.119140625
z: -0.005859375
range: 0.130730912089
velocity: 0.0
doppler_bin: 8
bearing: -76.1849746704
intensity: 30.1283721924
---
header: 
  seq: 771120
  stamp: 
    secs: 1561867339
    nsecs: 646980665
  frame_id: "ti_mmwave"
point_id: 3
x: 0.056640625
y: -0.154296875
z: 0.005859375
range: 0.174307882786
velocity: 0.0
doppler_bin: 8
bearing: -69.8423843384
intensity: 25.4530715942
---
header: 
  seq: 771121
  stamp: 
    secs: 1561867339
    nsecs: 647059631
  frame_id: "ti_mmwave"
point_id: 4
x: 0.169921875
y: -0.080078125
z: 1.25390625
range: 1.35088610649
velocity: 0.0
doppler_bin: 8
bearing: -25.232831955
intensity: 23.0963020325
---
header: 
  seq: 771122
  stamp: 
    secs: 1561867339
    nsecs: 647076928
  frame_id: "ti_mmwave"
point_id: 5
x: 0.0859375
y: -0.08203125
z: 1.302734375
range: 1.39446306229
velocity: 0.0
doppler_bin: 8
bearing: -43.6677780151
intensity: 24.6239795685
---
header: 
  seq: 771123
  stamp: 
    secs: 1561867339
    nsecs: 647092505
  frame_id: "ti_mmwave"
point_id: 6
x: 0.396484375
y: -0.083984375
z: -1.287109375
range: 1.43804001808
velocity: 0.0
doppler_bin: 8
bearing: -11.9597616196
intensity: 23.0749607086
---
header: 
  seq: 771124
  stamp: 
    secs: 1561867339
    nsecs: 647107604
  frame_id: "ti_mmwave"
point_id: 7
x: 0.53515625
y: -0.04296875
z: -1.283203125
range: 1.48161697388
velocity: 0.0
doppler_bin: 8
bearing: -4.59054327011
intensity: 21.6731739044
---
header: 
  seq: 771125
  stamp: 
    secs: 1561867339
    nsecs: 647123845
  frame_id: "ti_mmwave"
point_id: 8
x: 1.552734375
y: -0.048828125
z: 0.0703125
range: 1.65592491627
velocity: 0.0
doppler_bin: 8
bearing: -1.80116057396
intensity: 26.4836006165
---
header: 
  seq: 771126
  stamp: 
    secs: 1561867339
    nsecs: 647137739
  frame_id: "ti_mmwave"
point_id: 9
x: 2.603515625
y: -0.17578125
z: 1.076171875
range: 3.00681090355
velocity: 0.0
doppler_bin: 8
bearing: -3.86257004738
intensity: 29.0471553802
---
header: 
  seq: 771127
  stamp: 
    secs: 1561867339
    nsecs: 647169327
  frame_id: "ti_mmwave"
point_id: 10
x: 2.685546875
y: -0.08984375
z: 0.98828125
range: 3.05038785934
velocity: 0.0
doppler_bin: 8
bearing: -1.91608965397
intensity: 32.1958465576
---
header: 
  seq: 771128
  stamp: 
    secs: 1561867339
    nsecs: 647236244
  frame_id: "ti_mmwave"
point_id: 11
x: 2.75390625
y: -0.08984375
z: 0.919921875
range: 3.09396481514
velocity: 0.0
doppler_bin: 8
bearing: -1.86856126785
intensity: 31.119342804
---
header: 
  seq: 771129
  stamp: 
    secs: 1561867339
    nsecs: 647253765
  frame_id: "ti_mmwave"
point_id: 12
x: 4.40234375
y: -0.142578125
z: 1.263671875
range: 4.88062095642
velocity: 0.0
doppler_bin: 8
bearing: -1.85498249531
intensity: 31.2645606995
---
header: 
  seq: 771130
  stamp: 
    secs: 1561867339
    nsecs: 647270313
  frame_id: "ti_mmwave"
point_id: 13
x: 4.435546875
y: -0.14453125
z: 1.291015625
range: 4.9241976738
velocity: 0.0
doppler_bin: 8
bearing: -1.86630904675
intensity: 30.8206691742
---
header: 
  seq: 771131
  stamp: 
    secs: 1561867339
    nsecs: 647282589
  frame_id: "ti_mmwave"
point_id: 14
x: 4.90625
y: -0.30859375
z: 0.580078125
range: 5.27281332016
velocity: 0.0
doppler_bin: 8
bearing: -3.59905409813
intensity: 30.6258201599
---
header: 
  seq: 771132
  stamp: 
    secs: 1561867339
    nsecs: 647339976
  frame_id: "ti_mmwave"
point_id: 15
x: 4.951171875
y: -0.623046875
z: -0.04296875
range: 5.31639051437
velocity: 0.0
doppler_bin: 8
bearing: -7.17230129242
intensity: 29.5424251556
---
header: 
  seq: 771133
  stamp: 
    secs: 1561867339
    nsecs: 647359228
  frame_id: "ti_mmwave"
point_id: 16
x: 0.009765625
y: 0.03125
z: 0.025390625
range: 0.0435769706964
velocity: 0.0
doppler_bin: 8
bearing: 72.6459732056
intensity: 29.2890777588
---
header: 
  seq: 771134
  stamp: 
    secs: 1561867339
    nsecs: 647457020
  frame_id: "ti_mmwave"
point_id: 17
x: 0.041015625
y: -0.033203125
z: 0.0625
range: 0.0871539413929
velocity: 0.0
doppler_bin: 8
bearing: -38.9909973145
intensity: 30.0945091248
---
header: 
  seq: 771135
  stamp: 
    secs: 1561867339
    nsecs: 647477286
  frame_id: "ti_mmwave"
point_id: 18
x: 0.044921875
y: -0.046875
z: 0.103515625
range: 0.130730912089
velocity: 0.0
doppler_bin: 8
bearing: -46.218875885
intensity: 29.0091304779
---
header: 
  seq: 771136
  stamp: 
    secs: 1561867339
    nsecs: 648412922
  frame_id: "ti_mmwave"
point_id: 0
x: 0.01171875
y: -0.0390625
z: -0.0078125
range: 0.0435769706964
velocity: 0.0
doppler_bin: 8
bearing: -73.3007583618
intensity: 30.6557979584
---
header: 
  seq: 771137
  stamp: 
    secs: 1561867339
    nsecs: 648464206
  frame_id: "ti_mmwave"
point_id: 1
x: 0.017578125
y: -0.080078125
z: -0.0078125
range: 0.0871539413929
velocity: 0.0
doppler_bin: 8
bearing: -77.6192398071
intensity: 31.9089164734
---
header: 
  seq: 771138
  stamp: 
    secs: 1561867339
    nsecs: 648480515
  frame_id: "ti_mmwave"
point_id: 2
x: 0.029296875
y: -0.119140625
z: -0.005859375
range: 0.130730912089
velocity: 0.0
doppler_bin: 8
bearing: -76.1849746704
intensity: 30.1325874329
---
header: 
  seq: 771139
  stamp: 
    secs: 1561867339
    nsecs: 648494023
  frame_id: "ti_mmwave"
point_id: 3
x: 0.056640625
y: -0.154296875
z: 0.005859375
range: 0.174307882786
velocity: 0.0
doppler_bin: 8
bearing: -69.8423843384
intensity: 25.4654273987
---
header: 
  seq: 771140
  stamp: 
    secs: 1561867339
    nsecs: 648510011
  frame_id: "ti_mmwave"
point_id: 4
x: 0.142578125
y: -0.080078125
z: 1.2578125
range: 1.35088610649
velocity: 0.0
doppler_bin: 8
bearing: -29.3204746246
intensity: 23.1175384521
---
header: 
  seq: 771141
  stamp: 
    secs: 1561867339
    nsecs: 648523449
  frame_id: "ti_mmwave"
point_id: 5
x: 0.0703125
y: -0.08203125
z: 1.3046875
range: 1.39446306229
velocity: 0.0
doppler_bin: 8
bearing: -49.3987045288
intensity: 24.6389293671
---
header: 
  seq: 771142
  stamp: 
    secs: 1561867339
    nsecs: 648537350
  frame_id: "ti_mmwave"
point_id: 6
x: 0.40625
y: -0.083984375
z: -1.28515625
range: 1.43804001808
velocity: 0.0
doppler_bin: 8
bearing: -11.6802606583
intensity: 23.1175384521
---
header: 
  seq: 771143
  stamp: 
    secs: 1561867339
    nsecs: 648551400
  frame_id: "ti_mmwave"
point_id: 7
x: 0.54296875
y: -0.04296875
z: -1.279296875
range: 1.48161697388
velocity: 0.0
doppler_bin: 8
bearing: -4.52476835251
intensity: 21.7609119415
---
header: 
  seq: 771144
  stamp: 
    secs: 1561867339
    nsecs: 648566940
  frame_id: "ti_mmwave"
point_id: 8
x: 1.552734375
y: -0.048828125
z: 0.033203125
range: 1.65592491627
velocity: 0.0
doppler_bin: 8
bearing: -1.80116057396
intensity: 26.9196510315
---
header: 
  seq: 771145
  stamp: 
    secs: 1561867339
    nsecs: 648634317
  frame_id: "ti_mmwave"
point_id: 9
x: 1.595703125
y: -0.0
z: -0.001953125
range: 1.69950187206
velocity: 0.0
doppler_bin: 8
bearing: -0.0
intensity: 27.1933135986
---
header: 
  seq: 771146
  stamp: 
    secs: 1561867339
    nsecs: 648648541
  frame_id: "ti_mmwave"
point_id: 10
x: 1.693359375
y: -0.0
z: -0.287109375
range: 1.83023273945
velocity: 0.0
doppler_bin: 8
bearing: -0.0
intensity: 27.9169063568
---
header: 
  seq: 771147
  stamp: 
    secs: 1561867339
    nsecs: 648663771
  frame_id: "ti_mmwave"
point_id: 11
x: 1.740234375
y: -0.0
z: -0.26171875
range: 1.87380969524
velocity: 0.0
doppler_bin: 8
bearing: -0.0
intensity: 27.9657440186
---
header: 
  seq: 771148
  stamp: 
    secs: 1561867339
    nsecs: 648677168
  frame_id: "ti_mmwave"
point_id: 12
x: 2.615234375
y: -0.17578125
z: 1.048828125
range: 3.00681090355
velocity: 0.0
doppler_bin: 8
bearing: -3.84531402588
intensity: 28.9817657471
---
header: 
  seq: 771149
  stamp: 
    secs: 1561867339
    nsecs: 648690381
  frame_id: "ti_mmwave"
point_id: 13
x: 2.6875
y: -0.08984375
z: 0.986328125
range: 3.05038785934
velocity: 0.0
doppler_bin: 8
bearing: -1.91469812393
intensity: 32.1748390198
---
header: 
  seq: 771150
  stamp: 
    secs: 1561867339
    nsecs: 648703411
  frame_id: "ti_mmwave"
point_id: 14
x: 2.76953125
y: -0.0
z: 0.873046875
range: 3.09396481514
velocity: 0.0
doppler_bin: 8
bearing: -0.0
intensity: 31.1660766602
---
header: 
  seq: 771151
  stamp: 
    secs: 1561867339
    nsecs: 648716674
  frame_id: "ti_mmwave"
point_id: 15
x: 4.40234375
y: -0.142578125
z: 1.259765625
range: 4.88062095642
velocity: 0.0
doppler_bin: 8
bearing: -1.85498249531
intensity: 31.1958580017
---
header: 
  seq: 771152
  stamp: 
    secs: 1561867339
    nsecs: 648732286
  frame_id: "ti_mmwave"
point_id: 16
x: 4.435546875
y: -0.14453125
z: 1.291015625
range: 4.9241976738
velocity: 0.0
doppler_bin: 8
bearing: -1.86630904675
intensity: 30.7481651306
---
header: 
  seq: 771153
  stamp: 
    secs: 1561867339
    nsecs: 648749833
  frame_id: "ti_mmwave"
point_id: 17
x: 4.8984375
y: -0.30859375
z: 0.642578125
range: 5.27281332016
velocity: 0.0
doppler_bin: 8
bearing: -3.60477876663
intensity: 31.0754909515
---
header: 
  seq: 771154
  stamp: 
    secs: 1561867339
    nsecs: 648804520
  frame_id: "ti_mmwave"
point_id: 18
x: 4.951171875
y: -0.623046875
z: 0.037109375
range: 5.31639051437
velocity: 0.0
doppler_bin: 8
bearing: -7.17230129242
intensity: 29.6848297119
---
header: 
  seq: 771155
  stamp: 
    secs: 1561867339
    nsecs: 648819964
  frame_id: "ti_mmwave"
point_id: 19
x: 0.009765625
y: 0.03125
z: 0.025390625
range: 0.0435769706964
velocity: 0.0
doppler_bin: 8
bearing: 72.6459732056
intensity: 29.2839584351
---
header: 
  seq: 771156
  stamp: 
    secs: 1561867339
    nsecs: 648833861
  frame_id: "ti_mmwave"
point_id: 20
x: 0.041015625
y: -0.033203125
z: 0.0625
range: 0.0871539413929
velocity: 0.0
doppler_bin: 8
bearing: -38.9909973145
intensity: 30.0987567902
---
header: 
  seq: 771157
  stamp: 
    secs: 1561867339
    nsecs: 648847501
  frame_id: "ti_mmwave"
point_id: 21
x: 0.044921875
y: -0.046875
z: 0.103515625
range: 0.130730912089
velocity: 0.0
doppler_bin: 8
bearing: -46.218875885
intensity: 29.0091304779
---
header: 
  seq: 771158
  stamp: 
    secs: 1561867339
    nsecs: 706763166
  frame_id: "ti_mmwave"
point_id: 0
x: 0.01171875
y: -0.0390625
z: -0.0078125
range: 0.0435769706964
velocity: 0.0
doppler_bin: 8
bearing: -73.3007583618
intensity: 30.6557979584
---
header: 
  seq: 771159
  stamp: 
    secs: 1561867339
    nsecs: 706878386
  frame_id: "ti_mmwave"
point_id: 1
x: 0.017578125
y: -0.080078125
z: -0.0078125
range: 0.0871539413929
velocity: 0.0
doppler_bin: 8
bearing: -77.6192398071
intensity: 31.9117145538
---
header: 
  seq: 771160
  stamp: 
    secs: 1561867339
    nsecs: 706917099
  frame_id: "ti_mmwave"
point_id: 2
x: 0.029296875
y: -0.119140625
z: -0.005859375
range: 0.130730912089
velocity: 0.0
doppler_bin: 8
bearing: -76.1849746704
intensity: 30.1367969513
---
header: 
  seq: 771161
  stamp: 
    secs: 1561867339
    nsecs: 706934368
  frame_id: "ti_mmwave"
point_id: 3
x: 0.056640625
y: -0.154296875
z: 0.005859375
range: 0.174307882786
velocity: 0.0
doppler_bin: 8
bearing: -69.8423843384
intensity: 25.4654273987
---
header: 
  seq: 771162
  stamp: 
    secs: 1561867339
    nsecs: 706959541
  frame_id: "ti_mmwave"
point_id: 4
x: 0.158203125
y: -0.080078125
z: 1.255859375
range: 1.35088610649
velocity: 0.0
doppler_bin: 8
bearing: -26.8472938538
intensity: 23.0535144806
---
header: 
  seq: 771163
  stamp: 
    secs: 1561867339
    nsecs: 706984391
  frame_id: "ti_mmwave"
point_id: 6
x: 0.42578125
y: -0.083984375
z: -1.27734375
range: 1.43804001808
velocity: 0.0
doppler_bin: 8
bearing: -11.1582231522
intensity: 23.0963020325
---
header: 
  seq: 771164
  stamp: 
    secs: 1561867339
    nsecs: 706998272
  frame_id: "ti_mmwave"
point_id: 7
x: 0.533203125
y: -0.04296875
z: -1.283203125
range: 1.48161697388
velocity: 0.0
doppler_bin: 8
bearing: -4.60728597641
intensity: 21.6731739044
---
header: 
  seq: 771165
  stamp: 
    secs: 1561867339
    nsecs: 707089771
  frame_id: "ti_mmwave"
point_id: 8
x: 2.662109375
y: -0.087890625
z: 0.93359375
range: 3.00681090355
velocity: 0.0
doppler_bin: 8
bearing: -1.89095664024
intensity: 28.9597473145
---
header: 
  seq: 771166
  stamp: 
    secs: 1561867339
    nsecs: 707105914
  frame_id: "ti_mmwave"
point_id: 9
x: 2.693359375
y: -0.08984375
z: 0.966796875
range: 3.05038785934
velocity: 0.0
doppler_bin: 8
bearing: -1.91053581238
intensity: 32.1484375
---
header: 
  seq: 771167
  stamp: 
    secs: 1561867339
    nsecs: 707122429
  frame_id: "ti_mmwave"
point_id: 10
x: 2.75390625
y: -0.08984375
z: 0.919921875
range: 3.09396481514
velocity: 0.0
doppler_bin: 8
bearing: -1.86856126785
intensity: 31.0890312195
---
header: 
  seq: 771168
  stamp: 
    secs: 1561867339
    nsecs: 707139225
  frame_id: "ti_mmwave"
point_id: 11
x: 4.39453125
y: -0.287109375
z: 1.26171875
range: 4.88062095642
velocity: 0.0
doppler_bin: 8
bearing: -3.73801183701
intensity: 31.205739975
---
header: 
  seq: 771169
  stamp: 
    secs: 1561867339
    nsecs: 707152462
  frame_id: "ti_mmwave"
point_id: 12
x: 4.439453125
y: -0.14453125
z: 1.279296875
range: 4.9241976738
velocity: 0.0
doppler_bin: 8
bearing: -1.86466813087
intensity: 30.6855697632
---
header: 
  seq: 771170
  stamp: 
    secs: 1561867339
    nsecs: 707165257
  frame_id: "ti_mmwave"
point_id: 13
x: 4.900390625
y: -0.30859375
z: 0.62890625
range: 5.27281332016
velocity: 0.0
doppler_bin: 8
bearing: -3.60334610939
intensity: 31.0174713135
---
header: 
  seq: 771171
  stamp: 
    secs: 1561867339
    nsecs: 707178569
  frame_id: "ti_mmwave"
point_id: 14
x: 4.96875
y: -0.46875
z: -0.044921875
range: 5.31639051437
velocity: 0.0
doppler_bin: 8
bearing: -5.38931179047
intensity: 29.4743366241
---
header: 
  seq: 771172
  stamp: 
    secs: 1561867339
    nsecs: 707197923
  frame_id: "ti_mmwave"
point_id: 15
x: 0.009765625
y: 0.03125
z: 0.025390625
range: 0.0435769706964
velocity: 0.0
doppler_bin: 8
bearing: 72.6459732056
intensity: 29.2890777588
---
header: 
  seq: 771173
  stamp: 
    secs: 1561867339
    nsecs: 707242750
  frame_id: "ti_mmwave"
point_id: 16
x: 0.041015625
y: -0.033203125
z: 0.0625
range: 0.0871539413929
velocity: 0.0
doppler_bin: 8
bearing: -38.9909973145
intensity: 30.0987567902
---
header: 
  seq: 771174
  stamp: 
    secs: 1561867339
    nsecs: 707260492
  frame_id: "ti_mmwave"
point_id: 17
x: 0.044921875
y: -0.046875
z: 0.103515625
range: 0.130730912089
velocity: 0.0
doppler_bin: 8
bearing: -46.218875885
intensity: 29.0145835876
---
header: 
  seq: 771175
  stamp: 
    secs: 1561867339
    nsecs: 708163799
  frame_id: "ti_mmwave"
point_id: 0
x: 0.01171875
y: -0.0390625
z: -0.0078125
range: 0.0435769706964
velocity: 0.0
doppler_bin: 8
bearing: -73.3007583618
intensity: 30.6557979584
---
header: 
  seq: 771176
  stamp: 
    secs: 1561867339
    nsecs: 708209599
  frame_id: "ti_mmwave"
point_id: 1
x: 0.017578125
y: -0.080078125
z: -0.0078125
range: 0.0871539413929
velocity: 0.0
doppler_bin: 8
bearing: -77.6192398071
intensity: 31.9089164734
---
header: 
  seq: 771177
  stamp: 
    secs: 1561867339
    nsecs: 708225254
  frame_id: "ti_mmwave"
point_id: 2
x: 0.029296875
y: -0.119140625
z: -0.005859375
range: 0.130730912089
velocity: 0.0
doppler_bin: 8
bearing: -76.1849746704
intensity: 30.1283721924
---
header: 
  seq: 771178
  stamp: 
    secs: 1561867339
    nsecs: 708238805
  frame_id: "ti_mmwave"
point_id: 3
x: 0.056640625
y: -0.154296875
z: 0.005859375
range: 0.174307882786
velocity: 0.0
doppler_bin: 8
bearing: -69.8423843384
intensity: 25.4530715942
---
header: 
  seq: 771179
  stamp: 
    secs: 1561867339
    nsecs: 708252417
  frame_id: "ti_mmwave"
point_id: 4
x: 0.15234375
y: -0.080078125
z: 1.255859375
range: 1.35088610649
velocity: 0.0
doppler_bin: 8
bearing: -27.7282581329
intensity: 23.0963020325
---
header: 
  seq: 771180
  stamp: 
    secs: 1561867339
    nsecs: 708270031
  frame_id: "ti_mmwave"
point_id: 6
x: 0.41796875
y: -0.083984375
z: -1.28125
range: 1.43804001808
velocity: 0.0
doppler_bin: 8
bearing: -11.3614110947
intensity: 23.0749607086
---
header: 
  seq: 771181
  stamp: 
    secs: 1561867339
    nsecs: 708284713
  frame_id: "ti_mmwave"
point_id: 7
x: 1.697265625
y: 0.052734375
z: -0.263671875
range: 1.83023273945
velocity: 0.0
doppler_bin: 8
bearing: 1.77961862087
intensity: 26.8663635254
---
header: 
  seq: 771182
  stamp: 
    secs: 1561867339
    nsecs: 708299734
  frame_id: "ti_mmwave"
point_id: 8
x: 1.73828125
y: -0.0
z: -0.26953125
range: 1.87380969524
velocity: 0.0
doppler_bin: 8
bearing: -0.0
intensity: 27.7158756256
---
header: 
  seq: 771183
  stamp: 
    secs: 1561867339
    nsecs: 708313151
  frame_id: "ti_mmwave"
point_id: 9
x: 2.630859375
y: -0.17578125
z: 1.005859375
range: 3.00681090355
velocity: 0.0
doppler_bin: 8
bearing: -3.82254433632
intensity: 29.0145835876
---
header: 
  seq: 771184
  stamp: 
    secs: 1561867339
    nsecs: 708332818
  frame_id: "ti_mmwave"
point_id: 10
x: 2.662109375
y: -0.1796875
z: 1.041015625
range: 3.05038785934
velocity: 0.0
doppler_bin: 8
bearing: -3.86150240898
intensity: 32.1932258606
---
header: 
  seq: 771185
  stamp: 
    secs: 1561867339
    nsecs: 708396405
  frame_id: "ti_mmwave"
point_id: 11
x: 2.75390625
y: -0.08984375
z: 0.916015625
range: 3.09396481514
velocity: 0.0
doppler_bin: 8
bearing: -1.86856126785
intensity: 31.1958580017
---
header: 
  seq: 771186
  stamp: 
    secs: 1561867339
    nsecs: 708410333
  frame_id: "ti_mmwave"
point_id: 12
x: 4.400390625
y: -0.142578125
z: 1.107421875
range: 4.83704376221
velocity: 0.0
doppler_bin: 8
bearing: -1.85580503941
intensity: 27.9795970917
---
header: 
  seq: 771187
  stamp: 
    secs: 1561867339
    nsecs: 708425004
  frame_id: "ti_mmwave"
point_id: 13
x: 4.40625
y: -0.142578125
z: 1.244140625
range: 4.88062095642
velocity: 0.0
doppler_bin: 8
bearing: -1.85333895683
intensity: 31.2775249481
---
header: 
  seq: 771188
  stamp: 
    secs: 1561867339
    nsecs: 708438263
  frame_id: "ti_mmwave"
point_id: 14
x: 4.439453125
y: -0.14453125
z: 1.28125
range: 4.9241976738
velocity: 0.0
doppler_bin: 8
bearing: -1.86466813087
intensity: 30.7591171265
---
header: 
  seq: 771189
  stamp: 
    secs: 1561867339
    nsecs: 708451189
  frame_id: "ti_mmwave"
point_id: 15
x: 4.8984375
y: -0.30859375
z: 0.638671875
range: 5.27281332016
velocity: 0.0
doppler_bin: 8
bearing: -3.60477876663
intensity: 30.9516925812
---
header: 
  seq: 771190
  stamp: 
    secs: 1561867339
    nsecs: 708464116
  frame_id: "ti_mmwave"
point_id: 16
x: 4.96875
y: -0.46875
z: 0.046875
range: 5.31639051437
velocity: 0.0
doppler_bin: 8
bearing: -5.38931179047
intensity: 29.5327625275
---
header: 
  seq: 771191
  stamp: 
    secs: 1561867339
    nsecs: 708480720
  frame_id: "ti_mmwave"
point_id: 18
x: 0.041015625
y: -0.033203125
z: 0.0625
range: 0.0871539413929
velocity: 0.0
doppler_bin: 8
bearing: -38.9909973145
intensity: 30.0902576447
---
header: 
  seq: 771192
  stamp: 
    secs: 1561867339
    nsecs: 708510816
  frame_id: "ti_mmwave"
point_id: 19
x: 0.044921875
y: -0.046875
z: 0.103515625
range: 0.130730912089
velocity: 0.0
doppler_bin: 8
bearing: -46.218875885
intensity: 28.9982051849
---
header: 
  seq: 771193
  stamp: 
    secs: 1561867339
    nsecs: 766616481
  frame_id: "ti_mmwave"
point_id: 0
x: 0.01171875
y: -0.0390625
z: -0.0078125
range: 0.0435769706964
velocity: 0.0
doppler_bin: 8
bearing: -73.3007583618
intensity: 30.6595306396
---
header: 
  seq: 771194
  stamp: 
    secs: 1561867339
    nsecs: 766745291
  frame_id: "ti_mmwave"
point_id: 1
x: 0.017578125
y: -0.080078125
z: -0.0078125
range: 0.0871539413929
velocity: 0.0
doppler_bin: 8
bearing: -77.6192398071
intensity: 31.9117145538
---
header: 
  seq: 771195
  stamp: 
    secs: 1561867339
    nsecs: 766767101
  frame_id: "ti_mmwave"
point_id: 2
x: 0.029296875
y: -0.119140625
z: -0.005859375
range: 0.130730912089
velocity: 0.0
doppler_bin: 8
bearing: -76.1849746704
intensity: 30.1325874329
---
header: 
  seq: 771196
  stamp: 
    secs: 1561867339
    nsecs: 766784672
  frame_id: "ti_mmwave"
point_id: 3
x: 0.056640625
y: -0.154296875
z: 0.005859375
range: 0.174307882786
velocity: 0.0
doppler_bin: 8
bearing: -69.8423843384
intensity: 25.4530715942
---
header: 
  seq: 771197
  stamp: 
    secs: 1561867339
    nsecs: 766837426
  frame_id: "ti_mmwave"
point_id: 4
x: 0.126953125
y: -0.080078125
z: 1.259765625
range: 1.35088610649
velocity: 0.0
doppler_bin: 8
bearing: -32.2424697876
intensity: 23.138671875
---
header: 
  seq: 771198
  stamp: 
    secs: 1561867339
    nsecs: 766908649
  frame_id: "ti_mmwave"
point_id: 6
x: 0.40234375
y: -0.083984375
z: -1.28515625
range: 1.43804001808
velocity: 0.0
doppler_bin: 8
bearing: -11.7905015945
intensity: 23.0535144806
---
header: 
  seq: 771199
  stamp: 
    secs: 1561867339
    nsecs: 766926032
  frame_id: "ti_mmwave"
point_id: 7
x: 0.583984375
y: -0.04296875
z: -1.26171875
range: 1.48161697388
velocity: 0.0
doppler_bin: 8
bearing: -4.20815992355
intensity: 21.7026176453
---
header: 
  seq: 771200
  stamp: 
    secs: 1561867339
    nsecs: 766946334
  frame_id: "ti_mmwave"
point_id: 8
x: 1.546875
y: -0.048828125
z: -0.13671875
range: 1.65592491627
velocity: 0.0
doppler_bin: 8
bearing: -1.80797839165
intensity: 26.5609817505
---
header: 
  seq: 771201
  stamp: 
    secs: 1561867339
    nsecs: 766960802
  frame_id: "ti_mmwave"
point_id: 9
x: 1.69140625
y: -0.052734375
z: -0.296875
range: 1.83023273945
velocity: 0.0
doppler_bin: 8
bearing: -1.78577959538
intensity: 28.3695678711
---
header: 
  seq: 771202
  stamp: 
    secs: 1561867339
    nsecs: 766976736
  frame_id: "ti_mmwave"
point_id: 10
x: 1.732421875
y: -0.0546875
z: -0.3046875
range: 1.87380969524
velocity: 0.0
doppler_bin: 8
bearing: -1.80806016922
intensity: 29.9166908264
---
header: 
  seq: 771203
  stamp: 
    secs: 1561867339
    nsecs: 766990824
  frame_id: "ti_mmwave"
point_id: 11
x: 1.767578125
y: -0.11328125
z: -0.3203125
range: 1.91738677025
velocity: 0.0
doppler_bin: 8
bearing: -3.66697955132
intensity: 28.1023254395
---
header: 
  seq: 771204
  stamp: 
    secs: 1561867339
    nsecs: 767034528
  frame_id: "ti_mmwave"
point_id: 12
x: 2.611328125
y: -0.17578125
z: 1.056640625
range: 3.00681090355
velocity: 0.0
doppler_bin: 8
bearing: -3.85104894638
intensity: 29.127532959
---
header: 
  seq: 771205
  stamp: 
    secs: 1561867339
    nsecs: 767050939
  frame_id: "ti_mmwave"
point_id: 13
x: 2.69140625
y: -0.08984375
z: 0.97265625
range: 3.05038785934
velocity: 0.0
doppler_bin: 8
bearing: -1.91192126274
intensity: 32.2193565369
---
header: 
  seq: 771206
  stamp: 
    secs: 1561867339
    nsecs: 767064819
  frame_id: "ti_mmwave"
point_id: 14
x: 2.7578125
y: -0.08984375
z: 0.904296875
range: 3.09396481514
velocity: 0.0
doppler_bin: 8
bearing: -1.86591637135
intensity: 31.2483005524
---
header: 
  seq: 771207
  stamp: 
    secs: 1561867339
    nsecs: 767080934
  frame_id: "ti_mmwave"
point_id: 15
x: 4.3984375
y: -0.142578125
z: 1.271484375
range: 4.88062095642
velocity: 0.0
doppler_bin: 8
bearing: -1.8566287756
intensity: 31.2742881775
---
header: 
  seq: 771208
  stamp: 
    secs: 1561867339
    nsecs: 767096209
  frame_id: "ti_mmwave"
point_id: 16
x: 4.43359375
y: -0.14453125
z: 1.298828125
range: 4.9241976738
velocity: 0.0
doppler_bin: 8
bearing: -1.86713063717
intensity: 30.8134727478
---
header: 
  seq: 771209
  stamp: 
    secs: 1561867339
    nsecs: 767124606
  frame_id: "ti_mmwave"
point_id: 17
x: 4.8984375
y: -0.30859375
z: 0.638671875
range: 5.27281332016
velocity: 0.0
doppler_bin: 8
bearing: -3.60477876663
intensity: 30.788192749
---
header: 
  seq: 771210
  stamp: 
    secs: 1561867339
    nsecs: 767200205
  frame_id: "ti_mmwave"
point_id: 18
x: 0.009765625
y: 0.03125
z: 0.025390625
range: 0.0435769706964
velocity: 0.0
doppler_bin: 8
bearing: 72.6459732056
intensity: 29.2839584351
---
header: 
  seq: 771211
  stamp: 
    secs: 1561867339
    nsecs: 767216324
  frame_id: "ti_mmwave"
point_id: 19
x: 0.041015625
y: -0.033203125
z: 0.0625
range: 0.0871539413929
velocity: 0.0
doppler_bin: 8
bearing: -38.9909973145
intensity: 30.1029987335
---
header: 
  seq: 771212
  stamp: 
    secs: 1561867339
    nsecs: 767231172
  frame_id: "ti_mmwave"
point_id: 20
x: 0.044921875
y: -0.046875
z: 0.103515625
range: 0.130730912089
velocity: 0.0
doppler_bin: 8
bearing: -46.218875885
intensity: 29.0145835876
---
header: 
  seq: 771213
  stamp: 
    secs: 1561867339
    nsecs: 768114535
  frame_id: "ti_mmwave"
point_id: 0
x: 0.01171875
y: -0.0390625
z: -0.0078125
range: 0.0435769706964
velocity: 0.0
doppler_bin: 8
bearing: -73.3007583618
intensity: 30.6557979584
---
header: 
  seq: 771214
  stamp: 
    secs: 1561867339
    nsecs: 768157459
  frame_id: "ti_mmwave"
point_id: 1
x: 0.017578125
y: -0.080078125
z: -0.0078125
range: 0.0871539413929
velocity: 0.0
doppler_bin: 8
bearing: -77.6192398071
intensity: 31.9061183929
---
header: 
  seq: 771215
  stamp: 
    secs: 1561867339
    nsecs: 768193872
  frame_id: "ti_mmwave"
point_id: 2
x: 0.029296875
y: -0.119140625
z: -0.005859375
range: 0.130730912089
velocity: 0.0
doppler_bin: 8
bearing: -76.1849746704
intensity: 30.1241531372
---
header: 
  seq: 771216
  stamp: 
    secs: 1561867339
    nsecs: 768219683
  frame_id: "ti_mmwave"
point_id: 3
x: 0.056640625
y: -0.154296875
z: 0.0078125
range: 0.174307882786
velocity: 0.0
doppler_bin: 8
bearing: -69.8423843384
intensity: 25.4406795502
---
header: 
  seq: 771217
  stamp: 
    secs: 1561867339
    nsecs: 768242056
  frame_id: "ti_mmwave"
point_id: 4
x: 0.1640625
y: -0.080078125
z: 1.255859375
range: 1.35088610649
velocity: 0.0
doppler_bin: 8
bearing: -26.0167827606
intensity: 23.0963020325
---
header: 
  seq: 771218
  stamp: 
    secs: 1561867339
    nsecs: 768299672
  frame_id: "ti_mmwave"
point_id: 5
x: 0.08984375
y: -0.08203125
z: 1.302734375
range: 1.39446306229
velocity: 0.0
doppler_bin: 8
bearing: -42.3974380493
intensity: 24.6538276672
---
header: 
  seq: 771219
  stamp: 
    secs: 1561867339
    nsecs: 768313459
  frame_id: "ti_mmwave"
point_id: 6
x: 0.400390625
y: -0.083984375
z: -1.287109375
range: 1.43804001808
velocity: 0.0
doppler_bin: 8
bearing: -11.8463935852
intensity: 23.138671875
---
header: 
  seq: 771220
  stamp: 
    secs: 1561867339
    nsecs: 768327856
  frame_id: "ti_mmwave"
point_id: 7
x: 0.46875
y: -0.04296875
z: -1.30859375
range: 1.48161697388
velocity: 0.0
doppler_bin: 8
bearing: -5.23747634888
intensity: 21.7609119415
---
header: 
  seq: 771221
  stamp: 
    secs: 1561867339
    nsecs: 768340994
  frame_id: "ti_mmwave"
point_id: 8
x: 1.513671875
y: -0.0
z: -0.029296875
range: 1.61234796047
velocity: 0.0
doppler_bin: 8
bearing: -0.0
intensity: 26.812412262
---
header: 
  seq: 771222
  stamp: 
    secs: 1561867339
    nsecs: 768350726
  frame_id: "ti_mmwave"
point_id: 9
x: 1.552734375
y: 0.048828125
z: -0.037109375
range: 1.65592491627
velocity: 0.0
doppler_bin: 8
bearing: 1.80116057396
intensity: 27.1850166321
---
header: 
  seq: 771223
  stamp: 
    secs: 1561867339
    nsecs: 768395657
  frame_id: "ti_mmwave"
point_id: 10
x: 1.681640625
y: -0.1640625
z: -0.48828125
range: 1.87380969524
velocity: 0.0
doppler_bin: 8
bearing: -5.57219743729
intensity: 28.5125827789
---
header: 
  seq: 771224
  stamp: 
    secs: 1561867339
    nsecs: 768412865
  frame_id: "ti_mmwave"
point_id: 11
x: 1.708984375
y: -0.16796875
z: -0.541015625
range: 1.91738677025
velocity: 0.0
doppler_bin: 8
bearing: -5.61332798004
intensity: 26.8304710388
---
header: 
  seq: 771225
  stamp: 
    secs: 1561867339
    nsecs: 768426063
  frame_id: "ti_mmwave"
point_id: 12
x: 2.62890625
y: -0.17578125
z: 1.013671875
range: 3.00681090355
velocity: 0.0
doppler_bin: 8
bearing: -3.82537555695
intensity: 29.0579586029
---
header: 
  seq: 771226
  stamp: 
    secs: 1561867339
    nsecs: 768435106
  frame_id: "ti_mmwave"
point_id: 13
x: 2.69140625
y: -0.08984375
z: 0.97265625
range: 3.05038785934
velocity: 0.0
doppler_bin: 8
bearing: -1.91192126274
intensity: 32.1932258606
---
header: 
  seq: 771227
  stamp: 
    secs: 1561867339
    nsecs: 768483761
  frame_id: "ti_mmwave"
point_id: 14
x: 2.75390625
y: -0.08984375
z: 0.919921875
range: 3.09396481514
velocity: 0.0
doppler_bin: 8
bearing: -1.86856126785
intensity: 31.2319812775
---
header: 
  seq: 771228
  stamp: 
    secs: 1561867339
    nsecs: 768498872
  frame_id: "ti_mmwave"
point_id: 15
x: 4.404296875
y: -0.142578125
z: 1.25390625
range: 4.88062095642
velocity: 0.0
doppler_bin: 8
bearing: -1.85416030884
intensity: 31.2417812347
---
header: 
  seq: 771229
  stamp: 
    secs: 1561867339
    nsecs: 768511741
  frame_id: "ti_mmwave"
point_id: 16
x: 4.43359375
y: -0.14453125
z: 1.296875
range: 4.9241976738
velocity: 0.0
doppler_bin: 8
bearing: -1.86713063717
intensity: 30.6744289398
---
header: 
  seq: 771230
  stamp: 
    secs: 1561867339
    nsecs: 768524957
  frame_id: "ti_mmwave"
point_id: 17
x: 4.8984375
y: -0.30859375
z: 0.634765625
range: 5.27281332016
velocity: 0.0
doppler_bin: 8
bearing: -3.60477876663
intensity: 31.0380363464
---
header: 
  seq: 771231
  stamp: 
    secs: 1561867339
    nsecs: 768541302
  frame_id: "ti_mmwave"
point_id: 18
x: 4.96875
y: -0.46875
z: -0.056640625
range: 5.31639051437
velocity: 0.0
doppler_bin: 8
bearing: -5.38931179047
intensity: 29.3348731995
---
header: 
  seq: 771232
  stamp: 
    secs: 1561867339
    nsecs: 768591015
  frame_id: "ti_mmwave"
point_id: 19
x: 0.009765625
y: 0.03125
z: 0.025390625
range: 0.0435769706964
velocity: 0.0
doppler_bin: 8
bearing: 72.6459732056
intensity: 29.2890777588
---
header: 
  seq: 771233
  stamp: 
    secs: 1561867339
    nsecs: 768605547
  frame_id: "ti_mmwave"
point_id: 20
x: 0.041015625
y: -0.033203125
z: 0.0625
range: 0.0871539413929
velocity: 0.0
doppler_bin: 8
bearing: -38.9909973145
intensity: 30.0987567902
---
header: 
  seq: 771234
  stamp: 
    secs: 1561867339
    nsecs: 768621524
  frame_id: "ti_mmwave"
point_id: 21
x: 0.044921875
y: -0.046875
z: 0.103515625
range: 0.130730912089
velocity: 0.0
doppler_bin: 8
bearing: -46.218875885
intensity: 29.0145835876
---
header: 
  seq: 771235
  stamp: 
    secs: 1561867339
    nsecs: 768637874
  frame_id: "ti_mmwave"
point_id: 23
x: 0.50390625
y: 0.58203125
z: 1.349609375
range: 1.65592491627
velocity: 0.0
doppler_bin: 8
bearing: 49.114906311
intensity: 25.0920257568
---
header: 
  seq: 771236
  stamp: 
    secs: 1561867339
    nsecs: 826958893
  frame_id: "ti_mmwave"
point_id: 0
x: 0.01171875
y: -0.0390625
z: -0.0078125
range: 0.0435769706964
velocity: 0.0
doppler_bin: 8
bearing: -73.3007583618
intensity: 30.6595306396
---
header: 
  seq: 771237
  stamp: 
    secs: 1561867339
    nsecs: 827035622
  frame_id: "ti_mmwave"
point_id: 1
x: 0.017578125
y: -0.080078125
z: -0.0078125
range: 0.0871539413929
velocity: 0.0
doppler_bin: 8
bearing: -77.6192398071
intensity: 31.9089164734
---
header: 
  seq: 771238
  stamp: 
    secs: 1561867339
    nsecs: 827046895
  frame_id: "ti_mmwave"
point_id: 2
x: 0.029296875
y: -0.119140625
z: -0.005859375
range: 0.130730912089
velocity: 0.0
doppler_bin: 8
bearing: -76.1849746704
intensity: 30.1283721924
---
header: 
  seq: 771239
  stamp: 
    secs: 1561867339
    nsecs: 827055732
  frame_id: "ti_mmwave"
point_id: 3
x: 0.056640625
y: -0.154296875
z: 0.005859375
range: 0.174307882786
velocity: 0.0
doppler_bin: 8
bearing: -69.8423843384
intensity: 25.4530715942
---
header: 
  seq: 771240
  stamp: 
    secs: 1561867339
    nsecs: 827067766
  frame_id: "ti_mmwave"
point_id: 4
x: 0.103515625
y: -0.080078125
z: 1.26171875
range: 1.35088610649
velocity: 0.0
doppler_bin: 8
bearing: -37.7249946594
intensity: 23.138671875
---
header: 
  seq: 771241
  stamp: 
    secs: 1561867339
    nsecs: 827077917
  frame_id: "ti_mmwave"
point_id: 6
x: 0.423828125
y: -0.083984375
z: -1.279296875
range: 1.43804001808
velocity: 0.0
doppler_bin: 8
bearing: -11.2083444595
intensity: 23.1597042084
---
header: 
  seq: 771242
  stamp: 
    secs: 1561867339
    nsecs: 827086153
  frame_id: "ti_mmwave"
point_id: 7
x: 1.51171875
y: -0.046875
z: -0.05859375
range: 1.61234796047
velocity: 0.0
doppler_bin: 8
bearing: -1.77604424953
intensity: 27.6417617798
---
header: 
  seq: 771243
  stamp: 
    secs: 1561867339
    nsecs: 827094319
  frame_id: "ti_mmwave"
point_id: 8
x: 1.552734375
y: -0.0
z: -0.060546875
range: 1.65592491627
velocity: 0.0
doppler_bin: 8
bearing: -0.0
intensity: 29.0417442322
---
header: 
  seq: 771244
  stamp: 
    secs: 1561867339
    nsecs: 827102134
  frame_id: "ti_mmwave"
point_id: 9
x: 1.591796875
y: -0.05078125
z: -0.08984375
range: 1.69950187206
velocity: 0.0
doppler_bin: 8
bearing: -1.82722115517
intensity: 27.1516742706
---
header: 
  seq: 771245
  stamp: 
    secs: 1561867339
    nsecs: 827110474
  frame_id: "ti_mmwave"
point_id: 10
x: 1.7421875
y: 0.0546875
z: -0.240234375
range: 1.87380969524
velocity: 0.0
doppler_bin: 8
bearing: 1.79793179035
intensity: 26.6745300293
---
header: 
  seq: 771246
  stamp: 
    secs: 1561867339
    nsecs: 827118785
  frame_id: "ti_mmwave"
point_id: 11
x: 2.658203125
y: -0.087890625
z: 0.943359375
range: 3.00681090355
velocity: 0.0
doppler_bin: 8
bearing: -1.89373338223
intensity: 29.020029068
---
header: 
  seq: 771247
  stamp: 
    secs: 1561867339
    nsecs: 827127963
  frame_id: "ti_mmwave"
point_id: 12
x: 2.69140625
y: -0.08984375
z: 0.97265625
range: 3.05038785934
velocity: 0.0
doppler_bin: 8
bearing: -1.91192126274
intensity: 32.2063102722
---
header: 
  seq: 771248
  stamp: 
    secs: 1561867339
    nsecs: 827139117
  frame_id: "ti_mmwave"
point_id: 13
x: 2.75390625
y: -0.08984375
z: 0.916015625
range: 3.09396481514
velocity: 0.0
doppler_bin: 8
bearing: -1.86856126785
intensity: 31.1859531403
---
header: 
  seq: 771249
  stamp: 
    secs: 1561867339
    nsecs: 827147910
  frame_id: "ti_mmwave"
point_id: 14
x: 4.39453125
y: -0.142578125
z: 1.134765625
range: 4.83704376221
velocity: 0.0
doppler_bin: 8
bearing: -1.8582777977
intensity: 27.8958072662
---
header: 
  seq: 771250
  stamp: 
    secs: 1561867339
    nsecs: 827158503
  frame_id: "ti_mmwave"
point_id: 15
x: 4.388671875
y: -0.287109375
z: 1.28515625
range: 4.88062095642
velocity: 0.0
doppler_bin: 8
bearing: -3.74298858643
intensity: 31.1991539001
---
header: 
  seq: 771251
  stamp: 
    secs: 1561867339
    nsecs: 827315645
  frame_id: "ti_mmwave"
point_id: 16
x: 4.43359375
y: -0.14453125
z: 1.30078125
range: 4.9241976738
velocity: 0.0
doppler_bin: 8
bearing: -1.86713063717
intensity: 30.7114524841
---
header: 
  seq: 771252
  stamp: 
    secs: 1561867339
    nsecs: 827334455
  frame_id: "ti_mmwave"
point_id: 17
x: 4.8984375
y: -0.30859375
z: 0.646484375
range: 5.27281332016
velocity: 0.0
doppler_bin: 8
bearing: -3.60477876663
intensity: 30.8421859741
---
header: 
  seq: 771253
  stamp: 
    secs: 1561867339
    nsecs: 827343183
  frame_id: "ti_mmwave"
point_id: 18
x: 0.009765625
y: 0.03125
z: 0.025390625
range: 0.0435769706964
velocity: 0.0
doppler_bin: 8
bearing: 72.6459732056
intensity: 29.2941894531
---
header: 
  seq: 771254
  stamp: 
    secs: 1561867339
    nsecs: 827354861
  frame_id: "ti_mmwave"
point_id: 19
x: 0.041015625
y: -0.033203125
z: 0.0625
range: 0.0871539413929
velocity: 0.0
doppler_bin: 8
bearing: -38.9909973145
intensity: 30.0987567902
---
header: 
  seq: 771255
  stamp: 
    secs: 1561867339
    nsecs: 827360345
  frame_id: "ti_mmwave"
point_id: 20
x: 0.046875
y: -0.046875
z: 0.103515625
range: 0.130730912089
velocity: 0.0
doppler_bin: 8
bearing: -45.0
intensity: 29.0091304779
---
header: 
  seq: 771256
  stamp: 
    secs: 1561867339
    nsecs: 886585071
  frame_id: "ti_mmwave"
point_id: 0
x: 0.01171875
y: -0.0390625
z: -0.0078125
range: 0.0435769706964
velocity: 0.0
doppler_bin: 8
bearing: -73.3007583618
intensity: 30.6445808411
---
header: 
  seq: 771257
  stamp: 
    secs: 1561867339
    nsecs: 886678293
  frame_id: "ti_mmwave"
point_id: 1
x: 0.017578125
y: -0.080078125
z: -0.0078125
range: 0.0871539413929
velocity: 0.0
doppler_bin: 8
bearing: -77.6192398071
intensity: 31.9061183929
---
header: 
  seq: 771258
  stamp: 
    secs: 1561867339
    nsecs: 886697913
  frame_id: "ti_mmwave"
point_id: 2
x: 0.029296875
y: -0.119140625
z: -0.005859375
range: 0.130730912089
velocity: 0.0
doppler_bin: 8
bearing: -76.1849746704
intensity: 30.1283721924
---
header: 
  seq: 771259
  stamp: 
    secs: 1561867339
    nsecs: 886710070
  frame_id: "ti_mmwave"
point_id: 3
x: 0.056640625
y: -0.154296875
z: 0.0078125
range: 0.174307882786
velocity: 0.0
doppler_bin: 8
bearing: -69.8423843384
intensity: 25.4406795502
---
header: 
  seq: 771260
  stamp: 
    secs: 1561867339
    nsecs: 886725563
  frame_id: "ti_mmwave"
point_id: 4
x: 0.087890625
y: -0.080078125
z: 1.26171875
range: 1.35088610649
velocity: 0.0
doppler_bin: 8
bearing: -42.3369979858
intensity: 23.1175384521
---
header: 
  seq: 771261
  stamp: 
    secs: 1561867339
    nsecs: 886741000
  frame_id: "ti_mmwave"
point_id: 6
x: 0.4296875
y: -0.083984375
z: -1.27734375
range: 1.43804001808
velocity: 0.0
doppler_bin: 8
bearing: -11.0592975616
intensity: 23.031961441
---
header: 
  seq: 771262
  stamp: 
    secs: 1561867339
    nsecs: 886836723
  frame_id: "ti_mmwave"
point_id: 7
x: 0.568359375
y: -0.04296875
z: -1.267578125
range: 1.48161697388
velocity: 0.0
doppler_bin: 8
bearing: -4.32341527939
intensity: 21.6435279846
---
header: 
  seq: 771263
  stamp: 
    secs: 1561867339
    nsecs: 886855877
  frame_id: "ti_mmwave"
point_id: 8
x: 1.740234375
y: -0.220703125
z: -0.123046875
range: 1.87380969524
velocity: 0.0
doppler_bin: 8
bearing: -7.22788143158
intensity: 27.3559894562
---
header: 
  seq: 771264
  stamp: 
    secs: 1561867339
    nsecs: 886873056
  frame_id: "ti_mmwave"
point_id: 9
x: 2.6171875
y: -0.17578125
z: 1.041015625
range: 3.00681090355
velocity: 0.0
doppler_bin: 8
bearing: -3.84245300293
intensity: 29.0091304779
---
header: 
  seq: 771265
  stamp: 
    secs: 1561867339
    nsecs: 886888992
  frame_id: "ti_mmwave"
point_id: 10
x: 2.689453125
y: -0.08984375
z: 0.982421875
range: 3.05038785934
velocity: 0.0
doppler_bin: 8
bearing: -1.91330885887
intensity: 32.1853561401
---
header: 
  seq: 771266
  stamp: 
    secs: 1561867339
    nsecs: 886904390
  frame_id: "ti_mmwave"
point_id: 11
x: 2.76953125
y: -0.0
z: 0.873046875
range: 3.09396481514
velocity: 0.0
doppler_bin: 8
bearing: -0.0
intensity: 31.1260509491
---
header: 
  seq: 771267
  stamp: 
    secs: 1561867339
    nsecs: 886922725
  frame_id: "ti_mmwave"
point_id: 12
x: 4.3984375
y: -0.142578125
z: 1.12109375
range: 4.83704376221
velocity: 0.0
doppler_bin: 8
bearing: -1.8566287756
intensity: 27.9448795319
---
header: 
  seq: 771268
  stamp: 
    secs: 1561867339
    nsecs: 886932950
  frame_id: "ti_mmwave"
point_id: 13
x: 4.40625
y: -0.142578125
z: 1.248046875
range: 4.88062095642
velocity: 0.0
doppler_bin: 8
bearing: -1.85333895683
intensity: 31.2548122406
---
header: 
  seq: 771269
  stamp: 
    secs: 1561867339
    nsecs: 886972382
  frame_id: "ti_mmwave"
point_id: 14
x: 4.439453125
y: -0.14453125
z: 1.279296875
range: 4.9241976738
velocity: 0.0
doppler_bin: 8
bearing: -1.86466813087
intensity: 30.8206691742
---
header: 
  seq: 771270
  stamp: 
    secs: 1561867339
    nsecs: 886999354
  frame_id: "ti_mmwave"
point_id: 15
x: 4.8984375
y: -0.30859375
z: 0.634765625
range: 5.27281332016
velocity: 0.0
doppler_bin: 8
bearing: -3.60477876663
intensity: 30.9447116852
---
header: 
  seq: 771271
  stamp: 
    secs: 1561867339
    nsecs: 887026622
  frame_id: "ti_mmwave"
point_id: 16
x: 4.951171875
y: -0.623046875
z: -0.00390625
range: 5.31639051437
velocity: 0.0
doppler_bin: 8
bearing: -7.17230129242
intensity: 29.6047077179
---
header: 
  seq: 771272
  stamp: 
    secs: 1561867339
    nsecs: 887121284
  frame_id: "ti_mmwave"
point_id: 18
x: 0.041015625
y: -0.033203125
z: 0.0625
range: 0.0871539413929
velocity: 0.0
doppler_bin: 8
bearing: -38.9909973145
intensity: 30.0945091248
---
header: 
  seq: 771273
  stamp: 
    secs: 1561867339
    nsecs: 887140594
  frame_id: "ti_mmwave"
point_id: 19
x: 0.044921875
y: -0.046875
z: 0.103515625
range: 0.130730912089
velocity: 0.0
doppler_bin: 8
bearing: -46.218875885
intensity: 29.0036716461
---
header: 
  seq: 771274
  stamp: 
    secs: 1561867339
    nsecs: 887162480
  frame_id: "ti_mmwave"
point_id: 21
x: 1.228515625
y: 0.330078125
z: -1.21484375
range: 1.87380969524
velocity: 0.0
doppler_bin: 8
bearing: 15.0390844345
intensity: 24.3775062561
---
header: 
  seq: 771275
  stamp: 
    secs: 1561867339
    nsecs: 888276701
  frame_id: "ti_mmwave"
point_id: 0
x: 0.01171875
y: -0.0390625
z: -0.0078125
range: 0.0435769706964
velocity: 0.0
doppler_bin: 8
bearing: -73.3007583618
intensity: 30.6595306396
---
header: 
  seq: 771276
  stamp: 
    secs: 1561867339
    nsecs: 888315867
  frame_id: "ti_mmwave"
point_id: 1
x: 0.017578125
y: -0.080078125
z: -0.0078125
range: 0.0871539413929
velocity: 0.0
doppler_bin: 8
bearing: -77.6192398071
intensity: 31.9089164734
---
header: 
  seq: 771277
  stamp: 
    secs: 1561867339
    nsecs: 888325856
  frame_id: "ti_mmwave"
point_id: 2
x: 0.029296875
y: -0.119140625
z: -0.005859375
range: 0.130730912089
velocity: 0.0
doppler_bin: 8
bearing: -76.1849746704
intensity: 30.1283721924
---
header: 
  seq: 771278
  stamp: 
    secs: 1561867339
    nsecs: 888334333
  frame_id: "ti_mmwave"
point_id: 3
x: 0.056640625
y: -0.154296875
z: 0.005859375
range: 0.174307882786
velocity: 0.0
doppler_bin: 8
bearing: -69.8423843384
intensity: 25.4530715942
---
header: 
  seq: 771279
  stamp: 
    secs: 1561867339
    nsecs: 888342418
  frame_id: "ti_mmwave"
point_id: 4
x: 0.12109375
y: -0.080078125
z: 1.259765625
range: 1.35088610649
velocity: 0.0
doppler_bin: 8
bearing: -33.4762802124
intensity: 23.138671875
---
header: 
  seq: 771280
  stamp: 
    secs: 1561867339
    nsecs: 888354546
  frame_id: "ti_mmwave"
point_id: 6
x: 0.396484375
y: -0.083984375
z: -1.287109375
range: 1.43804001808
velocity: 0.0
doppler_bin: 8
bearing: -11.9597616196
intensity: 23.0749607086
---
header: 
  seq: 771281
  stamp: 
    secs: 1561867339
    nsecs: 888362668
  frame_id: "ti_mmwave"
point_id: 7
x: 0.546875
y: -0.04296875
z: -1.27734375
range: 1.48161697388
velocity: 0.0
doppler_bin: 8
bearing: -4.49258184433
intensity: 21.7026176453
---
header: 
  seq: 771282
  stamp: 
    secs: 1561867339
    nsecs: 888370705
  frame_id: "ti_mmwave"
point_id: 8
x: 1.552734375
y: -0.0
z: -0.048828125
range: 1.65592491627
velocity: 0.0
doppler_bin: 8
bearing: -0.0
intensity: 26.6931686401
---
header: 
  seq: 771283
  stamp: 
    secs: 1561867339
    nsecs: 888378820
  frame_id: "ti_mmwave"
point_id: 9
x: 1.689453125
y: 0.052734375
z: -0.30859375
range: 1.83023273945
velocity: 0.0
doppler_bin: 8
bearing: 1.78784263134
intensity: 27.7815132141
---
header: 
  seq: 771284
  stamp: 
    secs: 1561867339
    nsecs: 888386594
  frame_id: "ti_mmwave"
point_id: 10
x: 1.732421875
y: 0.0546875
z: -0.294921875
range: 1.87380969524
velocity: 0.0
doppler_bin: 8
bearing: 1.80806016922
intensity: 28.8536128998
---
header: 
  seq: 771285
  stamp: 
    secs: 1561867339
    nsecs: 888394848
  frame_id: "ti_mmwave"
point_id: 11
x: 1.76953125
y: 0.11328125
z: -0.30859375
range: 1.91738677025
velocity: 0.0
doppler_bin: 8
bearing: 3.66294336319
intensity: 26.7302093506
---
header: 
  seq: 771286
  stamp: 
    secs: 1561867339
    nsecs: 888402835
  frame_id: "ti_mmwave"
point_id: 12
x: 2.61328125
y: -0.17578125
z: 1.052734375
range: 3.00681090355
velocity: 0.0
doppler_bin: 8
bearing: -3.84817934036
intensity: 28.9927310944
---
header: 
  seq: 771287
  stamp: 
    secs: 1561867339
    nsecs: 888412723
  frame_id: "ti_mmwave"
point_id: 13
x: 2.68359375
y: -0.08984375
z: 0.9921875
range: 3.05038785934
velocity: 0.0
doppler_bin: 8
bearing: -1.91748321056
intensity: 32.1695709229
---
header: 
  seq: 771288
  stamp: 
    secs: 1561867339
    nsecs: 888421331
  frame_id: "ti_mmwave"
point_id: 14
x: 2.765625
y: -0.0
z: 0.884765625
range: 3.09396481514
velocity: 0.0
doppler_bin: 8
bearing: -0.0
intensity: 31.1092624664
---
header: 
  seq: 771289
  stamp: 
    secs: 1561867339
    nsecs: 888429737
  frame_id: "ti_mmwave"
point_id: 15
x: 4.39453125
y: -0.142578125
z: 1.1328125
range: 4.83704376221
velocity: 0.0
doppler_bin: 8
bearing: -1.8582777977
intensity: 28.0071716309
---
header: 
  seq: 771290
  stamp: 
    secs: 1561867339
    nsecs: 888437838
  frame_id: "ti_mmwave"
point_id: 16
x: 4.404296875
y: -0.142578125
z: 1.255859375
range: 4.88062095642
velocity: 0.0
doppler_bin: 8
bearing: -1.85416030884
intensity: 31.25806427
---
header: 
  seq: 771291
  stamp: 
    secs: 1561867339
    nsecs: 888517356
  frame_id: "ti_mmwave"
point_id: 17
x: 4.439453125
y: -0.14453125
z: 1.279296875
range: 4.9241976738
velocity: 0.0
doppler_bin: 8
bearing: -1.86466813087
intensity: 30.8314418793
---
header: 
  seq: 771292
  stamp: 
    secs: 1561867339
    nsecs: 888532072
  frame_id: "ti_mmwave"
point_id: 18
x: 4.8984375
y: -0.30859375
z: 0.642578125
range: 5.27281332016
velocity: 0.0
doppler_bin: 8
bearing: -3.60477876663
intensity: 31.332195282
---
header: 
  seq: 771293
  stamp: 
    secs: 1561867339
    nsecs: 888544816
  frame_id: "ti_mmwave"
point_id: 19
x: 4.96875
y: -0.46875
z: -0.001953125
range: 5.31639051437
velocity: 0.0
doppler_bin: 8
bearing: -5.38931179047
intensity: 29.7543182373
---
header: 
  seq: 771294
  stamp: 
    secs: 1561867339
    nsecs: 888558184
  frame_id: "ti_mmwave"
point_id: 20
x: 0.009765625
y: 0.03125
z: 0.025390625
range: 0.0435769706964
velocity: 0.0
doppler_bin: 8
bearing: 72.6459732056
intensity: 29.2941894531
---
header: 
  seq: 771295
  stamp: 
    secs: 1561867339
    nsecs: 888569642
  frame_id: "ti_mmwave"
point_id: 21
x: 0.041015625
y: -0.033203125
z: 0.0625
range: 0.0871539413929
velocity: 0.0
doppler_bin: 8
bearing: -38.9909973145
intensity: 30.0987567902
---
header: 
  seq: 771296
  stamp: 
    secs: 1561867339
    nsecs: 888583214
  frame_id: "ti_mmwave"
point_id: 22
x: 0.044921875
y: -0.046875
z: 0.103515625
range: 0.130730912089
velocity: 0.0
doppler_bin: 8
bearing: -46.218875885
intensity: 29.0091304779
---
header: 
  seq: 771297
  stamp: 
    secs: 1561867339
    nsecs: 888594500
  frame_id: "ti_mmwave"
point_id: 25
x: 1.7734375
y: -0.0
z: -0.30859375
range: 1.91738677025
velocity: 0.0
doppler_bin: 8
bearing: -0.0
intensity: 26.7024593353
---
header: 
  seq: 771298
  stamp: 
    secs: 1561867339
    nsecs: 888602343
  frame_id: "ti_mmwave"
point_id: 26
x: 2.72265625
y: -0.181640625
z: 0.9921875
range: 3.09396481514
velocity: 0.0
doppler_bin: 8
bearing: -3.8168027401
intensity: 31.0856494904
---
header: 
  seq: 771299
  stamp: 
    secs: 1561867339
    nsecs: 946619837
  frame_id: "ti_mmwave"
point_id: 0
x: 0.01171875
y: -0.0390625
z: -0.0078125
range: 0.0435769706964
velocity: 0.0
doppler_bin: 8
bearing: -73.3007583618
intensity: 30.6557979584
---
header: 
  seq: 771300
  stamp: 
    secs: 1561867339
    nsecs: 946721645
  frame_id: "ti_mmwave"
point_id: 1
x: 0.017578125
y: -0.080078125
z: -0.0078125
range: 0.0871539413929
velocity: 0.0
doppler_bin: 8
bearing: -77.6192398071
intensity: 31.9117145538
---
header: 
  seq: 771301
  stamp: 
    secs: 1561867339
    nsecs: 946740128
  frame_id: "ti_mmwave"
point_id: 2
x: 0.029296875
y: -0.119140625
z: -0.005859375
range: 0.130730912089
velocity: 0.0
doppler_bin: 8
bearing: -76.1849746704
intensity: 30.1325874329
---
header: 
  seq: 771302
  stamp: 
    secs: 1561867339
    nsecs: 946754092
  frame_id: "ti_mmwave"
point_id: 3
x: 0.056640625
y: -0.154296875
z: 0.0078125
range: 0.174307882786
velocity: 0.0
doppler_bin: 8
bearing: -69.8423843384
intensity: 25.4654273987
---
header: 
  seq: 771303
  stamp: 
    secs: 1561867339
    nsecs: 946767407
  frame_id: "ti_mmwave"
point_id: 4
x: 0.140625
y: -0.080078125
z: 1.2578125
range: 1.35088610649
velocity: 0.0
doppler_bin: 8
bearing: -29.6591091156
intensity: 23.1175384521
---
header: 
  seq: 771304
  stamp: 
    secs: 1561867339
    nsecs: 946788045
  frame_id: "ti_mmwave"
point_id: 6
x: 0.40234375
y: -0.083984375
z: -1.28515625
range: 1.43804001808
velocity: 0.0
doppler_bin: 8
bearing: -11.7905015945
intensity: 23.138671875
---
header: 
  seq: 771305
  stamp: 
    secs: 1561867339
    nsecs: 946803622
  frame_id: "ti_mmwave"
point_id: 7
x: 0.53125
y: -0.04296875
z: -1.28515625
range: 1.48161697388
velocity: 0.0
doppler_bin: 8
bearing: -4.6241517067
intensity: 21.7318630219
---
header: 
  seq: 771306
  stamp: 
    secs: 1561867339
    nsecs: 946817670
  frame_id: "ti_mmwave"
point_id: 8
x: 1.70703125
y: 0.052734375
z: -0.1953125
range: 1.83023273945
velocity: 0.0
doppler_bin: 8
bearing: 1.76944422722
intensity: 26.5896492004
---
header: 
  seq: 771307
  stamp: 
    secs: 1561867339
    nsecs: 946908742
  frame_id: "ti_mmwave"
point_id: 9
x: 1.744140625
y: 0.0546875
z: -0.22265625
range: 1.87380969524
velocity: 0.0
doppler_bin: 8
bearing: 1.79591965675
intensity: 27.5204849243
---
header: 
  seq: 771308
  stamp: 
    secs: 1561867339
    nsecs: 946924569
  frame_id: "ti_mmwave"
point_id: 10
x: 2.658203125
y: -0.087890625
z: 0.9453125
range: 3.00681090355
velocity: 0.0
doppler_bin: 8
bearing: -1.89373338223
intensity: 28.9817657471
---
header: 
  seq: 771309
  stamp: 
    secs: 1561867339
    nsecs: 946937940
  frame_id: "ti_mmwave"
point_id: 11
x: 2.69921875
y: -0.08984375
z: 0.955078125
range: 3.05038785934
velocity: 0.0
doppler_bin: 8
bearing: -1.90639162064
intensity: 32.2349586487
---
header: 
  seq: 771310
  stamp: 
    secs: 1561867339
    nsecs: 946951611
  frame_id: "ti_mmwave"
point_id: 12
x: 2.76171875
y: -0.08984375
z: 0.892578125
range: 3.09396481514
velocity: 0.0
doppler_bin: 8
bearing: -1.86327898502
intensity: 31.2613143921
---
header: 
