header: 
  seq: 923361
  stamp: 
    secs: 1561867603
    nsecs: 106601912
  frame_id: "ti_mmwave"
point_id: 0
x: 0.01171875
y: -0.0390625
z: -0.0078125
range: 0.0435769706964
velocity: 0.0
doppler_bin: 8
bearing: -73.3007583618
intensity: 30.6445808411
---
header: 
  seq: 923362
  stamp: 
    secs: 1561867603
    nsecs: 106675480
  frame_id: "ti_mmwave"
point_id: 1
x: 0.017578125
y: -0.080078125
z: -0.0078125
range: 0.0871539413929
velocity: 0.0
doppler_bin: 8
bearing: -77.6192398071
intensity: 31.8977088928
---
header: 
  seq: 923363
  stamp: 
    secs: 1561867603
    nsecs: 106686106
  frame_id: "ti_mmwave"
point_id: 2
x: 0.029296875
y: -0.119140625
z: -0.005859375
range: 0.130730912089
velocity: 0.0
doppler_bin: 8
bearing: -76.1849746704
intensity: 30.1157035828
---
header: 
  seq: 923364
  stamp: 
    secs: 1561867603
    nsecs: 106698397
  frame_id: "ti_mmwave"
point_id: 3
x: 0.056640625
y: -0.154296875
z: 0.005859375
range: 0.174307882786
velocity: 0.0
doppler_bin: 8
bearing: -69.8423843384
intensity: 25.4282550812
---
header: 
  seq: 923365
  stamp: 
    secs: 1561867603
    nsecs: 106707097
  frame_id: "ti_mmwave"
point_id: 4
x: 0.126953125
y: -0.080078125
z: 1.259765625
range: 1.35088610649
velocity: 0.0
doppler_bin: 8
bearing: -32.2424697876
intensity: 23.1175384521
---
header: 
  seq: 923366
  stamp: 
    secs: 1561867603
    nsecs: 106717071
  frame_id: "ti_mmwave"
point_id: 6
x: 0.4140625
y: -0.083984375
z: -1.28125
range: 1.43804001808
velocity: 0.0
doppler_bin: 8
bearing: -11.4657688141
intensity: 23.1175384521
---
header: 
  seq: 923367
  stamp: 
    secs: 1561867603
    nsecs: 106725105
  frame_id: "ti_mmwave"
point_id: 7
x: 0.5703125
y: -0.04296875
z: -1.267578125
range: 1.48161697388
velocity: 0.0
doppler_bin: 8
bearing: -4.30866527557
intensity: 21.7609119415
---
header: 
  seq: 923368
  stamp: 
    secs: 1561867603
    nsecs: 106732716
  frame_id: "ti_mmwave"
point_id: 8
x: 1.513671875
y: -0.0
z: 0.01171875
range: 1.61234796047
velocity: 0.0
doppler_bin: 8
bearing: -0.0
intensity: 25.9769515991
---
header: 
  seq: 923369
  stamp: 
    secs: 1561867603
    nsecs: 106740666
  frame_id: "ti_mmwave"
point_id: 9
x: 1.5546875
y: -0.0
z: 0.021484375
range: 1.65592491627
velocity: 0.0
doppler_bin: 8
bearing: -0.0
intensity: 27.8604125977
---
header: 
  seq: 923370
  stamp: 
    secs: 1561867603
    nsecs: 106748603
  frame_id: "ti_mmwave"
point_id: 10
x: 1.66015625
y: 0.21484375
z: -0.390625
range: 1.83023273945
velocity: 0.0
doppler_bin: 8
bearing: 7.37376642227
intensity: 27.7305469513
---
header: 
  seq: 923371
  stamp: 
    secs: 1561867603
    nsecs: 106757042
  frame_id: "ti_mmwave"
point_id: 11
x: 1.701171875
y: 0.275390625
z: -0.3515625
range: 1.87380969524
velocity: 0.0
doppler_bin: 8
bearing: 9.19543457031
intensity: 27.9657440186
---
header: 
  seq: 923372
  stamp: 
    secs: 1561867603
    nsecs: 106766667
  frame_id: "ti_mmwave"
point_id: 12
x: 2.6171875
y: -0.17578125
z: 1.041015625
range: 3.00681090355
velocity: 0.0
doppler_bin: 8
bearing: -3.84245300293
intensity: 29.0036716461
---
header: 
  seq: 923373
  stamp: 
    secs: 1561867603
    nsecs: 106775270
  frame_id: "ti_mmwave"
point_id: 13
x: 2.658203125
y: -0.1796875
z: 1.046875
range: 3.05038785934
velocity: 0.0
doppler_bin: 8
bearing: -3.86716008186
intensity: 32.156375885
---
header: 
  seq: 923374
  stamp: 
    secs: 1561867603
    nsecs: 106783882
  frame_id: "ti_mmwave"
point_id: 14
x: 2.75390625
y: -0.08984375
z: 0.919921875
range: 3.09396481514
velocity: 0.0
doppler_bin: 8
bearing: -1.86856126785
intensity: 31.205739975
---
header: 
  seq: 923375
  stamp: 
    secs: 1561867603
    nsecs: 106792096
  frame_id: "ti_mmwave"
point_id: 15
x: 4.380859375
y: -0.283203125
z: 1.15625
range: 4.83704376221
velocity: 0.0
doppler_bin: 8
bearing: -3.69877147675
intensity: 27.9865055084
---
header: 
  seq: 923376
  stamp: 
    secs: 1561867603
    nsecs: 106800584
  frame_id: "ti_mmwave"
point_id: 16
x: 4.40625
y: -0.142578125
z: 1.248046875
range: 4.88062095642
velocity: 0.0
doppler_bin: 8
bearing: -1.85333895683
intensity: 31.2807598114
---
header: 
  seq: 923377
  stamp: 
    secs: 1561867603
    nsecs: 106809035
  frame_id: "ti_mmwave"
point_id: 17
x: 4.4375
y: -0.14453125
z: 1.287109375
range: 4.9241976738
velocity: 0.0
doppler_bin: 8
bearing: -1.86548817158
intensity: 30.6892757416
---
header: 
  seq: 923378
  stamp: 
    secs: 1561867603
    nsecs: 106818625
  frame_id: "ti_mmwave"
point_id: 18
x: 4.73046875
y: -0.298828125
z: -0.669921875
range: 5.09850549698
velocity: 0.0
doppler_bin: 8
bearing: -3.61462497711
intensity: 30.7773113251
---
header: 
  seq: 923379
  stamp: 
    secs: 1561867603
    nsecs: 106826529
  frame_id: "ti_mmwave"
point_id: 19
x: 4.763671875
y: -0.30078125
z: -0.716796875
range: 5.14208269119
velocity: 0.0
doppler_bin: 8
bearing: -3.61289548874
intensity: 31.5289955139
---
header: 
  seq: 923380
  stamp: 
    secs: 1561867603
    nsecs: 107009000
  frame_id: "ti_mmwave"
point_id: 20
x: 4.892578125
y: -0.30859375
z: 0.6796875
range: 5.27281332016
velocity: 0.0
doppler_bin: 8
bearing: -3.60908436775
intensity: 31.0551013947
---
header: 
  seq: 923381
  stamp: 
    secs: 1561867603
    nsecs: 107028292
  frame_id: "ti_mmwave"
point_id: 21
x: 4.96875
y: -0.46875
z: 0.048828125
range: 5.31639051437
velocity: 0.0
doppler_bin: 8
bearing: -5.38931179047
intensity: 29.689496994
---
header: 
  seq: 923382
  stamp: 
    secs: 1561867603
    nsecs: 107036996
  frame_id: "ti_mmwave"
point_id: 22
x: 0.009765625
y: 0.03125
z: 0.025390625
range: 0.0435769706964
velocity: 0.0
doppler_bin: 8
bearing: 72.6459732056
intensity: 29.2788333893
---
header: 
  seq: 923383
  stamp: 
    secs: 1561867603
    nsecs: 107045397
  frame_id: "ti_mmwave"
point_id: 23
x: 0.041015625
y: -0.033203125
z: 0.0625
range: 0.0871539413929
velocity: 0.0
doppler_bin: 8
bearing: -38.9909973145
intensity: 30.0902576447
---
header: 
  seq: 923384
  stamp: 
    secs: 1561867603
    nsecs: 107053253
  frame_id: "ti_mmwave"
point_id: 24
x: 0.046875
y: -0.046875
z: 0.103515625
range: 0.130730912089
velocity: 0.0
doppler_bin: 8
bearing: -45.0
intensity: 28.9982051849
---
header: 
  seq: 923385
  stamp: 
    secs: 1561867603
    nsecs: 107068174
  frame_id: "ti_mmwave"
point_id: 28
x: 0.982421875
y: -0.375
z: 1.359375
range: 1.83023273945
velocity: 0.0
doppler_bin: 8
bearing: -20.8923435211
intensity: 25.9217681885
---
header: 
  seq: 923386
  stamp: 
    secs: 1561867603
    nsecs: 107076255
  frame_id: "ti_mmwave"
point_id: 29
x: 0.728515625
y: -0.330078125
z: -1.56640625
range: 1.87380969524
velocity: 0.0
doppler_bin: 8
bearing: -24.3744754791
intensity: 26.8841991425
---
header: 
  seq: 923387
  stamp: 
    secs: 1561867603
    nsecs: 107089334
  frame_id: "ti_mmwave"
point_id: 30
x: 4.927734375
y: -0.779296875
z: 0.08203125
range: 5.31639051437
velocity: 0.0
doppler_bin: 8
bearing: -8.98661994934
intensity: 29.5760726929
---
header: 
  seq: 923388
  stamp: 
    secs: 1561867603
    nsecs: 108543888
  frame_id: "ti_mmwave"
point_id: 0
x: 0.01171875
y: -0.0390625
z: -0.0078125
range: 0.0435769706964
velocity: 0.0
doppler_bin: 8
bearing: -73.3007583618
intensity: 30.6408348083
---
header: 
  seq: 923389
  stamp: 
    secs: 1561867603
    nsecs: 108613591
  frame_id: "ti_mmwave"
point_id: 1
x: 0.017578125
y: -0.080078125
z: -0.0078125
range: 0.0871539413929
velocity: 0.0
doppler_bin: 8
bearing: -77.6192398071
intensity: 31.8977088928
---
header: 
  seq: 923390
  stamp: 
    secs: 1561867603
    nsecs: 108631961
  frame_id: "ti_mmwave"
point_id: 2
x: 0.029296875
y: -0.119140625
z: -0.005859375
range: 0.130730912089
velocity: 0.0
doppler_bin: 8
bearing: -76.1849746704
intensity: 30.1199302673
---
header: 
  seq: 923391
  stamp: 
    secs: 1561867603
    nsecs: 108647382
  frame_id: "ti_mmwave"
point_id: 3
x: 0.056640625
y: -0.154296875
z: 0.005859375
range: 0.174307882786
velocity: 0.0
doppler_bin: 8
bearing: -69.8423843384
intensity: 25.4406795502
---
header: 
  seq: 923392
  stamp: 
    secs: 1561867603
    nsecs: 108719935
  frame_id: "ti_mmwave"
point_id: 4
x: 0.169921875
y: -0.080078125
z: 1.25390625
range: 1.35088610649
velocity: 0.0
doppler_bin: 8
bearing: -25.232831955
intensity: 23.0963020325
---
header: 
  seq: 923393
  stamp: 
    secs: 1561867603
    nsecs: 108734128
  frame_id: "ti_mmwave"
point_id: 5
x: 0.08984375
y: -0.08203125
z: 1.302734375
range: 1.39446306229
velocity: 0.0
doppler_bin: 8
bearing: -42.3974380493
intensity: 24.6089782715
---
header: 
  seq: 923394
  stamp: 
    secs: 1561867603
    nsecs: 108747209
  frame_id: "ti_mmwave"
point_id: 6
x: 0.40234375
y: -0.083984375
z: -1.28515625
range: 1.43804001808
velocity: 0.0
doppler_bin: 8
bearing: -11.7905015945
intensity: 23.0535144806
---
header: 
  seq: 923395
  stamp: 
    secs: 1561867603
    nsecs: 108758931
  frame_id: "ti_mmwave"
point_id: 7
x: 0.54296875
y: -0.04296875
z: -1.279296875
range: 1.48161697388
velocity: 0.0
doppler_bin: 8
bearing: -4.52476835251
intensity: 21.6435279846
---
header: 
  seq: 923396
  stamp: 
    secs: 1561867603
    nsecs: 108770281
  frame_id: "ti_mmwave"
point_id: 8
x: 1.701171875
y: -0.0
z: -0.2421875
range: 1.83023273945
velocity: 0.0
doppler_bin: 8
bearing: -0.0
intensity: 28.5186958313
---
header: 
  seq: 923397
  stamp: 
    secs: 1561867603
    nsecs: 108783496
  frame_id: "ti_mmwave"
point_id: 9
x: 1.73046875
y: 0.0546875
z: -0.3125
range: 1.87380969524
velocity: 0.0
doppler_bin: 8
bearing: 1.81009960175
intensity: 29.5472488403
---
header: 
  seq: 923398
  stamp: 
    secs: 1561867603
    nsecs: 108794954
  frame_id: "ti_mmwave"
point_id: 10
x: 1.7734375
y: 0.056640625
z: -0.30078125
range: 1.91738677025
velocity: 0.0
doppler_bin: 8
bearing: 1.8293094635
intensity: 27.1683769226
---
header: 
  seq: 923399
  stamp: 
    secs: 1561867603
    nsecs: 108817447
  frame_id: "ti_mmwave"
point_id: 11
x: 2.625
y: -0.17578125
z: 1.025390625
range: 3.00681090355
velocity: 0.0
doppler_bin: 8
bearing: -3.83105134964
intensity: 29.0579586029
---
header: 
  seq: 923400
  stamp: 
    secs: 1561867603
    nsecs: 108886763
  frame_id: "ti_mmwave"
point_id: 12
x: 2.666015625
y: -0.1796875
z: 1.03125
range: 3.05038785934
velocity: 0.0
doppler_bin: 8
bearing: -3.85586214066
intensity: 32.2323608398
---
header: 
  seq: 923401
  stamp: 
    secs: 1561867603
    nsecs: 108900676
  frame_id: "ti_mmwave"
point_id: 13
x: 2.763671875
y: -0.08984375
z: 0.890625
range: 3.09396481514
velocity: 0.0
doppler_bin: 8
bearing: -1.8619633913
intensity: 31.1793384552
---
header: 
  seq: 923402
  stamp: 
    secs: 1561867603
    nsecs: 108913757
  frame_id: "ti_mmwave"
point_id: 14
x: 4.396484375
y: -0.142578125
z: 1.123046875
range: 4.83704376221
velocity: 0.0
doppler_bin: 8
bearing: -1.85745286942
intensity: 27.9795970917
---
header: 
  seq: 923403
  stamp: 
    secs: 1561867603
    nsecs: 108928047
  frame_id: "ti_mmwave"
point_id: 15
x: 4.408203125
y: -0.142578125
z: 1.240234375
range: 4.88062095642
velocity: 0.0
doppler_bin: 8
bearing: -1.85251843929
intensity: 31.222158432
---
header: 
  seq: 923404
  stamp: 
    secs: 1561867603
    nsecs: 108941204
  frame_id: "ti_mmwave"
point_id: 16
x: 4.439453125
y: -0.14453125
z: 1.279296875
range: 4.9241976738
velocity: 0.0
doppler_bin: 8
bearing: -1.86466813087
intensity: 30.7261753082
---
header: 
  seq: 923405
  stamp: 
    secs: 1561867603
    nsecs: 108954109
  frame_id: "ti_mmwave"
point_id: 17
x: 4.724609375
y: -0.44921875
z: -0.625
range: 5.09850549698
velocity: 0.0
doppler_bin: 8
bearing: -5.43138980865
intensity: 30.8884449005
---
header: 
  seq: 923406
  stamp: 
    secs: 1561867603
    nsecs: 108965947
  frame_id: "ti_mmwave"
point_id: 18
x: 4.765625
y: -0.30078125
z: -0.708984375
range: 5.14208269119
velocity: 0.0
doppler_bin: 8
bearing: -3.61141896248
intensity: 31.6790771484
---
header: 
  seq: 923407
  stamp: 
    secs: 1561867603
    nsecs: 108978215
  frame_id: "ti_mmwave"
point_id: 19
x: 4.892578125
y: -0.30859375
z: 0.67578125
range: 5.27281332016
velocity: 0.0
doppler_bin: 8
bearing: -3.60908436775
intensity: 31.0243377686
---
header: 
  seq: 923408
  stamp: 
    secs: 1561867603
    nsecs: 108991347
  frame_id: "ti_mmwave"
point_id: 20
x: 4.951171875
y: -0.623046875
z: 0.033203125
range: 5.31639051437
velocity: 0.0
doppler_bin: 8
bearing: -7.17230129242
intensity: 29.6754798889
---
header: 
  seq: 923409
  stamp: 
    secs: 1561867603
    nsecs: 109014739
  frame_id: "ti_mmwave"
point_id: 21
x: 0.009765625
y: 0.03125
z: 0.025390625
range: 0.0435769706964
velocity: 0.0
doppler_bin: 8
bearing: 72.6459732056
intensity: 29.2839584351
---
header: 
  seq: 923410
  stamp: 
    secs: 1561867603
    nsecs: 109079939
  frame_id: "ti_mmwave"
point_id: 22
x: 0.041015625
y: -0.033203125
z: 0.0625
range: 0.0871539413929
velocity: 0.0
doppler_bin: 8
bearing: -38.9909973145
intensity: 30.0860023499
---
header: 
  seq: 923411
  stamp: 
    secs: 1561867603
    nsecs: 109097364
  frame_id: "ti_mmwave"
point_id: 23
x: 0.046875
y: -0.046875
z: 0.103515625
range: 0.130730912089
velocity: 0.0
doppler_bin: 8
bearing: -45.0
intensity: 28.9927310944
---
header: 
  seq: 923412
  stamp: 
    secs: 1561867603
    nsecs: 166602611
  frame_id: "ti_mmwave"
point_id: 0
x: 0.01171875
y: -0.0390625
z: -0.0078125
range: 0.0435769706964
velocity: 0.0
doppler_bin: 8
bearing: -73.3007583618
intensity: 30.6408348083
---
header: 
  seq: 923413
  stamp: 
    secs: 1561867603
    nsecs: 166677908
  frame_id: "ti_mmwave"
point_id: 1
x: 0.017578125
y: -0.080078125
z: -0.0078125
range: 0.0871539413929
velocity: 0.0
doppler_bin: 8
bearing: -77.6192398071
intensity: 31.894903183
---
header: 
  seq: 923414
  stamp: 
    secs: 1561867603
    nsecs: 166695764
  frame_id: "ti_mmwave"
point_id: 2
x: 0.029296875
y: -0.119140625
z: -0.005859375
range: 0.130730912089
velocity: 0.0
doppler_bin: 8
bearing: -76.1849746704
intensity: 30.1157035828
---
header: 
  seq: 923415
  stamp: 
    secs: 1561867603
    nsecs: 166709081
  frame_id: "ti_mmwave"
point_id: 3
x: 0.056640625
y: -0.154296875
z: 0.005859375
range: 0.174307882786
velocity: 0.0
doppler_bin: 8
bearing: -69.8423843384
intensity: 25.4406795502
---
header: 
  seq: 923416
  stamp: 
    secs: 1561867603
    nsecs: 166722783
  frame_id: "ti_mmwave"
point_id: 4
x: 0.189453125
y: -0.080078125
z: 1.251953125
range: 1.35088610649
velocity: 0.0
doppler_bin: 8
bearing: -22.9128284454
intensity: 23.1175384521
---
header: 
  seq: 923417
  stamp: 
    secs: 1561867603
    nsecs: 166805472
  frame_id: "ti_mmwave"
point_id: 5
x: 0.10546875
y: -0.08203125
z: 1.302734375
range: 1.39446306229
velocity: 0.0
doppler_bin: 8
bearing: -37.8749847412
intensity: 24.6089782715
---
header: 
  seq: 923418
  stamp: 
    secs: 1561867603
    nsecs: 166823634
  frame_id: "ti_mmwave"
point_id: 6
x: 0.392578125
y: -0.083984375
z: -1.2890625
range: 1.43804001808
velocity: 0.0
doppler_bin: 8
bearing: -12.0752887726
intensity: 23.0749607086
---
header: 
  seq: 923419
  stamp: 
    secs: 1561867603
    nsecs: 166835069
  frame_id: "ti_mmwave"
point_id: 7
x: 0.5390625
y: -0.04296875
z: -1.28125
range: 1.48161697388
velocity: 0.0
doppler_bin: 8
bearing: -4.55741930008
intensity: 21.6731739044
---
header: 
  seq: 923420
  stamp: 
    secs: 1561867603
    nsecs: 166847015
  frame_id: "ti_mmwave"
point_id: 8
x: 1.513671875
y: 0.046875
z: 0.017578125
range: 1.61234796047
velocity: 0.0
doppler_bin: 8
bearing: 1.77375400066
intensity: 25.3019962311
---
header: 
  seq: 923421
  stamp: 
    secs: 1561867603
    nsecs: 166858190
  frame_id: "ti_mmwave"
point_id: 9
x: 1.552734375
y: 0.048828125
z: 0.0390625
range: 1.65592491627
velocity: 0.0
doppler_bin: 8
bearing: 1.80116057396
intensity: 27.4896278381
---
header: 
  seq: 923422
  stamp: 
    secs: 1561867603
    nsecs: 166869971
  frame_id: "ti_mmwave"
point_id: 10
x: 1.65625
y: -0.16015625
z: -0.427734375
range: 1.83023273945
velocity: 0.0
doppler_bin: 8
bearing: -5.52322149277
intensity: 26.7117290497
---
header: 
  seq: 923423
  stamp: 
    secs: 1561867603
    nsecs: 166881019
  frame_id: "ti_mmwave"
point_id: 11
x: 1.662109375
y: -0.220703125
z: -0.53125
range: 1.87380969524
velocity: 0.0
doppler_bin: 8
bearing: -7.56377029419
intensity: 26.812412262
---
header: 
  seq: 923424
  stamp: 
    secs: 1561867603
    nsecs: 166893348
  frame_id: "ti_mmwave"
point_id: 12
x: 2.6171875
y: -0.17578125
z: 1.04296875
range: 3.00681090355
velocity: 0.0
doppler_bin: 8
bearing: -3.84245300293
intensity: 28.9982051849
---
header: 
  seq: 923425
  stamp: 
    secs: 1561867603
    nsecs: 166907198
  frame_id: "ti_mmwave"
point_id: 13
x: 2.66015625
y: -0.1796875
z: 1.04296875
range: 3.05038785934
velocity: 0.0
doppler_bin: 8
bearing: -3.86432933807
intensity: 32.1906051636
---
header: 
  seq: 923426
  stamp: 
    secs: 1561867603
    nsecs: 166922377
  frame_id: "ti_mmwave"
point_id: 14
x: 2.75390625
y: -0.08984375
z: 0.91796875
range: 3.09396481514
velocity: 0.0
doppler_bin: 8
bearing: -1.86856126785
intensity: 31.1527767181
---
header: 
  seq: 923427
  stamp: 
    secs: 1561867603
    nsecs: 166939576
  frame_id: "ti_mmwave"
point_id: 15
x: 4.39453125
y: -0.142578125
z: 1.13671875
range: 4.83704376221
velocity: 0.0
doppler_bin: 8
bearing: -1.8582777977
intensity: 27.9865055084
---
header: 
  seq: 923428
  stamp: 
    secs: 1561867603
    nsecs: 166990065
  frame_id: "ti_mmwave"
point_id: 16
x: 4.40234375
y: -0.142578125
z: 1.2578125
range: 4.88062095642
velocity: 0.0
doppler_bin: 8
bearing: -1.85498249531
intensity: 31.222158432
---
header: 
  seq: 923429
  stamp: 
    secs: 1561867603
    nsecs: 167007656
  frame_id: "ti_mmwave"
point_id: 17
x: 4.4375
y: -0.14453125
z: 1.2890625
range: 4.9241976738
velocity: 0.0
doppler_bin: 8
bearing: -1.86548817158
intensity: 30.7918128967
---
header: 
  seq: 923430
  stamp: 
    secs: 1561867603
    nsecs: 167021832
  frame_id: "ti_mmwave"
point_id: 18
x: 4.740234375
y: -0.298828125
z: -0.58984375
range: 5.09850549698
velocity: 0.0
doppler_bin: 8
bearing: -3.60719799995
intensity: 31.0243377686
---
header: 
  seq: 923431
  stamp: 
    secs: 1561867603
    nsecs: 167034112
  frame_id: "ti_mmwave"
point_id: 19
x: 4.771484375
y: -0.30078125
z: -0.66796875
range: 5.14208269119
velocity: 0.0
doppler_bin: 8
bearing: -3.60699558258
intensity: 31.6583766937
---
header: 
  seq: 923432
  stamp: 
    secs: 1561867603
    nsecs: 167047573
  frame_id: "ti_mmwave"
point_id: 20
x: 4.890625
y: -0.30859375
z: 0.701171875
range: 5.27281332016
velocity: 0.0
doppler_bin: 8
bearing: -3.61052203178
intensity: 30.9864368439
---
header: 
  seq: 923433
  stamp: 
    secs: 1561867603
    nsecs: 167059339
  frame_id: "ti_mmwave"
point_id: 21
x: 4.951171875
y: -0.623046875
z: 0.0625
range: 5.31639051437
velocity: 0.0
doppler_bin: 8
bearing: -7.17230129242
intensity: 29.5182304382
---
header: 
  seq: 923434
  stamp: 
    secs: 1561867603
    nsecs: 167079429
  frame_id: "ti_mmwave"
point_id: 23
x: 0.041015625
y: -0.033203125
z: 0.0625
range: 0.0871539413929
velocity: 0.0
doppler_bin: 8
bearing: -38.9909973145
intensity: 30.0902576447
---
header: 
  seq: 923435
  stamp: 
    secs: 1561867603
    nsecs: 167094274
  frame_id: "ti_mmwave"
point_id: 24
x: 0.044921875
y: -0.046875
z: 0.103515625
range: 0.130730912089
velocity: 0.0
doppler_bin: 8
bearing: -46.218875885
intensity: 28.9982051849
---
header: 
  seq: 923436
  stamp: 
    secs: 1561867603
    nsecs: 167115535
  frame_id: "ti_mmwave"
point_id: 27
x: 0.296875
y: 0.630859375
z: 1.388671875
range: 1.65592491627
velocity: 0.0
doppler_bin: 8
bearing: 64.7988815308
intensity: 24.8144264221
---
header: 
  seq: 923437
  stamp: 
    secs: 1561867603
    nsecs: 167125131
  frame_id: "ti_mmwave"
point_id: 28
x: 1.681640625
y: 0.267578125
z: 0.2265625
range: 1.83023273945
velocity: 0.0
doppler_bin: 8
bearing: 9.04095840454
intensity: 24.3456897736
---
header: 
  seq: 923438
  stamp: 
    secs: 1561867603
    nsecs: 167193585
  frame_id: "ti_mmwave"
point_id: 29
x: 1.681640625
y: 0.330078125
z: 0.39453125
range: 1.87380969524
velocity: 0.0
doppler_bin: 8
bearing: 11.1050300598
intensity: 24.8429985046
---
header: 
  seq: 923439
  stamp: 
    secs: 1561867603
    nsecs: 168313439
  frame_id: "ti_mmwave"
point_id: 0
x: 0.01171875
y: -0.0390625
z: -0.0078125
range: 0.0435769706964
velocity: 0.0
doppler_bin: 8
bearing: -73.3007583618
intensity: 30.6520614624
---
header: 
  seq: 923440
  stamp: 
    secs: 1561867603
    nsecs: 168368236
  frame_id: "ti_mmwave"
point_id: 1
x: 0.017578125
y: -0.080078125
z: -0.0078125
range: 0.0871539413929
velocity: 0.0
doppler_bin: 8
bearing: -77.6192398071
intensity: 31.8977088928
---
header: 
  seq: 923441
  stamp: 
    secs: 1561867603
    nsecs: 168386585
  frame_id: "ti_mmwave"
point_id: 2
x: 0.029296875
y: -0.119140625
z: -0.005859375
range: 0.130730912089
velocity: 0.0
doppler_bin: 8
bearing: -76.1849746704
intensity: 30.1199302673
---
header: 
  seq: 923442
  stamp: 
    secs: 1561867603
    nsecs: 168401710
  frame_id: "ti_mmwave"
point_id: 3
x: 0.056640625
y: -0.154296875
z: 0.005859375
range: 0.174307882786
velocity: 0.0
doppler_bin: 8
bearing: -69.8423843384
intensity: 25.4530715942
---
header: 
  seq: 923443
  stamp: 
    secs: 1561867603
    nsecs: 168471756
  frame_id: "ti_mmwave"
point_id: 4
x: 0.140625
y: -0.080078125
z: 1.2578125
range: 1.35088610649
velocity: 0.0
doppler_bin: 8
bearing: -29.6591091156
intensity: 23.0535144806
---
header: 
  seq: 923444
  stamp: 
    secs: 1561867603
    nsecs: 168489293
  frame_id: "ti_mmwave"
point_id: 6
x: 0.4296875
y: -0.083984375
z: -1.27734375
range: 1.43804001808
velocity: 0.0
doppler_bin: 8
bearing: -11.0592975616
intensity: 23.0963020325
---
header: 
  seq: 923445
  stamp: 
    secs: 1561867603
    nsecs: 168501502
  frame_id: "ti_mmwave"
point_id: 7
x: 0.580078125
y: -0.04296875
z: -1.263671875
range: 1.48161697388
velocity: 0.0
doppler_bin: 8
bearing: -4.2363948822
intensity: 21.7318630219
---
header: 
  seq: 923446
  stamp: 
    secs: 1561867603
    nsecs: 168512111
  frame_id: "ti_mmwave"
point_id: 8
x: 1.552734375
y: 0.048828125
z: -0.01171875
range: 1.65592491627
velocity: 0.0
doppler_bin: 8
bearing: 1.80116057396
intensity: 28.5733242035
---
header: 
  seq: 923447
  stamp: 
    secs: 1561867603
    nsecs: 168522774
  frame_id: "ti_mmwave"
point_id: 9
x: 1.595703125
y: -0.0
z: -0.013671875
range: 1.69950187206
velocity: 0.0
doppler_bin: 8
bearing: -0.0
intensity: 28.8986167908
---
header: 
  seq: 923448
  stamp: 
    secs: 1561867603
    nsecs: 168532756
  frame_id: "ti_mmwave"
point_id: 10
x: 1.63671875
y: -0.0
z: -0.0078125
range: 1.74307882786
velocity: 0.0
doppler_bin: 8
bearing: -0.0
intensity: 26.180480957
---
header: 
  seq: 923449
  stamp: 
    secs: 1561867603
    nsecs: 168540223
  frame_id: "ti_mmwave"
point_id: 11
x: 2.62109375
y: -0.17578125
z: 1.03125
range: 3.00681090355
velocity: 0.0
doppler_bin: 8
bearing: -3.83674383163
intensity: 28.9153747559
---
header: 
  seq: 923450
  stamp: 
    secs: 1561867603
    nsecs: 168598201
  frame_id: "ti_mmwave"
point_id: 12
x: 2.693359375
y: -0.08984375
z: 0.96875
range: 3.05038785934
velocity: 0.0
doppler_bin: 8
bearing: -1.91053581238
intensity: 32.1722068787
---
header: 
  seq: 923451
  stamp: 
    secs: 1561867603
    nsecs: 168611589
  frame_id: "ti_mmwave"
point_id: 13
x: 2.7578125
y: -0.08984375
z: 0.908203125
range: 3.09396481514
velocity: 0.0
doppler_bin: 8
bearing: -1.86591637135
intensity: 31.2385158539
---
header: 
  seq: 923452
  stamp: 
    secs: 1561867603
    nsecs: 168624877
  frame_id: "ti_mmwave"
point_id: 14
x: 4.40625
y: -0.142578125
z: 1.248046875
range: 4.88062095642
velocity: 0.0
doppler_bin: 8
bearing: -1.85333895683
intensity: 31.2645606995
---
header: 
  seq: 923453
  stamp: 
    secs: 1561867603
    nsecs: 168632888
  frame_id: "ti_mmwave"
point_id: 15
x: 4.4375
y: -0.14453125
z: 1.2890625
range: 4.9241976738
velocity: 0.0
doppler_bin: 8
bearing: -1.86548817158
intensity: 30.7298469543
---
header: 
  seq: 923454
  stamp: 
    secs: 1561867603
    nsecs: 168658319
  frame_id: "ti_mmwave"
point_id: 16
x: 4.7578125
y: -0.30078125
z: -0.759765625
range: 5.14208269119
velocity: 0.0
doppler_bin: 8
bearing: -3.61733317375
intensity: 30.3502922058
---
header: 
  seq: 923455
  stamp: 
    secs: 1561867603
    nsecs: 168678098
  frame_id: "ti_mmwave"
point_id: 17
x: 4.890625
y: -0.30859375
z: 0.69140625
range: 5.27281332016
velocity: 0.0
doppler_bin: 8
bearing: -3.61052203178
intensity: 30.9760437012
---
header: 
  seq: 923456
  stamp: 
    secs: 1561867603
    nsecs: 168697002
  frame_id: "ti_mmwave"
point_id: 18
x: 4.96875
y: -0.46875
z: 0.060546875
range: 5.31639051437
velocity: 0.0
doppler_bin: 8
bearing: -5.38931179047
intensity: 29.4001808167
---
header: 
  seq: 923457
  stamp: 
    secs: 1561867603
    nsecs: 168716002
  frame_id: "ti_mmwave"
point_id: 19
x: 1.591796875
y: 0.05078125
z: 0.08203125
range: 1.69950187206
velocity: 0.614668667316
doppler_bin: 9
bearing: 1.82722115517
intensity: 28.9320678711
---
header: 
  seq: 923458
  stamp: 
    secs: 1561867603
    nsecs: 168736881
  frame_id: "ti_mmwave"
point_id: 20
x: 1.6328125
y: 0.05078125
z: 0.08203125
range: 1.74307882786
velocity: 0.614668667316
doppler_bin: 9
bearing: 1.78135192394
intensity: 26.2221393585
---
header: 
  seq: 923459
  stamp: 
    secs: 1561867603
    nsecs: 168806427
  frame_id: "ti_mmwave"
point_id: 22
x: 0.041015625
y: -0.033203125
z: 0.0625
range: 0.0871539413929
velocity: 0.0
doppler_bin: 8
bearing: -38.9909973145
intensity: 30.0902576447
---
header: 
  seq: 923460
  stamp: 
    secs: 1561867603
    nsecs: 168821173
  frame_id: "ti_mmwave"
point_id: 23
x: 0.046875
y: -0.046875
z: 0.103515625
range: 0.130730912089
velocity: 0.0
doppler_bin: 8
bearing: -45.0
intensity: 28.9982051849
---
header: 
  seq: 923461
  stamp: 
    secs: 1561867603
    nsecs: 168834710
  frame_id: "ti_mmwave"
point_id: 25
x: 4.9296875
y: -0.779296875
z: 0.05078125
range: 5.31639051437
velocity: 0.0
doppler_bin: 8
bearing: -8.98311805725
intensity: 29.2788333893
---
header: 
  seq: 923462
  stamp: 
    secs: 1561867603
    nsecs: 226968429
  frame_id: "ti_mmwave"
point_id: 0
x: 0.01171875
y: -0.0390625
z: -0.0078125
range: 0.0435769706964
velocity: 0.0
doppler_bin: 8
bearing: -73.3007583618
intensity: 30.6445808411
---
header: 
  seq: 923463
  stamp: 
    secs: 1561867603
    nsecs: 227040745
  frame_id: "ti_mmwave"
point_id: 1
x: 0.017578125
y: -0.080078125
z: -0.0078125
range: 0.0871539413929
velocity: 0.0
doppler_bin: 8
bearing: -77.6192398071
intensity: 31.894903183
---
header: 
  seq: 923464
  stamp: 
    secs: 1561867603
    nsecs: 227051691
  frame_id: "ti_mmwave"
point_id: 2
x: 0.029296875
y: -0.119140625
z: -0.005859375
range: 0.130730912089
velocity: 0.0
doppler_bin: 8
bearing: -76.1849746704
intensity: 30.1157035828
---
header: 
  seq: 923465
  stamp: 
    secs: 1561867603
    nsecs: 227062076
  frame_id: "ti_mmwave"
point_id: 3
x: 0.056640625
y: -0.154296875
z: 0.005859375
range: 0.174307882786
velocity: 0.0
doppler_bin: 8
bearing: -69.8423843384
intensity: 25.4406795502
---
header: 
  seq: 923466
  stamp: 
    secs: 1561867603
    nsecs: 227072488
  frame_id: "ti_mmwave"
point_id: 4
x: 0.083984375
y: -0.080078125
z: 1.263671875
range: 1.35088610649
velocity: 0.0
doppler_bin: 8
bearing: -43.6360702515
intensity: 23.0963020325
---
header: 
  seq: 923467
  stamp: 
    secs: 1561867603
    nsecs: 227118553
  frame_id: "ti_mmwave"
point_id: 5
x: 0.076171875
y: -0.08203125
z: -1.3046875
range: 1.39446306229
velocity: 0.0
doppler_bin: 8
bearing: -47.1210975647
intensity: 24.6239795685
---
header: 
  seq: 923468
  stamp: 
    secs: 1561867603
    nsecs: 227127858
  frame_id: "ti_mmwave"
point_id: 6
x: 0.4375
y: -0.083984375
z: -1.2734375
range: 1.43804001808
velocity: 0.0
doppler_bin: 8
bearing: -10.8665513992
intensity: 23.0749607086
---
header: 
  seq: 923469
  stamp: 
    secs: 1561867603
    nsecs: 227136671
  frame_id: "ti_mmwave"
point_id: 7
x: 1.66015625
y: -0.107421875
z: -0.427734375
range: 1.83023273945
velocity: 0.0
doppler_bin: 8
bearing: -3.70221304893
intensity: 29.7173957825
---
header: 
  seq: 923470
  stamp: 
    secs: 1561867603
    nsecs: 227145538
  frame_id: "ti_mmwave"
point_id: 8
x: 1.71484375
y: -0.0546875
z: -0.392578125
range: 1.87380969524
velocity: 0.0
doppler_bin: 8
bearing: -1.8265812397
intensity: 30.0518054962
---
header: 
  seq: 923471
  stamp: 
    secs: 1561867603
    nsecs: 227153832
  frame_id: "ti_mmwave"
point_id: 9
x: 1.791015625
y: 0.11328125
z: -0.14453125
range: 1.91738677025
velocity: 0.0
doppler_bin: 8
bearing: 3.61912178993
intensity: 27.2098579407
---
header: 
  seq: 923472
  stamp: 
    secs: 1561867603
    nsecs: 227165029
  frame_id: "ti_mmwave"
point_id: 10
x: 2.6171875
y: -0.17578125
z: 1.04296875
range: 3.00681090355
velocity: 0.0
doppler_bin: 8
bearing: -3.84245300293
intensity: 29.0363254547
---
header: 
  seq: 923473
  stamp: 
    secs: 1561867603
    nsecs: 227173386
  frame_id: "ti_mmwave"
point_id: 11
x: 2.6875
y: -0.08984375
z: 0.982421875
range: 3.05038785934
velocity: 0.0
doppler_bin: 8
bearing: -1.91469812393
intensity: 32.1378326416
---
header: 
  seq: 923474
  stamp: 
    secs: 1561867603
    nsecs: 227196863
  frame_id: "ti_mmwave"
point_id: 12
x: 2.75
y: -0.08984375
z: 0.931640625
range: 3.09396481514
velocity: 0.0
doppler_bin: 8
bearing: -1.87121355534
intensity: 31.176027298
---
header: 
  seq: 923475
  stamp: 
    secs: 1561867603
    nsecs: 227210442
  frame_id: "ti_mmwave"
point_id: 13
x: 4.38671875
y: -0.283203125
z: 1.134765625
range: 4.83704376221
velocity: 0.0
doppler_bin: 8
bearing: -3.69384431839
intensity: 28.0208930969
---
header: 
  seq: 923476
  stamp: 
    secs: 1561867603
    nsecs: 227223524
  frame_id: "ti_mmwave"
point_id: 14
x: 4.408203125
y: -0.142578125
z: 1.23828125
range: 4.88062095642
velocity: 0.0
doppler_bin: 8
bearing: -1.85251843929
intensity: 31.344959259
---
header: 
  seq: 923477
  stamp: 
    secs: 1561867603
    nsecs: 227236429
  frame_id: "ti_mmwave"
point_id: 15
x: 4.439453125
y: -0.14453125
z: 1.275390625
range: 4.9241976738
velocity: 0.0
doppler_bin: 8
bearing: -1.86466813087
intensity: 30.8635978699
---
header: 
  seq: 923478
  stamp: 
    secs: 1561867603
    nsecs: 227249686
  frame_id: "ti_mmwave"
point_id: 16
x: 4.896484375
y: -0.30859375
z: 0.65234375
range: 5.27281332016
velocity: 0.0
doppler_bin: 8
bearing: -3.6062130928
intensity: 30.934217453
---
header: 
  seq: 923479
  stamp: 
    secs: 1561867603
    nsecs: 227263518
  frame_id: "ti_mmwave"
point_id: 17
x: 4.951171875
y: -0.623046875
z: -0.02734375
range: 5.31639051437
velocity: 0.0
doppler_bin: 8
bearing: -7.17230129242
intensity: 29.380191803
---
header: 
  seq: 923480
  stamp: 
    secs: 1561867603
    nsecs: 227276424
  frame_id: "ti_mmwave"
point_id: 18
x: 1.595703125
y: -0.0
z: 0.0234375
range: 1.69950187206
velocity: 0.614668667316
doppler_bin: 9
bearing: -0.0
intensity: 26.2221393585
---
header: 
  seq: 923481
  stamp: 
    secs: 1561867603
    nsecs: 227289879
  frame_id: "ti_mmwave"
point_id: 19
x: 1.634765625
y: -0.0
z: -0.048828125
range: 1.74307882786
velocity: 0.614668667316
doppler_bin: 9
bearing: -0.0
intensity: 24.9276046753
---
header: 
  seq: 923482
  stamp: 
    secs: 1561867603
    nsecs: 227305454
  frame_id: "ti_mmwave"
point_id: 21
x: 0.041015625
y: -0.033203125
z: 0.0625
range: 0.0871539413929
velocity: 0.0
doppler_bin: 8
bearing: -38.9909973145
intensity: 30.0860023499
---
header: 
  seq: 923483
  stamp: 
    secs: 1561867603
    nsecs: 227318126
  frame_id: "ti_mmwave"
point_id: 22
x: 0.046875
y: -0.046875
z: 0.103515625
range: 0.130730912089
velocity: 0.0
doppler_bin: 8
bearing: -45.0
intensity: 28.9982051849
---
header: 
  seq: 923484
  stamp: 
    secs: 1561867603
    nsecs: 286780467
  frame_id: "ti_mmwave"
point_id: 0
x: 0.01171875
y: -0.0390625
z: -0.0078125
range: 0.0435769706964
velocity: 0.0
doppler_bin: 8
bearing: -73.3007583618
intensity: 30.6445808411
---
header: 
  seq: 923485
  stamp: 
    secs: 1561867603
    nsecs: 286860885
  frame_id: "ti_mmwave"
point_id: 1
x: 0.017578125
y: -0.080078125
z: -0.0078125
range: 0.0871539413929
velocity: 0.0
doppler_bin: 8
bearing: -77.6192398071
intensity: 31.8977088928
---
header: 
  seq: 923486
  stamp: 
    secs: 1561867603
    nsecs: 286876715
  frame_id: "ti_mmwave"
point_id: 2
x: 0.029296875
y: -0.119140625
z: -0.005859375
range: 0.130730912089
velocity: 0.0
doppler_bin: 8
bearing: -76.1849746704
intensity: 30.1157035828
---
header: 
  seq: 923487
  stamp: 
    secs: 1561867603
    nsecs: 286887418
  frame_id: "ti_mmwave"
point_id: 3
x: 0.056640625
y: -0.154296875
z: 0.005859375
range: 0.174307882786
velocity: 0.0
doppler_bin: 8
bearing: -69.8423843384
intensity: 25.4282550812
---
header: 
  seq: 923488
  stamp: 
    secs: 1561867603
    nsecs: 286896173
  frame_id: "ti_mmwave"
point_id: 4
x: 0.1328125
y: -0.080078125
z: 1.2578125
range: 1.35088610649
velocity: 0.0
doppler_bin: 8
bearing: -31.0875034332
intensity: 23.0749607086
---
header: 
  seq: 923489
  stamp: 
    secs: 1561867603
    nsecs: 286904246
  frame_id: "ti_mmwave"
point_id: 5
x: 0.029296875
y: -0.08203125
z: 1.306640625
range: 1.39446306229
velocity: 0.0
doppler_bin: 8
bearing: -70.3461761475
intensity: 24.5939254761
---
header: 
  seq: 923490
  stamp: 
    secs: 1561867603
    nsecs: 286912312
  frame_id: "ti_mmwave"
point_id: 6
x: 0.419921875
y: -0.083984375
z: -1.279296875
range: 1.43804001808
velocity: 0.0
doppler_bin: 8
bearing: -11.3099327087
intensity: 23.0749607086
---
header: 
  seq: 923491
  stamp: 
    secs: 1561867603
    nsecs: 286921003
  frame_id: "ti_mmwave"
point_id: 7
x: 1.552734375
y: -0.048828125
z: -0.033203125
range: 1.65592491627
velocity: 0.0
doppler_bin: 8
bearing: -1.80116057396
intensity: 26.3346843719
---
header: 
  seq: 923492
  stamp: 
    secs: 1561867603
    nsecs: 286930685
  frame_id: "ti_mmwave"
point_id: 8
x: 1.7109375
y: -0.16015625
z: 0.015625
range: 1.83023273945
velocity: 0.0
doppler_bin: 8
bearing: -5.34772062302
intensity: 26.839471817
---
header: 
  seq: 923493
  stamp: 
    secs: 1561867603
    nsecs: 286938388
  frame_id: "ti_mmwave"
point_id: 9
x: 1.6796875
y: 0.1640625
z: -0.494140625
range: 1.87380969524
velocity: 0.0
doppler_bin: 8
bearing: 5.57863616943
intensity: 28.034570694
---
header: 
  seq: 923494
  stamp: 
    secs: 1561867603
    nsecs: 286947017
  frame_id: "ti_mmwave"
point_id: 10
x: 2.619140625
y: -0.17578125
z: 1.037109375
range: 3.00681090355
velocity: 0.0
doppler_bin: 8
bearing: -3.83959650993
intensity: 28.9707698822
---
header: 
  seq: 923495
  stamp: 
    secs: 1561867603
    nsecs: 286957312
  frame_id: "ti_mmwave"
point_id: 11
x: 2.658203125
y: -0.1796875
z: 1.046875
range: 3.05038785934
velocity: 0.0
doppler_bin: 8
bearing: -3.86716008186
intensity: 32.1722068787
---
header: 
  seq: 923496
  stamp: 
    secs: 1561867603
    nsecs: 286970351
  frame_id: "ti_mmwave"
point_id: 12
x: 2.76953125
y: -0.0
z: 0.875
range: 3.09396481514
velocity: 0.0
doppler_bin: 8
bearing: -0.0
intensity: 31.058506012
---
header: 
  seq: 923497
  stamp: 
    secs: 1561867603
    nsecs: 286984579
  frame_id: "ti_mmwave"
point_id: 13
x: 4.400390625
y: -0.142578125
z: 1.11328125
range: 4.83704376221
velocity: 0.0
doppler_bin: 8
bearing: -1.85580503941
intensity: 28.0821094513
---
header: 
  seq: 923498
  stamp: 
    secs: 1561867603
    nsecs: 287006017
  frame_id: "ti_mmwave"
point_id: 14
x: 4.41015625
y: -0.142578125
z: 1.232421875
range: 4.88062095642
velocity: 0.0
doppler_bin: 8
bearing: -1.85169863701
intensity: 31.3001194
---
header: 
  seq: 923499
  stamp: 
    secs: 1561867603
    nsecs: 287021248
  frame_id: "ti_mmwave"
point_id: 15
x: 4.439453125
y: -0.14453125
z: 1.27734375
range: 4.9241976738
velocity: 0.0
doppler_bin: 8
bearing: -1.86466813087
intensity: 30.8707122803
---
header: 
  seq: 923500
  stamp: 
    secs: 1561867603
    nsecs: 287028951
  frame_id: "ti_mmwave"
point_id: 16
x: 4.908203125
y: -0.30859375
z: 0.564453125
range: 5.27281332016
velocity: 0.0
doppler_bin: 8
bearing: -3.597625494
intensity: 30.8849048615
---
header: 
  seq: 923501
  stamp: 
    secs: 1561867603
    nsecs: 287180687
  frame_id: "ti_mmwave"
point_id: 17
x: 4.951171875
y: -0.623046875
z: -0.064453125
range: 5.31639051437
velocity: 0.0
doppler_bin: 8
bearing: -7.17230129242
intensity: 29.4546852112
---
header: 
  seq: 923502
  stamp: 
    secs: 1561867603
    nsecs: 287199790
  frame_id: "ti_mmwave"
point_id: 18
x: 1.591796875
y: -0.0
z: 0.107421875
range: 1.69950187206
velocity: 0.614668667316
doppler_bin: 9
bearing: -0.0
intensity: 28.7852172852
---
header: 
  seq: 923503
  stamp: 
    secs: 1561867603
    nsecs: 287210677
  frame_id: "ti_mmwave"
point_id: 19
x: 1.634765625
y: -0.0
z: 0.083984375
range: 1.74307882786
velocity: 0.614668667316
doppler_bin: 9
bearing: -0.0
intensity: 27.4036273956
---
header: 
  seq: 923504
  stamp: 
    secs: 1561867603
    nsecs: 287219071
  frame_id: "ti_mmwave"
point_id: 20
x: 0.009765625
y: 0.03125
z: 0.025390625
range: 0.0435769706964
velocity: 0.0
doppler_bin: 8
bearing: 72.6459732056
intensity: 29.2839584351
---
header: 
  seq: 923505
  stamp: 
    secs: 1561867603
    nsecs: 287227353
  frame_id: "ti_mmwave"
point_id: 21
x: 0.041015625
y: -0.033203125
z: 0.0625
range: 0.0871539413929
velocity: 0.0
doppler_bin: 8
bearing: -38.9909973145
intensity: 30.0860023499
---
header: 
  seq: 923506
  stamp: 
    secs: 1561867603
    nsecs: 287237956
  frame_id: "ti_mmwave"
point_id: 22
x: 0.044921875
y: -0.046875
z: 0.103515625
range: 0.130730912089
velocity: 0.0
doppler_bin: 8
bearing: -46.218875885
intensity: 28.9982051849
---
header: 
  seq: 923507
  stamp: 
    secs: 1561867603
    nsecs: 287249498
  frame_id: "ti_mmwave"
point_id: 25
x: 1.623046875
y: 0.16015625
z: -0.5390625
range: 1.83023273945
velocity: 0.0
doppler_bin: 8
bearing: 5.63549137115
intensity: 26.7024593353
---
header: 
  seq: 923508
  stamp: 
    secs: 1561867603
    nsecs: 288214746
  frame_id: "ti_mmwave"
point_id: 0
x: 0.01171875
y: -0.0390625
z: -0.0078125
range: 0.0435769706964
velocity: 0.0
doppler_bin: 8
bearing: -73.3007583618
intensity: 30.6445808411
---
header: 
  seq: 923509
  stamp: 
    secs: 1561867603
    nsecs: 288261207
  frame_id: "ti_mmwave"
point_id: 1
x: 0.017578125
y: -0.080078125
z: -0.0078125
range: 0.0871539413929
velocity: 0.0
doppler_bin: 8
bearing: -77.6192398071
intensity: 31.8977088928
---
header: 
  seq: 923510
  stamp: 
    secs: 1561867603
    nsecs: 288276121
  frame_id: "ti_mmwave"
point_id: 2
x: 0.029296875
y: -0.119140625
z: -0.005859375
range: 0.130730912089
velocity: 0.0
doppler_bin: 8
bearing: -76.1849746704
intensity: 30.1157035828
---
header: 
  seq: 923511
  stamp: 
    secs: 1561867603
    nsecs: 288292145
  frame_id: "ti_mmwave"
point_id: 3
x: 0.056640625
y: -0.154296875
z: 0.005859375
range: 0.174307882786
velocity: 0.0
doppler_bin: 8
bearing: -69.8423843384
intensity: 25.4530715942
---
header: 
  seq: 923512
  stamp: 
    secs: 1561867603
    nsecs: 288308039
  frame_id: "ti_mmwave"
point_id: 4
x: 0.166015625
y: -0.080078125
z: 1.25390625
range: 1.35088610649
velocity: 0.0
doppler_bin: 8
bearing: -25.7504749298
intensity: 23.0963020325
---
header: 
  seq: 923513
  stamp: 
    secs: 1561867603
    nsecs: 288374381
  frame_id: "ti_mmwave"
point_id: 5
x: 0.07421875
y: -0.08203125
z: 1.3046875
range: 1.39446306229
velocity: 0.0
doppler_bin: 8
bearing: -47.8624038696
intensity: 24.6239795685
---
header: 
  seq: 923514
  stamp: 
    secs: 1561867603
    nsecs: 288389239
  frame_id: "ti_mmwave"
point_id: 6
x: 0.3984375
y: -0.083984375
z: -1.287109375
range: 1.43804001808
velocity: 0.0
doppler_bin: 8
bearing: -11.9028120041
intensity: 23.0749607086
---
header: 
  seq: 923515
  stamp: 
    secs: 1561867603
    nsecs: 288400756
  frame_id: "ti_mmwave"
point_id: 7
x: 1.66015625
y: -0.0
z: -0.232421875
range: 1.78665578365
velocity: 0.0
doppler_bin: 8
bearing: -0.0
intensity: 26.4246444702
---
header: 
  seq: 923516
  stamp: 
    secs: 1561867603
    nsecs: 288411727
  frame_id: "ti_mmwave"
point_id: 8
x: 1.69140625
y: -0.0
z: -0.3046875
range: 1.83023273945
velocity: 0.0
doppler_bin: 8
bearing: -0.0
intensity: 29.122220993
---
header: 
  seq: 923517
  stamp: 
    secs: 1561867603
    nsecs: 288423289
  frame_id: "ti_mmwave"
point_id: 9
x: 1.732421875
y: -0.0546875
z: -0.302734375
range: 1.87380969524
velocity: 0.0
doppler_bin: 8
bearing: -1.80806016922
intensity: 29.1009063721
---
header: 
  seq: 923518
  stamp: 
    secs: 1561867603
    nsecs: 288435597
  frame_id: "ti_mmwave"
point_id: 10
x: 2.625
y: -0.17578125
z: 1.021484375
range: 3.00681090355
velocity: 0.0
doppler_bin: 8
bearing: -3.83105134964
intensity: 28.9817657471
---
header: 
  seq: 923519
  stamp: 
    secs: 1561867603
    nsecs: 288450941
  frame_id: "ti_mmwave"
point_id: 11
x: 2.6640625
y: -0.1796875
z: 1.03515625
range: 3.05038785934
velocity: 0.0
doppler_bin: 8
bearing: -3.85868024826
intensity: 32.1325187683
---
header: 
  seq: 923520
  stamp: 
    secs: 1561867603
    nsecs: 288481086
  frame_id: "ti_mmwave"
point_id: 12
x: 2.755859375
y: -0.08984375
z: 0.912109375
range: 3.09396481514
velocity: 0.0
doppler_bin: 8
bearing: -1.86723792553
intensity: 31.0924091339
---
header: 
  seq: 923521
  stamp: 
    secs: 1561867603
    nsecs: 288494763
  frame_id: "ti_mmwave"
point_id: 13
x: 4.3984375
y: -0.142578125
z: 1.115234375
range: 4.83704376221
velocity: 0.0
doppler_bin: 8
bearing: -1.8566287756
intensity: 28.1157493591
---
header: 
  seq: 923522
  stamp: 
    secs: 1561867603
    nsecs: 288512687
  frame_id: "ti_mmwave"
point_id: 14
x: 4.40625
y: -0.142578125
z: 1.24609375
range: 4.88062095642
velocity: 0.0
doppler_bin: 8
bearing: -1.85333895683
intensity: 31.3513259888
---
header: 
  seq: 923523
  stamp: 
    secs: 1561867603
    nsecs: 288530364
  frame_id: "ti_mmwave"
point_id: 15
x: 4.4375
y: -0.14453125
z: 1.28515625
range: 4.9241976738
velocity: 0.0
doppler_bin: 8
bearing: -1.86548817158
intensity: 30.9025802612
---
header: 
  seq: 923524
  stamp: 
    secs: 1561867603
    nsecs: 288604233
  frame_id: "ti_mmwave"
point_id: 16
x: 4.89453125
y: -0.30859375
z: 0.666015625
range: 5.27281332016
velocity: 0.0
doppler_bin: 8
bearing: -3.60764837265
intensity: 30.9131507874
---
header: 
  seq: 923525
  stamp: 
    secs: 1561867603
    nsecs: 288620854
  frame_id: "ti_mmwave"
point_id: 17
x: 4.951171875
y: -0.623046875
z: 0.013671875
range: 5.31639051437
velocity: 0.0
doppler_bin: 8
bearing: -7.17230129242
intensity: 29.4890174866
---
header: 
  seq: 923526
  stamp: 
    secs: 1561867603
    nsecs: 288633943
  frame_id: "ti_mmwave"
point_id: 18
x: 1.58984375
y: -0.0
z: 0.13671875
range: 1.69950187206
velocity: 0.614668667316
doppler_bin: 9
bearing: -0.0
intensity: 25.9549617767
---
header: 
  seq: 923527
  stamp: 
    secs: 1561867603
    nsecs: 288645610
  frame_id: "ti_mmwave"
point_id: 19
x: 1.62890625
y: -0.0
z: 0.15625
range: 1.74307882786
velocity: 0.614668667316
doppler_bin: 9
bearing: -0.0
intensity: 26.1278381348
---
header: 
  seq: 923528
  stamp: 
    secs: 1561867603
    nsecs: 288660930
  frame_id: "ti_mmwave"
point_id: 21
x: 0.041015625
y: -0.033203125
z: 0.0625
range: 0.0871539413929
velocity: 0.0
doppler_bin: 8
bearing: -38.9909973145
intensity: 30.0902576447
---
header: 
  seq: 923529
  stamp: 
    secs: 1561867603
    nsecs: 288674623
  frame_id: "ti_mmwave"
point_id: 22
x: 0.044921875
y: -0.046875
z: 0.103515625
range: 0.130730912089
velocity: 0.0
doppler_bin: 8
bearing: -46.218875885
intensity: 28.9982051849
---
header: 
  seq: 923530
  stamp: 
    secs: 1561867603
    nsecs: 346549731
  frame_id: "ti_mmwave"
point_id: 0
x: 0.01171875
y: -0.0390625
z: -0.0078125
range: 0.0435769706964
velocity: 0.0
doppler_bin: 8
bearing: -73.3007583618
intensity: 30.6370849609
---
header: 
  seq: 923531
  stamp: 
    secs: 1561867603
    nsecs: 346617973
  frame_id: "ti_mmwave"
point_id: 1
x: 0.017578125
y: -0.080078125
z: -0.0078125
range: 0.0871539413929
velocity: 0.0
doppler_bin: 8
bearing: -77.6192398071
intensity: 31.894903183
---
header: 
  seq: 923532
  stamp: 
    secs: 1561867603
    nsecs: 346635447
  frame_id: "ti_mmwave"
point_id: 2
x: 0.029296875
y: -0.119140625
z: -0.005859375
range: 0.130730912089
velocity: 0.0
doppler_bin: 8
bearing: -76.1849746704
intensity: 30.1157035828
---
header: 
  seq: 923533
  stamp: 
    secs: 1561867603
    nsecs: 346649191
  frame_id: "ti_mmwave"
point_id: 3
x: 0.056640625
y: -0.154296875
z: 0.0078125
range: 0.174307882786
velocity: 0.0
doppler_bin: 8
bearing: -69.8423843384
intensity: 25.4406795502
---
header: 
  seq: 923534
  stamp: 
    secs: 1561867603
    nsecs: 346664686
  frame_id: "ti_mmwave"
point_id: 4
x: 0.138671875
y: -0.080078125
z: 1.2578125
range: 1.35088610649
velocity: 0.0
doppler_bin: 8
bearing: -30.0049190521
intensity: 23.0963020325
---
header: 
  seq: 923535
  stamp: 
    secs: 1561867603
    nsecs: 346778635
  frame_id: "ti_mmwave"
point_id: 6
x: 0.412109375
y: -0.083984375
z: -1.283203125
range: 1.43804001808
velocity: 0.0
doppler_bin: 8
bearing: -11.518658638
intensity: 23.0749607086
---
header: 
  seq: 923536
  stamp: 
    secs: 1561867603
    nsecs: 346793363
  frame_id: "ti_mmwave"
point_id: 7
x: 0.5546875
y: -0.04296875
z: -1.275390625
range: 1.48161697388
velocity: 0.0
doppler_bin: 8
bearing: -4.42955970764
intensity: 21.7318630219
---
header: 
  seq: 923537
  stamp: 
    secs: 1561867603
    nsecs: 346804090
  frame_id: "ti_mmwave"
point_id: 8
x: 1.6640625
y: -0.0
z: -0.20703125
range: 1.78665578365
velocity: 0.0
doppler_bin: 8
bearing: -0.0
intensity: 29.0579586029
---
header: 
  seq: 923538
  stamp: 
    secs: 1561867603
    nsecs: 346814405
  frame_id: "ti_mmwave"
point_id: 9
x: 1.69921875
y: -0.0
z: -0.248046875
range: 1.83023273945
velocity: 0.0
doppler_bin: 8
bearing: -0.0
intensity: 32.1537322998
---
header: 
  seq: 923539
  stamp: 
    secs: 1561867603
    nsecs: 346826629
  frame_id: "ti_mmwave"
point_id: 10
x: 1.7421875
y: -0.0
z: -0.244140625
range: 1.87380969524
velocity: 0.0
doppler_bin: 8
bearing: -0.0
intensity: 31.9256744385
---
header: 
  seq: 923540
  stamp: 
    secs: 1561867603
    nsecs: 346837686
  frame_id: "ti_mmwave"
point_id: 11
x: 1.78125
y: -0.0
z: -0.2578125
range: 1.91738677025
velocity: 0.0
doppler_bin: 8
bearing: -0.0
intensity: 27.7524623871
---
header: 
  seq: 923541
  stamp: 
    secs: 1561867603
    nsecs: 346849416
  frame_id: "ti_mmwave"
point_id: 12
x: 2.62890625
y: -0.17578125
z: 1.013671875
range: 3.00681090355
velocity: 0.0
doppler_bin: 8
bearing: -3.82537555695
intensity: 28.9927310944
---
header: 
  seq: 923542
  stamp: 
    secs: 1561867603
    nsecs: 346860449
  frame_id: "ti_mmwave"
point_id: 13
x: 2.6953125
y: -0.08984375
z: 0.962890625
range: 3.05038785934
velocity: 0.0
doppler_bin: 8
bearing: -1.90915250778
intensity: 32.1853561401
---
header: 
  seq: 923543
  stamp: 
    secs: 1561867603
    nsecs: 346876087
  frame_id: "ti_mmwave"
point_id: 14
x: 2.759765625
y: -0.08984375
z: 0.900390625
range: 3.09396481514
velocity: 0.0
doppler_bin: 8
bearing: -1.86459684372
intensity: 31.205739975
---
header: 
  seq: 923544
  stamp: 
    secs: 1561867603
    nsecs: 346888416
  frame_id: "ti_mmwave"
point_id: 15
x: 4.3984375
y: -0.142578125
z: 1.27734375
range: 4.88062095642
velocity: 0.0
doppler_bin: 8
bearing: -1.8566287756
intensity: 31.0890312195
---
header: 
  seq: 923545
  stamp: 
    secs: 1561867603
    nsecs: 346959993
  frame_id: "ti_mmwave"
point_id: 16
x: 4.431640625
y: -0.14453125
z: 1.306640625
range: 4.9241976738
velocity: 0.0
doppler_bin: 8
bearing: -1.86795306206
intensity: 30.696680069
---
header: 
  seq: 923546
  stamp: 
    secs: 1561867603
    nsecs: 346976655
  frame_id: "ti_mmwave"
point_id: 17
x: 4.91015625
y: -0.30859375
z: 0.548828125
range: 5.27281332016
velocity: 0.0
doppler_bin: 8
bearing: -3.59619832039
intensity: 30.8062648773
---
header: 
  seq: 923547
  stamp: 
    secs: 1561867603
    nsecs: 346990011
  frame_id: "ti_mmwave"
point_id: 18
x: 4.951171875
y: -0.623046875
z: -0.076171875
range: 5.31639051437
velocity: 0.0
doppler_bin: 8
bearing: -7.17230129242
intensity: 29.5664863586
---
header: 
  seq: 923548
  stamp: 
    secs: 1561867603
    nsecs: 347002350
  frame_id: "ti_mmwave"
point_id: 19
x: 1.62890625
y: -0.0
z: 0.1640625
range: 1.74307882786
velocity: 0.614668667316
doppler_bin: 9
bearing: -0.0
intensity: 26.0097293854
---
header: 
  seq: 923549
  stamp: 
    secs: 1561867603
    nsecs: 347019401
  frame_id: "ti_mmwave"
point_id: 21
x: 0.041015625
y: -0.033203125
z: 0.0625
range: 0.0871539413929
velocity: 0.0
doppler_bin: 8
bearing: -38.9909973145
intensity: 30.0902576447
---
header: 
  seq: 923550
  stamp: 
    secs: 1561867603
    nsecs: 347032281
  frame_id: "ti_mmwave"
point_id: 22
x: 0.044921875
y: -0.046875
z: 0.103515625
range: 0.130730912089
velocity: 0.0
doppler_bin: 8
bearing: -46.218875885
intensity: 28.9982051849
---
header: 
  seq: 923551
  stamp: 
    secs: 1561867603
    nsecs: 347920428
  frame_id: "ti_mmwave"
point_id: 0
x: 0.01171875
y: -0.0390625
z: -0.0078125
range: 0.0435769706964
velocity: 0.0
doppler_bin: 8
bearing: -73.3007583618
intensity: 30.6333332062
---
header: 
  seq: 923552
  stamp: 
    secs: 1561867603
    nsecs: 348022844
  frame_id: "ti_mmwave"
point_id: 1
x: 0.017578125
y: -0.080078125
z: -0.0078125
range: 0.0871539413929
velocity: 0.0
doppler_bin: 8
bearing: -77.6192398071
intensity: 31.8920955658
---
header: 
  seq: 923553
  stamp: 
    secs: 1561867603
    nsecs: 348044845
  frame_id: "ti_mmwave"
point_id: 2
x: 0.029296875
y: -0.119140625
z: -0.005859375
range: 0.130730912089
velocity: 0.0
doppler_bin: 8
bearing: -76.1849746704
intensity: 30.1157035828
---
header: 
  seq: 923554
  stamp: 
    secs: 1561867603
    nsecs: 348054734
  frame_id: "ti_mmwave"
point_id: 3
x: 0.056640625
y: -0.154296875
z: 0.0078125
range: 0.174307882786
velocity: 0.0
doppler_bin: 8
bearing: -69.8423843384
intensity: 25.4406795502
---
header: 
  seq: 923555
  stamp: 
    secs: 1561867603
    nsecs: 348070296
  frame_id: "ti_mmwave"
point_id: 4
x: 0.193359375
y: -0.080078125
z: 1.25
range: 1.35088610649
velocity: 0.0
doppler_bin: 8
bearing: -22.496471405
intensity: 23.0535144806
---
header: 
  seq: 923556
  stamp: 
    secs: 1561867603
    nsecs: 348078957
  frame_id: "ti_mmwave"
point_id: 5
x: 0.0625
y: -0.08203125
z: 1.3046875
range: 1.39446306229
velocity: 0.0
doppler_bin: 8
bearing: -52.6960487366
intensity: 24.6089782715
---
header: 
  seq: 923557
  stamp: 
    secs: 1561867603
    nsecs: 348135302
  frame_id: "ti_mmwave"
point_id: 6
x: 0.408203125
y: -0.083984375
z: -1.283203125
range: 1.43804001808
velocity: 0.0
doppler_bin: 8
bearing: -11.6258993149
intensity: 23.0535144806
---
header: 
  seq: 923558
  stamp: 
    secs: 1561867603
    nsecs: 348144693
  frame_id: "ti_mmwave"
point_id: 7
x: 0.564453125
y: -0.04296875
z: -1.271484375
range: 1.48161697388
velocity: 0.0
doppler_bin: 8
bearing: -4.35321998596
intensity: 21.6731739044
---
header: 
  seq: 923559
  stamp: 
    secs: 1561867603
    nsecs: 348155333
  frame_id: "ti_mmwave"
point_id: 8
x: 1.65625
y: -0.052734375
z: -0.26171875
range: 1.78665578365
velocity: 0.0
doppler_bin: 8
bearing: -1.82366013527
intensity: 28.3378429413
---
header: 
  seq: 923560
  stamp: 
    secs: 1561867603
    nsecs: 348163363
  frame_id: "ti_mmwave"
point_id: 9
x: 1.705078125
y: -0.0
z: -0.212890625
range: 1.83023273945
velocity: 0.0
doppler_bin: 8
bearing: -0.0
intensity: 31.5563964844
---
header: 
  seq: 923561
  stamp: 
    secs: 1561867603
    nsecs: 348171269
  frame_id: "ti_mmwave"
point_id: 10
x: 1.748046875
y: -0.0
z: -0.1875
range: 1.87380969524
velocity: 0.0
doppler_bin: 8
bearing: -0.0
intensity: 30.7554702759
---
header: 
  seq: 923562
  stamp: 
    secs: 1561867603
    nsecs: 348178619
  frame_id: "ti_mmwave"
point_id: 11
x: 2.630859375
y: -0.17578125
z: 1.00390625
range: 3.00681090355
velocity: 0.0
doppler_bin: 8
bearing: -3.82254433632
intensity: 28.9872512817
---
header: 
  seq: 923563
  stamp: 
    secs: 1561867603
    nsecs: 348186072
  frame_id: "ti_mmwave"
point_id: 12
x: 2.666015625
y: -0.1796875
z: 1.03125
range: 3.05038785934
velocity: 0.0
doppler_bin: 8
bearing: -3.85586214066
intensity: 32.1484375
---
header: 
  seq: 923564
  stamp: 
    secs: 1561867603
    nsecs: 348193970
  frame_id: "ti_mmwave"
point_id: 13
x: 2.755859375
y: -0.08984375
z: 0.9140625
range: 3.09396481514
velocity: 0.0
doppler_bin: 8
bearing: -1.86723792553
intensity: 31.1461105347
---
header: 
  seq: 923565
  stamp: 
    secs: 1561867603
    nsecs: 348201443
  frame_id: "ti_mmwave"
point_id: 14
x: 4.404296875
y: -0.142578125
z: 1.09765625
range: 4.83704376221
velocity: 0.0
doppler_bin: 8
bearing: -1.85416030884
intensity: 28.2216815948
---
header: 
  seq: 923566
  stamp: 
    secs: 1561867603
    nsecs: 348210756
  frame_id: "ti_mmwave"
point_id: 15
x: 4.4140625
y: -0.142578125
z: 1.22265625
range: 4.88062095642
velocity: 0.0
doppler_bin: 8
bearing: -1.850061059
intensity: 31.2872219086
---
header: 
  seq: 923567
  stamp: 
    secs: 1561867603
    nsecs: 348219716
  frame_id: "ti_mmwave"
point_id: 16
x: 4.443359375
y: -0.14453125
z: 1.265625
range: 4.9241976738
velocity: 0.0
doppler_bin: 8
bearing: -1.86303019524
intensity: 30.5269393921
---
header: 
  seq: 923568
  stamp: 
    secs: 1561867603
    nsecs: 348229357
  frame_id: "ti_mmwave"
point_id: 18
x: 0.041015625
y: -0.033203125
z: 0.0625
range: 0.0871539413929
velocity: 0.0
doppler_bin: 8
bearing: -38.9909973145
intensity: 30.0860023499
---
header: 
  seq: 923569
  stamp: 
    secs: 1561867603
    nsecs: 348240482
  frame_id: "ti_mmwave"
point_id: 19
x: 0.044921875
y: -0.046875
z: 0.103515625
range: 0.130730912089
velocity: 0.0
doppler_bin: 8
bearing: -46.218875885
intensity: 28.9982051849
---
header: 
  seq: 923570
  stamp: 
    secs: 1561867603
    nsecs: 406560766
  frame_id: "ti_mmwave"
point_id: 0
x: 0.01171875
y: -0.0390625
z: -0.0078125
range: 0.0435769706964
velocity: 0.0
doppler_bin: 8
bearing: -73.3007583618
intensity: 30.6408348083
---
header: 
  seq: 923571
  stamp: 
    secs: 1561867603
    nsecs: 406655302
  frame_id: "ti_mmwave"
point_id: 1
x: 0.017578125
y: -0.080078125
z: -0.0078125
range: 0.0871539413929
velocity: 0.0
doppler_bin: 8
bearing: -77.6192398071
intensity: 31.8977088928
---
header: 
  seq: 923572
  stamp: 
    secs: 1561867603
    nsecs: 406675154
  frame_id: "ti_mmwave"
point_id: 2
x: 0.029296875
y: -0.119140625
z: -0.005859375
range: 0.130730912089
velocity: 0.0
doppler_bin: 8
bearing: -76.1849746704
intensity: 30.1157035828
---
header: 
  seq: 923573
  stamp: 
    secs: 1561867603
    nsecs: 406688051
  frame_id: "ti_mmwave"
point_id: 3
x: 0.056640625
y: -0.154296875
z: 0.005859375
range: 0.174307882786
velocity: 0.0
doppler_bin: 8
bearing: -69.8423843384
intensity: 25.4406795502
---
header: 
  seq: 923574
  stamp: 
    secs: 1561867603
    nsecs: 406703775
  frame_id: "ti_mmwave"
point_id: 4
x: 0.17578125
y: -0.080078125
z: 1.25390625
range: 1.35088610649
velocity: 0.0
doppler_bin: 8
bearing: -24.4919013977
intensity: 23.0963020325
---
header: 
  seq: 923575
  stamp: 
    secs: 1561867603
    nsecs: 406722733
  frame_id: "ti_mmwave"
point_id: 5
x: 0.08984375
y: -0.08203125
z: 1.302734375
range: 1.39446306229
velocity: 0.0
doppler_bin: 8
bearing: -42.3974380493
intensity: 24.6239795685
---
header: 
  seq: 923576
  stamp: 
    secs: 1561867603
    nsecs: 406800801
  frame_id: "ti_mmwave"
point_id: 6
x: 0.392578125
y: -0.083984375
z: -1.2890625
range: 1.43804001808
velocity: 0.0
doppler_bin: 8
bearing: -12.0752887726
intensity: 23.0749607086
---
header: 
  seq: 923577
  stamp: 
    secs: 1561867603
    nsecs: 406816203
  frame_id: "ti_mmwave"
point_id: 7
x: 0.548828125
y: -0.04296875
z: -1.27734375
range: 1.48161697388
velocity: 0.0
doppler_bin: 8
bearing: -4.47665882111
intensity: 21.6731739044
---
header: 
  seq: 923578
  stamp: 
    secs: 1561867603
    nsecs: 406829945
  frame_id: "ti_mmwave"
point_id: 8
x: 1.712890625
y: 0.107421875
z: 0.087890625
range: 1.83023273945
velocity: 0.0
doppler_bin: 8
bearing: 3.58853602409
intensity: 27.7305469513
---
header: 
  seq: 923579
  stamp: 
    secs: 1561867603
    nsecs: 406844571
  frame_id: "ti_mmwave"
point_id: 9
x: 1.755859375
y: 0.109375
z: -0.033203125
range: 1.87380969524
velocity: 0.0
doppler_bin: 8
bearing: 3.56443095207
intensity: 28.8817958832
---
header: 
  seq: 923580
  stamp: 
    secs: 1561867603
    nsecs: 406857529
  frame_id: "ti_mmwave"
point_id: 10
x: 1.783203125
y: 0.11328125
z: -0.212890625
range: 1.91738677025
velocity: 0.0
doppler_bin: 8
bearing: 3.63493490219
intensity: 27.5434837341
---
header: 
  seq: 923581
  stamp: 
    secs: 1561867603
    nsecs: 406870583
  frame_id: "ti_mmwave"
point_id: 11
x: 2.615234375
y: -0.17578125
z: 1.046875
range: 3.00681090355
velocity: 0.0
doppler_bin: 8
bearing: -3.84531402588
intensity: 28.9265098572
---
header: 
  seq: 923582
  stamp: 
    secs: 1561867603
    nsecs: 406887779
  frame_id: "ti_mmwave"
point_id: 12
x: 2.689453125
y: -0.08984375
z: 0.98046875
range: 3.05038785934
velocity: 0.0
doppler_bin: 8
bearing: -1.91330885887
intensity: 32.1457901001
---
header: 
  seq: 923583
  stamp: 
    secs: 1561867603
    nsecs: 406934275
  frame_id: "ti_mmwave"
point_id: 13
x: 2.771484375
y: -0.0
z: 0.87109375
range: 3.09396481514
velocity: 0.0
doppler_bin: 8
bearing: -0.0
intensity: 31.1126251221
---
header: 
  seq: 923584
  stamp: 
    secs: 1561867603
    nsecs: 406949452
  frame_id: "ti_mmwave"
point_id: 14
x: 4.39453125
y: -0.283203125
z: 1.10546875
range: 4.83704376221
velocity: 0.0
doppler_bin: 8
bearing: -3.6872959137
intensity: 28.2542610168
---
header: 
  seq: 923585
  stamp: 
    secs: 1561867603
    nsecs: 406962927
  frame_id: "ti_mmwave"
point_id: 15
x: 4.4140625
y: -0.142578125
z: 1.21875
range: 4.88062095642
velocity: 0.0
doppler_bin: 8
bearing: -1.850061059
intensity: 31.9617614746
---
header: 
  seq: 923586
  stamp: 
    secs: 1561867603
    nsecs: 406978958
  frame_id: "ti_mmwave"
point_id: 16
x: 4.451171875
y: -0.14453125
z: 1.23828125
range: 4.9241976738
velocity: 0.0
doppler_bin: 8
bearing: -1.8597625494
intensity: 31.7289466858
---
header: 
  seq: 923587
  stamp: 
    secs: 1561867603
    nsecs: 406991374
  frame_id: "ti_mmwave"
point_id: 17
x: 1.619140625
y: -0.0
z: 0.236328125
range: 1.74307882786
velocity: 0.614668667316
doppler_bin: 9
bearing: -0.0
intensity: 26.7302093506
---
header: 
  seq: 923588
  stamp: 
    secs: 1561867603
    nsecs: 407007892
  frame_id: "ti_mmwave"
point_id: 19
x: 0.041015625
y: -0.033203125
z: 0.0625
range: 0.0871539413929
velocity: 0.0
doppler_bin: 8
bearing: -38.9909973145
intensity: 30.0902576447
---
header: 
  seq: 923589
  stamp: 
    secs: 1561867603
    nsecs: 407021238
  frame_id: "ti_mmwave"
point_id: 20
x: 0.044921875
y: -0.046875
z: 0.103515625
range: 0.130730912089
velocity: 0.0
doppler_bin: 8
bearing: -46.218875885
intensity: 28.9982051849
---
header: 
  seq: 923590
  stamp: 
    secs: 1561867603
    nsecs: 407034320
  frame_id: "ti_mmwave"
point_id: 22
x: 4.41015625
y: -0.0
z: 1.08203125
range: 4.83704376221
velocity: 0.0
doppler_bin: 8
bearing: -0.0
intensity: 28.2020149231
---
header: 
  seq: 923591
  stamp: 
    secs: 1561867603
    nsecs: 407937762
  frame_id: "ti_mmwave"
point_id: 0
x: 0.01171875
y: -0.0390625
z: -0.0078125
range: 0.0435769706964
velocity: 0.0
doppler_bin: 8
bearing: -73.3007583618
intensity: 30.6408348083
---
header: 
  seq: 923592
  stamp: 
    secs: 1561867603
    nsecs: 408079167
  frame_id: "ti_mmwave"
point_id: 1
x: 0.017578125
y: -0.080078125
z: -0.0078125
range: 0.0871539413929
velocity: 0.0
doppler_bin: 8
bearing: -77.6192398071
intensity: 31.894903183
---
header: 
  seq: 923593
  stamp: 
    secs: 1561867603
    nsecs: 408145280
  frame_id: "ti_mmwave"
point_id: 2
x: 0.029296875
y: -0.119140625
z: -0.005859375
range: 0.130730912089
velocity: 0.0
doppler_bin: 8
bearing: -76.1849746704
intensity: 30.1157035828
---
header: 
  seq: 923594
  stamp: 
    secs: 1561867603
    nsecs: 408173016
  frame_id: "ti_mmwave"
point_id: 3
x: 0.056640625
y: -0.154296875
z: 0.005859375
range: 0.174307882786
velocity: 0.0
doppler_bin: 8
