header: 
  seq: 3290005
  stamp: 
    secs: 1561686411
    nsecs: 262140720
  frame_id: "ti_mmwave"
point_id: 0
x: 0.01171875
y: -0.0390625
z: -0.0078125
range: 0.0435769706964
velocity: 0.0
doppler_bin: 8
bearing: -73.3007583618
intensity: 30.7335166931
---
header: 
  seq: 3290006
  stamp: 
    secs: 1561686411
    nsecs: 262224174
  frame_id: "ti_mmwave"
point_id: 1
x: 0.017578125
y: -0.080078125
z: -0.0078125
range: 0.0871539413929
velocity: 0.0
doppler_bin: 8
bearing: -77.6192398071
intensity: 31.9700469971
---
header: 
  seq: 3290007
  stamp: 
    secs: 1561686411
    nsecs: 262245204
  frame_id: "ti_mmwave"
point_id: 2
x: 0.029296875
y: -0.119140625
z: -0.00390625
range: 0.130730912089
velocity: 0.0
doppler_bin: 8
bearing: -76.1849746704
intensity: 30.1994667053
---
header: 
  seq: 3290008
  stamp: 
    secs: 1561686411
    nsecs: 262260520
  frame_id: "ti_mmwave"
point_id: 3
x: 0.056640625
y: -0.154296875
z: 0.005859375
range: 0.174307882786
velocity: 0.0
doppler_bin: 8
bearing: -69.8423843384
intensity: 25.490032196
---
header: 
  seq: 3290009
  stamp: 
    secs: 1561686411
    nsecs: 262272287
  frame_id: "ti_mmwave"
point_id: 4
x: 0.33984375
y: -0.080078125
z: -1.21875
range: 1.35088610649
velocity: 0.0
doppler_bin: 8
bearing: -13.2588720322
intensity: 21.9865703583
---
header: 
  seq: 3290010
  stamp: 
    secs: 1561686411
    nsecs: 262285921
  frame_id: "ti_mmwave"
point_id: 5
x: 0.3125
y: -0.041015625
z: 1.26953125
range: 1.39446306229
velocity: 0.0
doppler_bin: 8
bearing: -7.47732973099
intensity: 23.2428245544
---
header: 
  seq: 3290011
  stamp: 
    secs: 1561686411
    nsecs: 262298709
  frame_id: "ti_mmwave"
point_id: 6
x: 0.427734375
y: -0.0
z: 1.28125
range: 1.43804001808
velocity: 0.0
doppler_bin: 8
bearing: -0.0
intensity: 21.9589958191
---
header: 
  seq: 3290012
  stamp: 
    secs: 1561686411
    nsecs: 262333148
  frame_id: "ti_mmwave"
point_id: 7
x: 1.751953125
y: -0.109375
z: -0.109375
range: 1.87380969524
velocity: 0.0
doppler_bin: 8
bearing: -3.57235765457
intensity: 29.3901977539
---
header: 
  seq: 3290013
  stamp: 
    secs: 1561686411
    nsecs: 262341481
  frame_id: "ti_mmwave"
point_id: 8
x: 1.794921875
y: -0.11328125
z: -0.080078125
range: 1.91738677025
velocity: 0.0
doppler_bin: 8
bearing: -3.61126613617
intensity: 30.2366390228
---
header: 
  seq: 3290014
  stamp: 
    secs: 1561686411
    nsecs: 262349773
  frame_id: "ti_mmwave"
point_id: 9
x: 2.548828125
y: -0.263671875
z: 1.185546875
range: 3.00681090355
velocity: 0.0
doppler_bin: 8
bearing: -5.90614128113
intensity: 29.4546852112
---
header: 
  seq: 3290015
  stamp: 
    secs: 1561686411
    nsecs: 262358349
  frame_id: "ti_mmwave"
point_id: 10
x: 2.599609375
y: -0.267578125
z: 1.171875
range: 3.05038785934
velocity: 0.0
doppler_bin: 8
bearing: -5.87676620483
intensity: 32.7783851624
---
header: 
  seq: 3290016
  stamp: 
    secs: 1561686411
    nsecs: 262368259
  frame_id: "ti_mmwave"
point_id: 11
x: 2.66015625
y: -0.181640625
z: 1.150390625
range: 3.09396481514
velocity: 0.0
doppler_bin: 8
bearing: -3.90620398521
intensity: 32.0763435364
---
header: 
  seq: 3290017
  stamp: 
    secs: 1561686411
    nsecs: 262380222
  frame_id: "ti_mmwave"
point_id: 13
x: 0.041015625
y: -0.033203125
z: 0.0625
range: 0.0871539413929
velocity: 0.0
doppler_bin: 8
bearing: -38.9909973145
intensity: 30.141002655
---
header: 
  seq: 3290018
  stamp: 
    secs: 1561686411
    nsecs: 262388682
  frame_id: "ti_mmwave"
point_id: 14
x: 0.044921875
y: -0.046875
z: 0.103515625
range: 0.130730912089
velocity: 0.0
doppler_bin: 8
bearing: -46.218875885
intensity: 29.0471553802
---
header: 
  seq: 3290019
  stamp: 
    secs: 1561686411
    nsecs: 262398724
  frame_id: "ti_mmwave"
point_id: 16
x: 1.216796875
y: 0.357421875
z: 0.02734375
range: 1.35088610649
velocity: 0.0
doppler_bin: 8
bearing: 16.3696231842
intensity: 19.2427921295
---
header: 
  seq: 3290020
  stamp: 
    secs: 1561686411
    nsecs: 263139474
  frame_id: "ti_mmwave"
point_id: 0
x: 0.01171875
y: -0.0390625
z: -0.0078125
range: 0.0435769706964
velocity: 0.0
doppler_bin: 8
bearing: -73.3007583618
intensity: 30.7408466339
---
header: 
  seq: 3290021
  stamp: 
    secs: 1561686411
    nsecs: 263209959
  frame_id: "ti_mmwave"
point_id: 1
x: 0.017578125
y: -0.080078125
z: -0.0078125
range: 0.0871539413929
velocity: 0.0
doppler_bin: 8
bearing: -77.6192398071
intensity: 31.9755630493
---
header: 
  seq: 3290022
  stamp: 
    secs: 1561686411
    nsecs: 263229403
  frame_id: "ti_mmwave"
point_id: 2
x: 0.029296875
y: -0.119140625
z: -0.00390625
range: 0.130730912089
velocity: 0.0
doppler_bin: 8
bearing: -76.1849746704
intensity: 30.2036132812
---
header: 
  seq: 3290023
  stamp: 
    secs: 1561686411
    nsecs: 263249398
  frame_id: "ti_mmwave"
point_id: 3
x: 0.056640625
y: -0.154296875
z: 0.0078125
range: 0.174307882786
velocity: 0.0
doppler_bin: 8
bearing: -69.8423843384
intensity: 25.5022830963
---
header: 
  seq: 3290024
  stamp: 
    secs: 1561686411
    nsecs: 263266646
  frame_id: "ti_mmwave"
point_id: 4
x: 0.330078125
y: -0.080078125
z: -1.22265625
range: 1.35088610649
velocity: 0.0
doppler_bin: 8
bearing: -13.6366977692
intensity: 21.9865703583
---
header: 
  seq: 3290025
  stamp: 
    secs: 1561686411
    nsecs: 263279599
  frame_id: "ti_mmwave"
point_id: 5
x: 0.32421875
y: -0.041015625
z: 1.267578125
range: 1.39446306229
velocity: 0.0
doppler_bin: 8
bearing: -7.20996236801
intensity: 23.2428245544
---
header: 
  seq: 3290026
  stamp: 
    secs: 1561686411
    nsecs: 263290688
  frame_id: "ti_mmwave"
point_id: 6
x: 0.5
y: -0.04296875
z: 1.25390625
range: 1.43804001808
velocity: 0.0
doppler_bin: 8
bearing: -4.91178798676
intensity: 21.9589958191
---
header: 
  seq: 3290027
  stamp: 
    secs: 1561686411
    nsecs: 263303253
  frame_id: "ti_mmwave"
point_id: 7
x: 2.5390625
y: -0.263671875
z: 1.203125
range: 3.00681090355
velocity: 0.0
doppler_bin: 8
bearing: -5.92869567871
intensity: 29.247959137
---
header: 
  seq: 3290028
  stamp: 
    secs: 1561686411
    nsecs: 263316383
  frame_id: "ti_mmwave"
point_id: 8
x: 2.61328125
y: -0.1796875
z: 1.158203125
range: 3.05038785934
velocity: 0.0
doppler_bin: 8
bearing: -3.93342900276
intensity: 32.6197624207
---
header: 
  seq: 3290029
  stamp: 
    secs: 1561686411
    nsecs: 263331188
  frame_id: "ti_mmwave"
point_id: 9
x: 2.662109375
y: -0.181640625
z: 1.146484375
range: 3.09396481514
velocity: 0.0
doppler_bin: 8
bearing: -3.90334677696
intensity: 31.8440742493
---
header: 
  seq: 3290030
  stamp: 
    secs: 1561686411
    nsecs: 263345262
  frame_id: "ti_mmwave"
point_id: 10
x: 1.73828125
y: 0.517578125
z: 0.318359375
range: 1.96096372604
velocity: -1.22933733463
doppler_bin: 6
bearing: 16.5810470581
intensity: 22.7875366211
---
header: 
  seq: 3290031
  stamp: 
    secs: 1561686411
    nsecs: 263391562
  frame_id: "ti_mmwave"
point_id: 12
x: 0.041015625
y: -0.033203125
z: 0.0625
range: 0.0871539413929
velocity: 0.0
doppler_bin: 8
bearing: -38.9909973145
intensity: 30.1452045441
---
header: 
  seq: 3290032
  stamp: 
    secs: 1561686411
    nsecs: 263406724
  frame_id: "ti_mmwave"
point_id: 13
x: 0.044921875
y: -0.046875
z: 0.103515625
range: 0.130730912089
velocity: 0.0
doppler_bin: 8
bearing: -46.218875885
intensity: 29.0471553802
---
header: 
  seq: 3290033
  stamp: 
    secs: 1561686411
    nsecs: 263421917
  frame_id: "ti_mmwave"
point_id: 15
x: 1.216796875
y: 0.357421875
z: 0.02734375
range: 1.35088610649
velocity: 0.0
doppler_bin: 8
bearing: 16.3696231842
intensity: 19.2941894531
---
header: 
  seq: 3290034
  stamp: 
    secs: 1561686411
    nsecs: 322353239
  frame_id: "ti_mmwave"
point_id: 0
x: 0.01171875
y: -0.0390625
z: -0.0078125
range: 0.0435769706964
velocity: 0.0
doppler_bin: 8
bearing: -73.3007583618
intensity: 30.7371826172
---
header: 
  seq: 3290035
  stamp: 
    secs: 1561686411
    nsecs: 322454443
  frame_id: "ti_mmwave"
point_id: 1
x: 0.017578125
y: -0.080078125
z: -0.0078125
range: 0.0871539413929
velocity: 0.0
doppler_bin: 8
bearing: -77.6192398071
intensity: 31.9755630493
---
header: 
  seq: 3290036
  stamp: 
    secs: 1561686411
    nsecs: 322477046
  frame_id: "ti_mmwave"
point_id: 2
x: 0.029296875
y: -0.119140625
z: -0.00390625
range: 0.130730912089
velocity: 0.0
doppler_bin: 8
bearing: -76.1849746704
intensity: 30.2077541351
---
header: 
  seq: 3290037
  stamp: 
    secs: 1561686411
    nsecs: 322492026
  frame_id: "ti_mmwave"
point_id: 3
x: 0.056640625
y: -0.154296875
z: 0.005859375
range: 0.174307882786
velocity: 0.0
doppler_bin: 8
bearing: -69.8423843384
intensity: 25.5022830963
---
header: 
  seq: 3290038
  stamp: 
    secs: 1561686411
    nsecs: 322507154
  frame_id: "ti_mmwave"
point_id: 4
x: 0.318359375
y: -0.080078125
z: -1.224609375
range: 1.35088610649
velocity: 0.0
doppler_bin: 8
bearing: -14.1189212799
intensity: 22.0139713287
---
header: 
  seq: 3290039
  stamp: 
    secs: 1561686411
    nsecs: 322523371
  frame_id: "ti_mmwave"
point_id: 5
x: 0.330078125
y: -0.041015625
z: 1.265625
range: 1.39446306229
velocity: 0.0
doppler_bin: 8
bearing: -7.0832862854
intensity: 23.2633590698
---
header: 
  seq: 3290040
  stamp: 
    secs: 1561686411
    nsecs: 322538751
  frame_id: "ti_mmwave"
point_id: 6
x: 0.513671875
y: -0.04296875
z: 1.248046875
range: 1.43804001808
velocity: 0.0
doppler_bin: 8
bearing: -4.78167009354
intensity: 21.9589958191
---
header: 
  seq: 3290041
  stamp: 
    secs: 1561686411
    nsecs: 322557931
  frame_id: "ti_mmwave"
point_id: 7
x: 1.75
y: -0.109375
z: -0.146484375
range: 1.87380969524
velocity: 0.0
doppler_bin: 8
bearing: -3.57633447647
intensity: 27.8175544739
---
header: 
  seq: 3290042
  stamp: 
    secs: 1561686411
    nsecs: 322572921
  frame_id: "ti_mmwave"
point_id: 8
x: 1.796875
y: -0.11328125
z: 0.0078125
range: 1.91738677025
velocity: 0.0
doppler_bin: 8
bearing: -3.60735106468
intensity: 29.1487178802
---
header: 
  seq: 3290043
  stamp: 
    secs: 1561686411
    nsecs: 322672438
  frame_id: "ti_mmwave"
point_id: 9
x: 1.818359375
y: -0.056640625
z: 0.27734375
range: 1.96096372604
velocity: 0.0
doppler_bin: 8
bearing: -1.78414654732
intensity: 28.9376182556
---
header: 
  seq: 3290044
  stamp: 
    secs: 1561686411
    nsecs: 322691817
  frame_id: "ti_mmwave"
point_id: 10
x: 2.548828125
y: -0.263671875
z: 1.181640625
range: 3.00681090355
velocity: 0.0
doppler_bin: 8
bearing: -5.90614128113
intensity: 29.2737045288
---
header: 
  seq: 3290045
  stamp: 
    secs: 1561686411
    nsecs: 322708813
  frame_id: "ti_mmwave"
point_id: 11
x: 2.609375
y: -0.267578125
z: 1.150390625
range: 3.05038785934
velocity: 0.0
doppler_bin: 8
bearing: -5.85492515564
intensity: 32.6951293945
---
header: 
  seq: 3290046
  stamp: 
    secs: 1561686411
    nsecs: 322722918
  frame_id: "ti_mmwave"
point_id: 12
x: 2.669921875
y: -0.181640625
z: 1.12890625
range: 3.09396481514
velocity: 0.0
doppler_bin: 8
bearing: -3.89196038246
intensity: 31.9479179382
---
header: 
  seq: 3290047
  stamp: 
    secs: 1561686411
    nsecs: 322742688
  frame_id: "ti_mmwave"
point_id: 14
x: 0.041015625
y: -0.033203125
z: 0.0625
range: 0.0871539413929
velocity: 0.0
doppler_bin: 8
bearing: -38.9909973145
intensity: 30.1452045441
---
header: 
  seq: 3290048
  stamp: 
    secs: 1561686411
    nsecs: 322763272
  frame_id: "ti_mmwave"
point_id: 15
x: 0.044921875
y: -0.046875
z: 0.103515625
range: 0.130730912089
velocity: 0.0
doppler_bin: 8
bearing: -46.218875885
intensity: 29.0471553802
---
header: 
  seq: 3290049
  stamp: 
    secs: 1561686411
    nsecs: 322798492
  frame_id: "ti_mmwave"
point_id: 17
x: 1.216796875
y: 0.357421875
z: 0.01171875
range: 1.35088610649
velocity: 0.0
doppler_bin: 8
bearing: 16.3696231842
intensity: 19.3449840546
---
header: 
  seq: 3290050
  stamp: 
    secs: 1561686411
    nsecs: 323632699
  frame_id: "ti_mmwave"
point_id: 0
x: 0.01171875
y: -0.0390625
z: -0.0078125
range: 0.0435769706964
velocity: 0.0
doppler_bin: 8
bearing: -73.3007583618
intensity: 30.7298469543
---
header: 
  seq: 3290051
  stamp: 
    secs: 1561686411
    nsecs: 323707026
  frame_id: "ti_mmwave"
point_id: 1
x: 0.017578125
y: -0.080078125
z: -0.0078125
range: 0.0871539413929
velocity: 0.0
doppler_bin: 8
bearing: -77.6192398071
intensity: 31.9700469971
---
header: 
  seq: 3290052
  stamp: 
    secs: 1561686411
    nsecs: 323727514
  frame_id: "ti_mmwave"
point_id: 2
x: 0.029296875
y: -0.119140625
z: -0.00390625
range: 0.130730912089
velocity: 0.0
doppler_bin: 8
bearing: -76.1849746704
intensity: 30.1994667053
---
header: 
  seq: 3290053
  stamp: 
    secs: 1561686411
    nsecs: 323739781
  frame_id: "ti_mmwave"
point_id: 3
x: 0.056640625
y: -0.154296875
z: 0.005859375
range: 0.174307882786
velocity: 0.0
doppler_bin: 8
bearing: -69.8423843384
intensity: 25.5144996643
---
header: 
  seq: 3290054
  stamp: 
    secs: 1561686411
    nsecs: 323751639
  frame_id: "ti_mmwave"
point_id: 4
x: 0.34375
y: -0.080078125
z: -1.21875
range: 1.35088610649
velocity: 0.0
doppler_bin: 8
bearing: -13.1134386063
intensity: 22.0139713287
---
header: 
  seq: 3290055
  stamp: 
    secs: 1561686411
    nsecs: 323762931
  frame_id: "ti_mmwave"
point_id: 5
x: 0.33203125
y: -0.041015625
z: 1.265625
range: 1.39446306229
velocity: 0.0
doppler_bin: 8
bearing: -7.04203891754
intensity: 23.2633590698
---
header: 
  seq: 3290056
  stamp: 
    secs: 1561686411
    nsecs: 323777199
  frame_id: "ti_mmwave"
point_id: 6
x: 0.509765625
y: -0.04296875
z: 1.25
range: 1.43804001808
velocity: 0.0
doppler_bin: 8
bearing: -4.81814002991
intensity: 21.9865703583
---
header: 
  seq: 3290057
  stamp: 
    secs: 1561686411
    nsecs: 323789971
  frame_id: "ti_mmwave"
point_id: 7
x: 2.53125
y: -0.263671875
z: 1.220703125
range: 3.00681090355
velocity: 0.0
doppler_bin: 8
bearing: -5.94686317444
intensity: 29.0848503113
---
header: 
  seq: 3290058
  stamp: 
    secs: 1561686411
    nsecs: 323914081
  frame_id: "ti_mmwave"
point_id: 8
x: 2.611328125
y: -0.1796875
z: 1.162109375
range: 3.05038785934
velocity: 0.0
doppler_bin: 8
bearing: -3.9363617897
intensity: 32.655254364
---
header: 
  seq: 3290059
  stamp: 
    secs: 1561686411
    nsecs: 323938842
  frame_id: "ti_mmwave"
point_id: 9
x: 2.65625
y: -0.181640625
z: 1.162109375
range: 3.09396481514
velocity: 0.0
doppler_bin: 8
bearing: -3.91193032265
intensity: 32.0276069641
---
header: 
  seq: 3290060
  stamp: 
    secs: 1561686411
    nsecs: 323950329
  frame_id: "ti_mmwave"
point_id: 11
x: 0.041015625
y: -0.033203125
z: 0.0625
range: 0.0871539413929
velocity: 0.0
doppler_bin: 8
bearing: -38.9909973145
intensity: 30.1452045441
---
header: 
  seq: 3290061
  stamp: 
    secs: 1561686411
    nsecs: 323958504
  frame_id: "ti_mmwave"
point_id: 12
x: 0.044921875
y: -0.046875
z: 0.103515625
range: 0.130730912089
velocity: 0.0
doppler_bin: 8
bearing: -46.218875885
intensity: 29.0471553802
---
header: 
  seq: 3290062
  stamp: 
    secs: 1561686411
    nsecs: 323968212
  frame_id: "ti_mmwave"
point_id: 14
x: 1.21484375
y: 0.357421875
z: 0.064453125
range: 1.35088610649
velocity: 0.0
doppler_bin: 8
bearing: 16.3945274353
intensity: 19.2427921295
---
header: 
  seq: 3290063
  stamp: 
    secs: 1561686411
    nsecs: 382460205
  frame_id: "ti_mmwave"
point_id: 0
x: 0.01171875
y: -0.0390625
z: -0.0078125
range: 0.0435769706964
velocity: 0.0
doppler_bin: 8
bearing: -73.3007583618
intensity: 30.7371826172
---
header: 
  seq: 3290064
  stamp: 
    secs: 1561686411
    nsecs: 382536868
  frame_id: "ti_mmwave"
point_id: 1
x: 0.017578125
y: -0.080078125
z: -0.0078125
range: 0.0871539413929
velocity: 0.0
doppler_bin: 8
bearing: -77.6192398071
intensity: 31.9755630493
---
header: 
  seq: 3290065
  stamp: 
    secs: 1561686411
    nsecs: 382552879
  frame_id: "ti_mmwave"
point_id: 2
x: 0.029296875
y: -0.119140625
z: -0.00390625
range: 0.130730912089
velocity: 0.0
doppler_bin: 8
bearing: -76.1849746704
intensity: 30.1994667053
---
header: 
  seq: 3290066
  stamp: 
    secs: 1561686411
    nsecs: 382566944
  frame_id: "ti_mmwave"
point_id: 3
x: 0.056640625
y: -0.154296875
z: 0.005859375
range: 0.174307882786
velocity: 0.0
doppler_bin: 8
bearing: -69.8423843384
intensity: 25.490032196
---
header: 
  seq: 3290067
  stamp: 
    secs: 1561686411
    nsecs: 382579211
  frame_id: "ti_mmwave"
point_id: 4
x: 0.310546875
y: -0.080078125
z: -1.2265625
range: 1.35088610649
velocity: 0.0
doppler_bin: 8
bearing: -14.4593963623
intensity: 21.9865703583
---
header: 
  seq: 3290068
  stamp: 
    secs: 1561686411
    nsecs: 382593431
  frame_id: "ti_mmwave"
point_id: 5
x: 0.341796875
y: -0.041015625
z: 1.263671875
range: 1.39446306229
velocity: 0.0
doppler_bin: 8
bearing: -6.8427734375
intensity: 23.2221927643
---
header: 
  seq: 3290069
  stamp: 
    secs: 1561686411
    nsecs: 382667678
  frame_id: "ti_mmwave"
point_id: 6
x: 0.525390625
y: -0.04296875
z: 1.2421875
range: 1.43804001808
velocity: 0.0
doppler_bin: 8
bearing: -4.67549467087
intensity: 21.9589958191
---
header: 
  seq: 3290070
  stamp: 
    secs: 1561686411
    nsecs: 382680565
  frame_id: "ti_mmwave"
point_id: 7
x: 1.703125
y: -0.0546875
z: -0.435546875
range: 1.87380969524
velocity: 0.0
doppler_bin: 8
bearing: -1.83914065361
intensity: 27.0243053436
---
header: 
  seq: 3290071
  stamp: 
    secs: 1561686411
    nsecs: 382691622
  frame_id: "ti_mmwave"
point_id: 8
x: 1.765625
y: -0.0
z: -0.349609375
range: 1.91738677025
velocity: 0.0
doppler_bin: 8
bearing: -0.0
intensity: 26.5127792358
---
header: 
  seq: 3290072
  stamp: 
    secs: 1561686411
    nsecs: 382703486
  frame_id: "ti_mmwave"
point_id: 9
x: 2.5625
y: -0.263671875
z: 1.154296875
range: 3.00681090355
velocity: 0.0
doppler_bin: 8
bearing: -5.87485074997
intensity: 29.3851966858
---
header: 
  seq: 3290073
  stamp: 
    secs: 1561686411
    nsecs: 382713781
  frame_id: "ti_mmwave"
point_id: 10
x: 2.619140625
y: -0.1796875
z: 1.142578125
range: 3.05038785934
velocity: 0.0
doppler_bin: 8
bearing: -3.9246571064
intensity: 32.7461967468
---
header: 
  seq: 3290074
  stamp: 
    secs: 1561686411
    nsecs: 382724179
  frame_id: "ti_mmwave"
point_id: 11
x: 2.66015625
y: -0.181640625
z: 1.150390625
range: 3.09396481514
velocity: 0.0
doppler_bin: 8
bearing: -3.90620398521
intensity: 31.9672870636
---
header: 
  seq: 3290075
  stamp: 
    secs: 1561686411
    nsecs: 382738044
  frame_id: "ti_mmwave"
point_id: 13
x: 0.041015625
y: -0.033203125
z: 0.0625
range: 0.0871539413929
velocity: 0.0
doppler_bin: 8
bearing: -38.9909973145
intensity: 30.1452045441
---
header: 
  seq: 3290076
  stamp: 
    secs: 1561686411
    nsecs: 382752907
  frame_id: "ti_mmwave"
point_id: 14
x: 0.044921875
y: -0.046875
z: 0.103515625
range: 0.130730912089
velocity: 0.0
doppler_bin: 8
bearing: -46.218875885
intensity: 29.0471553802
---
header: 
  seq: 3290077
  stamp: 
    secs: 1561686411
    nsecs: 382768056
  frame_id: "ti_mmwave"
point_id: 16
x: 1.216796875
y: 0.357421875
z: 0.021484375
range: 1.35088610649
velocity: 0.0
doppler_bin: 8
bearing: 16.3696231842
intensity: 19.3449840546
---
header: 
  seq: 3290078
  stamp: 
    secs: 1561686411
    nsecs: 383633986
  frame_id: "ti_mmwave"
point_id: 0
x: 0.01171875
y: -0.0390625
z: -0.0078125
range: 0.0435769706964
velocity: 0.0
doppler_bin: 8
bearing: -73.3007583618
intensity: 30.7481651306
---
header: 
  seq: 3290079
  stamp: 
    secs: 1561686411
    nsecs: 383704050
  frame_id: "ti_mmwave"
point_id: 1
x: 0.017578125
y: -0.080078125
z: -0.0078125
range: 0.0871539413929
velocity: 0.0
doppler_bin: 8
bearing: -77.6192398071
intensity: 31.9755630493
---
header: 
  seq: 3290080
  stamp: 
    secs: 1561686411
    nsecs: 383723616
  frame_id: "ti_mmwave"
point_id: 2
x: 0.029296875
y: -0.119140625
z: -0.00390625
range: 0.130730912089
velocity: 0.0
doppler_bin: 8
bearing: -76.1849746704
intensity: 30.1994667053
---
header: 
  seq: 3290081
  stamp: 
    secs: 1561686411
    nsecs: 383736187
  frame_id: "ti_mmwave"
point_id: 3
x: 0.056640625
y: -0.154296875
z: 0.005859375
range: 0.174307882786
velocity: 0.0
doppler_bin: 8
bearing: -69.8423843384
intensity: 25.490032196
---
header: 
  seq: 3290082
  stamp: 
    secs: 1561686411
    nsecs: 383796944
  frame_id: "ti_mmwave"
point_id: 4
x: 0.322265625
y: -0.080078125
z: -1.224609375
range: 1.35088610649
velocity: 0.0
doppler_bin: 8
bearing: -13.9545097351
intensity: 21.9589958191
---
header: 
  seq: 3290083
  stamp: 
    secs: 1561686411
    nsecs: 383811236
  frame_id: "ti_mmwave"
point_id: 5
x: 0.3125
y: -0.041015625
z: 1.271484375
range: 1.39446306229
velocity: 0.0
doppler_bin: 8
bearing: -7.47732973099
intensity: 23.2014636993
---
header: 
  seq: 3290084
  stamp: 
    secs: 1561686411
    nsecs: 383822777
  frame_id: "ti_mmwave"
point_id: 6
x: 0.490234375
y: -0.04296875
z: 1.2578125
range: 1.43804001808
velocity: 0.0
doppler_bin: 8
bearing: -5.00914001465
intensity: 21.9033164978
---
header: 
  seq: 3290085
  stamp: 
    secs: 1561686411
    nsecs: 383833632
  frame_id: "ti_mmwave"
point_id: 7
x: 1.734375
y: -0.0546875
z: -0.2890625
range: 1.87380969524
velocity: 0.0
doppler_bin: 8
bearing: -1.80602538586
intensity: 28.9097957611
---
header: 
  seq: 3290086
  stamp: 
    secs: 1561686411
    nsecs: 383845179
  frame_id: "ti_mmwave"
point_id: 8
x: 1.775390625
y: -0.056640625
z: -0.291015625
range: 1.91738677025
velocity: 0.0
doppler_bin: 8
bearing: -1.82729828358
intensity: 29.6284275055
---
header: 
  seq: 3290087
  stamp: 
    secs: 1561686411
    nsecs: 383856811
  frame_id: "ti_mmwave"
point_id: 9
x: 2.556640625
y: -0.263671875
z: 1.1640625
range: 3.00681090355
velocity: 0.0
doppler_bin: 8
bearing: -5.88822031021
intensity: 29.4101428986
---
header: 
  seq: 3290088
  stamp: 
    secs: 1561686411
    nsecs: 383869385
  frame_id: "ti_mmwave"
point_id: 10
x: 2.623046875
y: -0.1796875
z: 1.134765625
range: 3.05038785934
velocity: 0.0
doppler_bin: 8
bearing: -3.91883039474
intensity: 32.7921066284
---
header: 
  seq: 3290089
  stamp: 
    secs: 1561686411
    nsecs: 383883883
  frame_id: "ti_mmwave"
point_id: 11
x: 2.671875
y: -0.181640625
z: 1.123046875
range: 3.09396481514
velocity: 0.0
doppler_bin: 8
bearing: -3.88912391663
intensity: 32.1085319519
---
header: 
  seq: 3290090
  stamp: 
    secs: 1561686411
    nsecs: 383899795
  frame_id: "ti_mmwave"
point_id: 13
x: 0.041015625
y: -0.033203125
z: 0.0625
range: 0.0871539413929
velocity: 0.0
doppler_bin: 8
bearing: -38.9909973145
intensity: 30.141002655
---
header: 
  seq: 3290091
  stamp: 
    secs: 1561686411
    nsecs: 383943633
  frame_id: "ti_mmwave"
point_id: 14
x: 0.044921875
y: -0.046875
z: 0.103515625
range: 0.130730912089
velocity: 0.0
doppler_bin: 8
bearing: -46.218875885
intensity: 29.0471553802
---
header: 
  seq: 3290092
  stamp: 
    secs: 1561686411
    nsecs: 383962599
  frame_id: "ti_mmwave"
point_id: 16
x: 1.216796875
y: 0.357421875
z: 0.033203125
range: 1.35088610649
velocity: 0.0
doppler_bin: 8
bearing: 16.3696231842
intensity: 19.2427921295
---
header: 
  seq: 3290093
  stamp: 
    secs: 1561686411
    nsecs: 442749741
  frame_id: "ti_mmwave"
point_id: 0
x: 0.01171875
y: -0.0390625
z: -0.0078125
range: 0.0435769706964
velocity: 0.0
doppler_bin: 8
bearing: -73.3007583618
intensity: 30.7408466339
---
header: 
  seq: 3290094
  stamp: 
    secs: 1561686411
    nsecs: 442827038
  frame_id: "ti_mmwave"
point_id: 1
x: 0.017578125
y: -0.080078125
z: -0.0078125
range: 0.0871539413929
velocity: 0.0
doppler_bin: 8
bearing: -77.6192398071
intensity: 31.9755630493
---
header: 
  seq: 3290095
  stamp: 
    secs: 1561686411
    nsecs: 442840250
  frame_id: "ti_mmwave"
point_id: 2
x: 0.029296875
y: -0.119140625
z: -0.00390625
range: 0.130730912089
velocity: 0.0
doppler_bin: 8
bearing: -76.1849746704
intensity: 30.2036132812
---
header: 
  seq: 3290096
  stamp: 
    secs: 1561686411
    nsecs: 442850443
  frame_id: "ti_mmwave"
point_id: 3
x: 0.056640625
y: -0.154296875
z: 0.0078125
range: 0.174307882786
velocity: 0.0
doppler_bin: 8
bearing: -69.8423843384
intensity: 25.5022830963
---
header: 
  seq: 3290097
  stamp: 
    secs: 1561686411
    nsecs: 442858447
  frame_id: "ti_mmwave"
point_id: 4
x: 0.34375
y: -0.080078125
z: -1.21875
range: 1.35088610649
velocity: 0.0
doppler_bin: 8
bearing: -13.1134386063
intensity: 21.9865703583
---
header: 
  seq: 3290098
  stamp: 
    secs: 1561686411
    nsecs: 442866332
  frame_id: "ti_mmwave"
point_id: 5
x: 0.298828125
y: -0.041015625
z: 1.2734375
range: 1.39446306229
velocity: 0.0
doppler_bin: 8
bearing: -7.81529378891
intensity: 23.2428245544
---
header: 
  seq: 3290099
  stamp: 
    secs: 1561686411
    nsecs: 442873929
  frame_id: "ti_mmwave"
point_id: 6
x: 0.490234375
y: -0.04296875
z: 1.255859375
range: 1.43804001808
velocity: 0.0
doppler_bin: 8
bearing: -5.00914001465
intensity: 21.9312458038
---
header: 
  seq: 3290100
  stamp: 
    secs: 1561686411
    nsecs: 442881950
  frame_id: "ti_mmwave"
point_id: 7
x: 2.55078125
y: -0.263671875
z: 1.177734375
range: 3.00681090355
velocity: 0.0
doppler_bin: 8
bearing: -5.90165042877
intensity: 29.4398880005
---
header: 
  seq: 3290101
  stamp: 
    secs: 1561686411
    nsecs: 442891230
  frame_id: "ti_mmwave"
point_id: 8
x: 2.6015625
y: -0.267578125
z: 1.16796875
range: 3.05038785934
velocity: 0.0
doppler_bin: 8
bearing: -5.87238502502
intensity: 32.7485046387
---
header: 
  seq: 3290102
  stamp: 
    secs: 1561686411
    nsecs: 442901316
  frame_id: "ti_mmwave"
point_id: 9
x: 2.658203125
y: -0.181640625
z: 1.158203125
range: 3.09396481514
velocity: 0.0
doppler_bin: 8
bearing: -3.90906453133
intensity: 31.9645252228
---
header: 
  seq: 3290103
  stamp: 
    secs: 1561686411
    nsecs: 442909139
  frame_id: "ti_mmwave"
point_id: 10
x: 1.73046875
y: -0.0546875
z: -0.310546875
range: 1.87380969524
velocity: 0.614668667316
doppler_bin: 9
bearing: -1.81009960175
intensity: 25.6348114014
---
header: 
  seq: 3290104
  stamp: 
    secs: 1561686411
    nsecs: 442918863
  frame_id: "ti_mmwave"
point_id: 11
x: 1.775390625
y: -0.056640625
z: -0.294921875
range: 1.91738677025
velocity: 0.614668667316
doppler_bin: 9
bearing: -1.82729828358
intensity: 26.7577838898
---
header: 
  seq: 3290105
  stamp: 
    secs: 1561686411
    nsecs: 442929384
  frame_id: "ti_mmwave"
point_id: 13
x: 0.041015625
y: -0.033203125
z: 0.0625
range: 0.0871539413929
velocity: 0.0
doppler_bin: 8
bearing: -38.9909973145
intensity: 30.1452045441
---
header: 
  seq: 3290106
  stamp: 
    secs: 1561686411
    nsecs: 442938033
  frame_id: "ti_mmwave"
point_id: 14
x: 0.044921875
y: -0.046875
z: 0.103515625
range: 0.130730912089
velocity: 0.0
doppler_bin: 8
bearing: -46.218875885
intensity: 29.0471553802
---
header: 
  seq: 3290107
  stamp: 
    secs: 1561686411
    nsecs: 442950388
  frame_id: "ti_mmwave"
point_id: 16
x: 1.216796875
y: 0.357421875
z: 0.025390625
range: 1.35088610649
velocity: 0.0
doppler_bin: 8
bearing: 16.3696231842
intensity: 19.3951931
---
header: 
  seq: 3290108
  stamp: 
    secs: 1561686411
    nsecs: 502511103
  frame_id: "ti_mmwave"
point_id: 0
x: 0.01171875
y: -0.0390625
z: -0.0078125
range: 0.0435769706964
velocity: 0.0
doppler_bin: 8
bearing: -73.3007583618
intensity: 30.7371826172
---
header: 
  seq: 3290109
  stamp: 
    secs: 1561686411
    nsecs: 502611836
  frame_id: "ti_mmwave"
point_id: 1
x: 0.017578125
y: -0.080078125
z: -0.0078125
range: 0.0871539413929
velocity: 0.0
doppler_bin: 8
bearing: -77.6192398071
intensity: 31.9700469971
---
header: 
  seq: 3290110
  stamp: 
    secs: 1561686411
    nsecs: 502622961
  frame_id: "ti_mmwave"
point_id: 2
x: 0.029296875
y: -0.119140625
z: -0.00390625
range: 0.130730912089
velocity: 0.0
doppler_bin: 8
bearing: -76.1849746704
intensity: 30.1994667053
---
header: 
  seq: 3290111
  stamp: 
    secs: 1561686411
    nsecs: 502631577
  frame_id: "ti_mmwave"
point_id: 3
x: 0.056640625
y: -0.154296875
z: 0.005859375
range: 0.174307882786
velocity: 0.0
doppler_bin: 8
bearing: -69.8423843384
intensity: 25.490032196
---
header: 
  seq: 3290112
  stamp: 
    secs: 1561686411
    nsecs: 502641907
  frame_id: "ti_mmwave"
point_id: 4
x: 0.35546875
y: -0.080078125
z: -1.21484375
range: 1.35088610649
velocity: 0.0
doppler_bin: 8
bearing: -12.6953649521
intensity: 21.9865703583
---
header: 
  seq: 3290113
  stamp: 
    secs: 1561686411
    nsecs: 502650222
  frame_id: "ti_mmwave"
point_id: 5
x: 0.306640625
y: -0.041015625
z: 1.271484375
range: 1.39446306229
velocity: 0.0
doppler_bin: 8
bearing: -7.6185464859
intensity: 23.2221927643
---
header: 
  seq: 3290114
  stamp: 
    secs: 1561686411
    nsecs: 502660622
  frame_id: "ti_mmwave"
point_id: 6
x: 0.404296875
y: -0.0
z: 1.287109375
range: 1.43804001808
velocity: 0.0
doppler_bin: 8
bearing: -0.0
intensity: 21.9312458038
---
header: 
  seq: 3290115
  stamp: 
    secs: 1561686411
    nsecs: 502668948
  frame_id: "ti_mmwave"
point_id: 7
x: 1.720703125
y: -0.109375
z: -0.345703125
range: 1.87380969524
velocity: 0.0
doppler_bin: 8
bearing: -3.63706326485
intensity: 28.6510391235
---
header: 
  seq: 3290116
  stamp: 
    secs: 1561686411
    nsecs: 502677436
  frame_id: "ti_mmwave"
point_id: 8
x: 1.751953125
y: -0.11328125
z: -0.3984375
range: 1.91738677025
velocity: 0.0
doppler_bin: 8
bearing: -3.69959378242
intensity: 30.4571399689
---
header: 
  seq: 3290117
  stamp: 
    secs: 1561686411
    nsecs: 502685119
  frame_id: "ti_mmwave"
point_id: 9
x: 1.787109375
y: -0.171875
z: -0.408203125
range: 1.96096372604
velocity: 0.0
doppler_bin: 8
bearing: -5.49351787567
intensity: 29.5951843262
---
header: 
  seq: 3290118
  stamp: 
    secs: 1561686411
    nsecs: 502693336
  frame_id: "ti_mmwave"
point_id: 10
x: 2.5625
y: -0.263671875
z: 1.15234375
range: 3.00681090355
velocity: 0.0
doppler_bin: 8
bearing: -5.87485074997
intensity: 29.484128952
---
header: 
  seq: 3290119
  stamp: 
    secs: 1561686411
    nsecs: 502702115
  frame_id: "ti_mmwave"
point_id: 11
x: 2.609375
y: -0.267578125
z: 1.146484375
range: 3.05038785934
velocity: 0.0
doppler_bin: 8
bearing: -5.85492515564
intensity: 32.7760925293
---
header: 
  seq: 3290120
  stamp: 
    secs: 1561686411
    nsecs: 502712122
  frame_id: "ti_mmwave"
point_id: 12
x: 2.666015625
y: -0.181640625
z: 1.138671875
range: 3.09396481514
velocity: 0.0
doppler_bin: 8
bearing: -3.89764523506
intensity: 32.0057678223
---
header: 
  seq: 3290121
  stamp: 
    secs: 1561686411
    nsecs: 502721789
  frame_id: "ti_mmwave"
point_id: 13
x: 1.875
y: -0.1171875
z: 0.107421875
range: 2.00454068184
velocity: -0.614668667316
doppler_bin: 7
bearing: -3.57633447647
intensity: 27.058637619
---
header: 
  seq: 3290122
  stamp: 
    secs: 1561686411
    nsecs: 502733823
  frame_id: "ti_mmwave"
point_id: 15
x: 0.041015625
y: -0.033203125
z: 0.0625
range: 0.0871539413929
velocity: 0.0
doppler_bin: 8
bearing: -38.9909973145
intensity: 30.141002655
---
header: 
  seq: 3290123
  stamp: 
    secs: 1561686411
    nsecs: 502742551
  frame_id: "ti_mmwave"
point_id: 16
x: 0.044921875
y: -0.046875
z: 0.103515625
range: 0.130730912089
velocity: 0.0
doppler_bin: 8
bearing: -46.218875885
intensity: 29.0471553802
---
header: 
  seq: 3290124
  stamp: 
    secs: 1561686411
    nsecs: 502848818
  frame_id: "ti_mmwave"
point_id: 18
x: 1.216796875
y: 0.357421875
z: 0.05078125
range: 1.35088610649
velocity: 0.0
doppler_bin: 8
bearing: 16.3696231842
intensity: 19.2941894531
---
header: 
  seq: 3290125
  stamp: 
    secs: 1561686411
    nsecs: 503782401
  frame_id: "ti_mmwave"
point_id: 0
x: 0.01171875
y: -0.0390625
z: -0.0078125
range: 0.0435769706964
velocity: 0.0
doppler_bin: 8
bearing: -73.3007583618
intensity: 30.7335166931
---
header: 
  seq: 3290126
  stamp: 
    secs: 1561686411
    nsecs: 503855436
  frame_id: "ti_mmwave"
point_id: 1
x: 0.01953125
y: -0.080078125
z: -0.0078125
range: 0.0871539413929
velocity: 0.0
doppler_bin: 8
bearing: -76.2930374146
intensity: 31.9700469971
---
header: 
  seq: 3290127
  stamp: 
    secs: 1561686411
    nsecs: 503882626
  frame_id: "ti_mmwave"
point_id: 2
x: 0.029296875
y: -0.119140625
z: -0.00390625
range: 0.130730912089
velocity: 0.0
doppler_bin: 8
bearing: -76.1849746704
intensity: 30.1994667053
---
header: 
  seq: 3290128
  stamp: 
    secs: 1561686411
    nsecs: 503898133
  frame_id: "ti_mmwave"
point_id: 3
x: 0.056640625
y: -0.154296875
z: 0.005859375
range: 0.174307882786
velocity: 0.0
doppler_bin: 8
bearing: -69.8423843384
intensity: 25.5022830963
---
header: 
  seq: 3290129
  stamp: 
    secs: 1561686411
    nsecs: 503932635
  frame_id: "ti_mmwave"
point_id: 4
x: 0.345703125
y: -0.080078125
z: -1.216796875
range: 1.35088610649
velocity: 0.0
doppler_bin: 8
bearing: -13.0418901443
intensity: 21.9865703583
---
header: 
  seq: 3290130
  stamp: 
    secs: 1561686411
    nsecs: 503953987
  frame_id: "ti_mmwave"
point_id: 5
x: 0.302734375
y: -0.041015625
z: 1.2734375
range: 1.39446306229
velocity: 0.0
doppler_bin: 8
bearing: -7.71567344666
intensity: 23.2633590698
---
header: 
  seq: 3290131
  stamp: 
    secs: 1561686411
    nsecs: 503980769
  frame_id: "ti_mmwave"
point_id: 6
x: 0.396484375
y: -0.0
z: 1.291015625
range: 1.43804001808
velocity: 0.0
doppler_bin: 8
bearing: -0.0
intensity: 21.9865703583
---
header: 
  seq: 3290132
  stamp: 
    secs: 1561686411
    nsecs: 504079099
  frame_id: "ti_mmwave"
point_id: 7
x: 1.7265625
y: -0.109375
z: -0.322265625
range: 1.87380969524
velocity: 0.0
doppler_bin: 8
bearing: -3.62475371361
intensity: 29.5904140472
---
header: 
  seq: 3290133
  stamp: 
    secs: 1561686411
    nsecs: 504096898
  frame_id: "ti_mmwave"
point_id: 8
x: 1.771484375
y: -0.056640625
z: -0.318359375
range: 1.91738677025
velocity: 0.0
doppler_bin: 8
bearing: -1.83132505417
intensity: 30.9201850891
---
header: 
  seq: 3290134
  stamp: 
    secs: 1561686411
    nsecs: 504112502
  frame_id: "ti_mmwave"
point_id: 9
x: 1.798828125
y: -0.115234375
z: -0.37109375
range: 1.96096372604
velocity: 0.0
doppler_bin: 8
bearing: -3.6654047966
intensity: 28.9320678711
---
header: 
  seq: 3290135
  stamp: 
    secs: 1561686411
    nsecs: 504126539
  frame_id: "ti_mmwave"
point_id: 10
x: 2.5390625
y: -0.263671875
z: 1.205078125
range: 3.00681090355
velocity: 0.0
doppler_bin: 8
bearing: -5.92869567871
intensity: 29.3449840546
---
header: 
  seq: 3290136
  stamp: 
    secs: 1561686411
    nsecs: 504141383
  frame_id: "ti_mmwave"
point_id: 11
x: 2.603515625
y: -0.267578125
z: 1.16015625
range: 3.05038785934
velocity: 0.0
doppler_bin: 8
bearing: -5.8680100441
intensity: 32.702129364
---
header: 
  seq: 3290137
  stamp: 
    secs: 1561686411
    nsecs: 504153175
  frame_id: "ti_mmwave"
point_id: 12
x: 2.6640625
y: -0.181640625
z: 1.14453125
range: 3.09396481514
velocity: 0.0
doppler_bin: 8
bearing: -3.90049386024
intensity: 31.9589958191
---
header: 
  seq: 3290138
  stamp: 
    secs: 1561686411
    nsecs: 504169773
  frame_id: "ti_mmwave"
point_id: 14
x: 0.041015625
y: -0.033203125
z: 0.0625
range: 0.0871539413929
velocity: 0.0
doppler_bin: 8
bearing: -38.9909973145
intensity: 30.141002655
---
header: 
  seq: 3290139
  stamp: 
    secs: 1561686411
    nsecs: 504183960
  frame_id: "ti_mmwave"
point_id: 15
x: 0.044921875
y: -0.046875
z: 0.103515625
range: 0.130730912089
velocity: 0.0
doppler_bin: 8
bearing: -46.218875885
intensity: 29.0471553802
---
header: 
  seq: 3290140
  stamp: 
    secs: 1561686411
    nsecs: 504200044
  frame_id: "ti_mmwave"
point_id: 17
x: 1.216796875
y: 0.357421875
z: 0.044921875
range: 1.35088610649
velocity: 0.0
doppler_bin: 8
bearing: 16.3696231842
intensity: 19.2427921295
---
header: 
  seq: 3290141
  stamp: 
    secs: 1561686411
    nsecs: 562476093
  frame_id: "ti_mmwave"
point_id: 0
x: 0.01171875
y: -0.0390625
z: -0.0078125
range: 0.0435769706964
velocity: 0.0
doppler_bin: 8
bearing: -73.3007583618
intensity: 30.7371826172
---
header: 
  seq: 3290142
  stamp: 
    secs: 1561686411
    nsecs: 562550937
  frame_id: "ti_mmwave"
point_id: 1
x: 0.017578125
y: -0.080078125
z: -0.0078125
range: 0.0871539413929
velocity: 0.0
doppler_bin: 8
bearing: -77.6192398071
intensity: 31.9728050232
---
header: 
  seq: 3290143
  stamp: 
    secs: 1561686411
    nsecs: 562561758
  frame_id: "ti_mmwave"
point_id: 2
x: 0.029296875
y: -0.119140625
z: -0.00390625
range: 0.130730912089
velocity: 0.0
doppler_bin: 8
bearing: -76.1849746704
intensity: 30.1994667053
---
header: 
  seq: 3290144
  stamp: 
    secs: 1561686411
    nsecs: 562572870
  frame_id: "ti_mmwave"
point_id: 3
x: 0.056640625
y: -0.154296875
z: 0.0078125
range: 0.174307882786
velocity: 0.0
doppler_bin: 8
bearing: -69.8423843384
intensity: 25.490032196
---
header: 
  seq: 3290145
  stamp: 
    secs: 1561686411
    nsecs: 562580895
  frame_id: "ti_mmwave"
point_id: 4
x: 0.353515625
y: -0.080078125
z: -1.21484375
range: 1.35088610649
velocity: 0.0
doppler_bin: 8
bearing: -12.7632131577
intensity: 22.0139713287
---
header: 
  seq: 3290146
  stamp: 
    secs: 1561686411
    nsecs: 562589191
  frame_id: "ti_mmwave"
point_id: 5
x: 0.30078125
y: -0.041015625
z: 1.2734375
range: 1.39446306229
velocity: 0.0
doppler_bin: 8
bearing: -7.76516628265
intensity: 23.2837963104
---
header: 
  seq: 3290147
  stamp: 
    secs: 1561686411
    nsecs: 562599207
  frame_id: "ti_mmwave"
point_id: 6
x: 0.501953125
y: -0.04296875
z: 1.251953125
range: 1.43804001808
velocity: 0.0
doppler_bin: 8
bearing: -4.89276885986
intensity: 22.0139713287
---
header: 
  seq: 3290148
  stamp: 
    secs: 1561686411
    nsecs: 562607732
  frame_id: "ti_mmwave"
point_id: 7
x: 0.4140625
y: -0.0
z: 1.328125
range: 1.48161697388
velocity: 0.0
doppler_bin: 8
bearing: -0.0
intensity: 21.2385158539
---
header: 
  seq: 3290149
  stamp: 
    secs: 1561686411
    nsecs: 562615900
  frame_id: "ti_mmwave"
point_id: 8
x: 1.775390625
y: -0.11328125
z: -0.2734375
range: 1.91738677025
velocity: 0.0
doppler_bin: 8
bearing: -3.65088677406
intensity: 29.8045787811
---
header: 
  seq: 3290150
  stamp: 
    secs: 1561686411
    nsecs: 562625049
  frame_id: "ti_mmwave"
point_id: 9
x: 1.8203125
y: -0.115234375
z: -0.248046875
range: 1.96096372604
velocity: 0.0
doppler_bin: 8
bearing: -3.62225985527
intensity: 30.0902576447
---
header: 
  seq: 3290151
  stamp: 
    secs: 1561686411
    nsecs: 562632661
  frame_id: "ti_mmwave"
point_id: 10
x: 1.86328125
y: -0.1171875
z: -0.228515625
range: 2.00454068184
velocity: 0.0
doppler_bin: 8
bearing: -3.59876823425
intensity: 28.6153450012
---
header: 
  seq: 3290152
  stamp: 
    secs: 1561686411
    nsecs: 562657494
  frame_id: "ti_mmwave"
point_id: 11
x: 2.505859375
y: -0.263671875
z: 1.271484375
range: 3.00681090355
velocity: 0.0
doppler_bin: 8
bearing: -6.00668144226
intensity: 29.2890777588
---
header: 
  seq: 3290153
  stamp: 
    secs: 1561686411
    nsecs: 562665753
  frame_id: "ti_mmwave"
point_id: 12
x: 2.603515625
y: -0.1796875
z: 1.1796875
range: 3.05038785934
velocity: 0.0
doppler_bin: 8
bearing: -3.94813656807
intensity: 32.6857795715
---
header: 
  seq: 3290154
  stamp: 
    secs: 1561686411
    nsecs: 562829360
  frame_id: "ti_mmwave"
point_id: 13
x: 2.65625
y: -0.181640625
z: 1.16015625
range: 3.09396481514
velocity: 0.0
doppler_bin: 8
bearing: -3.91193032265
intensity: 31.9395904541
---
header: 
  seq: 3290155
  stamp: 
    secs: 1561686411
    nsecs: 562850459
  frame_id: "ti_mmwave"
point_id: 15
x: 0.041015625
y: -0.033203125
z: 0.0625
range: 0.0871539413929
velocity: 0.0
doppler_bin: 8
bearing: -38.9909973145
intensity: 30.1452045441
---
header: 
  seq: 3290156
  stamp: 
    secs: 1561686411
    nsecs: 562858905
  frame_id: "ti_mmwave"
point_id: 16
x: 0.044921875
y: -0.046875
z: 0.103515625
range: 0.130730912089
velocity: 0.0
doppler_bin: 8
bearing: -46.218875885
intensity: 29.0471553802
---
header: 
  seq: 3290157
  stamp: 
    secs: 1561686411
    nsecs: 562868675
  frame_id: "ti_mmwave"
point_id: 18
x: 1.21484375
y: 0.357421875
z: 0.060546875
range: 1.35088610649
velocity: 0.0
doppler_bin: 8
bearing: 16.3945274353
intensity: 19.2941894531
---
header: 
  seq: 3290158
  stamp: 
    secs: 1561686411
    nsecs: 563672253
  frame_id: "ti_mmwave"
point_id: 0
x: 0.01171875
y: -0.0390625
z: -0.0078125
range: 0.0435769706964
velocity: 0.0
doppler_bin: 8
bearing: -73.3007583618
intensity: 30.7298469543
---
header: 
  seq: 3290159
  stamp: 
    secs: 1561686411
    nsecs: 563738354
  frame_id: "ti_mmwave"
point_id: 1
x: 0.017578125
y: -0.080078125
z: -0.0078125
range: 0.0871539413929
velocity: 0.0
doppler_bin: 8
bearing: -77.6192398071
intensity: 31.9700469971
---
header: 
  seq: 3290160
  stamp: 
    secs: 1561686411
    nsecs: 563763828
  frame_id: "ti_mmwave"
point_id: 2
x: 0.029296875
y: -0.119140625
z: -0.00390625
range: 0.130730912089
velocity: 0.0
doppler_bin: 8
bearing: -76.1849746704
intensity: 30.1994667053
---
header: 
  seq: 3290161
  stamp: 
    secs: 1561686411
    nsecs: 563779696
  frame_id: "ti_mmwave"
point_id: 3
x: 0.056640625
y: -0.154296875
z: 0.005859375
range: 0.174307882786
velocity: 0.0
doppler_bin: 8
bearing: -69.8423843384
intensity: 25.5022830963
---
header: 
  seq: 3290162
  stamp: 
    secs: 1561686411
    nsecs: 563793040
  frame_id: "ti_mmwave"
point_id: 4
x: 0.2890625
y: -0.080078125
z: -1.232421875
range: 1.35088610649
velocity: 0.0
doppler_bin: 8
bearing: -15.48416996
intensity: 21.9865703583
---
header: 
  seq: 3290163
  stamp: 
    secs: 1561686411
    nsecs: 563805010
  frame_id: "ti_mmwave"
point_id: 5
x: 0.36328125
y: -0.041015625
z: 1.2578125
range: 1.39446306229
velocity: 0.0
doppler_bin: 8
bearing: -6.44159984589
intensity: 23.2428245544
---
header: 
  seq: 3290164
  stamp: 
    secs: 1561686411
    nsecs: 563817215
  frame_id: "ti_mmwave"
point_id: 6
x: 0.5390625
y: -0.04296875
z: 1.236328125
range: 1.43804001808
velocity: 0.0
doppler_bin: 8
bearing: -4.55741930008
intensity: 21.9865703583
---
header: 
  seq: 3290165
  stamp: 
    secs: 1561686411
    nsecs: 563829784
  frame_id: "ti_mmwave"
point_id: 7
x: 1.78125
y: -0.056640625
z: -0.25390625
range: 1.91738677025
velocity: 0.0
doppler_bin: 8
bearing: -1.8212916851
intensity: 28.0002937317
---
header: 
  seq: 3290166
  stamp: 
    secs: 1561686411
    nsecs: 563841538
  frame_id: "ti_mmwave"
point_id: 8
x: 1.806640625
y: -0.0
z: -0.3515625
range: 1.96096372604
velocity: 0.0
doppler_bin: 8
bearing: -0.0
intensity: 26.8304710388
---
header: 
  seq: 3290167
  stamp: 
    secs: 1561686411
    nsecs: 563855847
  frame_id: "ti_mmwave"
point_id: 9
x: 2.544921875
y: -0.263671875
z: 1.19140625
range: 3.00681090355
velocity: 0.0
doppler_bin: 8
bearing: -5.91514253616
intensity: 29.3449840546
---
header: 
  seq: 3290168
  stamp: 
    secs: 1561686411
    nsecs: 563867525
  frame_id: "ti_mmwave"
point_id: 10
x: 2.615234375
y: -0.1796875
z: 1.154296875
range: 3.05038785934
velocity: 0.0
doppler_bin: 8
bearing: -3.93050074577
intensity: 32.6717185974
---
header: 
  seq: 3290169
  stamp: 
    secs: 1561686411
    nsecs: 563952864
  frame_id: "ti_mmwave"
point_id: 11
x: 2.666015625
y: -0.181640625
z: 1.13671875
range: 3.09396481514
velocity: 0.0
doppler_bin: 8
bearing: -3.89764523506
intensity: 31.9395904541
---
header: 
  seq: 3290170
  stamp: 
    secs: 1561686411
    nsecs: 563974995
  frame_id: "ti_mmwave"
point_id: 13
x: 0.041015625
y: -0.033203125
z: 0.0625
range: 0.0871539413929
velocity: 0.0
doppler_bin: 8
bearing: -38.9909973145
intensity: 30.1535968781
---
header: 
  seq: 3290171
  stamp: 
    secs: 1561686411
    nsecs: 563988621
  frame_id: "ti_mmwave"
point_id: 14
x: 0.044921875
y: -0.046875
z: 0.103515625
range: 0.130730912089
velocity: 0.0
doppler_bin: 8
bearing: -46.218875885
intensity: 29.0579586029
---
header: 
  seq: 3290172
  stamp: 
    secs: 1561686411
    nsecs: 564005196
  frame_id: "ti_mmwave"
point_id: 16
x: 1.216796875
y: 0.357421875
z: 0.025390625
range: 1.35088610649
velocity: 0.0
doppler_bin: 8
bearing: 16.3696231842
intensity: 19.3951931
---
header: 
  seq: 3290173
  stamp: 
    secs: 1561686411
    nsecs: 622209184
  frame_id: "ti_mmwave"
point_id: 0
x: 0.01171875
y: -0.0390625
z: -0.0078125
range: 0.0435769706964
velocity: 0.0
doppler_bin: 8
bearing: -73.3007583618
intensity: 30.7408466339
---
header: 
  seq: 3290174
  stamp: 
    secs: 1561686411
    nsecs: 622281182
  frame_id: "ti_mmwave"
point_id: 1
x: 0.017578125
y: -0.080078125
z: -0.0078125
range: 0.0871539413929
velocity: 0.0
doppler_bin: 8
bearing: -77.6192398071
intensity: 31.9783172607
---
header: 
  seq: 3290175
  stamp: 
    secs: 1561686411
    nsecs: 622292715
  frame_id: "ti_mmwave"
point_id: 2
x: 0.029296875
y: -0.119140625
z: -0.00390625
range: 0.130730912089
velocity: 0.0
doppler_bin: 8
bearing: -76.1849746704
intensity: 30.2077541351
---
header: 
  seq: 3290176
  stamp: 
    secs: 1561686411
    nsecs: 622303901
  frame_id: "ti_mmwave"
point_id: 3
x: 0.056640625
y: -0.154296875
z: 0.005859375
range: 0.174307882786
velocity: 0.0
doppler_bin: 8
bearing: -69.8423843384
intensity: 25.5144996643
---
header: 
  seq: 3290177
  stamp: 
    secs: 1561686411
    nsecs: 622312061
  frame_id: "ti_mmwave"
point_id: 4
x: 0.337890625
y: -0.080078125
z: -1.220703125
range: 1.35088610649
velocity: 0.0
doppler_bin: 8
bearing: -13.332783699
intensity: 21.9865703583
---
header: 
  seq: 3290178
  stamp: 
    secs: 1561686411
    nsecs: 622319797
  frame_id: "ti_mmwave"
point_id: 5
x: 0.32421875
y: -0.041015625
z: 1.267578125
range: 1.39446306229
velocity: 0.0
doppler_bin: 8
bearing: -7.20996236801
intensity: 23.2633590698
---
header: 
  seq: 3290179
  stamp: 
    secs: 1561686411
    nsecs: 622327513
  frame_id: "ti_mmwave"
point_id: 6
x: 0.41796875
y: -0.0
z: 1.283203125
range: 1.43804001808
velocity: 0.0
doppler_bin: 8
bearing: -0.0
intensity: 21.9312458038
---
header: 
  seq: 3290180
  stamp: 
    secs: 1561686411
    nsecs: 622336925
  frame_id: "ti_mmwave"
point_id: 7
x: 1.796875
y: -0.11328125
z: -0.001953125
range: 1.91738677025
velocity: 0.0
doppler_bin: 8
bearing: -3.60735106468
intensity: 27.2427577972
---
header: 
  seq: 3290181
  stamp: 
    secs: 1561686411
    nsecs: 622345264
  frame_id: "ti_mmwave"
point_id: 8
x: 2.556640625
y: -0.263671875
z: 1.16796875
range: 3.00681090355
velocity: 0.0
doppler_bin: 8
bearing: -5.88822031021
intensity: 29.3851966858
---
header: 
  seq: 3290182
  stamp: 
    secs: 1561686411
    nsecs: 622353665
  frame_id: "ti_mmwave"
point_id: 9
x: 2.619140625
y: -0.1796875
z: 1.14453125
range: 3.05038785934
velocity: 0.0
doppler_bin: 8
bearing: -3.9246571064
intensity: 32.7300109863
---
header: 
  seq: 3290183
  stamp: 
    secs: 1561686411
    nsecs: 622362171
  frame_id: "ti_mmwave"
point_id: 10
x: 2.662109375
y: -0.181640625
z: 1.146484375
range: 3.09396481514
velocity: 0.0
doppler_bin: 8
bearing: -3.90334677696
intensity: 32.0057678223
---
header: 
  seq: 3290184
  stamp: 
    secs: 1561686411
    nsecs: 622374513
  frame_id: "ti_mmwave"
point_id: 12
x: 0.041015625
y: -0.033203125
z: 0.0625
range: 0.0871539413929
velocity: 0.0
doppler_bin: 8
bearing: -38.9909973145
intensity: 30.141002655
---
header: 
  seq: 3290185
  stamp: 
    secs: 1561686411
    nsecs: 622382859
  frame_id: "ti_mmwave"
point_id: 13
x: 0.044921875
y: -0.046875
z: 0.103515625
range: 0.130730912089
velocity: 0.0
doppler_bin: 8
bearing: -46.218875885
intensity: 29.0471553802
---
header: 
  seq: 3290186
  stamp: 
    secs: 1561686411
    nsecs: 622392710
  frame_id: "ti_mmwave"
point_id: 15
x: 1.21484375
y: 0.357421875
z: 0.056640625
range: 1.35088610649
velocity: 0.0
doppler_bin: 8
bearing: 16.3945274353
intensity: 19.2941894531
---
header: 
  seq: 3290187
  stamp: 
    secs: 1561686411
    nsecs: 623401513
  frame_id: "ti_mmwave"
point_id: 0
x: 0.01171875
y: -0.0390625
z: -0.0078125
range: 0.0435769706964
velocity: 0.0
doppler_bin: 8
bearing: -73.3007583618
intensity: 30.7445068359
---
header: 
  seq: 3290188
  stamp: 
    secs: 1561686411
    nsecs: 623447828
  frame_id: "ti_mmwave"
point_id: 1
x: 0.017578125
y: -0.080078125
z: -0.0078125
range: 0.0871539413929
velocity: 0.0
doppler_bin: 8
bearing: -77.6192398071
intensity: 31.9728050232
---
header: 
  seq: 3290189
  stamp: 
    secs: 1561686411
    nsecs: 623460430
  frame_id: "ti_mmwave"
point_id: 2
x: 0.029296875
y: -0.119140625
z: -0.00390625
range: 0.130730912089
velocity: 0.0
doppler_bin: 8
bearing: -76.1849746704
intensity: 30.1994667053
---
header: 
  seq: 3290190
  stamp: 
    secs: 1561686411
    nsecs: 623469097
  frame_id: "ti_mmwave"
point_id: 3
x: 0.056640625
y: -0.154296875
z: 0.0078125
range: 0.174307882786
velocity: 0.0
doppler_bin: 8
bearing: -69.8423843384
intensity: 25.5022830963
---
header: 
  seq: 3290191
  stamp: 
    secs: 1561686411
    nsecs: 623477586
  frame_id: "ti_mmwave"
point_id: 4
x: 0.359375
y: -0.080078125
z: -1.212890625
range: 1.35088610649
velocity: 0.0
doppler_bin: 8
bearing: -12.5617752075
intensity: 21.9589958191
---
header: 
  seq: 3290192
  stamp: 
    secs: 1561686411
    nsecs: 623486855
  frame_id: "ti_mmwave"
point_id: 5
x: 0.3203125
y: -0.041015625
z: 1.26953125
range: 1.39446306229
velocity: 0.0
doppler_bin: 8
bearing: -7.29694652557
intensity: 23.2428245544
---
header: 
  seq: 3290193
  stamp: 
    secs: 1561686411
    nsecs: 623496353
  frame_id: "ti_mmwave"
point_id: 6
x: 0.505859375
y: -0.04296875
z: 1.25
range: 1.43804001808
velocity: 0.0
doppler_bin: 8
bearing: -4.85516881943
intensity: 21.9589958191
---
header: 
  seq: 3290194
  stamp: 
    secs: 1561686411
    nsecs: 623507143
  frame_id: "ti_mmwave"
point_id: 7
x: 1.732421875
y: -0.220703125
z: -0.203125
range: 1.87380969524
velocity: 0.0
doppler_bin: 8
bearing: -7.26012897491
intensity: 27.2591171265
---
header: 
  seq: 3290195
  stamp: 
    secs: 1561686411
    nsecs: 623571206
  frame_id: "ti_mmwave"
point_id: 8
x: 2.55859375
y: -0.263671875
z: 1.16015625
range: 3.00681090355
velocity: 0.0
doppler_bin: 8
bearing: -5.88375711441
intensity: 29.2116603851
---
header: 
  seq: 3290196
  stamp: 
    secs: 1561686411
    nsecs: 623579789
  frame_id: "ti_mmwave"
point_id: 9
x: 2.62109375
y: -0.1796875
z: 1.140625
range: 3.05038785934
velocity: 0.0
doppler_bin: 8
bearing: -3.9217414856
intensity: 32.655254364
---
header: 
  seq: 3290197
  stamp: 
    secs: 1561686411
    nsecs: 623588746
  frame_id: "ti_mmwave"
point_id: 10
x: 2.6640625
y: -0.181640625
z: 1.140625
range: 3.09396481514
velocity: 0.0
doppler_bin: 8
bearing: -3.90049386024
intensity: 31.9368095398
---
header: 
  seq: 3290198
  stamp: 
    secs: 1561686411
    nsecs: 623599125
  frame_id: "ti_mmwave"
point_id: 12
x: 0.041015625
y: -0.033203125
z: 0.0625
range: 0.0871539413929
velocity: 0.0
doppler_bin: 8
bearing: -38.9909973145
intensity: 30.1452045441
---
header: 
  seq: 3290199
  stamp: 
    secs: 1561686411
    nsecs: 623606801
  frame_id: "ti_mmwave"
point_id: 13
x: 0.044921875
y: -0.046875
z: 0.103515625
range: 0.130730912089
velocity: 0.0
doppler_bin: 8
bearing: -46.218875885
intensity: 29.0471553802
---
header: 
  seq: 3290200
  stamp: 
    secs: 1561686411
    nsecs: 623618823
  frame_id: "ti_mmwave"
point_id: 15
x: 1.21484375
y: 0.357421875
z: 0.052734375
range: 1.35088610649
velocity: 0.0
doppler_bin: 8
bearing: 16.3945274353
intensity: 19.2427921295
---
header: 
  seq: 3290201
  stamp: 
    secs: 1561686411
    nsecs: 682209681
  frame_id: "ti_mmwave"
point_id: 0
x: 0.01171875
y: -0.0390625
z: -0.0078125
range: 0.0435769706964
velocity: 0.0
doppler_bin: 8
bearing: -73.3007583618
intensity: 30.7335166931
---
header: 
  seq: 3290202
  stamp: 
    secs: 1561686411
    nsecs: 682282323
  frame_id: "ti_mmwave"
point_id: 1
x: 0.017578125
y: -0.080078125
z: -0.0078125
range: 0.0871539413929
velocity: 0.0
doppler_bin: 8
bearing: -77.6192398071
intensity: 31.9700469971
---
header: 
  seq: 3290203
  stamp: 
    secs: 1561686411
    nsecs: 682293186
  frame_id: "ti_mmwave"
point_id: 2
x: 0.029296875
y: -0.119140625
z: -0.00390625
range: 0.130730912089
velocity: 0.0
doppler_bin: 8
bearing: -76.1849746704
intensity: 30.1994667053
---
header: 
  seq: 3290204
  stamp: 
    secs: 1561686411
    nsecs: 682302744
  frame_id: "ti_mmwave"
point_id: 3
x: 0.056640625
y: -0.154296875
z: 0.005859375
range: 0.174307882786
velocity: 0.0
doppler_bin: 8
bearing: -69.8423843384
intensity: 25.490032196
---
header: 
  seq: 3290205
  stamp: 
    secs: 1561686411
    nsecs: 682310878
  frame_id: "ti_mmwave"
point_id: 4
x: 0.37109375
y: -0.080078125
z: -1.2109375
range: 1.35088610649
velocity: 0.0
doppler_bin: 8
bearing: -12.177107811
intensity: 22.0139713287
---
header: 
  seq: 3290206
  stamp: 
    secs: 1561686411
    nsecs: 682323401
  frame_id: "ti_mmwave"
point_id: 5
x: 0.306640625
y: -0.041015625
z: 1.271484375
range: 1.39446306229
velocity: 0.0
doppler_bin: 8
bearing: -7.6185464859
intensity: 23.2837963104
---
header: 
  seq: 3290207
  stamp: 
    secs: 1561686411
    nsecs: 682332494
  frame_id: "ti_mmwave"
point_id: 6
x: 0.42578125
y: -0.0
z: 1.28125
range: 1.43804001808
velocity: 0.0
doppler_bin: 8
bearing: -0.0
intensity: 21.9865703583
---
header: 
  seq: 3290208
  stamp: 
    secs: 1561686411
    nsecs: 682343315
  frame_id: "ti_mmwave"
point_id: 7
x: 1.70703125
y: -0.16015625
z: -0.107421875
range: 1.83023273945
velocity: 0.0
doppler_bin: 8
bearing: -5.35988664627
intensity: 26.9284687042
---
header: 
  seq: 3290209
  stamp: 
    secs: 1561686411
    nsecs: 682352067
  frame_id: "ti_mmwave"
point_id: 8
x: 1.748046875
y: -0.1640625
z: -0.103515625
range: 1.87380969524
velocity: 0.0
doppler_bin: 8
bearing: -5.36177444458
intensity: 30.7736797333
---
header: 
  seq: 3290210
  stamp: 
    secs: 1561686411
    nsecs: 682359794
  frame_id: "ti_mmwave"
point_id: 9
x: 1.794921875
y: -0.11328125
z: -0.091796875
range: 1.91738677025
velocity: 0.0
doppler_bin: 8
bearing: -3.61126613617
intensity: 31.1693973541
---
header: 
  seq: 3290211
  stamp: 
    secs: 1561686411
    nsecs: 682529007
  frame_id: "ti_mmwave"
point_id: 10
x: 1.8359375
y: -0.115234375
z: -0.07421875
range: 1.96096372604
velocity: 0.0
doppler_bin: 8
bearing: -3.59151291847
intensity: 28.7098884583
---
header: 
  seq: 3290212
  stamp: 
    secs: 1561686411
    nsecs: 682547647
  frame_id: "ti_mmwave"
point_id: 11
x: 2.59375
y: -0.263671875
z: 1.08203125
range: 3.00681090355
velocity: 0.0
doppler_bin: 8
bearing: -5.80455541611
intensity: 29.5327625275
---
header: 
  seq: 3290213
  stamp: 
    secs: 1561686411
    nsecs: 682559037
  frame_id: "ti_mmwave"
point_id: 12
x: 2.62890625
y: -0.1796875
z: 1.119140625
range: 3.05038785934
velocity: 0.0
doppler_bin: 8
bearing: -3.91012310982
intensity: 32.753112793
---
header: 
  seq: 3290214
  stamp: 
    secs: 1561686411
    nsecs: 682567403
  frame_id: "ti_mmwave"
point_id: 13
x: 2.669921875
y: -0.181640625
z: 1.126953125
range: 3.09396481514
velocity: 0.0
doppler_bin: 8
bearing: -3.89196038246
intensity: 31.9562301636
---
header: 
  seq: 3290215
  stamp: 
    secs: 1561686411
    nsecs: 682577548
  frame_id: "ti_mmwave"
point_id: 15
x: 0.041015625
y: -0.033203125
z: 0.0625
range: 0.0871539413929
velocity: 0.0
doppler_bin: 8
bearing: -38.9909973145
intensity: 30.1452045441
---
header: 
  seq: 3290216
  stamp: 
    secs: 1561686411
    nsecs: 682588478
  frame_id: "ti_mmwave"
point_id: 16
x: 0.044921875
y: -0.046875
z: 0.103515625
range: 0.130730912089
velocity: 0.0
doppler_bin: 8
bearing: -46.218875885
intensity: 29.0417442322
---
header: 
  seq: 3290217
  stamp: 
    secs: 1561686411
    nsecs: 682669636
  frame_id: "ti_mmwave"
point_id: 18
x: 1.21484375
y: 0.357421875
z: 0.0546875
range: 1.35088610649
velocity: 0.0
doppler_bin: 8
bearing: 16.3945274353
intensity: 19.2941894531
---
header: 
  seq: 3290218
  stamp: 
    secs: 1561686411
    nsecs: 683355735
  frame_id: "ti_mmwave"
point_id: 0
x: 0.01171875
y: -0.0390625
z: -0.0078125
range: 0.0435769706964
velocity: 0.0
doppler_bin: 8
bearing: -73.3007583618
intensity: 30.7408466339
---
header: 
  seq: 3290219
  stamp: 
    secs: 1561686411
    nsecs: 683445782
  frame_id: "ti_mmwave"
point_id: 1
x: 0.017578125
y: -0.080078125
z: -0.0078125
range: 0.0871539413929
velocity: 0.0
doppler_bin: 8
bearing: -77.6192398071
intensity: 31.9728050232
---
header: 
  seq: 3290220
  stamp: 
    secs: 1561686411
    nsecs: 683465007
  frame_id: "ti_mmwave"
point_id: 2
x: 0.029296875
y: -0.119140625
z: -0.00390625
range: 0.130730912089
velocity: 0.0
doppler_bin: 8
bearing: -76.1849746704
intensity: 30.1994667053
---
header: 
  seq: 3290221
  stamp: 
    secs: 1561686411
    nsecs: 683478620
  frame_id: "ti_mmwave"
point_id: 3
x: 0.056640625
y: -0.154296875
z: 0.005859375
range: 0.174307882786
velocity: 0.0
doppler_bin: 8
bearing: -69.8423843384
intensity: 25.5022830963
---
header: 
  seq: 3290222
  stamp: 
    secs: 1561686411
    nsecs: 683490857
  frame_id: "ti_mmwave"
point_id: 4
x: 0.359375
y: -0.080078125
z: -1.212890625
range: 1.35088610649
velocity: 0.0
doppler_bin: 8
bearing: -12.5617752075
intensity: 21.9865703583
---
header: 
  seq: 3290223
  stamp: 
    secs: 1561686411
    nsecs: 683502628
  frame_id: "ti_mmwave"
point_id: 5
x: 0.34765625
y: -0.041015625
z: 1.26171875
range: 1.39446306229
velocity: 0.0
doppler_bin: 8
bearing: -6.7285118103
intensity: 23.2633590698
---
header: 
  seq: 3290224
  stamp: 
    secs: 1561686411
    nsecs: 683517008
  frame_id: "ti_mmwave"
point_id: 6
x: 0.53515625
y: -0.04296875
z: 1.23828125
range: 1.43804001808
velocity: 0.0
doppler_bin: 8
bearing: -4.59054327011
intensity: 21.9865703583
---
header: 
  seq: 3290225
  stamp: 
    secs: 1561686411
    nsecs: 683530881
  frame_id: "ti_mmwave"
point_id: 7
x: 1.712890625
y: -0.107421875
z: 0.0625
range: 1.83023273945
velocity: 0.0
doppler_bin: 8
bearing: -3.58853602409
intensity: 27.1850166321
---
header: 
  seq: 3290226
  stamp: 
    secs: 1561686411
    nsecs: 683547073
  frame_id: "ti_mmwave"
point_id: 8
x: 1.755859375
y: -0.109375
z: 0.03125
range: 1.87380969524
velocity: 0.0
doppler_bin: 8
bearing: -3.56443095207
intensity: 32.0030326843
---
header: 
  seq: 3290227
  stamp: 
    secs: 1561686411
    nsecs: 683621495
  frame_id: "ti_mmwave"
point_id: 9
x: 1.796875
y: -0.11328125
z: -0.013671875
range: 1.91738677025
velocity: 0.0
doppler_bin: 8
bearing: -3.60735106468
intensity: 32.6481781006
---
header: 
  seq: 3290228
  stamp: 
    secs: 1561686411
    nsecs: 683636020
  frame_id: "ti_mmwave"
point_id: 10
x: 1.833984375
y: -0.056640625
z: -0.146484375
range: 1.96096372604
velocity: 0.0
doppler_bin: 8
bearing: -1.76895594597
intensity: 29.6661090851
---
header: 
  seq: 3290229
  stamp: 
    secs: 1561686411
    nsecs: 683647693
  frame_id: "ti_mmwave"
point_id: 11
x: 2.552734375
y: -0.263671875
z: 1.173828125
range: 3.00681090355
velocity: 0.0
doppler_bin: 8
bearing: -5.89716720581
intensity: 29.4743366241
---
header: 
  seq: 3290230
  stamp: 
    secs: 1561686411
    nsecs: 683660114
  frame_id: "ti_mmwave"
point_id: 12
x: 2.60546875
y: -0.267578125
z: 1.158203125
range: 3.05038785934
velocity: 0.0
doppler_bin: 8
bearing: -5.86364221573
intensity: 32.7806739807
---
header: 
  seq: 3290231
  stamp: 
    secs: 1561686411
    nsecs: 683673860
  frame_id: "ti_mmwave"
point_id: 13
x: 2.666015625
y: -0.181640625
z: 1.138671875
range: 3.09396481514
velocity: 0.0
doppler_bin: 8
bearing: -3.89764523506
intensity: 32.0194320679
---
header: 
  seq: 3290232
  stamp: 
    secs: 1561686411
    nsecs: 683690728
  frame_id: "ti_mmwave"
point_id: 15
x: 0.041015625
y: -0.033203125
z: 0.0625
range: 0.0871539413929
velocity: 0.0
doppler_bin: 8
bearing: -38.9909973145
intensity: 30.141002655
---
header: 
  seq: 3290233
  stamp: 
    secs: 1561686411
    nsecs: 683703990
  frame_id: "ti_mmwave"
point_id: 16
x: 0.044921875
y: -0.046875
z: 0.103515625
range: 0.130730912089
velocity: 0.0
doppler_bin: 8
bearing: -46.218875885
intensity: 29.0471553802
---
header: 
  seq: 3290234
  stamp: 
    secs: 1561686411
    nsecs: 683719605
  frame_id: "ti_mmwave"
point_id: 18
x: 1.21484375
y: 0.357421875
z: 0.05859375
range: 1.35088610649
velocity: 0.0
doppler_bin: 8
bearing: 16.3945274353
intensity: 19.1907806396
---
header: 
  seq: 3290235
  stamp: 
    secs: 1561686411
    nsecs: 742933549
  frame_id: "ti_mmwave"
point_id: 0
x: 0.01171875
y: -0.0390625
z: -0.0078125
range: 0.0435769706964
velocity: 0.0
doppler_bin: 8
bearing: -73.3007583618
intensity: 30.7408466339
---
header: 
  seq: 3290236
  stamp: 
    secs: 1561686411
    nsecs: 743024213
  frame_id: "ti_mmwave"
point_id: 1
x: 0.017578125
y: -0.080078125
z: -0.0078125
range: 0.0871539413929
velocity: 0.0
