header: 
  seq: 1059434
  stamp: 
    secs: 1561682924
    nsecs: 123880958
  frame_id: "ti_mmwave"
point_id: 0
x: 0.01171875
y: -0.0390625
z: -0.0078125
range: 0.0435769706964
velocity: 0.0
doppler_bin: 8
bearing: -73.3007583618
intensity: 30.7335166931
---
header: 
  seq: 1059435
  stamp: 
    secs: 1561682924
    nsecs: 123950319
  frame_id: "ti_mmwave"
point_id: 1
x: 0.017578125
y: -0.080078125
z: -0.0078125
range: 0.0871539413929
velocity: 0.0
doppler_bin: 8
bearing: -77.6192398071
intensity: 31.9617614746
---
header: 
  seq: 1059436
  stamp: 
    secs: 1561682924
    nsecs: 123963346
  frame_id: "ti_mmwave"
point_id: 2
x: 0.041015625
y: -0.115234375
z: -0.0078125
range: 0.130730912089
velocity: 0.0
doppler_bin: 8
bearing: -70.4077224731
intensity: 30.2160263062
---
header: 
  seq: 1059437
  stamp: 
    secs: 1561682924
    nsecs: 123974881
  frame_id: "ti_mmwave"
point_id: 3
x: 0.056640625
y: -0.154296875
z: 0.005859375
range: 0.174307882786
velocity: 0.0
doppler_bin: 8
bearing: -69.8423843384
intensity: 25.4654273987
---
header: 
  seq: 1059438
  stamp: 
    secs: 1561682924
    nsecs: 123987855
  frame_id: "ti_mmwave"
point_id: 4
x: 0.365234375
y: -0.080078125
z: -1.2109375
range: 1.35088610649
velocity: 0.0
doppler_bin: 8
bearing: -12.3664970398
intensity: 21.9589958191
---
header: 
  seq: 1059439
  stamp: 
    secs: 1561682924
    nsecs: 124000565
  frame_id: "ti_mmwave"
point_id: 5
x: 0.28125
y: -0.041015625
z: 1.27734375
range: 1.39446306229
velocity: 0.0
doppler_bin: 8
bearing: -8.29714488983
intensity: 23.2837963104
---
header: 
  seq: 1059440
  stamp: 
    secs: 1561682924
    nsecs: 124027787
  frame_id: "ti_mmwave"
point_id: 6
x: 0.466796875
y: -0.04296875
z: 1.265625
range: 1.43804001808
velocity: 0.0
doppler_bin: 8
bearing: -5.25926733017
intensity: 22.0139713287
---
header: 
  seq: 1059441
  stamp: 
    secs: 1561682924
    nsecs: 124044873
  frame_id: "ti_mmwave"
point_id: 7
x: 1.490234375
y: -0.09375
z: -0.251953125
range: 1.61234796047
velocity: 0.0
doppler_bin: 8
bearing: -3.59970903397
intensity: 25.1982803345
---
header: 
  seq: 1059442
  stamp: 
    secs: 1561682924
    nsecs: 124055485
  frame_id: "ti_mmwave"
point_id: 8
x: 1.541015625
y: -0.048828125
z: -0.193359375
range: 1.65592491627
velocity: 0.0
doppler_bin: 8
bearing: -1.81484830379
intensity: 29.8362636566
---
header: 
  seq: 1059443
  stamp: 
    secs: 1561682924
    nsecs: 124225017
  frame_id: "ti_mmwave"
point_id: 9
x: 1.58203125
y: -0.05078125
z: -0.19921875
range: 1.69950187206
velocity: 0.0
doppler_bin: 8
bearing: -1.83849263191
intensity: 30.3502922058
---
header: 
  seq: 1059444
  stamp: 
    secs: 1561682924
    nsecs: 124248790
  frame_id: "ti_mmwave"
point_id: 10
x: 2.548828125
y: -0.263671875
z: 1.181640625
range: 3.00681090355
velocity: 0.0
doppler_bin: 8
bearing: -5.90614128113
intensity: 29.4694328308
---
header: 
  seq: 1059445
  stamp: 
    secs: 1561682924
    nsecs: 124258210
  frame_id: "ti_mmwave"
point_id: 11
x: 2.6015625
y: -0.267578125
z: 1.166015625
range: 3.05038785934
velocity: 0.0
doppler_bin: 8
bearing: -5.87238502502
intensity: 32.7646179199
---
header: 
  seq: 1059446
  stamp: 
    secs: 1561682924
    nsecs: 124267006
  frame_id: "ti_mmwave"
point_id: 12
x: 2.654296875
y: -0.181640625
z: 1.1640625
range: 3.09396481514
velocity: 0.0
doppler_bin: 8
bearing: -3.91479969025
intensity: 31.9810695648
---
header: 
  seq: 1059447
  stamp: 
    secs: 1561682924
    nsecs: 124275756
  frame_id: "ti_mmwave"
point_id: 13
x: 4.365234375
y: -0.287109375
z: 1.361328125
range: 4.88062095642
velocity: 0.0
doppler_bin: 8
bearing: -3.76302742958
intensity: 29.5712814331
---
header: 
  seq: 1059448
  stamp: 
    secs: 1561682924
    nsecs: 124283885
  frame_id: "ti_mmwave"
point_id: 14
x: 4.404296875
y: -0.2890625
z: 1.375
range: 4.9241976738
velocity: 0.0
doppler_bin: 8
bearing: -3.75504684448
intensity: 29.5036487579
---
header: 
  seq: 1059449
  stamp: 
    secs: 1561682924
    nsecs: 124293444
  frame_id: "ti_mmwave"
point_id: 15
x: 1.6484375
y: -0.158203125
z: 0.26171875
range: 1.78665578365
velocity: 0.614668667316
doppler_bin: 9
bearing: -5.48197603226
intensity: 25.3907604218
---
header: 
  seq: 1059450
  stamp: 
    secs: 1561682924
    nsecs: 124302922
  frame_id: "ti_mmwave"
point_id: 16
x: 1.689453125
y: -0.16015625
z: 0.271484375
range: 1.83023273945
velocity: 0.614668667316
doppler_bin: 9
bearing: -5.41532421112
intensity: 25.3147888184
---
header: 
  seq: 1059451
  stamp: 
    secs: 1561682924
    nsecs: 124314221
  frame_id: "ti_mmwave"
point_id: 18
x: 0.041015625
y: -0.033203125
z: 0.0625
range: 0.0871539413929
velocity: 0.0
doppler_bin: 8
bearing: -38.9909973145
intensity: 30.1283721924
---
header: 
  seq: 1059452
  stamp: 
    secs: 1561682924
    nsecs: 124323302
  frame_id: "ti_mmwave"
point_id: 19
x: 0.046875
y: -0.046875
z: 0.103515625
range: 0.130730912089
velocity: 0.0
doppler_bin: 8
bearing: -45.0
intensity: 29.0036716461
---
header: 
  seq: 1059453
  stamp: 
    secs: 1561682924
    nsecs: 124333702
  frame_id: "ti_mmwave"
point_id: 21
x: 1.205078125
y: 0.357421875
z: 0.166015625
range: 1.35088610649
velocity: 0.0
doppler_bin: 8
bearing: 16.5201683044
intensity: 19.2941894531
---
header: 
  seq: 1059454
  stamp: 
    secs: 1561682924
    nsecs: 124344456
  frame_id: "ti_mmwave"
point_id: 23
x: 3.51953125
y: -1.861328125
z: -2.265625
range: 4.88062095642
velocity: 0.0
doppler_bin: 8
bearing: -27.872428894
intensity: 26.6838588715
---
header: 
  seq: 1059455
  stamp: 
    secs: 1561682924
    nsecs: 125330441
  frame_id: "ti_mmwave"
point_id: 0
x: 0.01171875
y: -0.0390625
z: -0.0078125
range: 0.0435769706964
velocity: 0.0
doppler_bin: 8
bearing: -73.3007583618
intensity: 30.7335166931
---
header: 
  seq: 1059456
  stamp: 
    secs: 1561682924
    nsecs: 125396085
  frame_id: "ti_mmwave"
point_id: 1
x: 0.017578125
y: -0.080078125
z: -0.0078125
range: 0.0871539413929
velocity: 0.0
doppler_bin: 8
bearing: -77.6192398071
intensity: 31.9645252228
---
header: 
  seq: 1059457
  stamp: 
    secs: 1561682924
    nsecs: 125409339
  frame_id: "ti_mmwave"
point_id: 2
x: 0.041015625
y: -0.115234375
z: -0.0078125
range: 0.130730912089
velocity: 0.0
doppler_bin: 8
bearing: -70.4077224731
intensity: 30.2201576233
---
header: 
  seq: 1059458
  stamp: 
    secs: 1561682924
    nsecs: 125417593
  frame_id: "ti_mmwave"
point_id: 3
x: 0.056640625
y: -0.154296875
z: 0.005859375
range: 0.174307882786
velocity: 0.0
doppler_bin: 8
bearing: -69.8423843384
intensity: 25.490032196
---
header: 
  seq: 1059459
  stamp: 
    secs: 1561682924
    nsecs: 125425381
  frame_id: "ti_mmwave"
point_id: 4
x: 0.369140625
y: -0.080078125
z: -1.2109375
range: 1.35088610649
velocity: 0.0
doppler_bin: 8
bearing: -12.2396001816
intensity: 21.9033164978
---
header: 
  seq: 1059460
  stamp: 
    secs: 1561682924
    nsecs: 125436082
  frame_id: "ti_mmwave"
point_id: 5
x: 0.283203125
y: -0.041015625
z: 1.27734375
range: 1.39446306229
velocity: 0.0
doppler_bin: 8
bearing: -8.24071216583
intensity: 23.2221927643
---
header: 
  seq: 1059461
  stamp: 
    secs: 1561682924
    nsecs: 125447552
  frame_id: "ti_mmwave"
point_id: 6
x: 0.380859375
y: -0.0
z: 1.294921875
range: 1.43804001808
velocity: 0.0
doppler_bin: 8
bearing: -0.0
intensity: 21.9312458038
---
header: 
  seq: 1059462
  stamp: 
    secs: 1561682924
    nsecs: 125460662
  frame_id: "ti_mmwave"
point_id: 7
x: 1.4921875
y: -0.142578125
z: -0.212890625
range: 1.61234796047
velocity: 0.0
doppler_bin: 8
bearing: -5.45802688599
intensity: 23.3041381836
---
header: 
  seq: 1059463
  stamp: 
    secs: 1561682924
    nsecs: 125477694
  frame_id: "ti_mmwave"
point_id: 8
x: 1.537109375
y: -0.193359375
z: -0.13671875
range: 1.65592491627
velocity: 0.0
doppler_bin: 8
bearing: -7.16981363297
intensity: 27.0243053436
---
header: 
  seq: 1059464
  stamp: 
    secs: 1561682924
    nsecs: 125492236
  frame_id: "ti_mmwave"
point_id: 9
x: 2.56640625
y: -0.263671875
z: 1.142578125
range: 3.00681090355
velocity: 0.0
doppler_bin: 8
bearing: -5.86597156525
intensity: 29.3043956757
---
header: 
  seq: 1059465
  stamp: 
    secs: 1561682924
    nsecs: 125501644
  frame_id: "ti_mmwave"
point_id: 10
x: 2.609375
y: -0.267578125
z: 1.150390625
range: 3.05038785934
velocity: 0.0
doppler_bin: 8
bearing: -5.85492515564
intensity: 32.743888855
---
header: 
  seq: 1059466
  stamp: 
    secs: 1561682924
    nsecs: 125513814
  frame_id: "ti_mmwave"
point_id: 11
x: 2.662109375
y: -0.181640625
z: 1.1484375
range: 3.09396481514
velocity: 0.0
doppler_bin: 8
bearing: -3.90334677696
intensity: 31.9755630493
---
header: 
  seq: 1059467
  stamp: 
    secs: 1561682924
    nsecs: 125589699
  frame_id: "ti_mmwave"
point_id: 12
x: 1.587890625
y: -0.150390625
z: 0.0078125
range: 1.69950187206
velocity: 0.614668667316
doppler_bin: 9
bearing: -5.41039848328
intensity: 27.5815467834
---
header: 
  seq: 1059468
  stamp: 
    secs: 1561682924
    nsecs: 125608527
  frame_id: "ti_mmwave"
point_id: 13
x: 1.62890625
y: -0.1015625
z: 0.12109375
range: 1.74307882786
velocity: 0.614668667316
doppler_bin: 9
bearing: -3.56778025627
intensity: 25.9106464386
---
header: 
  seq: 1059469
  stamp: 
    secs: 1561682924
    nsecs: 125626548
  frame_id: "ti_mmwave"
point_id: 15
x: 0.041015625
y: -0.033203125
z: 0.0625
range: 0.0871539413929
velocity: 0.0
doppler_bin: 8
bearing: -38.9909973145
intensity: 30.1325874329
---
header: 
  seq: 1059470
  stamp: 
    secs: 1561682924
    nsecs: 125641493
  frame_id: "ti_mmwave"
point_id: 16
x: 0.052734375
y: -0.04296875
z: 0.1015625
range: 0.130730912089
velocity: 0.0
doppler_bin: 8
bearing: -39.1736602783
intensity: 29.0036716461
---
header: 
  seq: 1059471
  stamp: 
    secs: 1561682924
    nsecs: 125658789
  frame_id: "ti_mmwave"
point_id: 18
x: 1.20703125
y: 0.357421875
z: 0.150390625
range: 1.35088610649
velocity: 0.0
doppler_bin: 8
bearing: 16.4948921204
intensity: 19.1907806396
---
header: 
  seq: 1059472
  stamp: 
    secs: 1561682924
    nsecs: 183856444
  frame_id: "ti_mmwave"
point_id: 0
x: 0.01171875
y: -0.0390625
z: -0.0078125
range: 0.0435769706964
velocity: 0.0
doppler_bin: 8
bearing: -73.3007583618
intensity: 30.7261753082
---
header: 
  seq: 1059473
  stamp: 
    secs: 1561682924
    nsecs: 183946325
  frame_id: "ti_mmwave"
point_id: 1
x: 0.017578125
y: -0.080078125
z: -0.0078125
range: 0.0871539413929
velocity: 0.0
doppler_bin: 8
bearing: -77.6192398071
intensity: 31.9617614746
---
header: 
  seq: 1059474
  stamp: 
    secs: 1561682924
    nsecs: 183966445
  frame_id: "ti_mmwave"
point_id: 2
x: 0.029296875
y: -0.119140625
z: -0.005859375
range: 0.130730912089
velocity: 0.0
doppler_bin: 8
bearing: -76.1849746704
intensity: 30.2201576233
---
header: 
  seq: 1059475
  stamp: 
    secs: 1561682924
    nsecs: 183981747
  frame_id: "ti_mmwave"
point_id: 3
x: 0.056640625
y: -0.154296875
z: 0.005859375
range: 0.174307882786
velocity: 0.0
doppler_bin: 8
bearing: -69.8423843384
intensity: 25.490032196
---
header: 
  seq: 1059476
  stamp: 
    secs: 1561682924
    nsecs: 183995617
  frame_id: "ti_mmwave"
point_id: 4
x: 0.349609375
y: -0.080078125
z: -1.216796875
range: 1.35088610649
velocity: 0.0
doppler_bin: 8
bearing: -12.9010734558
intensity: 21.9589958191
---
header: 
  seq: 1059477
  stamp: 
    secs: 1561682924
    nsecs: 184011957
  frame_id: "ti_mmwave"
point_id: 5
x: 0.29296875
y: -0.041015625
z: 1.275390625
range: 1.39446306229
velocity: 0.0
doppler_bin: 8
bearing: -7.96961069107
intensity: 23.2633590698
---
header: 
  seq: 1059478
  stamp: 
    secs: 1561682924
    nsecs: 184025350
  frame_id: "ti_mmwave"
point_id: 6
x: 0.400390625
y: -0.0
z: 1.2890625
range: 1.43804001808
velocity: 0.0
doppler_bin: 8
bearing: -0.0
intensity: 21.9865703583
---
header: 
  seq: 1059479
  stamp: 
    secs: 1561682924
    nsecs: 184051654
  frame_id: "ti_mmwave"
point_id: 7
x: 1.470703125
y: -0.142578125
z: -0.328125
range: 1.61234796047
velocity: 0.0
doppler_bin: 8
bearing: -5.5372672081
intensity: 24.7129173279
---
header: 
  seq: 1059480
  stamp: 
    secs: 1561682924
    nsecs: 184073497
  frame_id: "ti_mmwave"
point_id: 8
x: 1.5234375
y: -0.146484375
z: -0.26953125
range: 1.65592491627
velocity: 0.0
doppler_bin: 8
bearing: -5.49232435226
intensity: 28.6628742218
---
header: 
  seq: 1059481
  stamp: 
    secs: 1561682924
    nsecs: 184087962
  frame_id: "ti_mmwave"
point_id: 9
x: 1.564453125
y: -0.099609375
z: -0.29296875
range: 1.69950187206
velocity: 0.0
doppler_bin: 8
bearing: -3.64312815666
intensity: 28.6628742218
---
header: 
  seq: 1059482
  stamp: 
    secs: 1561682924
    nsecs: 184175095
  frame_id: "ti_mmwave"
point_id: 10
x: 1.6171875
y: -0.267578125
z: 0.513671875
range: 1.83023273945
velocity: 0.0
doppler_bin: 8
bearing: -9.39498138428
intensity: 26.7577838898
---
header: 
  seq: 1059483
  stamp: 
    secs: 1561682924
    nsecs: 184191207
  frame_id: "ti_mmwave"
point_id: 11
x: 1.744140625
y: 0.1640625
z: -0.16796875
range: 1.87380969524
velocity: 0.0
doppler_bin: 8
bearing: 5.37371301651
intensity: 27.1933135986
---
header: 
  seq: 1059484
  stamp: 
    secs: 1561682924
    nsecs: 184204991
  frame_id: "ti_mmwave"
point_id: 12
x: 2.53515625
y: -0.263671875
z: 1.2109375
range: 3.00681090355
velocity: 0.0
doppler_bin: 8
bearing: -5.9377655983
intensity: 29.3901977539
---
header: 
  seq: 1059485
  stamp: 
    secs: 1561682924
    nsecs: 184220207
  frame_id: "ti_mmwave"
point_id: 13
x: 2.59765625
y: -0.267578125
z: 1.17578125
range: 3.05038785934
velocity: 0.0
doppler_bin: 8
bearing: -5.88115358353
intensity: 32.7623214722
---
header: 
  seq: 1059486
  stamp: 
    secs: 1561682924
    nsecs: 184237148
  frame_id: "ti_mmwave"
point_id: 14
x: 2.662109375
y: -0.271484375
z: 1.130859375
range: 3.09396481514
velocity: 0.0
doppler_bin: 8
bearing: -5.82294607162
intensity: 31.9810695648
---
header: 
  seq: 1059487
  stamp: 
    secs: 1561682924
    nsecs: 184256496
  frame_id: "ti_mmwave"
point_id: 16
x: 0.041015625
y: -0.033203125
z: 0.0625
range: 0.0871539413929
velocity: 0.0
doppler_bin: 8
bearing: -38.9909973145
intensity: 30.1325874329
---
header: 
  seq: 1059488
  stamp: 
    secs: 1561682924
    nsecs: 184271312
  frame_id: "ti_mmwave"
point_id: 17
x: 0.044921875
y: -0.046875
z: 0.103515625
range: 0.130730912089
velocity: 0.0
doppler_bin: 8
bearing: -46.218875885
intensity: 29.0036716461
---
header: 
  seq: 1059489
  stamp: 
    secs: 1561682924
    nsecs: 184291121
  frame_id: "ti_mmwave"
point_id: 19
x: 1.212890625
y: 0.357421875
z: 0.10546875
range: 1.35088610649
velocity: 0.0
doppler_bin: 8
bearing: 16.419506073
intensity: 19.1907806396
---
header: 
  seq: 1059490
  stamp: 
    secs: 1561682924
    nsecs: 184308474
  frame_id: "ti_mmwave"
point_id: 21
x: 1.650390625
y: -0.275390625
z: 0.54296875
range: 1.87380969524
velocity: 0.0
doppler_bin: 8
bearing: -9.4733171463
intensity: 25.7170886993
---
header: 
  seq: 1059491
  stamp: 
    secs: 1561682924
    nsecs: 185112954
  frame_id: "ti_mmwave"
point_id: 0
x: 0.01171875
y: -0.0390625
z: -0.0078125
range: 0.0435769706964
velocity: 0.0
doppler_bin: 8
bearing: -73.3007583618
intensity: 30.7371826172
---
header: 
  seq: 1059492
  stamp: 
    secs: 1561682924
    nsecs: 185172450
  frame_id: "ti_mmwave"
point_id: 1
x: 0.017578125
y: -0.080078125
z: -0.0078125
range: 0.0871539413929
velocity: 0.0
doppler_bin: 8
bearing: -77.6192398071
intensity: 31.9617614746
---
header: 
  seq: 1059493
  stamp: 
    secs: 1561682924
    nsecs: 185189262
  frame_id: "ti_mmwave"
point_id: 2
x: 0.041015625
y: -0.115234375
z: -0.0078125
range: 0.130730912089
velocity: 0.0
doppler_bin: 8
bearing: -70.4077224731
intensity: 30.2160263062
---
header: 
  seq: 1059494
  stamp: 
    secs: 1561682924
    nsecs: 185205124
  frame_id: "ti_mmwave"
point_id: 3
x: 0.056640625
y: -0.154296875
z: 0.005859375
range: 0.174307882786
velocity: 0.0
doppler_bin: 8
bearing: -69.8423843384
intensity: 25.490032196
---
header: 
  seq: 1059495
  stamp: 
    secs: 1561682924
    nsecs: 185219565
  frame_id: "ti_mmwave"
point_id: 4
x: 0.345703125
y: -0.080078125
z: -1.216796875
range: 1.35088610649
velocity: 0.0
doppler_bin: 8
bearing: -13.0418901443
intensity: 21.9312458038
---
header: 
  seq: 1059496
  stamp: 
    secs: 1561682924
    nsecs: 185343900
  frame_id: "ti_mmwave"
point_id: 5
x: 0.302734375
y: -0.041015625
z: 1.2734375
range: 1.39446306229
velocity: 0.0
doppler_bin: 8
bearing: -7.71567344666
intensity: 23.2837963104
---
header: 
  seq: 1059497
  stamp: 
    secs: 1561682924
    nsecs: 185367069
  frame_id: "ti_mmwave"
point_id: 6
x: 0.408203125
y: -0.0
z: 1.287109375
range: 1.43804001808
velocity: 0.0
doppler_bin: 8
bearing: -0.0
intensity: 22.0139713287
---
header: 
  seq: 1059498
  stamp: 
    secs: 1561682924
    nsecs: 185376553
  frame_id: "ti_mmwave"
point_id: 7
x: 1.62890625
y: 0.052734375
z: -0.3984375
range: 1.78665578365
velocity: 0.0
doppler_bin: 8
bearing: 1.85425162315
intensity: 25.8546066284
---
header: 
  seq: 1059499
  stamp: 
    secs: 1561682924
    nsecs: 185385090
  frame_id: "ti_mmwave"
point_id: 8
x: 1.70703125
y: 0.107421875
z: -0.158203125
range: 1.83023273945
velocity: 0.0
doppler_bin: 8
bearing: 3.60082149506
intensity: 28.2216815948
---
header: 
  seq: 1059500
  stamp: 
    secs: 1561682924
    nsecs: 185395487
  frame_id: "ti_mmwave"
point_id: 9
x: 1.744140625
y: 0.220703125
z: -0.0703125
range: 1.87380969524
velocity: 0.0
doppler_bin: 8
bearing: 7.21186351776
intensity: 28.5853729248
---
header: 
  seq: 1059501
  stamp: 
    secs: 1561682924
    nsecs: 185401617
  frame_id: "ti_mmwave"
point_id: 10
x: 1.767578125
y: 0.337890625
z: -0.04296875
range: 1.91738677025
velocity: 0.0
doppler_bin: 8
bearing: 10.8221130371
intensity: 26.8930892944
---
header: 
  seq: 1059502
  stamp: 
    secs: 1561682924
    nsecs: 185413413
  frame_id: "ti_mmwave"
point_id: 11
x: 2.541015625
y: -0.263671875
z: 1.19921875
range: 3.00681090355
velocity: 0.0
doppler_bin: 8
bearing: -5.92417097092
intensity: 29.339931488
---
header: 
  seq: 1059503
  stamp: 
    secs: 1561682924
    nsecs: 185592154
  frame_id: "ti_mmwave"
point_id: 12
x: 2.603515625
y: -0.267578125
z: 1.162109375
range: 3.05038785934
velocity: 0.0
doppler_bin: 8
bearing: -5.8680100441
intensity: 32.7207374573
---
header: 
  seq: 1059504
  stamp: 
    secs: 1561682924
    nsecs: 185665664
  frame_id: "ti_mmwave"
point_id: 13
x: 2.662109375
y: -0.271484375
z: 1.12890625
range: 3.09396481514
velocity: 0.0
doppler_bin: 8
bearing: -5.82294607162
intensity: 31.9256744385
---
header: 
  seq: 1059505
  stamp: 
    secs: 1561682924
    nsecs: 185683905
  frame_id: "ti_mmwave"
point_id: 15
x: 0.041015625
y: -0.033203125
z: 0.0625
range: 0.0871539413929
velocity: 0.0
doppler_bin: 8
bearing: -38.9909973145
intensity: 30.1283721924
---
header: 
  seq: 1059506
  stamp: 
    secs: 1561682924
    nsecs: 185695966
  frame_id: "ti_mmwave"
point_id: 16
x: 0.044921875
y: -0.046875
z: 0.103515625
range: 0.130730912089
velocity: 0.0
doppler_bin: 8
bearing: -46.218875885
intensity: 29.0036716461
---
header: 
  seq: 1059507
  stamp: 
    secs: 1561682924
    nsecs: 185711916
  frame_id: "ti_mmwave"
point_id: 18
x: 1.208984375
y: 0.357421875
z: 0.1328125
range: 1.35088610649
velocity: 0.0
doppler_bin: 8
bearing: 16.4696884155
intensity: 19.1381378174
---
header: 
  seq: 1059508
  stamp: 
    secs: 1561682924
    nsecs: 243922548
  frame_id: "ti_mmwave"
point_id: 0
x: 0.01171875
y: -0.0390625
z: -0.0078125
range: 0.0435769706964
velocity: 0.0
doppler_bin: 8
bearing: -73.3007583618
intensity: 30.7371826172
---
header: 
  seq: 1059509
  stamp: 
    secs: 1561682924
    nsecs: 243999873
  frame_id: "ti_mmwave"
point_id: 1
x: 0.017578125
y: -0.080078125
z: -0.0078125
range: 0.0871539413929
velocity: 0.0
doppler_bin: 8
bearing: -77.6192398071
intensity: 31.9645252228
---
header: 
  seq: 1059510
  stamp: 
    secs: 1561682924
    nsecs: 244016054
  frame_id: "ti_mmwave"
point_id: 2
x: 0.029296875
y: -0.119140625
z: -0.005859375
range: 0.130730912089
velocity: 0.0
doppler_bin: 8
bearing: -76.1849746704
intensity: 30.2201576233
---
header: 
  seq: 1059511
  stamp: 
    secs: 1561682924
    nsecs: 244030960
  frame_id: "ti_mmwave"
point_id: 3
x: 0.056640625
y: -0.154296875
z: 0.005859375
range: 0.174307882786
velocity: 0.0
doppler_bin: 8
bearing: -69.8423843384
intensity: 25.4777469635
---
header: 
  seq: 1059512
  stamp: 
    secs: 1561682924
    nsecs: 244041550
  frame_id: "ti_mmwave"
point_id: 4
x: 0.333984375
y: -0.080078125
z: -1.220703125
range: 1.35088610649
velocity: 0.0
doppler_bin: 8
bearing: -13.4830598831
intensity: 21.9589958191
---
header: 
  seq: 1059513
  stamp: 
    secs: 1561682924
    nsecs: 244113338
  frame_id: "ti_mmwave"
point_id: 5
x: 0.302734375
y: -0.041015625
z: 1.2734375
range: 1.39446306229
velocity: 0.0
doppler_bin: 8
bearing: -7.71567344666
intensity: 23.2837963104
---
header: 
  seq: 1059514
  stamp: 
    secs: 1561682924
    nsecs: 244127188
  frame_id: "ti_mmwave"
point_id: 6
x: 0.4296875
y: -0.0
z: 1.279296875
range: 1.43804001808
velocity: 0.0
doppler_bin: 8
bearing: -0.0
intensity: 21.9865703583
---
header: 
  seq: 1059515
  stamp: 
    secs: 1561682924
    nsecs: 244138252
  frame_id: "ti_mmwave"
point_id: 7
x: 1.517578125
y: -0.146484375
z: -0.30859375
range: 1.65592491627
velocity: 0.0
doppler_bin: 8
bearing: -5.51340007782
intensity: 26.4933490753
---
header: 
  seq: 1059516
  stamp: 
    secs: 1561682924
    nsecs: 244152033
  frame_id: "ti_mmwave"
point_id: 8
x: 1.572265625
y: -0.19921875
z: -0.17578125
range: 1.69950187206
velocity: 0.0
doppler_bin: 8
bearing: -7.22135591507
intensity: 27.8604125977
---
header: 
  seq: 1059517
  stamp: 
    secs: 1561682924
    nsecs: 244163660
  frame_id: "ti_mmwave"
point_id: 9
x: 1.625
y: -0.154296875
z: -0.119140625
range: 1.74307882786
velocity: 0.0
doppler_bin: 8
bearing: -5.42408227921
intensity: 27.7011528015
---
header: 
  seq: 1059518
  stamp: 
    secs: 1561682924
    nsecs: 244175397
  frame_id: "ti_mmwave"
point_id: 10
x: 1.69921875
y: 0.21484375
z: 0.138671875
range: 1.83023273945
velocity: 0.0
doppler_bin: 8
bearing: 7.20605707169
intensity: 28.4695529938
---
header: 
  seq: 1059519
  stamp: 
    secs: 1561682924
    nsecs: 244186559
  frame_id: "ti_mmwave"
point_id: 11
x: 1.736328125
y: 0.275390625
z: 0.04296875
range: 1.87380969524
velocity: 0.0
doppler_bin: 8
bearing: 9.01233768463
intensity: 31.3097667694
---
header: 
  seq: 1059520
  stamp: 
    secs: 1561682924
    nsecs: 244199378
  frame_id: "ti_mmwave"
point_id: 12
x: 1.767578125
y: 0.337890625
z: 0.025390625
range: 1.91738677025
velocity: 0.0
doppler_bin: 8
bearing: 10.8221130371
intensity: 30.9061069489
---
header: 
  seq: 1059521
  stamp: 
    secs: 1561682924
    nsecs: 244212340
  frame_id: "ti_mmwave"
point_id: 13
x: 1.80859375
y: 0.345703125
z: 0.0390625
range: 1.96096372604
velocity: 0.0
doppler_bin: 8
bearing: 10.8212556839
intensity: 27.1683769226
---
header: 
  seq: 1059522
  stamp: 
    secs: 1561682924
    nsecs: 244238605
  frame_id: "ti_mmwave"
point_id: 14
x: 2.544921875
y: -0.263671875
z: 1.193359375
range: 3.00681090355
velocity: 0.0
doppler_bin: 8
bearing: -5.91514253616
intensity: 29.4349460602
---
header: 
  seq: 1059523
  stamp: 
    secs: 1561682924
    nsecs: 244304543
  frame_id: "ti_mmwave"
point_id: 15
x: 2.60546875
y: -0.267578125
z: 1.158203125
range: 3.05038785934
velocity: 0.0
doppler_bin: 8
bearing: -5.86364221573
intensity: 32.7253761292
---
header: 
  seq: 1059524
  stamp: 
    secs: 1561682924
    nsecs: 244322460
  frame_id: "ti_mmwave"
point_id: 16
x: 2.666015625
y: -0.181640625
z: 1.138671875
range: 3.09396481514
velocity: 0.0
doppler_bin: 8
bearing: -3.89764523506
intensity: 31.9395904541
---
header: 
  seq: 1059525
  stamp: 
    secs: 1561682924
    nsecs: 244336517
  frame_id: "ti_mmwave"
point_id: 18
x: 0.041015625
y: -0.033203125
z: 0.0625
range: 0.0871539413929
velocity: 0.0
doppler_bin: 8
bearing: -38.9909973145
intensity: 30.1283721924
---
header: 
  seq: 1059526
  stamp: 
    secs: 1561682924
    nsecs: 244348375
  frame_id: "ti_mmwave"
point_id: 19
x: 0.044921875
y: -0.046875
z: 0.103515625
range: 0.130730912089
velocity: 0.0
doppler_bin: 8
bearing: -46.218875885
intensity: 29.0036716461
---
header: 
  seq: 1059527
  stamp: 
    secs: 1561682924
    nsecs: 244364034
  frame_id: "ti_mmwave"
point_id: 21
x: 1.208984375
y: 0.357421875
z: 0.142578125
range: 1.35088610649
velocity: 0.0
doppler_bin: 8
bearing: 16.4696884155
intensity: 19.2427921295
---
header: 
  seq: 1059528
  stamp: 
    secs: 1561682924
    nsecs: 244381101
  frame_id: "ti_mmwave"
point_id: 23
x: 1.63671875
y: -0.482421875
z: -0.19140625
range: 1.83023273945
velocity: 0.0
doppler_bin: 8
bearing: -16.4228496552
intensity: 27.4350967407
---
header: 
  seq: 1059529
  stamp: 
    secs: 1561682924
    nsecs: 303828217
  frame_id: "ti_mmwave"
point_id: 0
x: 0.01171875
y: -0.0390625
z: -0.0078125
range: 0.0435769706964
velocity: 0.0
doppler_bin: 8
bearing: -73.3007583618
intensity: 30.7298469543
---
header: 
  seq: 1059530
  stamp: 
    secs: 1561682924
    nsecs: 303906790
  frame_id: "ti_mmwave"
point_id: 1
x: 0.017578125
y: -0.080078125
z: -0.0078125
range: 0.0871539413929
velocity: 0.0
doppler_bin: 8
bearing: -77.6192398071
intensity: 31.9617614746
---
header: 
  seq: 1059531
  stamp: 
    secs: 1561682924
    nsecs: 303924265
  frame_id: "ti_mmwave"
point_id: 2
x: 0.041015625
y: -0.115234375
z: -0.0078125
range: 0.130730912089
velocity: 0.0
doppler_bin: 8
bearing: -70.4077224731
intensity: 30.2160263062
---
header: 
  seq: 1059532
  stamp: 
    secs: 1561682924
    nsecs: 303937077
  frame_id: "ti_mmwave"
point_id: 3
x: 0.056640625
y: -0.154296875
z: 0.005859375
range: 0.174307882786
velocity: 0.0
doppler_bin: 8
bearing: -69.8423843384
intensity: 25.490032196
---
header: 
  seq: 1059533
  stamp: 
    secs: 1561682924
    nsecs: 304013256
  frame_id: "ti_mmwave"
point_id: 4
x: 0.349609375
y: -0.080078125
z: -1.216796875
range: 1.35088610649
velocity: 0.0
doppler_bin: 8
bearing: -12.9010734558
intensity: 21.9589958191
---
header: 
  seq: 1059534
  stamp: 
    secs: 1561682924
    nsecs: 304032337
  frame_id: "ti_mmwave"
point_id: 5
x: 0.27734375
y: -0.041015625
z: 1.279296875
range: 1.39446306229
velocity: 0.0
doppler_bin: 8
bearing: -8.41234493256
intensity: 23.2837963104
---
header: 
  seq: 1059535
  stamp: 
    secs: 1561682924
    nsecs: 304044716
  frame_id: "ti_mmwave"
point_id: 6
x: 0.376953125
y: -0.0
z: 1.296875
range: 1.43804001808
velocity: 0.0
doppler_bin: 8
bearing: -0.0
intensity: 21.9865703583
---
header: 
  seq: 1059536
  stamp: 
    secs: 1561682924
    nsecs: 304058771
  frame_id: "ti_mmwave"
point_id: 7
x: 1.552734375
y: -0.048828125
z: -0.02734375
range: 1.65592491627
velocity: 0.0
doppler_bin: 8
bearing: -1.80116057396
intensity: 26.3848934174
---
header: 
  seq: 1059537
  stamp: 
    secs: 1561682924
    nsecs: 304070223
  frame_id: "ti_mmwave"
point_id: 8
x: 1.59375
y: -0.05078125
z: 0.0078125
range: 1.69950187206
velocity: 0.0
doppler_bin: 8
bearing: -1.82498347759
intensity: 27.7451705933
---
header: 
  seq: 1059538
  stamp: 
    secs: 1561682924
    nsecs: 304084345
  frame_id: "ti_mmwave"
point_id: 9
x: 2.505859375
y: -0.263671875
z: 1.271484375
range: 3.00681090355
velocity: 0.0
doppler_bin: 8
bearing: -6.00668144226
intensity: 29.3550720215
---
header: 
  seq: 1059539
  stamp: 
    secs: 1561682924
    nsecs: 304096766
  frame_id: "ti_mmwave"
point_id: 10
x: 2.587890625
y: -0.267578125
z: 1.193359375
range: 3.05038785934
velocity: 0.0
doppler_bin: 8
bearing: -5.90319061279
intensity: 32.7091178894
---
header: 
  seq: 1059540
  stamp: 
    secs: 1561682924
    nsecs: 304110117
  frame_id: "ti_mmwave"
point_id: 11
x: 2.650390625
y: -0.181640625
z: 1.171875
range: 3.09396481514
velocity: 0.0
doppler_bin: 8
bearing: -3.92055153847
intensity: 31.8808441162
---
header: 
  seq: 1059541
  stamp: 
    secs: 1561682924
    nsecs: 304126243
  frame_id: "ti_mmwave"
point_id: 13
x: 0.041015625
y: -0.033203125
z: 0.0625
range: 0.0871539413929
velocity: 0.0
doppler_bin: 8
bearing: -38.9909973145
intensity: 30.1325874329
---
header: 
  seq: 1059542
  stamp: 
    secs: 1561682924
    nsecs: 304140284
  frame_id: "ti_mmwave"
point_id: 14
x: 0.052734375
y: -0.04296875
z: 0.1015625
range: 0.130730912089
velocity: 0.0
doppler_bin: 8
bearing: -39.1736602783
intensity: 29.0091304779
---
header: 
  seq: 1059543
  stamp: 
    secs: 1561682924
    nsecs: 304155582
  frame_id: "ti_mmwave"
point_id: 16
x: 1.208984375
y: 0.357421875
z: 0.142578125
range: 1.35088610649
velocity: 0.0
doppler_bin: 8
bearing: 16.4696884155
intensity: 19.2941894531
---
header: 
  seq: 1059544
  stamp: 
    secs: 1561682924
    nsecs: 305008572
  frame_id: "ti_mmwave"
point_id: 0
x: 0.01171875
y: -0.0390625
z: -0.0078125
range: 0.0435769706964
velocity: 0.0
doppler_bin: 8
bearing: -73.3007583618
intensity: 30.7335166931
---
header: 
  seq: 1059545
  stamp: 
    secs: 1561682924
    nsecs: 305082062
  frame_id: "ti_mmwave"
point_id: 1
x: 0.017578125
y: -0.080078125
z: -0.0078125
range: 0.0871539413929
velocity: 0.0
doppler_bin: 8
bearing: -77.6192398071
intensity: 31.9617614746
---
header: 
  seq: 1059546
  stamp: 
    secs: 1561682924
    nsecs: 305099931
  frame_id: "ti_mmwave"
point_id: 2
x: 0.029296875
y: -0.119140625
z: -0.005859375
range: 0.130730912089
velocity: 0.0
doppler_bin: 8
bearing: -76.1849746704
intensity: 30.2160263062
---
header: 
  seq: 1059547
  stamp: 
    secs: 1561682924
    nsecs: 305117932
  frame_id: "ti_mmwave"
point_id: 3
x: 0.056640625
y: -0.154296875
z: 0.005859375
range: 0.174307882786
velocity: 0.0
doppler_bin: 8
bearing: -69.8423843384
intensity: 25.4654273987
---
header: 
  seq: 1059548
  stamp: 
    secs: 1561682924
    nsecs: 305178947
  frame_id: "ti_mmwave"
point_id: 4
x: 0.349609375
y: -0.080078125
z: -1.216796875
range: 1.35088610649
velocity: 0.0
doppler_bin: 8
bearing: -12.9010734558
intensity: 21.9865703583
---
header: 
  seq: 1059549
  stamp: 
    secs: 1561682924
    nsecs: 305193944
  frame_id: "ti_mmwave"
point_id: 5
x: 0.255859375
y: -0.041015625
z: 1.283203125
range: 1.39446306229
velocity: 0.0
doppler_bin: 8
bearing: -9.10733413696
intensity: 23.2633590698
---
header: 
  seq: 1059550
  stamp: 
    secs: 1561682924
    nsecs: 305207306
  frame_id: "ti_mmwave"
point_id: 6
x: 0.486328125
y: -0.04296875
z: 1.259765625
range: 1.43804001808
velocity: 0.0
doppler_bin: 8
bearing: -5.04916620255
intensity: 21.9312458038
---
header: 
  seq: 1059551
  stamp: 
    secs: 1561682924
    nsecs: 305220284
  frame_id: "ti_mmwave"
point_id: 7
x: 1.412109375
y: -0.236328125
z: -0.490234375
range: 1.61234796047
velocity: 0.0
doppler_bin: 8
bearing: -9.50087070465
intensity: 24.6982192993
---
header: 
  seq: 1059552
  stamp: 
    secs: 1561682924
    nsecs: 305231822
  frame_id: "ti_mmwave"
point_id: 8
x: 1.490234375
y: -0.2421875
z: -0.3671875
range: 1.65592491627
velocity: 0.0
doppler_bin: 8
bearing: -9.23080062866
intensity: 29.1381378174
---
header: 
  seq: 1059553
  stamp: 
    secs: 1561682924
    nsecs: 305287456
  frame_id: "ti_mmwave"
point_id: 9
x: 1.546875
y: -0.25
z: -0.3046875
range: 1.69950187206
velocity: 0.0
doppler_bin: 8
bearing: -9.18054199219
intensity: 29.8136558533
---
header: 
  seq: 1059554
  stamp: 
    secs: 1561682924
    nsecs: 305301592
  frame_id: "ti_mmwave"
point_id: 10
x: 1.591796875
y: -0.154296875
z: -0.345703125
range: 1.74307882786
velocity: 0.0
doppler_bin: 8
bearing: -5.53652715683
intensity: 26.7117290497
---
header: 
  seq: 1059555
  stamp: 
    secs: 1561682924
    nsecs: 305344017
  frame_id: "ti_mmwave"
point_id: 11
x: 2.568359375
y: -0.263671875
z: 1.138671875
range: 3.00681090355
velocity: 0.0
doppler_bin: 8
bearing: -5.86154127121
intensity: 29.3901977539
---
header: 
  seq: 1059556
  stamp: 
    secs: 1561682924
    nsecs: 305358195
  frame_id: "ti_mmwave"
point_id: 12
x: 2.61328125
y: -0.267578125
z: 1.138671875
range: 3.05038785934
velocity: 0.0
doppler_bin: 8
bearing: -5.84623432159
intensity: 32.7692108154
---
header: 
  seq: 1059557
  stamp: 
    secs: 1561682924
    nsecs: 305375273
  frame_id: "ti_mmwave"
point_id: 13
x: 2.671875
y: -0.271484375
z: 1.10546875
range: 3.09396481514
velocity: 0.0
doppler_bin: 8
bearing: -5.80180835724
intensity: 32.0384864807
---
header: 
  seq: 1059558
  stamp: 
    secs: 1561682924
    nsecs: 305423015
  frame_id: "ti_mmwave"
point_id: 15
x: 0.041015625
y: -0.033203125
z: 0.0625
range: 0.0871539413929
velocity: 0.0
doppler_bin: 8
bearing: -38.9909973145
intensity: 30.1241531372
---
header: 
  seq: 1059559
  stamp: 
    secs: 1561682924
    nsecs: 305439741
  frame_id: "ti_mmwave"
point_id: 16
x: 0.044921875
y: -0.046875
z: 0.103515625
range: 0.130730912089
velocity: 0.0
doppler_bin: 8
bearing: -46.218875885
intensity: 28.9982051849
---
header: 
  seq: 1059560
  stamp: 
    secs: 1561682924
    nsecs: 305452451
  frame_id: "ti_mmwave"
point_id: 18
x: 1.208984375
y: 0.357421875
z: 0.134765625
range: 1.35088610649
velocity: 0.0
doppler_bin: 8
bearing: 16.4696884155
intensity: 19.2941894531
---
header: 
  seq: 1059561
  stamp: 
    secs: 1561682924
    nsecs: 363964838
  frame_id: "ti_mmwave"
point_id: 0
x: 0.01171875
y: -0.0390625
z: -0.0078125
range: 0.0435769706964
velocity: 0.0
doppler_bin: 8
bearing: -73.3007583618
intensity: 30.7298469543
---
header: 
  seq: 1059562
  stamp: 
    secs: 1561682924
    nsecs: 364053062
  frame_id: "ti_mmwave"
point_id: 1
x: 0.017578125
y: -0.080078125
z: -0.0078125
range: 0.0871539413929
velocity: 0.0
doppler_bin: 8
bearing: -77.6192398071
intensity: 31.9589958191
---
header: 
  seq: 1059563
  stamp: 
    secs: 1561682924
    nsecs: 364070915
  frame_id: "ti_mmwave"
point_id: 2
x: 0.041015625
y: -0.115234375
z: -0.0078125
range: 0.130730912089
velocity: 0.0
doppler_bin: 8
bearing: -70.4077224731
intensity: 30.2118930817
---
header: 
  seq: 1059564
  stamp: 
    secs: 1561682924
    nsecs: 364084858
  frame_id: "ti_mmwave"
point_id: 3
x: 0.056640625
y: -0.154296875
z: 0.005859375
range: 0.174307882786
velocity: 0.0
doppler_bin: 8
bearing: -69.8423843384
intensity: 25.4777469635
---
header: 
  seq: 1059565
  stamp: 
    secs: 1561682924
    nsecs: 364101158
  frame_id: "ti_mmwave"
point_id: 4
x: 0.33984375
y: -0.080078125
z: -1.21875
range: 1.35088610649
velocity: 0.0
doppler_bin: 8
bearing: -13.2588720322
intensity: 22.0139713287
---
header: 
  seq: 1059566
  stamp: 
    secs: 1561682924
    nsecs: 364185866
  frame_id: "ti_mmwave"
point_id: 5
x: 0.30859375
y: -0.041015625
z: 1.271484375
range: 1.39446306229
velocity: 0.0
doppler_bin: 8
bearing: -7.57088899612
intensity: 23.3041381836
---
header: 
  seq: 1059567
  stamp: 
    secs: 1561682924
    nsecs: 364201580
  frame_id: "ti_mmwave"
point_id: 6
x: 0.40234375
y: -0.0
z: 1.2890625
range: 1.43804001808
velocity: 0.0
doppler_bin: 8
bearing: -0.0
intensity: 21.9589958191
---
header: 
  seq: 1059568
  stamp: 
    secs: 1561682924
    nsecs: 364215628
  frame_id: "ti_mmwave"
point_id: 7
x: 1.537109375
y: -0.146484375
z: -0.173828125
range: 1.65592491627
velocity: 0.0
doppler_bin: 8
bearing: -5.44376754761
intensity: 26.839471817
---
header: 
  seq: 1059569
  stamp: 
    secs: 1561682924
    nsecs: 364231180
  frame_id: "ti_mmwave"
point_id: 8
x: 1.58203125
y: -0.150390625
z: -0.150390625
range: 1.69950187206
velocity: 0.0
doppler_bin: 8
bearing: -5.43031740189
intensity: 28.3632411957
---
header: 
  seq: 1059570
  stamp: 
    secs: 1561682924
    nsecs: 364244504
  frame_id: "ti_mmwave"
point_id: 9
x: 1.68359375
y: -0.21484375
z: -0.26953125
range: 1.83023273945
velocity: 0.0
doppler_bin: 8
bearing: -7.27222204208
intensity: 26.0852603912
---
header: 
  seq: 1059571
  stamp: 
    secs: 1561682924
    nsecs: 364258058
  frame_id: "ti_mmwave"
point_id: 10
x: 1.67578125
y: 0.275390625
z: 0.455078125
range: 1.87380969524
velocity: 0.0
doppler_bin: 8
bearing: 9.33232688904
intensity: 27.9865055084
---
header: 
  seq: 1059572
  stamp: 
    secs: 1561682924
    nsecs: 364274967
  frame_id: "ti_mmwave"
point_id: 11
x: 1.728515625
y: 0.28125
z: 0.41796875
range: 1.91738677025
velocity: 0.0
doppler_bin: 8
bearing: 9.24171257019
intensity: 26.7209777832
---
header: 
  seq: 1059573
  stamp: 
    secs: 1561682924
    nsecs: 364340141
  frame_id: "ti_mmwave"
point_id: 12
x: 2.509765625
y: -0.263671875
z: 1.263671875
range: 3.00681090355
velocity: 0.0
doppler_bin: 8
bearing: -5.99740028381
intensity: 29.2890777588
---
header: 
  seq: 1059574
  stamp: 
    secs: 1561682924
    nsecs: 364355130
  frame_id: "ti_mmwave"
point_id: 13
x: 2.59765625
y: -0.267578125
z: 1.173828125
range: 3.05038785934
velocity: 0.0
doppler_bin: 8
bearing: -5.88115358353
intensity: 32.7392692566
---
header: 
  seq: 1059575
  stamp: 
    secs: 1561682924
    nsecs: 364369744
  frame_id: "ti_mmwave"
point_id: 14
x: 2.66015625
y: -0.181640625
z: 1.15234375
range: 3.09396481514
velocity: 0.0
doppler_bin: 8
bearing: -3.90620398521
intensity: 31.994808197
---
header: 
  seq: 1059576
  stamp: 
    secs: 1561682924
    nsecs: 364386494
  frame_id: "ti_mmwave"
point_id: 16
x: 0.041015625
y: -0.033203125
z: 0.0625
range: 0.0871539413929
velocity: 0.0
doppler_bin: 8
bearing: -38.9909973145
intensity: 30.1325874329
---
header: 
  seq: 1059577
  stamp: 
    secs: 1561682924
    nsecs: 364400920
  frame_id: "ti_mmwave"
point_id: 17
x: 0.044921875
y: -0.046875
z: 0.103515625
range: 0.130730912089
velocity: 0.0
doppler_bin: 8
bearing: -46.218875885
intensity: 29.0091304779
---
header: 
  seq: 1059578
  stamp: 
    secs: 1561682924
    nsecs: 364417784
  frame_id: "ti_mmwave"
point_id: 19
x: 1.208984375
y: 0.357421875
z: 0.140625
range: 1.35088610649
velocity: 0.0
doppler_bin: 8
bearing: 16.4696884155
intensity: 19.1381378174
---
header: 
  seq: 1059579
  stamp: 
    secs: 1561682924
    nsecs: 364433722
  frame_id: "ti_mmwave"
point_id: 20
x: 0.533203125
y: 0.630859375
z: 1.31640625
range: 1.65592491627
velocity: 0.0
doppler_bin: 8
bearing: 49.795463562
intensity: 25.2762985229
---
header: 
  seq: 1059580
  stamp: 
    secs: 1561682924
    nsecs: 364442862
  frame_id: "ti_mmwave"
point_id: 21
x: 1.658203125
y: 0.21484375
z: 0.392578125
range: 1.83023273945
velocity: 0.0
doppler_bin: 8
bearing: 7.38235616684
intensity: 25.965970993
---
header: 
  seq: 1059581
  stamp: 
    secs: 1561682924
    nsecs: 364470248
  frame_id: "ti_mmwave"
point_id: 22
x: 0.345703125
y: -0.44921875
z: 1.708984375
range: 1.91738677025
velocity: 0.0
doppler_bin: 8
bearing: -52.4193687439
intensity: 24.014005661
---
header: 
  seq: 1059582
  stamp: 
    secs: 1561682924
    nsecs: 365821192
  frame_id: "ti_mmwave"
point_id: 0
x: 0.01171875
y: -0.0390625
z: -0.0078125
range: 0.0435769706964
velocity: 0.0
doppler_bin: 8
bearing: -73.3007583618
intensity: 30.7335166931
---
header: 
  seq: 1059583
  stamp: 
    secs: 1561682924
    nsecs: 365871130
  frame_id: "ti_mmwave"
point_id: 1
x: 0.017578125
y: -0.080078125
z: -0.0078125
range: 0.0871539413929
velocity: 0.0
doppler_bin: 8
bearing: -77.6192398071
intensity: 31.9617614746
---
header: 
  seq: 1059584
  stamp: 
    secs: 1561682924
    nsecs: 365887659
  frame_id: "ti_mmwave"
point_id: 2
x: 0.041015625
y: -0.115234375
z: -0.0078125
range: 0.130730912089
velocity: 0.0
doppler_bin: 8
bearing: -70.4077224731
intensity: 30.2160263062
---
header: 
  seq: 1059585
  stamp: 
    secs: 1561682924
    nsecs: 365901727
  frame_id: "ti_mmwave"
point_id: 3
x: 0.056640625
y: -0.154296875
z: 0.005859375
range: 0.174307882786
velocity: 0.0
doppler_bin: 8
bearing: -69.8423843384
intensity: 25.4777469635
---
header: 
  seq: 1059586
  stamp: 
    secs: 1561682924
    nsecs: 365928525
  frame_id: "ti_mmwave"
point_id: 4
x: 0.337890625
y: -0.080078125
z: -1.21875
range: 1.35088610649
velocity: 0.0
doppler_bin: 8
bearing: -13.332783699
intensity: 21.9312458038
---
header: 
  seq: 1059587
  stamp: 
    secs: 1561682924
    nsecs: 366013055
  frame_id: "ti_mmwave"
point_id: 5
x: 0.30078125
y: -0.041015625
z: 1.2734375
range: 1.39446306229
velocity: 0.0
doppler_bin: 8
bearing: -7.76516628265
intensity: 23.2221927643
---
header: 
  seq: 1059588
  stamp: 
    secs: 1561682924
    nsecs: 366029833
  frame_id: "ti_mmwave"
point_id: 6
x: 0.388671875
y: -0.0
z: 1.29296875
range: 1.43804001808
velocity: 0.0
doppler_bin: 8
bearing: -0.0
intensity: 21.9312458038
---
header: 
  seq: 1059589
  stamp: 
    secs: 1561682924
    nsecs: 366043071
  frame_id: "ti_mmwave"
point_id: 7
x: 1.525390625
y: -0.146484375
z: -0.26171875
range: 1.65592491627
velocity: 0.0
doppler_bin: 8
bearing: -5.4853348732
intensity: 26.7209777832
---
header: 
  seq: 1059590
  stamp: 
    secs: 1561682924
    nsecs: 366058707
  frame_id: "ti_mmwave"
point_id: 8
x: 1.580078125
y: -0.099609375
z: -0.1953125
range: 1.69950187206
velocity: 0.0
doppler_bin: 8
bearing: -3.60719799995
intensity: 27.7232170105
---
header: 
  seq: 1059591
  stamp: 
    secs: 1561682924
    nsecs: 366111911
  frame_id: "ti_mmwave"
point_id: 9
x: 1.62109375
y: -0.482421875
z: 0.302734375
range: 1.83023273945
velocity: 0.0
doppler_bin: 8
bearing: -16.5724983215
intensity: 28.2542610168
---
header: 
  seq: 1059592
  stamp: 
    secs: 1561682924
    nsecs: 366126248
  frame_id: "ti_mmwave"
point_id: 10
x: 1.748046875
y: 0.1640625
z: 0.099609375
range: 1.87380969524
velocity: 0.0
doppler_bin: 8
bearing: 5.36177444458
intensity: 29.3449840546
---
header: 
  seq: 1059593
  stamp: 
    secs: 1561682924
    nsecs: 366139647
  frame_id: "ti_mmwave"
point_id: 11
x: 1.783203125
y: 0.16796875
z: 0.177734375
range: 1.91738677025
velocity: 0.0
doppler_bin: 8
bearing: 5.38109636307
intensity: 27.7524623871
---
header: 
  seq: 1059594
  stamp: 
    secs: 1561682924
    nsecs: 366153196
  frame_id: "ti_mmwave"
point_id: 12
x: 2.55859375
y: -0.263671875
z: 1.162109375
range: 3.00681090355
velocity: 0.0
doppler_bin: 8
bearing: -5.88375711441
intensity: 29.5808582306
---
header: 
  seq: 1059595
  stamp: 
    secs: 1561682924
    nsecs: 366167396
  frame_id: "ti_mmwave"
point_id: 13
x: 2.60546875
y: -0.267578125
z: 1.15625
range: 3.05038785934
velocity: 0.0
doppler_bin: 8
bearing: -5.86364221573
intensity: 32.8012275696
---
header: 
  seq: 1059596
  stamp: 
    secs: 1561682924
    nsecs: 366201889
  frame_id: "ti_mmwave"
point_id: 14
x: 2.66015625
y: -0.181640625
z: 1.150390625
range: 3.09396481514
velocity: 0.0
doppler_bin: 8
bearing: -3.90620398521
intensity: 31.9810695648
---
header: 
  seq: 1059597
  stamp: 
    secs: 1561682924
    nsecs: 366217606
  frame_id: "ti_mmwave"
point_id: 15
x: 4.40234375
y: -0.287109375
z: 1.23828125
range: 4.88062095642
velocity: 0.0
doppler_bin: 8
bearing: -3.73139691353
intensity: 30.8635978699
---
header: 
  seq: 1059598
  stamp: 
    secs: 1561682924
    nsecs: 366230477
  frame_id: "ti_mmwave"
point_id: 16
x: 4.4609375
y: -0.2890625
z: 1.173828125
range: 4.9241976738
velocity: 0.0
doppler_bin: 8
bearing: -3.70750308037
intensity: 30.7627620697
---
header: 
  seq: 1059599
  stamp: 
    secs: 1561682924
    nsecs: 366246242
  frame_id: "ti_mmwave"
point_id: 18
x: 0.041015625
y: -0.033203125
z: 0.0625
range: 0.0871539413929
velocity: 0.0
doppler_bin: 8
bearing: -38.9909973145
intensity: 30.1325874329
---
header: 
  seq: 1059600
  stamp: 
    secs: 1561682924
    nsecs: 366259623
  frame_id: "ti_mmwave"
point_id: 19
x: 0.044921875
y: -0.046875
z: 0.103515625
range: 0.130730912089
velocity: 0.0
doppler_bin: 8
bearing: -46.218875885
intensity: 29.0036716461
---
header: 
  seq: 1059601
  stamp: 
    secs: 1561682924
    nsecs: 366276402
  frame_id: "ti_mmwave"
point_id: 21
x: 1.208984375
y: 0.357421875
z: 0.146484375
range: 1.35088610649
velocity: 0.0
doppler_bin: 8
bearing: 16.4696884155
intensity: 19.1907806396
---
header: 
  seq: 1059602
  stamp: 
    secs: 1561682924
    nsecs: 366292416
  frame_id: "ti_mmwave"
point_id: 23
x: 1.70703125
y: 0.16015625
z: -0.103515625
range: 1.83023273945
velocity: 0.0
doppler_bin: 8
bearing: 5.35988664627
intensity: 27.6192779541
---
header: 
  seq: 1059603
  stamp: 
    secs: 1561682924
    nsecs: 366305987
  frame_id: "ti_mmwave"
point_id: 24
x: 1.625
y: -0.494140625
z: 0.45703125
range: 1.87380969524
velocity: 0.0
doppler_bin: 8
bearing: -16.91381073
intensity: 28.6510391235
---
header: 
  seq: 1059604
  stamp: 
    secs: 1561682924
    nsecs: 366319438
  frame_id: "ti_mmwave"
point_id: 25
x: 1.603515625
y: -0.505859375
z: 0.64453125
range: 1.91738677025
velocity: 0.0
doppler_bin: 8
bearing: -17.5088672638
intensity: 26.3548374176
---
header: 
  seq: 1059605
  stamp: 
    secs: 1561682924
    nsecs: 366335562
  frame_id: "ti_mmwave"
point_id: 26
x: 3.111328125
y: -1.861328125
z: -2.80078125
range: 4.88062095642
velocity: 0.0
doppler_bin: 8
bearing: -30.8896465302
intensity: 27.9379043579
---
header: 
  seq: 1059606
  stamp: 
    secs: 1561682924
    nsecs: 423922254
  frame_id: "ti_mmwave"
point_id: 0
x: 0.01171875
y: -0.0390625
z: -0.0078125
range: 0.0435769706964
velocity: 0.0
doppler_bin: 8
bearing: -73.3007583618
intensity: 30.7298469543
---
header: 
  seq: 1059607
  stamp: 
    secs: 1561682924
    nsecs: 424021811
  frame_id: "ti_mmwave"
point_id: 1
x: 0.017578125
y: -0.080078125
z: -0.0078125
range: 0.0871539413929
velocity: 0.0
doppler_bin: 8
bearing: -77.6192398071
intensity: 31.9617614746
---
header: 
  seq: 1059608
  stamp: 
    secs: 1561682924
    nsecs: 424039903
  frame_id: "ti_mmwave"
point_id: 2
x: 0.029296875
y: -0.119140625
z: -0.005859375
range: 0.130730912089
velocity: 0.0
doppler_bin: 8
bearing: -76.1849746704
intensity: 30.2201576233
---
header: 
  seq: 1059609
  stamp: 
    secs: 1561682924
    nsecs: 424055109
  frame_id: "ti_mmwave"
point_id: 3
x: 0.056640625
y: -0.154296875
z: 0.005859375
range: 0.174307882786
velocity: 0.0
doppler_bin: 8
bearing: -69.8423843384
intensity: 25.4777469635
---
header: 
  seq: 1059610
  stamp: 
    secs: 1561682924
    nsecs: 424069035
  frame_id: "ti_mmwave"
point_id: 4
x: 0.376953125
y: -0.080078125
z: -1.20703125
range: 1.35088610649
velocity: 0.0
doppler_bin: 8
bearing: -11.9933481216
intensity: 21.9865703583
---
header: 
  seq: 1059611
  stamp: 
    secs: 1561682924
    nsecs: 424084080
  frame_id: "ti_mmwave"
point_id: 5
x: 0.265625
y: -0.041015625
z: 1.28125
range: 1.39446306229
velocity: 0.0
doppler_bin: 8
bearing: -8.77781772614
intensity: 23.2633590698
---
header: 
  seq: 1059612
  stamp: 
    secs: 1561682924
    nsecs: 424098373
  frame_id: "ti_mmwave"
point_id: 6
x: 0.392578125
y: -0.0
z: 1.291015625
range: 1.43804001808
velocity: 0.0
doppler_bin: 8
bearing: -0.0
intensity: 21.9312458038
---
header: 
  seq: 1059613
  stamp: 
    secs: 1561682924
    nsecs: 424186769
  frame_id: "ti_mmwave"
point_id: 7
x: 1.47265625
y: -0.142578125
z: -0.3203125
range: 1.61234796047
velocity: 0.0
doppler_bin: 8
bearing: -5.52996873856
intensity: 25.2762985229
---
header: 
  seq: 1059614
  stamp: 
    secs: 1561682924
    nsecs: 424208914
  frame_id: "ti_mmwave"
point_id: 8
x: 1.517578125
y: -0.146484375
z: -0.302734375
range: 1.65592491627
velocity: 0.0
doppler_bin: 8
bearing: -5.51340007782
intensity: 29.7358970642
---
header: 
  seq: 1059615
  stamp: 
    secs: 1561682924
    nsecs: 424227118
  frame_id: "ti_mmwave"
point_id: 9
x: 1.5625
y: -0.099609375
z: -0.302734375
range: 1.69950187206
velocity: 0.0
doppler_bin: 8
bearing: -3.64766979218
intensity: 30.4453983307
---
header: 
  seq: 1059616
  stamp: 
    secs: 1561682924
    nsecs: 424244831
  frame_id: "ti_mmwave"
point_id: 10
x: 1.61328125
y: -0.1015625
z: -0.25
range: 1.74307882786
velocity: 0.0
doppler_bin: 8
bearing: -3.60224437714
intensity: 27.8746051788
---
header: 
  seq: 1059617
  stamp: 
    secs: 1561682924
    nsecs: 424258652
  frame_id: "ti_mmwave"
point_id: 11
x: 1.6640625
y: -0.208984375
z: -0.03515625
range: 1.78665578365
velocity: 0.0
doppler_bin: 8
bearing: -7.15812063217
intensity: 26.6745300293
---
header: 
  seq: 1059618
  stamp: 
    secs: 1561682924
    nsecs: 424271885
  frame_id: "ti_mmwave"
point_id: 12
x: 1.658203125
y: 0.107421875
z: 0.435546875
range: 1.83023273945
velocity: 0.0
doppler_bin: 8
bearing: 3.70656132698
intensity: 28.4385547638
---
header: 
  seq: 1059619
  stamp: 
    secs: 1561682924
    nsecs: 424287080
  frame_id: "ti_mmwave"
point_id: 13
x: 1.6953125
y: 0.109375
z: 0.455078125
range: 1.87380969524
velocity: 0.0
doppler_bin: 8
bearing: 3.69138598442
intensity: 28.680562973
---
header: 
  seq: 1059620
  stamp: 
    secs: 1561682924
    nsecs: 424336759
  frame_id: "ti_mmwave"
point_id: 14
x: 2.517578125
y: -0.263671875
z: 1.24609375
range: 3.00681090355
velocity: 0.0
doppler_bin: 8
bearing: -5.97892427444
intensity: 29.4596061707
---
header: 
  seq: 1059621
  stamp: 
    secs: 1561682924
    nsecs: 424358651
  frame_id: "ti_mmwave"
point_id: 15
x: 2.587890625
y: -0.267578125
z: 1.1953125
range: 3.05038785934
velocity: 0.0
doppler_bin: 8
bearing: -5.90319061279
intensity: 32.7300109863
---
header: 
  seq: 1059622
  stamp: 
    secs: 1561682924
    nsecs: 424374139
  frame_id: "ti_mmwave"
point_id: 16
x: 2.65234375
y: -0.181640625
z: 1.16796875
range: 3.09396481514
velocity: 0.0
doppler_bin: 8
bearing: -3.9176735878
intensity: 31.9117145538
---
header: 
  seq: 1059623
  stamp: 
    secs: 1561682924
    nsecs: 424395687
  frame_id: "ti_mmwave"
point_id: 17
x: 4.4140625
y: -0.287109375
z: 1.193359375
range: 4.88062095642
velocity: 0.0
doppler_bin: 8
bearing: -3.72151875496
intensity: 30.5269393921
---
header: 
  seq: 1059624
  stamp: 
    secs: 1561682924
    nsecs: 424412042
  frame_id: "ti_mmwave"
point_id: 18
x: 4.4453125
y: -0.43359375
z: 1.193359375
range: 4.9241976738
velocity: 0.0
doppler_bin: 8
bearing: -5.57098150253
intensity: 29.7081165314
---
header: 
  seq: 1059625
  stamp: 
    secs: 1561682924
    nsecs: 424430405
  frame_id: "ti_mmwave"
point_id: 20
x: 0.041015625
y: -0.033203125
z: 0.0625
range: 0.0871539413929
velocity: 0.0
doppler_bin: 8
bearing: -38.9909973145
intensity: 30.1325874329
---
header: 
  seq: 1059626
  stamp: 
    secs: 1561682924
    nsecs: 424447919
  frame_id: "ti_mmwave"
point_id: 21
x: 0.044921875
y: -0.046875
z: 0.103515625
range: 0.130730912089
velocity: 0.0
doppler_bin: 8
bearing: -46.218875885
intensity: 29.0091304779
---
header: 
  seq: 1059627
  stamp: 
    secs: 1561682924
    nsecs: 424523944
  frame_id: "ti_mmwave"
point_id: 23
x: 1.2109375
y: 0.357421875
z: 0.11328125
range: 1.35088610649
velocity: 0.0
doppler_bin: 8
bearing: 16.4445590973
intensity: 19.2427921295
---
header: 
  seq: 1059628
  stamp: 
    secs: 1561682924
    nsecs: 424611725
  frame_id: "ti_mmwave"
point_id: 25
x: 1.671875
y: -0.322265625
z: -0.234375
range: 1.83023273945
velocity: 0.0
doppler_bin: 8
bearing: -10.9103507996
intensity: 27.7305469513
---
header: 
  seq: 1059629
  stamp: 
    secs: 1561682924
    nsecs: 424630373
  frame_id: "ti_mmwave"
point_id: 26
x: 1.671875
y: -0.384765625
z: -0.392578125
range: 1.87380969524
velocity: 0.0
doppler_bin: 8
bearing: -12.960392952
intensity: 27.2997436523
---
header: 
  seq: 1059630
  stamp: 
    secs: 1561682924
    nsecs: 424645527
  frame_id: "ti_mmwave"
point_id: 27
x: 2.958984375
y: -2.021484375
z: -2.919921875
range: 4.9241976738
velocity: 0.0
doppler_bin: 8
bearing: -34.3396492004
intensity: 26.9460525513
---
header: 
  seq: 1059631
  stamp: 
    secs: 1561682924
    nsecs: 425436072
  frame_id: "ti_mmwave"
point_id: 0
x: 0.01171875
y: -0.0390625
z: -0.0078125
range: 0.0435769706964
velocity: 0.0
doppler_bin: 8
bearing: -73.3007583618
intensity: 30.7335166931
---
header: 
  seq: 1059632
  stamp: 
    secs: 1561682924
    nsecs: 425501872
  frame_id: "ti_mmwave"
point_id: 1
x: 0.017578125
y: -0.080078125
z: -0.0078125
range: 0.0871539413929
velocity: 0.0
doppler_bin: 8
bearing: -77.6192398071
intensity: 31.9617614746
---
header: 
  seq: 1059633
  stamp: 
    secs: 1561682924
    nsecs: 425519473
  frame_id: "ti_mmwave"
point_id: 2
x: 0.041015625
y: -0.115234375
z: -0.0078125
range: 0.130730912089
velocity: 0.0
doppler_bin: 8
bearing: -70.4077224731
intensity: 30.2160263062
---
header: 
  seq: 1059634
  stamp: 
    secs: 1561682924
    nsecs: 425533634
  frame_id: "ti_mmwave"
point_id: 3
x: 0.056640625
y: -0.154296875
z: 0.005859375
range: 0.174307882786
velocity: 0.0
doppler_bin: 8
bearing: -69.8423843384
intensity: 25.4777469635
---
header: 
  seq: 1059635
  stamp: 
    secs: 1561682924
    nsecs: 425545232
  frame_id: "ti_mmwave"
point_id: 4
x: 0.400390625
y: -0.080078125
z: -1.201171875
range: 1.35088610649
velocity: 0.0
doppler_bin: 8
bearing: -11.3099327087
intensity: 21.9312458038
---
header: 
  seq: 1059636
  stamp: 
    secs: 1561682924
    nsecs: 425556660
  frame_id: "ti_mmwave"
point_id: 5
x: 0.19921875
y: -0.041015625
z: 1.29296875
range: 1.39446306229
velocity: 0.0
doppler_bin: 8
bearing: -11.6336345673
intensity: 23.2428245544
---
header: 
  seq: 1059637
  stamp: 
    secs: 1561682924
    nsecs: 425568213
  frame_id: "ti_mmwave"
point_id: 6
x: 0.34375
y: -0.0
z: 1.3046875
range: 1.43804001808
velocity: 0.0
doppler_bin: 8
bearing: -0.0
intensity: 21.875207901
---
header: 
  seq: 1059638
  stamp: 
    secs: 1561682924
    nsecs: 425580379
  frame_id: "ti_mmwave"
point_id: 7
x: 1.533203125
y: -0.193359375
z: -0.169921875
range: 1.65592491627
velocity: 0.0
doppler_bin: 8
bearing: -7.18788957596
intensity: 26.981004715
---
header: 
  seq: 1059639
  stamp: 
    secs: 1561682924
    nsecs: 425592426
  frame_id: "ti_mmwave"
point_id: 8
x: 1.560546875
y: -0.150390625
z: -0.291015625
range: 1.69950187206
velocity: 0.0
doppler_bin: 8
bearing: -5.50462198257
intensity: 28.1756534576
---
header: 
  seq: 1059640
  stamp: 
    secs: 1561682924
    nsecs: 425605415
  frame_id: "ti_mmwave"
point_id: 9
x: 1.67578125
y: -0.0
z: 0.052734375
range: 1.78665578365
velocity: 0.0
doppler_bin: 8
bearing: -0.0
intensity: 26.7209777832
---
header: 
  seq: 1059641
  stamp: 
    secs: 1561682924
    nsecs: 425618993
  frame_id: "ti_mmwave"
point_id: 10
x: 1.697265625
y: 0.16015625
z: 0.2109375
range: 1.83023273945
velocity: 0.0
doppler_bin: 8
bearing: 5.39054489136
intensity: 30.962146759
---
header: 
  seq: 1059642
  stamp: 
    secs: 1561682924
    nsecs: 425631219
  frame_id: "ti_mmwave"
point_id: 11
x: 1.73828125
y: 0.1640625
z: 0.220703125
range: 1.87380969524
velocity: 0.0
doppler_bin: 8
bearing: 5.39171981812
intensity: 32.2582588196
---
header: 
  seq: 1059643
  stamp: 
    secs: 1561682924
    nsecs: 425643228
  frame_id: "ti_mmwave"
point_id: 12
x: 1.783203125
y: 0.16796875
z: 0.17578125
range: 1.91738677025
velocity: 0.0
doppler_bin: 8
bearing: 5.38109636307
intensity: 30.0432128906
---
header: 
  seq: 1059644
  stamp: 
    secs: 1561682924
    nsecs: 425655331
  frame_id: "ti_mmwave"
point_id: 13
x: 2.490234375
y: -0.263671875
z: 1.30078125
range: 3.00681090355
velocity: 0.0
doppler_bin: 8
bearing: -6.04409217834
intensity: 29.3196620941
---
header: 
  seq: 1059645
  stamp: 
    secs: 1561682924
    nsecs: 425669682
  frame_id: "ti_mmwave"
point_id: 14
x: 2.5859375
y: -0.267578125
z: 1.201171875
range: 3.05038785934
velocity: 0.0
doppler_bin: 8
bearing: -5.90761756897
intensity: 32.7114448547
---
header: 
  seq: 1059646
  stamp: 
    secs: 1561682924
    nsecs: 425683530
  frame_id: "ti_mmwave"
point_id: 15
x: 2.65625
y: -0.271484375
z: 1.142578125
range: 3.09396481514
velocity: 0.0
doppler_bin: 8
bearing: -5.83570146561
intensity: 31.945142746
---
header: 
  seq: 1059647
  stamp: 
    secs: 1561682924
    nsecs: 425697414
  frame_id: "ti_mmwave"
point_id: 16
x: 4.421875
y: -0.287109375
z: 1.166015625
range: 4.88062095642
velocity: 0.0
doppler_bin: 8
bearing: -3.7149617672
intensity: 31.6076850891
---
header: 
  seq: 1059648
  stamp: 
    secs: 1561682924
    nsecs: 425710922
  frame_id: "ti_mmwave"
point_id: 17
x: 4.462890625
y: -0.2890625
z: 1.166015625
range: 4.9241976738
velocity: 0.0
doppler_bin: 8
bearing: -3.70588517189
intensity: 30.934217453
---
header: 
  seq: 1059649
  stamp: 
    secs: 1561682924
    nsecs: 425789135
  frame_id: "ti_mmwave"
point_id: 19
x: 0.041015625
y: -0.033203125
z: 0.0625
range: 0.0871539413929
velocity: 0.0
doppler_bin: 8
bearing: -38.9909973145
intensity: 30.1199302673
---
header: 
  seq: 1059650
  stamp: 
    secs: 1561682924
    nsecs: 425804556
  frame_id: "ti_mmwave"
point_id: 20
x: 0.052734375
y: -0.04296875
z: 0.1015625
range: 0.130730912089
velocity: 0.0
doppler_bin: 8
bearing: -39.1736602783
intensity: 28.9927310944
---
header: 
  seq: 1059651
  stamp: 
    secs: 1561682924
    nsecs: 425820290
  frame_id: "ti_mmwave"
point_id: 22
x: 1.115234375
y: -0.515625
z: 0.31640625
range: 1.35088610649
velocity: 0.0
doppler_bin: 8
bearing: -24.8133087158
intensity: 19.1381378174
---
header: 
  seq: 1059652
  stamp: 
    secs: 1561682924
    nsecs: 425833664
  frame_id: "ti_mmwave"
point_id: 23
x: 0.505859375
y: 0.630859375
z: 1.328125
range: 1.65592491627
velocity: 0.0
doppler_bin: 8
bearing: 51.275352478
intensity: 24.6089782715
---
header: 
  seq: 1059653
  stamp: 
    secs: 1561682924
    nsecs: 483959473
  frame_id: "ti_mmwave"
point_id: 0
x: 0.01171875
y: -0.0390625
z: -0.0078125
range: 0.0435769706964
velocity: 0.0
doppler_bin: 8
bearing: -73.3007583618
intensity: 30.7335166931
---
header: 
  seq: 1059654
  stamp: 
    secs: 1561682924
    nsecs: 484060437
  frame_id: "ti_mmwave"
point_id: 1
x: 0.017578125
y: -0.080078125
z: -0.0078125
range: 0.0871539413929
velocity: 0.0
doppler_bin: 8
bearing: -77.6192398071
intensity: 31.9645252228
---
header: 
  seq: 1059655
  stamp: 
    secs: 1561682924
    nsecs: 484083646
  frame_id: "ti_mmwave"
point_id: 2
x: 0.029296875
y: -0.119140625
z: -0.005859375
range: 0.130730912089
velocity: 0.0
doppler_bin: 8
bearing: -76.1849746704
intensity: 30.2201576233
---
header: 
  seq: 1059656
  stamp: 
    secs: 1561682924
    nsecs: 484098578
  frame_id: "ti_mmwave"
point_id: 3
x: 0.056640625
y: -0.154296875
z: 0.005859375
range: 0.174307882786
velocity: 0.0
doppler_bin: 8
bearing: -69.8423843384
intensity: 25.4777469635
---
header: 
  seq: 1059657
  stamp: 
    secs: 1561682924
    nsecs: 484112070
  frame_id: "ti_mmwave"
point_id: 4
x: 0.3515625
y: -0.080078125
z: -1.216796875
range: 1.35088610649
velocity: 0.0
doppler_bin: 8
bearing: -12.83177948
intensity: 21.9865703583
---
header: 
  seq: 1059658
  stamp: 
    secs: 1561682924
    nsecs: 484122589
  frame_id: "ti_mmwave"
point_id: 5
x: 0.2890625
y: -0.041015625
z: 1.275390625
range: 1.39446306229
velocity: 0.0
doppler_bin: 8
bearing: -8.0758972168
intensity: 23.2837963104
---
header: 
  seq: 1059659
  stamp: 
    secs: 1561682924
    nsecs: 484133450
  frame_id: "ti_mmwave"
point_id: 6
x: 0.40625
y: -0.0
z: 1.287109375
range: 1.43804001808
velocity: 0.0
doppler_bin: 8
bearing: -0.0
intensity: 22.0682582855
---
header: 
  seq: 1059660
  stamp: 
    secs: 1561682924
    nsecs: 484145211
  frame_id: "ti_mmwave"
point_id: 7
x: 1.4765625
y: -0.142578125
z: -0.296875
range: 1.61234796047
velocity: 0.0
doppler_bin: 8
bearing: -5.51542949677
intensity: 25.2244415283
---
header: 
  seq: 1059661
  stamp: 
    secs: 1561682924
    nsecs: 484157970
  frame_id: "ti_mmwave"
point_id: 8
x: 1.533203125
y: -0.146484375
z: -0.21484375
range: 1.65592491627
velocity: 0.0
doppler_bin: 8
bearing: -5.45755338669
intensity: 30.3981056213
---
header: 
  seq: 1059662
  stamp: 
    secs: 1561682924
    nsecs: 484169885
  frame_id: "ti_mmwave"
point_id: 9
x: 1.583984375
y: -0.099609375
z: -0.166015625
range: 1.69950187206
velocity: 0.0
doppler_bin: 8
bearing: -3.59832549095
intensity: 31.6076850891
---
header: 
  seq: 1059663
  stamp: 
    secs: 1561682924
    nsecs: 484192184
  frame_id: "ti_mmwave"
point_id: 10
x: 1.619140625
y: -0.154296875
z: -0.171875
range: 1.74307882786
velocity: 0.0
doppler_bin: 8
bearing: -5.44359350204
intensity: 29.0579586029
---
header: 
  seq: 1059664
  stamp: 
    secs: 1561682924
    nsecs: 484206611
  frame_id: "ti_mmwave"
point_id: 11
x: 1.703125
y: 0.16015625
z: 0.15234375
range: 1.83023273945
velocity: 0.0
doppler_bin: 8
bearing: 5.37210798264
intensity: 30.0902576447
---
header: 
  seq: 1059665
  stamp: 
    secs: 1561682924
    nsecs: 484219624
  frame_id: "ti_mmwave"
point_id: 12
x: 1.736328125
y: 0.1640625
z: 0.228515625
range: 1.87380969524
velocity: 0.0
