header: 
  seq: 3423794
  stamp: 
    secs: 1561686630
    nsecs: 382069894
  frame_id: "ti_mmwave"
point_id: 0
x: 0.01171875
y: -0.0390625
z: -0.0078125
range: 0.0435769706964
velocity: 0.0
doppler_bin: 8
bearing: -73.3007583618
intensity: 30.7298469543
---
header: 
  seq: 3423795
  stamp: 
    secs: 1561686630
    nsecs: 382137205
  frame_id: "ti_mmwave"
point_id: 1
x: 0.017578125
y: -0.080078125
z: -0.0078125
range: 0.0871539413929
velocity: 0.0
doppler_bin: 8
bearing: -77.6192398071
intensity: 31.9728050232
---
header: 
  seq: 3423796
  stamp: 
    secs: 1561686630
    nsecs: 382149639
  frame_id: "ti_mmwave"
point_id: 2
x: 0.029296875
y: -0.119140625
z: -0.00390625
range: 0.130730912089
velocity: 0.0
doppler_bin: 8
bearing: -76.1849746704
intensity: 30.2077541351
---
header: 
  seq: 3423797
  stamp: 
    secs: 1561686630
    nsecs: 382158170
  frame_id: "ti_mmwave"
point_id: 3
x: 0.056640625
y: -0.154296875
z: 0.005859375
range: 0.174307882786
velocity: 0.0
doppler_bin: 8
bearing: -69.8423843384
intensity: 25.5144996643
---
header: 
  seq: 3423798
  stamp: 
    secs: 1561686630
    nsecs: 382166769
  frame_id: "ti_mmwave"
point_id: 4
x: 0.34765625
y: -0.080078125
z: -1.216796875
range: 1.35088610649
velocity: 0.0
doppler_bin: 8
bearing: -12.9711065292
intensity: 21.9312458038
---
header: 
  seq: 3423799
  stamp: 
    secs: 1561686630
    nsecs: 382175464
  frame_id: "ti_mmwave"
point_id: 5
x: 0.314453125
y: -0.041015625
z: 1.26953125
range: 1.39446306229
velocity: 0.0
doppler_bin: 8
bearing: -7.43140792847
intensity: 23.2428245544
---
header: 
  seq: 3423800
  stamp: 
    secs: 1561686630
    nsecs: 382184435
  frame_id: "ti_mmwave"
point_id: 6
x: 0.509765625
y: -0.04296875
z: 1.25
range: 1.43804001808
velocity: 0.0
doppler_bin: 8
bearing: -4.81814002991
intensity: 21.875207901
---
header: 
  seq: 3423801
  stamp: 
    secs: 1561686630
    nsecs: 382192782
  frame_id: "ti_mmwave"
point_id: 7
x: 1.849609375
y: -0.1171875
z: -0.322265625
range: 2.00454068184
velocity: 0.0
doppler_bin: 8
bearing: -3.62529873848
intensity: 28.5973854065
---
header: 
  seq: 3423802
  stamp: 
    secs: 1561686630
    nsecs: 382200778
  frame_id: "ti_mmwave"
point_id: 8
x: 1.8984375
y: -0.12109375
z: -0.27734375
range: 2.04811763763
velocity: 0.0
doppler_bin: 8
bearing: -3.64972448349
intensity: 28.1557769775
---
header: 
  seq: 3423803
  stamp: 
    secs: 1561686630
    nsecs: 382210168
  frame_id: "ti_mmwave"
point_id: 9
x: 1.958984375
y: -0.123046875
z: 0.05859375
range: 2.09169459343
velocity: 0.0
doppler_bin: 8
bearing: -3.59411597252
intensity: 27.3158874512
---
header: 
  seq: 3423804
  stamp: 
    secs: 1561686630
    nsecs: 382218764
  frame_id: "ti_mmwave"
point_id: 10
x: 2.572265625
y: -0.263671875
z: 1.130859375
range: 3.00681090355
velocity: 0.0
doppler_bin: 8
bearing: -5.85270166397
intensity: 29.4792366028
---
header: 
  seq: 3423805
  stamp: 
    secs: 1561686630
    nsecs: 382227351
  frame_id: "ti_mmwave"
point_id: 11
x: 2.625
y: -0.1796875
z: 1.12890625
range: 3.05038785934
velocity: 0.0
doppler_bin: 8
bearing: -3.91592383385
intensity: 32.753112793
---
header: 
  seq: 3423806
  stamp: 
    secs: 1561686630
    nsecs: 382235989
  frame_id: "ti_mmwave"
point_id: 12
x: 2.666015625
y: -0.181640625
z: 1.138671875
range: 3.09396481514
velocity: 0.0
doppler_bin: 8
bearing: -3.89764523506
intensity: 31.9810695648
---
header: 
  seq: 3423807
  stamp: 
    secs: 1561686630
    nsecs: 382248806
  frame_id: "ti_mmwave"
point_id: 14
x: 0.041015625
y: -0.033203125
z: 0.0625
range: 0.0871539413929
velocity: 0.0
doppler_bin: 8
bearing: -38.9909973145
intensity: 30.1494026184
---
header: 
  seq: 3423808
  stamp: 
    secs: 1561686630
    nsecs: 382400534
  frame_id: "ti_mmwave"
point_id: 15
x: 0.044921875
y: -0.046875
z: 0.103515625
range: 0.130730912089
velocity: 0.0
doppler_bin: 8
bearing: -46.218875885
intensity: 29.0525608063
---
header: 
  seq: 3423809
  stamp: 
    secs: 1561686630
    nsecs: 382422462
  frame_id: "ti_mmwave"
point_id: 17
x: 1.212890625
y: 0.357421875
z: 0.09765625
range: 1.35088610649
velocity: 0.0
doppler_bin: 8
bearing: 16.419506073
intensity: 19.1381378174
---
header: 
  seq: 3423810
  stamp: 
    secs: 1561686630
    nsecs: 383086559
  frame_id: "ti_mmwave"
point_id: 0
x: 0.01171875
y: -0.0390625
z: -0.0078125
range: 0.0435769706964
velocity: 0.0
doppler_bin: 8
bearing: -73.3007583618
intensity: 30.7335166931
---
header: 
  seq: 3423811
  stamp: 
    secs: 1561686630
    nsecs: 383154001
  frame_id: "ti_mmwave"
point_id: 1
x: 0.017578125
y: -0.080078125
z: -0.0078125
range: 0.0871539413929
velocity: 0.0
doppler_bin: 8
bearing: -77.6192398071
intensity: 31.9728050232
---
header: 
  seq: 3423812
  stamp: 
    secs: 1561686630
    nsecs: 383176712
  frame_id: "ti_mmwave"
point_id: 2
x: 0.029296875
y: -0.119140625
z: -0.00390625
range: 0.130730912089
velocity: 0.0
doppler_bin: 8
bearing: -76.1849746704
intensity: 30.1994667053
---
header: 
  seq: 3423813
  stamp: 
    secs: 1561686630
    nsecs: 383194661
  frame_id: "ti_mmwave"
point_id: 3
x: 0.056640625
y: -0.154296875
z: 0.005859375
range: 0.174307882786
velocity: 0.0
doppler_bin: 8
bearing: -69.8423843384
intensity: 25.490032196
---
header: 
  seq: 3423814
  stamp: 
    secs: 1561686630
    nsecs: 383263693
  frame_id: "ti_mmwave"
point_id: 4
x: 0.3359375
y: -0.080078125
z: -1.220703125
range: 1.35088610649
velocity: 0.0
doppler_bin: 8
bearing: -13.4075088501
intensity: 21.9312458038
---
header: 
  seq: 3423815
  stamp: 
    secs: 1561686630
    nsecs: 383279830
  frame_id: "ti_mmwave"
point_id: 5
x: 0.322265625
y: -0.041015625
z: 1.267578125
range: 1.39446306229
velocity: 0.0
doppler_bin: 8
bearing: -7.25319480896
intensity: 23.2014636993
---
header: 
  seq: 3423816
  stamp: 
    secs: 1561686630
    nsecs: 383293988
  frame_id: "ti_mmwave"
point_id: 6
x: 0.4921875
y: -0.04296875
z: 1.255859375
range: 1.43804001808
velocity: 0.0
doppler_bin: 8
bearing: -4.98936271667
intensity: 21.875207901
---
header: 
  seq: 3423817
  stamp: 
    secs: 1561686630
    nsecs: 383307710
  frame_id: "ti_mmwave"
point_id: 7
x: 1.869140625
y: -0.05859375
z: -0.208984375
range: 2.00454068184
velocity: 0.0
doppler_bin: 8
bearing: -1.79551804066
intensity: 27.9934062958
---
header: 
  seq: 3423818
  stamp: 
    secs: 1561686630
    nsecs: 383321899
  frame_id: "ti_mmwave"
point_id: 8
x: 2.5625
y: -0.263671875
z: 1.15234375
range: 3.00681090355
velocity: 0.0
doppler_bin: 8
bearing: -5.87485074997
intensity: 29.4939002991
---
header: 
  seq: 3423819
  stamp: 
    secs: 1561686630
    nsecs: 383338953
  frame_id: "ti_mmwave"
point_id: 9
x: 2.6171875
y: -0.1796875
z: 1.1484375
range: 3.05038785934
velocity: 0.0
doppler_bin: 8
bearing: -3.9275765419
intensity: 32.7692108154
---
header: 
  seq: 3423820
  stamp: 
    secs: 1561686630
    nsecs: 383414111
  frame_id: "ti_mmwave"
point_id: 10
x: 2.65625
y: -0.181640625
z: 1.162109375
range: 3.09396481514
velocity: 0.0
doppler_bin: 8
bearing: -3.91193032265
intensity: 32.0002937317
---
header: 
  seq: 3423821
  stamp: 
    secs: 1561686630
    nsecs: 383433264
  frame_id: "ti_mmwave"
point_id: 12
x: 0.041015625
y: -0.033203125
z: 0.0625
range: 0.0871539413929
velocity: 0.0
doppler_bin: 8
bearing: -38.9909973145
intensity: 30.1452045441
---
header: 
  seq: 3423822
  stamp: 
    secs: 1561686630
    nsecs: 383447106
  frame_id: "ti_mmwave"
point_id: 13
x: 0.044921875
y: -0.046875
z: 0.103515625
range: 0.130730912089
velocity: 0.0
doppler_bin: 8
bearing: -46.218875885
intensity: 29.0525608063
---
header: 
  seq: 3423823
  stamp: 
    secs: 1561686630
    nsecs: 383463357
  frame_id: "ti_mmwave"
point_id: 15
x: 1.21484375
y: 0.357421875
z: 0.08203125
range: 1.35088610649
velocity: 0.0
doppler_bin: 8
bearing: 16.3945274353
intensity: 19.2427921295
---
header: 
  seq: 3423824
  stamp: 
    secs: 1561686630
    nsecs: 443234807
  frame_id: "ti_mmwave"
point_id: 0
x: 0.01171875
y: -0.0390625
z: -0.0078125
range: 0.0435769706964
velocity: 0.0
doppler_bin: 8
bearing: -73.3007583618
intensity: 30.7335166931
---
header: 
  seq: 3423825
  stamp: 
    secs: 1561686630
    nsecs: 443310514
  frame_id: "ti_mmwave"
point_id: 1
x: 0.017578125
y: -0.080078125
z: -0.0078125
range: 0.0871539413929
velocity: 0.0
doppler_bin: 8
bearing: -77.6192398071
intensity: 31.9672870636
---
header: 
  seq: 3423826
  stamp: 
    secs: 1561686630
    nsecs: 443321071
  frame_id: "ti_mmwave"
point_id: 2
x: 0.029296875
y: -0.119140625
z: -0.00390625
range: 0.130730912089
velocity: 0.0
doppler_bin: 8
bearing: -76.1849746704
intensity: 30.1911621094
---
header: 
  seq: 3423827
  stamp: 
    secs: 1561686630
    nsecs: 443331573
  frame_id: "ti_mmwave"
point_id: 3
x: 0.056640625
y: -0.154296875
z: 0.005859375
range: 0.174307882786
velocity: 0.0
doppler_bin: 8
bearing: -69.8423843384
intensity: 25.4777469635
---
header: 
  seq: 3423828
  stamp: 
    secs: 1561686630
    nsecs: 443340002
  frame_id: "ti_mmwave"
point_id: 4
x: 0.30859375
y: -0.080078125
z: -1.228515625
range: 1.35088610649
velocity: 0.0
doppler_bin: 8
bearing: -14.547039032
intensity: 21.9312458038
---
header: 
  seq: 3423829
  stamp: 
    secs: 1561686630
    nsecs: 443349883
  frame_id: "ti_mmwave"
point_id: 5
x: 0.3515625
y: -0.041015625
z: 1.259765625
range: 1.39446306229
velocity: 0.0
doppler_bin: 8
bearing: -6.6544251442
intensity: 23.2428245544
---
header: 
  seq: 3423830
  stamp: 
    secs: 1561686630
    nsecs: 443404633
  frame_id: "ti_mmwave"
point_id: 6
x: 0.525390625
y: -0.04296875
z: 1.244140625
range: 1.43804001808
velocity: 0.0
doppler_bin: 8
bearing: -4.67549467087
intensity: 21.9589958191
---
header: 
  seq: 3423831
  stamp: 
    secs: 1561686630
    nsecs: 443421252
  frame_id: "ti_mmwave"
point_id: 7
x: 1.984375
y: 0.1875
z: 0.216796875
range: 2.13527154922
velocity: 0.0
doppler_bin: 8
bearing: 5.39774847031
intensity: 27.2263393402
---
header: 
  seq: 3423832
  stamp: 
    secs: 1561686630
    nsecs: 443430419
  frame_id: "ti_mmwave"
point_id: 8
x: 1.986328125
y: 0.255859375
z: 0.419921875
range: 2.17884850502
velocity: 0.0
doppler_bin: 8
bearing: 7.33986568451
intensity: 28.8817958832
---
header: 
  seq: 3423833
  stamp: 
    secs: 1561686630
    nsecs: 443438608
  frame_id: "ti_mmwave"
point_id: 9
x: 2.0078125
y: 0.326171875
z: 0.46484375
range: 2.22242546082
velocity: 0.0
doppler_bin: 8
bearing: 9.22717094421
intensity: 28.4757270813
---
header: 
  seq: 3423834
  stamp: 
    secs: 1561686630
    nsecs: 443446316
  frame_id: "ti_mmwave"
point_id: 10
x: 2.55859375
y: -0.263671875
z: 1.1640625
range: 3.00681090355
velocity: 0.0
doppler_bin: 8
bearing: -5.88375711441
intensity: 29.3247375488
---
header: 
  seq: 3423835
  stamp: 
    secs: 1561686630
    nsecs: 443624765
  frame_id: "ti_mmwave"
point_id: 11
x: 2.625
y: -0.1796875
z: 1.130859375
range: 3.05038785934
velocity: 0.0
doppler_bin: 8
bearing: -3.91592383385
intensity: 32.676410675
---
header: 
  seq: 3423836
  stamp: 
    secs: 1561686630
    nsecs: 443683024
  frame_id: "ti_mmwave"
point_id: 12
x: 2.67578125
y: -0.181640625
z: 1.115234375
range: 3.09396481514
velocity: 0.0
doppler_bin: 8
bearing: -3.88346338272
intensity: 31.9700469971
---
header: 
  seq: 3423837
  stamp: 
    secs: 1561686630
    nsecs: 443762562
  frame_id: "ti_mmwave"
point_id: 15
x: 0.041015625
y: -0.033203125
z: 0.0625
range: 0.0871539413929
velocity: 0.0
doppler_bin: 8
bearing: -38.9909973145
intensity: 30.1452045441
---
header: 
  seq: 3423838
  stamp: 
    secs: 1561686630
    nsecs: 443797060
  frame_id: "ti_mmwave"
point_id: 16
x: 0.044921875
y: -0.046875
z: 0.103515625
range: 0.130730912089
velocity: 0.0
doppler_bin: 8
bearing: -46.218875885
intensity: 29.0471553802
---
header: 
  seq: 3423839
  stamp: 
    secs: 1561686630
    nsecs: 443814378
  frame_id: "ti_mmwave"
point_id: 18
x: 1.21484375
y: 0.357421875
z: 0.080078125
range: 1.35088610649
velocity: 0.0
doppler_bin: 8
bearing: 16.3945274353
intensity: 19.2427921295
---
header: 
  seq: 3423840
  stamp: 
    secs: 1561686630
    nsecs: 443843803
  frame_id: "ti_mmwave"
point_id: 19
x: 1.994140625
y: 0.0625
z: 0.18359375
range: 2.13527154922
velocity: 0.0
doppler_bin: 8
bearing: 1.79516649246
intensity: 27.201593399
---
header: 
  seq: 3423841
  stamp: 
    secs: 1561686630
    nsecs: 443873968
  frame_id: "ti_mmwave"
point_id: 20
x: 1.35546875
y: -0.724609375
z: -2.068359375
range: 2.74534916878
velocity: 1.22933733463
doppler_bin: 10
bearing: -28.1281642914
intensity: 21.3987903595
---
header: 
  seq: 3423842
  stamp: 
    secs: 1561686630
    nsecs: 502263988
  frame_id: "ti_mmwave"
point_id: 0
x: 0.01171875
y: -0.0390625
z: -0.0078125
range: 0.0435769706964
velocity: 0.0
doppler_bin: 8
bearing: -73.3007583618
intensity: 30.7408466339
---
header: 
  seq: 3423843
  stamp: 
    secs: 1561686630
    nsecs: 502351912
  frame_id: "ti_mmwave"
point_id: 1
x: 0.017578125
y: -0.080078125
z: -0.0078125
range: 0.0871539413929
velocity: 0.0
doppler_bin: 8
bearing: -77.6192398071
intensity: 31.9728050232
---
header: 
  seq: 3423844
  stamp: 
    secs: 1561686630
    nsecs: 502367627
  frame_id: "ti_mmwave"
point_id: 2
x: 0.029296875
y: -0.119140625
z: -0.00390625
range: 0.130730912089
velocity: 0.0
doppler_bin: 8
bearing: -76.1849746704
intensity: 30.1994667053
---
header: 
  seq: 3423845
  stamp: 
    secs: 1561686630
    nsecs: 502380501
  frame_id: "ti_mmwave"
point_id: 3
x: 0.056640625
y: -0.154296875
z: 0.005859375
range: 0.174307882786
velocity: 0.0
doppler_bin: 8
bearing: -69.8423843384
intensity: 25.5022830963
---
header: 
  seq: 3423846
  stamp: 
    secs: 1561686630
    nsecs: 502392849
  frame_id: "ti_mmwave"
point_id: 4
x: 0.36328125
y: -0.080078125
z: -1.212890625
range: 1.35088610649
velocity: 0.0
doppler_bin: 8
bearing: -12.4309225082
intensity: 21.9312458038
---
header: 
  seq: 3423847
  stamp: 
    secs: 1561686630
    nsecs: 502407042
  frame_id: "ti_mmwave"
point_id: 5
x: 0.287109375
y: -0.041015625
z: 1.27734375
range: 1.39446306229
velocity: 0.0
doppler_bin: 8
bearing: -8.13010311127
intensity: 23.2428245544
---
header: 
  seq: 3423848
  stamp: 
    secs: 1561686630
    nsecs: 502418244
  frame_id: "ti_mmwave"
point_id: 6
x: 0.390625
y: -0.0
z: 1.291015625
range: 1.43804001808
velocity: 0.0
doppler_bin: 8
bearing: -0.0
intensity: 21.9312458038
---
header: 
  seq: 3423849
  stamp: 
    secs: 1561686630
    nsecs: 502431767
  frame_id: "ti_mmwave"
point_id: 7
x: 1.8046875
y: -0.056640625
z: -0.359375
range: 1.96096372604
velocity: 0.0
doppler_bin: 8
bearing: -1.7976539135
intensity: 28.6391735077
---
header: 
  seq: 3423850
  stamp: 
    secs: 1561686630
    nsecs: 502445322
  frame_id: "ti_mmwave"
point_id: 8
x: 1.857421875
y: -0.05859375
z: -0.30078125
range: 2.00454068184
velocity: 0.0
doppler_bin: 8
bearing: -1.80683863163
intensity: 32.7737998962
---
header: 
  seq: 3423851
  stamp: 
    secs: 1561686630
    nsecs: 502457089
  frame_id: "ti_mmwave"
point_id: 9
x: 1.900390625
y: -0.060546875
z: -0.287109375
range: 2.04811763763
velocity: 0.0
doppler_bin: 8
bearing: -1.82483911514
intensity: 32.8080596924
---
header: 
  seq: 3423852
  stamp: 
    secs: 1561686630
    nsecs: 502545562
  frame_id: "ti_mmwave"
point_id: 10
x: 1.927734375
y: -0.060546875
z: -0.3671875
range: 2.09169459343
velocity: 0.0
doppler_bin: 8
bearing: -1.7989718914
intensity: 28.4880466461
---
header: 
  seq: 3423853
  stamp: 
    secs: 1561686630
    nsecs: 502560224
  frame_id: "ti_mmwave"
point_id: 11
x: 2.55078125
y: -0.263671875
z: 1.1796875
range: 3.00681090355
velocity: 0.0
doppler_bin: 8
bearing: -5.90165042877
intensity: 29.5085144043
---
header: 
  seq: 3423854
  stamp: 
    secs: 1561686630
    nsecs: 502571212
  frame_id: "ti_mmwave"
point_id: 12
x: 2.60546875
y: -0.267578125
z: 1.15625
range: 3.05038785934
velocity: 0.0
doppler_bin: 8
bearing: -5.86364221573
intensity: 32.73695755
---
header: 
  seq: 3423855
  stamp: 
    secs: 1561686630
    nsecs: 502583587
  frame_id: "ti_mmwave"
point_id: 13
x: 2.666015625
y: -0.181640625
z: 1.13671875
range: 3.09396481514
velocity: 0.0
doppler_bin: 8
bearing: -3.89764523506
intensity: 31.9506893158
---
header: 
  seq: 3423856
  stamp: 
    secs: 1561686630
    nsecs: 502598958
  frame_id: "ti_mmwave"
point_id: 15
x: 0.041015625
y: -0.033203125
z: 0.0625
range: 0.0871539413929
velocity: 0.0
doppler_bin: 8
bearing: -38.9909973145
intensity: 30.1494026184
---
header: 
  seq: 3423857
  stamp: 
    secs: 1561686630
    nsecs: 502612610
  frame_id: "ti_mmwave"
point_id: 16
x: 0.044921875
y: -0.046875
z: 0.103515625
range: 0.130730912089
velocity: 0.0
doppler_bin: 8
bearing: -46.218875885
intensity: 29.0525608063
---
header: 
  seq: 3423858
  stamp: 
    secs: 1561686630
    nsecs: 502627864
  frame_id: "ti_mmwave"
point_id: 18
x: 1.21484375
y: 0.357421875
z: 0.083984375
range: 1.35088610649
velocity: 0.0
doppler_bin: 8
bearing: 16.3945274353
intensity: 19.2941894531
---
header: 
  seq: 3423859
  stamp: 
    secs: 1561686630
    nsecs: 503687697
  frame_id: "ti_mmwave"
point_id: 0
x: 0.01171875
y: -0.0390625
z: -0.0078125
range: 0.0435769706964
velocity: 0.0
doppler_bin: 8
bearing: -73.3007583618
intensity: 30.7371826172
---
header: 
  seq: 3423860
  stamp: 
    secs: 1561686630
    nsecs: 503744807
  frame_id: "ti_mmwave"
point_id: 1
x: 0.017578125
y: -0.080078125
z: -0.0078125
range: 0.0871539413929
velocity: 0.0
doppler_bin: 8
bearing: -77.6192398071
intensity: 31.9728050232
---
header: 
  seq: 3423861
  stamp: 
    secs: 1561686630
    nsecs: 503756113
  frame_id: "ti_mmwave"
point_id: 2
x: 0.029296875
y: -0.119140625
z: -0.00390625
range: 0.130730912089
velocity: 0.0
doppler_bin: 8
bearing: -76.1849746704
intensity: 30.1994667053
---
header: 
  seq: 3423862
  stamp: 
    secs: 1561686630
    nsecs: 503765042
  frame_id: "ti_mmwave"
point_id: 3
x: 0.056640625
y: -0.154296875
z: 0.005859375
range: 0.174307882786
velocity: 0.0
doppler_bin: 8
bearing: -69.8423843384
intensity: 25.5022830963
---
header: 
  seq: 3423863
  stamp: 
    secs: 1561686630
    nsecs: 503773697
  frame_id: "ti_mmwave"
point_id: 4
x: 0.3671875
y: -0.080078125
z: -1.2109375
range: 1.35088610649
velocity: 0.0
doppler_bin: 8
bearing: -12.3027267456
intensity: 21.9589958191
---
header: 
  seq: 3423864
  stamp: 
    secs: 1561686630
    nsecs: 503782364
  frame_id: "ti_mmwave"
point_id: 5
x: 0.29296875
y: -0.041015625
z: 1.275390625
range: 1.39446306229
velocity: 0.0
doppler_bin: 8
bearing: -7.96961069107
intensity: 23.2428245544
---
header: 
  seq: 3423865
  stamp: 
    secs: 1561686630
    nsecs: 503938274
  frame_id: "ti_mmwave"
point_id: 6
x: 0.48828125
y: -0.04296875
z: 1.2578125
range: 1.43804001808
velocity: 0.0
doppler_bin: 8
bearing: -5.02907323837
intensity: 21.9312458038
---
header: 
  seq: 3423866
  stamp: 
    secs: 1561686630
    nsecs: 503965383
  frame_id: "ti_mmwave"
point_id: 7
x: 1.861328125
y: -0.05859375
z: -0.271484375
range: 2.00454068184
velocity: 0.0
doppler_bin: 8
bearing: -1.80304908752
intensity: 30.8813610077
---
header: 
  seq: 3423867
  stamp: 
    secs: 1561686630
    nsecs: 503976563
  frame_id: "ti_mmwave"
point_id: 8
x: 1.912109375
y: -0.060546875
z: -0.197265625
range: 2.04811763763
velocity: 0.0
doppler_bin: 8
bearing: -1.81366276741
intensity: 32.4378204346
---
header: 
  seq: 3423868
  stamp: 
    secs: 1561686630
    nsecs: 503984934
  frame_id: "ti_mmwave"
point_id: 9
x: 1.953125
y: -0.0
z: -0.19140625
range: 2.09169459343
velocity: 0.0
doppler_bin: 8
bearing: -0.0
intensity: 31.1594314575
---
header: 
  seq: 3423869
  stamp: 
    secs: 1561686630
    nsecs: 503992618
  frame_id: "ti_mmwave"
point_id: 10
x: 1.98828125
y: 0.0625
z: -0.25390625
range: 2.13527154922
velocity: 0.0
doppler_bin: 8
bearing: 1.80045318604
intensity: 27.8031730652
---
header: 
  seq: 3423870
  stamp: 
    secs: 1561686630
    nsecs: 504000307
  frame_id: "ti_mmwave"
point_id: 11
x: 2.5390625
y: -0.263671875
z: 1.205078125
range: 3.00681090355
velocity: 0.0
doppler_bin: 8
bearing: -5.92869567871
intensity: 29.339931488
---
header: 
  seq: 3423871
  stamp: 
    secs: 1561686630
    nsecs: 504022682
  frame_id: "ti_mmwave"
point_id: 12
x: 2.607421875
y: -0.1796875
z: 1.171875
range: 3.05038785934
velocity: 0.0
doppler_bin: 8
bearing: -3.94223999977
intensity: 32.6974639893
---
header: 
  seq: 3423872
  stamp: 
    secs: 1561686630
    nsecs: 504037254
  frame_id: "ti_mmwave"
point_id: 13
x: 2.6484375
y: -0.181640625
z: 1.17578125
range: 3.09396481514
velocity: 0.0
doppler_bin: 8
bearing: -3.92343401909
intensity: 32.0112380981
---
header: 
  seq: 3423873
  stamp: 
    secs: 1561686630
    nsecs: 504052714
  frame_id: "ti_mmwave"
point_id: 14
x: 4.408203125
y: -0.287109375
z: 1.216796875
range: 4.88062095642
velocity: 0.0
doppler_bin: 8
bearing: -3.72645139694
intensity: 32.2063102722
---
header: 
  seq: 3423874
  stamp: 
    secs: 1561686630
    nsecs: 504067954
  frame_id: "ti_mmwave"
point_id: 15
x: 4.462890625
y: -0.2890625
z: 1.16796875
range: 4.9241976738
velocity: 0.0
doppler_bin: 8
bearing: -3.70588517189
intensity: 32.3829689026
---
header: 
  seq: 3423875
  stamp: 
    secs: 1561686630
    nsecs: 504081714
  frame_id: "ti_mmwave"
point_id: 17
x: 0.041015625
y: -0.033203125
z: 0.0625
range: 0.0871539413929
velocity: 0.0
doppler_bin: 8
bearing: -38.9909973145
intensity: 30.1494026184
---
header: 
  seq: 3423876
  stamp: 
    secs: 1561686630
    nsecs: 504134917
  frame_id: "ti_mmwave"
point_id: 18
x: 0.044921875
y: -0.046875
z: 0.103515625
range: 0.130730912089
velocity: 0.0
doppler_bin: 8
bearing: -46.218875885
intensity: 29.0525608063
---
header: 
  seq: 3423877
  stamp: 
    secs: 1561686630
    nsecs: 504151467
  frame_id: "ti_mmwave"
point_id: 20
x: 1.21484375
y: 0.357421875
z: 0.076171875
range: 1.35088610649
velocity: 0.0
doppler_bin: 8
bearing: 16.3945274353
intensity: 19.2941894531
---
header: 
  seq: 3423878
  stamp: 
    secs: 1561686630
    nsecs: 504164500
  frame_id: "ti_mmwave"
point_id: 21
x: 0.64453125
y: -0.689453125
z: 1.767578125
range: 2.13527154922
velocity: 0.0
doppler_bin: 8
bearing: -46.9287071228
intensity: 24.8144264221
---
header: 
  seq: 3423879
  stamp: 
    secs: 1561686630
    nsecs: 562325025
  frame_id: "ti_mmwave"
point_id: 0
x: 0.01171875
y: -0.0390625
z: -0.0078125
range: 0.0435769706964
velocity: 0.0
doppler_bin: 8
bearing: -73.3007583618
intensity: 30.7408466339
---
header: 
  seq: 3423880
  stamp: 
    secs: 1561686630
    nsecs: 562401889
  frame_id: "ti_mmwave"
point_id: 1
x: 0.017578125
y: -0.080078125
z: -0.0078125
range: 0.0871539413929
velocity: 0.0
doppler_bin: 8
bearing: -77.6192398071
intensity: 31.9755630493
---
header: 
  seq: 3423881
  stamp: 
    secs: 1561686630
    nsecs: 562413318
  frame_id: "ti_mmwave"
point_id: 2
x: 0.029296875
y: -0.119140625
z: -0.00390625
range: 0.130730912089
velocity: 0.0
doppler_bin: 8
bearing: -76.1849746704
intensity: 30.1994667053
---
header: 
  seq: 3423882
  stamp: 
    secs: 1561686630
    nsecs: 562422496
  frame_id: "ti_mmwave"
point_id: 3
x: 0.056640625
y: -0.154296875
z: 0.005859375
range: 0.174307882786
velocity: 0.0
doppler_bin: 8
bearing: -69.8423843384
intensity: 25.490032196
---
header: 
  seq: 3423883
  stamp: 
    secs: 1561686630
    nsecs: 562430705
  frame_id: "ti_mmwave"
point_id: 4
x: 0.357421875
y: -0.080078125
z: -1.21484375
range: 1.35088610649
velocity: 0.0
doppler_bin: 8
bearing: -12.6282215118
intensity: 21.9589958191
---
header: 
  seq: 3423884
  stamp: 
    secs: 1561686630
    nsecs: 562441386
  frame_id: "ti_mmwave"
point_id: 5
x: 0.28125
y: -0.041015625
z: 1.27734375
range: 1.39446306229
velocity: 0.0
doppler_bin: 8
bearing: -8.29714488983
intensity: 23.2428245544
---
header: 
  seq: 3423885
  stamp: 
    secs: 1561686630
    nsecs: 562449657
  frame_id: "ti_mmwave"
point_id: 6
x: 0.490234375
y: -0.04296875
z: 1.2578125
range: 1.43804001808
velocity: 0.0
doppler_bin: 8
bearing: -5.00914001465
intensity: 21.9589958191
---
header: 
  seq: 3423886
  stamp: 
    secs: 1561686630
    nsecs: 562457716
  frame_id: "ti_mmwave"
point_id: 7
x: 1.87109375
y: -0.0
z: -0.201171875
range: 2.00454068184
velocity: 0.0
doppler_bin: 8
bearing: -0.0
intensity: 30.2366390228
---
header: 
  seq: 3423887
  stamp: 
    secs: 1561686630
    nsecs: 562467101
  frame_id: "ti_mmwave"
point_id: 8
x: 1.90625
y: -0.0
z: -0.255859375
range: 2.04811763763
velocity: 0.0
doppler_bin: 8
bearing: -0.0
intensity: 30.7408466339
---
header: 
  seq: 3423888
  stamp: 
    secs: 1561686630
    nsecs: 562487194
  frame_id: "ti_mmwave"
point_id: 9
x: 1.94921875
y: -0.0
z: -0.234375
range: 2.09169459343
velocity: 0.0
doppler_bin: 8
bearing: -0.0
intensity: 29.0091304779
---
header: 
  seq: 3423889
  stamp: 
    secs: 1561686630
    nsecs: 562497786
  frame_id: "ti_mmwave"
point_id: 10
x: 2.00390625
y: 0.0625
z: 0.017578125
range: 2.13527154922
velocity: 0.0
doppler_bin: 8
bearing: 1.78642380238
intensity: 28.1358089447
---
header: 
  seq: 3423890
  stamp: 
    secs: 1561686630
    nsecs: 562655227
  frame_id: "ti_mmwave"
point_id: 11
x: 2.541015625
y: -0.263671875
z: 1.19921875
range: 3.00681090355
velocity: 0.0
doppler_bin: 8
bearing: -5.92417097092
intensity: 29.2427921295
---
header: 
  seq: 3423891
  stamp: 
    secs: 1561686630
    nsecs: 562674194
  frame_id: "ti_mmwave"
point_id: 12
x: 2.6015625
y: -0.267578125
z: 1.1640625
range: 3.05038785934
velocity: 0.0
doppler_bin: 8
bearing: -5.87238502502
intensity: 32.6787528992
---
header: 
  seq: 3423892
  stamp: 
    secs: 1561686630
    nsecs: 562683426
  frame_id: "ti_mmwave"
point_id: 13
x: 2.66015625
y: -0.181640625
z: 1.15234375
range: 3.09396481514
velocity: 0.0
doppler_bin: 8
bearing: -3.90620398521
intensity: 31.9838218689
---
header: 
  seq: 3423893
  stamp: 
    secs: 1561686630
    nsecs: 562722551
  frame_id: "ti_mmwave"
point_id: 14
x: 4.400390625
y: -0.287109375
z: 1.240234375
range: 4.88062095642
velocity: 0.0
doppler_bin: 8
bearing: -3.73304843903
intensity: 28.9927310944
---
header: 
  seq: 3423894
  stamp: 
    secs: 1561686630
    nsecs: 562738317
  frame_id: "ti_mmwave"
point_id: 16
x: 0.041015625
y: -0.033203125
z: 0.0625
range: 0.0871539413929
velocity: 0.0
doppler_bin: 8
bearing: -38.9909973145
intensity: 30.1494026184
---
header: 
  seq: 3423895
  stamp: 
    secs: 1561686630
    nsecs: 562746413
  frame_id: "ti_mmwave"
point_id: 17
x: 0.044921875
y: -0.046875
z: 0.103515625
range: 0.130730912089
velocity: 0.0
doppler_bin: 8
bearing: -46.218875885
intensity: 29.0525608063
---
header: 
  seq: 3423896
  stamp: 
    secs: 1561686630
    nsecs: 562755957
  frame_id: "ti_mmwave"
point_id: 19
x: 1.212890625
y: 0.357421875
z: 0.091796875
range: 1.35088610649
velocity: 0.0
doppler_bin: 8
bearing: 16.419506073
intensity: 19.2427921295
---
header: 
  seq: 3423897
  stamp: 
    secs: 1561686630
    nsecs: 562767435
  frame_id: "ti_mmwave"
point_id: 20
x: 3.3125
y: -1.861328125
z: -2.55859375
range: 4.88062095642
velocity: 0.0
doppler_bin: 8
bearing: -29.3320827484
intensity: 26.4836006165
---
header: 
  seq: 3423898
  stamp: 
    secs: 1561686630
    nsecs: 563663601
  frame_id: "ti_mmwave"
point_id: 0
x: 0.01171875
y: -0.0390625
z: -0.0078125
range: 0.0435769706964
velocity: 0.0
doppler_bin: 8
bearing: -73.3007583618
intensity: 30.7335166931
---
header: 
  seq: 3423899
  stamp: 
    secs: 1561686630
    nsecs: 563720901
  frame_id: "ti_mmwave"
point_id: 1
x: 0.017578125
y: -0.080078125
z: -0.0078125
range: 0.0871539413929
velocity: 0.0
doppler_bin: 8
bearing: -77.6192398071
intensity: 31.9728050232
---
header: 
  seq: 3423900
  stamp: 
    secs: 1561686630
    nsecs: 563739655
  frame_id: "ti_mmwave"
point_id: 2
x: 0.029296875
y: -0.119140625
z: -0.00390625
range: 0.130730912089
velocity: 0.0
doppler_bin: 8
bearing: -76.1849746704
intensity: 30.1994667053
---
header: 
  seq: 3423901
  stamp: 
    secs: 1561686630
    nsecs: 563752666
  frame_id: "ti_mmwave"
point_id: 3
x: 0.056640625
y: -0.154296875
z: 0.0078125
range: 0.174307882786
velocity: 0.0
doppler_bin: 8
bearing: -69.8423843384
intensity: 25.5022830963
---
header: 
  seq: 3423902
  stamp: 
    secs: 1561686630
    nsecs: 563767239
  frame_id: "ti_mmwave"
point_id: 4
x: 0.337890625
y: -0.080078125
z: -1.220703125
range: 1.35088610649
velocity: 0.0
doppler_bin: 8
bearing: -13.332783699
intensity: 21.9589958191
---
header: 
  seq: 3423903
  stamp: 
    secs: 1561686630
    nsecs: 563779264
  frame_id: "ti_mmwave"
point_id: 5
x: 0.326171875
y: -0.041015625
z: 1.267578125
range: 1.39446306229
velocity: 0.0
doppler_bin: 8
bearing: -7.16723871231
intensity: 23.2633590698
---
header: 
  seq: 3423904
  stamp: 
    secs: 1561686630
    nsecs: 563790656
  frame_id: "ti_mmwave"
point_id: 6
x: 0.509765625
y: -0.04296875
z: 1.25
range: 1.43804001808
velocity: 0.0
doppler_bin: 8
bearing: -4.81814002991
intensity: 21.9589958191
---
header: 
  seq: 3423905
  stamp: 
    secs: 1561686630
    nsecs: 563802003
  frame_id: "ti_mmwave"
point_id: 7
x: 1.83984375
y: -0.056640625
z: -0.052734375
range: 1.96096372604
velocity: 0.0
doppler_bin: 8
bearing: -1.76332592964
intensity: 27.8318862915
---
header: 
  seq: 3423906
  stamp: 
    secs: 1561686630
    nsecs: 563809995
  frame_id: "ti_mmwave"
point_id: 8
x: 1.875
y: -0.05859375
z: -0.142578125
range: 2.00454068184
velocity: 0.0
doppler_bin: 8
bearing: -1.7899106741
intensity: 31.4921913147
---
header: 
  seq: 3423907
  stamp: 
    secs: 1561686630
    nsecs: 563822286
  frame_id: "ti_mmwave"
point_id: 9
x: 1.91015625
y: -0.060546875
z: -0.216796875
range: 2.04811763763
velocity: 0.0
doppler_bin: 8
bearing: -1.81551587582
intensity: 31.4891090393
---
header: 
  seq: 3423908
  stamp: 
    secs: 1561686630
    nsecs: 563833995
  frame_id: "ti_mmwave"
point_id: 10
x: 1.9296875
y: -0.060546875
z: -0.35546875
range: 2.09169459343
velocity: 0.0
doppler_bin: 8
bearing: -1.79715251923
intensity: 27.1349048615
---
header: 
  seq: 3423909
  stamp: 
    secs: 1561686630
    nsecs: 563845894
  frame_id: "ti_mmwave"
point_id: 11
x: 2.529296875
y: -0.263671875
z: 1.22265625
range: 3.00681090355
velocity: 0.0
doppler_bin: 8
bearing: -5.95142221451
intensity: 29.3701610565
---
header: 
  seq: 3423910
  stamp: 
    secs: 1561686630
    nsecs: 563859317
  frame_id: "ti_mmwave"
point_id: 12
x: 2.6015625
y: -0.267578125
z: 1.16796875
range: 3.05038785934
velocity: 0.0
doppler_bin: 8
bearing: -5.87238502502
intensity: 32.7323265076
---
header: 
  seq: 3423911
  stamp: 
    secs: 1561686630
    nsecs: 563867510
  frame_id: "ti_mmwave"
point_id: 13
x: 2.6640625
y: -0.181640625
z: 1.140625
range: 3.09396481514
velocity: 0.0
doppler_bin: 8
bearing: -3.90049386024
intensity: 31.9562301636
---
header: 
  seq: 3423912
  stamp: 
    secs: 1561686630
    nsecs: 563877218
  frame_id: "ti_mmwave"
point_id: 15
x: 0.041015625
y: -0.033203125
z: 0.0625
range: 0.0871539413929
velocity: 0.0
doppler_bin: 8
bearing: -38.9909973145
intensity: 30.1452045441
---
header: 
  seq: 3423913
  stamp: 
    secs: 1561686630
    nsecs: 563886985
  frame_id: "ti_mmwave"
point_id: 16
x: 0.044921875
y: -0.046875
z: 0.103515625
range: 0.130730912089
velocity: 0.0
doppler_bin: 8
bearing: -46.218875885
intensity: 29.0471553802
---
header: 
  seq: 3423914
  stamp: 
    secs: 1561686630
    nsecs: 563897449
  frame_id: "ti_mmwave"
point_id: 18
x: 1.21484375
y: 0.357421875
z: 0.076171875
range: 1.35088610649
velocity: 0.0
doppler_bin: 8
bearing: 16.3945274353
intensity: 19.2427921295
---
header: 
  seq: 3423915
  stamp: 
    secs: 1561686630
    nsecs: 622146740
  frame_id: "ti_mmwave"
point_id: 0
x: 0.01171875
y: -0.0390625
z: -0.0078125
range: 0.0435769706964
velocity: 0.0
doppler_bin: 8
bearing: -73.3007583618
intensity: 30.7335166931
---
header: 
  seq: 3423916
  stamp: 
    secs: 1561686630
    nsecs: 622221504
  frame_id: "ti_mmwave"
point_id: 1
x: 0.017578125
y: -0.080078125
z: -0.0078125
range: 0.0871539413929
velocity: 0.0
doppler_bin: 8
bearing: -77.6192398071
intensity: 31.9755630493
---
header: 
  seq: 3423917
  stamp: 
    secs: 1561686630
    nsecs: 622233072
  frame_id: "ti_mmwave"
point_id: 2
x: 0.029296875
y: -0.119140625
z: -0.00390625
range: 0.130730912089
velocity: 0.0
doppler_bin: 8
bearing: -76.1849746704
intensity: 30.2036132812
---
header: 
  seq: 3423918
  stamp: 
    secs: 1561686630
    nsecs: 622241395
  frame_id: "ti_mmwave"
point_id: 3
x: 0.056640625
y: -0.154296875
z: 0.0078125
range: 0.174307882786
velocity: 0.0
doppler_bin: 8
bearing: -69.8423843384
intensity: 25.490032196
---
header: 
  seq: 3423919
  stamp: 
    secs: 1561686630
    nsecs: 622250995
  frame_id: "ti_mmwave"
point_id: 4
x: 0.330078125
y: -0.080078125
z: -1.22265625
range: 1.35088610649
velocity: 0.0
doppler_bin: 8
bearing: -13.6366977692
intensity: 21.9033164978
---
header: 
  seq: 3423920
  stamp: 
    secs: 1561686630
    nsecs: 622265877
  frame_id: "ti_mmwave"
point_id: 5
x: 0.30859375
y: -0.041015625
z: 1.271484375
range: 1.39446306229
velocity: 0.0
doppler_bin: 8
bearing: -7.57088899612
intensity: 23.2014636993
---
header: 
  seq: 3423921
  stamp: 
    secs: 1561686630
    nsecs: 622280020
  frame_id: "ti_mmwave"
point_id: 6
x: 0.4921875
y: -0.04296875
z: 1.255859375
range: 1.43804001808
velocity: 0.0
doppler_bin: 8
bearing: -4.98936271667
intensity: 21.9033164978
---
header: 
  seq: 3423922
  stamp: 
    secs: 1561686630
    nsecs: 622439999
  frame_id: "ti_mmwave"
point_id: 7
x: 1.880859375
y: -0.05859375
z: -0.029296875
range: 2.00454068184
velocity: 0.0
doppler_bin: 8
bearing: -1.78433823586
intensity: 29.6941585541
---
header: 
  seq: 3423923
  stamp: 
    secs: 1561686630
    nsecs: 622461845
  frame_id: "ti_mmwave"
point_id: 8
x: 1.919921875
y: -0.060546875
z: -0.0859375
range: 2.04811763763
velocity: 0.0
doppler_bin: 8
bearing: -1.80628752708
intensity: 29.3751792908
---
header: 
  seq: 3423924
  stamp: 
    secs: 1561686630
    nsecs: 622469421
  frame_id: "ti_mmwave"
point_id: 9
x: 2.55859375
y: -0.263671875
z: 1.162109375
range: 3.00681090355
velocity: 0.0
doppler_bin: 8
bearing: -5.88375711441
intensity: 29.3901977539
---
header: 
  seq: 3423925
  stamp: 
    secs: 1561686630
    nsecs: 622482390
  frame_id: "ti_mmwave"
point_id: 10
x: 2.62890625
y: -0.1796875
z: 1.119140625
range: 3.05038785934
velocity: 0.0
doppler_bin: 8
bearing: -3.91012310982
intensity: 32.7346420288
---
header: 
  seq: 3423926
  stamp: 
    secs: 1561686630
    nsecs: 622530470
  frame_id: "ti_mmwave"
point_id: 11
x: 2.6796875
y: -0.181640625
z: 1.10546875
range: 3.09396481514
velocity: 0.0
doppler_bin: 8
bearing: -3.87781977654
intensity: 32.0276069641
---
header: 
  seq: 3423927
  stamp: 
    secs: 1561686630
    nsecs: 622540199
  frame_id: "ti_mmwave"
point_id: 12
x: 4.38671875
y: -0.287109375
z: 1.291015625
range: 4.88062095642
velocity: 0.0
doppler_bin: 8
bearing: -3.74464988708
intensity: 30.2448558807
---
header: 
  seq: 3423928
  stamp: 
    secs: 1561686630
    nsecs: 622548107
  frame_id: "ti_mmwave"
point_id: 13
x: 4.40234375
y: -0.43359375
z: 1.34375
range: 4.9241976738
velocity: 0.0
doppler_bin: 8
bearing: -5.62500953674
intensity: 29.9343624115
---
header: 
  seq: 3423929
  stamp: 
    secs: 1561686630
    nsecs: 622558513
  frame_id: "ti_mmwave"
point_id: 15
x: 0.041015625
y: -0.033203125
z: 0.0625
range: 0.0871539413929
velocity: 0.0
doppler_bin: 8
bearing: -38.9909973145
intensity: 30.1494026184
---
header: 
  seq: 3423930
  stamp: 
    secs: 1561686630
    nsecs: 622568089
  frame_id: "ti_mmwave"
point_id: 16
x: 0.044921875
y: -0.046875
z: 0.103515625
range: 0.130730912089
velocity: 0.0
doppler_bin: 8
bearing: -46.218875885
intensity: 29.0579586029
---
header: 
  seq: 3423931
  stamp: 
    secs: 1561686630
    nsecs: 622577607
  frame_id: "ti_mmwave"
point_id: 18
x: 1.21484375
y: 0.357421875
z: 0.0703125
range: 1.35088610649
velocity: 0.0
doppler_bin: 8
bearing: 16.3945274353
intensity: 19.1907806396
---
header: 
  seq: 3423932
  stamp: 
    secs: 1561686630
    nsecs: 623394703
  frame_id: "ti_mmwave"
point_id: 0
x: 0.01171875
y: -0.0390625
z: -0.0078125
range: 0.0435769706964
velocity: 0.0
doppler_bin: 8
bearing: -73.3007583618
intensity: 30.7371826172
---
header: 
  seq: 3423933
  stamp: 
    secs: 1561686630
    nsecs: 623456157
  frame_id: "ti_mmwave"
point_id: 1
x: 0.017578125
y: -0.080078125
z: -0.0078125
range: 0.0871539413929
velocity: 0.0
doppler_bin: 8
bearing: -77.6192398071
intensity: 31.9728050232
---
header: 
  seq: 3423934
  stamp: 
    secs: 1561686630
    nsecs: 623474807
  frame_id: "ti_mmwave"
point_id: 2
x: 0.029296875
y: -0.119140625
z: -0.00390625
range: 0.130730912089
velocity: 0.0
doppler_bin: 8
bearing: -76.1849746704
intensity: 30.2036132812
---
header: 
  seq: 3423935
  stamp: 
    secs: 1561686630
    nsecs: 623488127
  frame_id: "ti_mmwave"
point_id: 3
x: 0.056640625
y: -0.154296875
z: 0.005859375
range: 0.174307882786
velocity: 0.0
doppler_bin: 8
bearing: -69.8423843384
intensity: 25.5144996643
---
header: 
  seq: 3423936
  stamp: 
    secs: 1561686630
    nsecs: 623517850
  frame_id: "ti_mmwave"
point_id: 4
x: 0.388671875
y: -0.080078125
z: -1.205078125
range: 1.35088610649
velocity: 0.0
doppler_bin: 8
bearing: -11.6417570114
intensity: 21.9589958191
---
header: 
  seq: 3423937
  stamp: 
    secs: 1561686630
    nsecs: 623557328
  frame_id: "ti_mmwave"
point_id: 5
x: 0.265625
y: -0.041015625
z: 1.28125
range: 1.39446306229
velocity: 0.0
doppler_bin: 8
bearing: -8.77781772614
intensity: 23.2221927643
---
header: 
  seq: 3423938
  stamp: 
    secs: 1561686630
    nsecs: 623580370
  frame_id: "ti_mmwave"
point_id: 6
x: 0.478515625
y: -0.04296875
z: 1.26171875
range: 1.43804001808
velocity: 0.0
doppler_bin: 8
bearing: -5.13116502762
intensity: 21.9312458038
---
header: 
  seq: 3423939
  stamp: 
    secs: 1561686630
    nsecs: 623602796
  frame_id: "ti_mmwave"
point_id: 7
x: 1.833984375
y: -0.056640625
z: -0.158203125
range: 1.96096372604
velocity: 0.0
doppler_bin: 8
bearing: -1.76895594597
intensity: 28.8592624664
---
header: 
  seq: 3423940
  stamp: 
    secs: 1561686630
    nsecs: 623631895
  frame_id: "ti_mmwave"
point_id: 8
x: 1.875
y: -0.05859375
z: -0.142578125
range: 2.00454068184
velocity: 0.0
doppler_bin: 8
bearing: -1.7899106741
intensity: 31.8780269623
---
header: 
  seq: 3423941
  stamp: 
    secs: 1561686630
    nsecs: 623654132
  frame_id: "ti_mmwave"
point_id: 9
x: 1.916015625
y: -0.060546875
z: -0.154296875
range: 2.04811763763
velocity: 0.0
doppler_bin: 8
bearing: -1.80996763706
intensity: 31.3257980347
---
header: 
  seq: 3423942
  stamp: 
    secs: 1561686630
    nsecs: 623747187
  frame_id: "ti_mmwave"
point_id: 10
x: 1.9453125
y: -0.060546875
z: -0.265625
range: 2.09169459343
velocity: 0.0
doppler_bin: 8
bearing: -1.78272688389
intensity: 27.1180725098
---
header: 
  seq: 3423943
  stamp: 
    secs: 1561686630
    nsecs: 623769599
  frame_id: "ti_mmwave"
point_id: 11
x: 1.982421875
y: -0.45703125
z: 0.462890625
range: 2.22242546082
velocity: 0.0
doppler_bin: 8
bearing: -12.9822483063
intensity: 27.8532981873
---
header: 
  seq: 3423944
  stamp: 
    secs: 1561686630
    nsecs: 623784588
  frame_id: "ti_mmwave"
point_id: 12
x: 2.537109375
y: -0.263671875
z: 1.2109375
range: 3.00681090355
velocity: 0.0
doppler_bin: 8
bearing: -5.93322753906
intensity: 29.3651371002
---
header: 
  seq: 3423945
  stamp: 
    secs: 1561686630
    nsecs: 623796608
  frame_id: "ti_mmwave"
point_id: 13
x: 2.60546875
y: -0.1796875
z: 1.17578125
range: 3.05038785934
velocity: 0.0
doppler_bin: 8
bearing: -3.94518637657
intensity: 32.688117981
---
header: 
  seq: 3423946
  stamp: 
    secs: 1561686630
    nsecs: 623808084
  frame_id: "ti_mmwave"
point_id: 14
x: 2.65234375
y: -0.181640625
z: 1.16796875
range: 3.09396481514
velocity: 0.0
doppler_bin: 8
bearing: -3.9176735878
intensity: 31.9312458038
---
header: 
  seq: 3423947
  stamp: 
    secs: 1561686630
    nsecs: 623822099
  frame_id: "ti_mmwave"
point_id: 16
x: 0.041015625
y: -0.033203125
z: 0.0625
range: 0.0871539413929
velocity: 0.0
doppler_bin: 8
bearing: -38.9909973145
intensity: 30.1494026184
---
header: 
  seq: 3423948
  stamp: 
    secs: 1561686630
    nsecs: 623837145
  frame_id: "ti_mmwave"
point_id: 17
x: 0.044921875
y: -0.046875
z: 0.103515625
range: 0.130730912089
velocity: 0.0
doppler_bin: 8
bearing: -46.218875885
intensity: 29.0525608063
---
header: 
  seq: 3423949
  stamp: 
    secs: 1561686630
    nsecs: 623853011
  frame_id: "ti_mmwave"
point_id: 19
x: 1.21484375
y: 0.357421875
z: 0.078125
range: 1.35088610649
velocity: 0.0
doppler_bin: 8
bearing: 16.3945274353
intensity: 19.2427921295
---
header: 
  seq: 3423950
  stamp: 
    secs: 1561686630
    nsecs: 682080716
  frame_id: "ti_mmwave"
point_id: 0
x: 0.01171875
y: -0.0390625
z: -0.0078125
range: 0.0435769706964
velocity: 0.0
doppler_bin: 8
bearing: -73.3007583618
intensity: 30.7371826172
---
header: 
  seq: 3423951
  stamp: 
    secs: 1561686630
    nsecs: 682191048
  frame_id: "ti_mmwave"
point_id: 1
x: 0.017578125
y: -0.080078125
z: -0.0078125
range: 0.0871539413929
velocity: 0.0
doppler_bin: 8
bearing: -77.6192398071
intensity: 31.9728050232
---
header: 
  seq: 3423952
  stamp: 
    secs: 1561686630
    nsecs: 682212251
  frame_id: "ti_mmwave"
point_id: 2
x: 0.029296875
y: -0.119140625
z: -0.005859375
range: 0.130730912089
velocity: 0.0
doppler_bin: 8
bearing: -76.1849746704
intensity: 30.1994667053
---
header: 
  seq: 3423953
  stamp: 
    secs: 1561686630
    nsecs: 682380101
  frame_id: "ti_mmwave"
point_id: 3
x: 0.056640625
y: -0.154296875
z: 0.005859375
range: 0.174307882786
velocity: 0.0
doppler_bin: 8
bearing: -69.8423843384
intensity: 25.490032196
---
header: 
  seq: 3423954
  stamp: 
    secs: 1561686630
    nsecs: 682407866
  frame_id: "ti_mmwave"
point_id: 4
x: 0.37890625
y: -0.080078125
z: -1.20703125
range: 1.35088610649
velocity: 0.0
doppler_bin: 8
bearing: -11.933303833
intensity: 22.0139713287
---
header: 
  seq: 3423955
  stamp: 
    secs: 1561686630
    nsecs: 682414850
  frame_id: "ti_mmwave"
point_id: 5
x: 0.25390625
y: -0.041015625
z: 1.283203125
range: 1.39446306229
velocity: 0.0
doppler_bin: 8
bearing: -9.17620372772
intensity: 23.2633590698
---
header: 
  seq: 3423956
  stamp: 
    secs: 1561686630
    nsecs: 682440871
  frame_id: "ti_mmwave"
point_id: 6
x: 0.46484375
y: -0.04296875
z: 1.267578125
range: 1.43804001808
velocity: 0.0
doppler_bin: 8
bearing: -5.28124046326
intensity: 21.9033164978
---
header: 
  seq: 3423957
  stamp: 
    secs: 1561686630
    nsecs: 682449905
  frame_id: "ti_mmwave"
point_id: 7
x: 1.828125
y: -0.056640625
z: -0.203125
range: 1.96096372604
velocity: 0.0
doppler_bin: 8
bearing: -1.77462208271
intensity: 27.6492290497
---
header: 
  seq: 3423958
  stamp: 
    secs: 1561686630
    nsecs: 682620692
  frame_id: "ti_mmwave"
point_id: 8
x: 1.873046875
y: -0.05859375
z: -0.171875
range: 2.00454068184
velocity: 0.0
doppler_bin: 8
bearing: -1.79177570343
intensity: 29.876663208
---
header: 
  seq: 3423959
  stamp: 
    secs: 1561686630
    nsecs: 682715385
  frame_id: "ti_mmwave"
point_id: 9
x: 1.919921875
y: -0.060546875
z: -0.09375
range: 2.04811763763
velocity: 0.0
doppler_bin: 8
bearing: -1.80628752708
intensity: 27.6863803864
---
header: 
  seq: 3423960
  stamp: 
    secs: 1561686630
    nsecs: 682737135
  frame_id: "ti_mmwave"
point_id: 10
x: 2.5625
y: -0.263671875
z: 1.15234375
range: 3.00681090355
velocity: 0.0
doppler_bin: 8
bearing: -5.87485074997
intensity: 29.3247375488
---
header: 
  seq: 3423961
  stamp: 
    secs: 1561686630
    nsecs: 682751959
  frame_id: "ti_mmwave"
point_id: 11
x: 2.625
y: -0.1796875
z: 1.12890625
range: 3.05038785934
velocity: 0.0
doppler_bin: 8
bearing: -3.91592383385
intensity: 32.6927947998
---
header: 
  seq: 3423962
  stamp: 
    secs: 1561686630
    nsecs: 682768376
  frame_id: "ti_mmwave"
point_id: 12
x: 2.671875
y: -0.181640625
z: 1.125
range: 3.09396481514
velocity: 0.0
doppler_bin: 8
bearing: -3.88912391663
intensity: 31.9865703583
---
header: 
  seq: 3423963
  stamp: 
    secs: 1561686630
    nsecs: 682852751
  frame_id: "ti_mmwave"
point_id: 14
x: 0.041015625
y: -0.033203125
z: 0.0625
range: 0.0871539413929
velocity: 0.0
doppler_bin: 8
bearing: -38.9909973145
intensity: 30.141002655
---
header: 
  seq: 3423964
  stamp: 
    secs: 1561686630
    nsecs: 682874593
  frame_id: "ti_mmwave"
point_id: 15
x: 0.044921875
y: -0.046875
z: 0.103515625
range: 0.130730912089
velocity: 0.0
doppler_bin: 8
bearing: -46.218875885
intensity: 29.0471553802
---
header: 
  seq: 3423965
  stamp: 
    secs: 1561686630
    nsecs: 682893515
  frame_id: "ti_mmwave"
point_id: 17
x: 1.212890625
y: 0.357421875
z: 0.09375
range: 1.35088610649
velocity: 0.0
doppler_bin: 8
bearing: 16.419506073
intensity: 19.2427921295
---
header: 
  seq: 3423966
  stamp: 
    secs: 1561686630
    nsecs: 683643010
  frame_id: "ti_mmwave"
point_id: 0
x: 0.01171875
y: -0.0390625
z: -0.0078125
range: 0.0435769706964
velocity: 0.0
doppler_bin: 8
bearing: -73.3007583618
intensity: 30.7371826172
---
header: 
  seq: 3423967
  stamp: 
    secs: 1561686630
    nsecs: 683699692
  frame_id: "ti_mmwave"
point_id: 1
x: 0.017578125
y: -0.080078125
z: -0.0078125
range: 0.0871539413929
velocity: 0.0
doppler_bin: 8
bearing: -77.6192398071
intensity: 31.9755630493
---
header: 
  seq: 3423968
  stamp: 
    secs: 1561686630
    nsecs: 683717928
  frame_id: "ti_mmwave"
point_id: 2
x: 0.029296875
y: -0.119140625
z: -0.00390625
range: 0.130730912089
velocity: 0.0
doppler_bin: 8
bearing: -76.1849746704
intensity: 30.2036132812
---
header: 
  seq: 3423969
  stamp: 
    secs: 1561686630
    nsecs: 683740276
  frame_id: "ti_mmwave"
point_id: 3
x: 0.056640625
y: -0.154296875
z: 0.005859375
range: 0.174307882786
velocity: 0.0
doppler_bin: 8
bearing: -69.8423843384
intensity: 25.5022830963
---
header: 
  seq: 3423970
  stamp: 
    secs: 1561686630
    nsecs: 683829100
  frame_id: "ti_mmwave"
point_id: 4
x: 0.400390625
y: -0.080078125
z: -1.201171875
range: 1.35088610649
velocity: 0.0
doppler_bin: 8
bearing: -11.3099327087
intensity: 21.9312458038
---
header: 
  seq: 3423971
  stamp: 
    secs: 1561686630
    nsecs: 683849339
  frame_id: "ti_mmwave"
point_id: 5
x: 0.2421875
y: -0.041015625
z: 1.28515625
range: 1.39446306229
velocity: 0.0
doppler_bin: 8
bearing: -9.61211490631
intensity: 23.2428245544
---
header: 
  seq: 3423972
  stamp: 
    secs: 1561686630
    nsecs: 683862048
  frame_id: "ti_mmwave"
point_id: 6
x: 0.455078125
y: -0.04296875
z: 1.26953125
range: 1.43804001808
velocity: 0.0
doppler_bin: 8
bearing: -5.39391040802
intensity: 21.9312458038
---
header: 
  seq: 3423973
  stamp: 
    secs: 1561686630
    nsecs: 683888334
  frame_id: "ti_mmwave"
point_id: 7
x: 1.828125
y: -0.115234375
z: -0.173828125
range: 1.96096372604
velocity: 0.0
doppler_bin: 8
bearing: -3.60682106018
intensity: 30.561422348
---
header: 
  seq: 3423974
  stamp: 
    secs: 1561686630
    nsecs: 683909585
  frame_id: "ti_mmwave"
point_id: 8
x: 1.876953125
y: -0.05859375
z: -0.130859375
range: 2.00454068184
velocity: 0.0
doppler_bin: 8
bearing: -1.78804934025
intensity: 33.6172790527
---
header: 
  seq: 3423975
  stamp: 
    secs: 1561686630
    nsecs: 683966496
  frame_id: "ti_mmwave"
point_id: 9
x: 1.91796875
y: -0.060546875
z: -0.11328125
range: 2.04811763763
velocity: 0.0
doppler_bin: 8
bearing: -1.80812585354
intensity: 33.6865882874
---
header: 
  seq: 3423976
  stamp: 
    secs: 1561686630
    nsecs: 683981037
  frame_id: "ti_mmwave"
point_id: 10
x: 1.958984375
y: -0.060546875
z: -0.109375
range: 2.09169459343
velocity: 0.0
doppler_bin: 8
bearing: -1.77029299736
intensity: 31.1394329071
---
header: 
  seq: 3423977
  stamp: 
    secs: 1561686630
    nsecs: 683993214
  frame_id: "ti_mmwave"
point_id: 11
x: 2.55078125
y: -0.263671875
z: 1.1796875
range: 3.00681090355
velocity: 0.0
doppler_bin: 8
bearing: -5.90165042877
intensity: 29.4890174866
---
header: 
  seq: 3423978
  stamp: 
    secs: 1561686630
    nsecs: 684008471
  frame_id: "ti_mmwave"
point_id: 12
x: 2.6171875
y: -0.1796875
z: 1.146484375
range: 3.05038785934
velocity: 0.0
doppler_bin: 8
bearing: -3.9275765419
intensity: 32.7623214722
---
header: 
  seq: 3423979
  stamp: 
    secs: 1561686630
    nsecs: 684022246
  frame_id: "ti_mmwave"
point_id: 13
x: 2.66015625
y: -0.181640625
z: 1.15234375
range: 3.09396481514
velocity: 0.0
doppler_bin: 8
bearing: -3.90620398521
intensity: 32.0276069641
---
header: 
  seq: 3423980
  stamp: 
    secs: 1561686630
    nsecs: 684047802
  frame_id: "ti_mmwave"
point_id: 15
x: 0.041015625
y: -0.033203125
z: 0.0625
range: 0.0871539413929
velocity: 0.0
doppler_bin: 8
bearing: -38.9909973145
intensity: 30.1452045441
---
header: 
  seq: 3423981
  stamp: 
    secs: 1561686630
    nsecs: 684098855
  frame_id: "ti_mmwave"
point_id: 16
x: 0.044921875
y: -0.046875
z: 0.103515625
range: 0.130730912089
velocity: 0.0
doppler_bin: 8
bearing: -46.218875885
intensity: 29.0471553802
---
header: 
  seq: 3423982
  stamp: 
    secs: 1561686630
    nsecs: 684116260
  frame_id: "ti_mmwave"
point_id: 18
x: 1.212890625
y: 0.357421875
z: 0.099609375
range: 1.35088610649
velocity: 0.0
doppler_bin: 8
bearing: 16.419506073
intensity: 19.2427921295
---
header: 
  seq: 3423983
  stamp: 
    secs: 1561686630
    nsecs: 743048573
  frame_id: "ti_mmwave"
point_id: 0
x: 0.01171875
y: -0.0390625
z: -0.0078125
range: 0.0435769706964
velocity: 0.0
doppler_bin: 8
bearing: -73.3007583618
intensity: 30.7298469543
---
header: 
  seq: 3423984
  stamp: 
    secs: 1561686630
    nsecs: 743126281
  frame_id: "ti_mmwave"
point_id: 1
x: 0.017578125
y: -0.080078125
z: -0.0078125
range: 0.0871539413929
velocity: 0.0
doppler_bin: 8
bearing: -77.6192398071
intensity: 31.9755630493
---
header: 
  seq: 3423985
  stamp: 
    secs: 1561686630
    nsecs: 743137571
  frame_id: "ti_mmwave"
point_id: 2
x: 0.029296875
y: -0.119140625
z: -0.00390625
range: 0.130730912089
velocity: 0.0
doppler_bin: 8
bearing: -76.1849746704
intensity: 30.2036132812
---
header: 
  seq: 3423986
  stamp: 
    secs: 1561686630
    nsecs: 743149577
  frame_id: "ti_mmwave"
point_id: 3
x: 0.056640625
y: -0.154296875
z: 0.005859375
range: 0.174307882786
velocity: 0.0
doppler_bin: 8
bearing: -69.8423843384
intensity: 25.5022830963
---
header: 
  seq: 3423987
  stamp: 
    secs: 1561686630
    nsecs: 743157652
  frame_id: "ti_mmwave"
point_id: 4
x: 0.35546875
y: -0.080078125
z: -1.21484375
range: 1.35088610649
velocity: 0.0
doppler_bin: 8
bearing: -12.6953649521
intensity: 21.9312458038
---
header: 
  seq: 3423988
  stamp: 
    secs: 1561686630
    nsecs: 743165535
  frame_id: "ti_mmwave"
point_id: 5
x: 0.28125
y: -0.041015625
z: 1.27734375
range: 1.39446306229
velocity: 0.0
doppler_bin: 8
bearing: -8.29714488983
intensity: 23.2428245544
---
header: 
  seq: 3423989
  stamp: 
    secs: 1561686630
    nsecs: 743173567
  frame_id: "ti_mmwave"
point_id: 6
x: 0.47265625
y: -0.04296875
z: 1.263671875
range: 1.43804001808
velocity: 0.0
doppler_bin: 8
bearing: -5.19442892075
intensity: 21.9312458038
---
header: 
  seq: 3423990
  stamp: 
    secs: 1561686630
    nsecs: 743181292
  frame_id: "ti_mmwave"
point_id: 7
x: 1.87890625
y: -0.05859375
z: -0.09375
range: 2.00454068184
velocity: 0.0
doppler_bin: 8
bearing: -1.7861918211
intensity: 28.4323272705
---
header: 
  seq: 3423991
  stamp: 
    secs: 1561686630
    nsecs: 743189506
  frame_id: "ti_mmwave"
point_id: 8
x: 1.919921875
y: -0.060546875
z: -0.064453125
range: 2.04811763763
velocity: 0.0
doppler_bin: 8
bearing: -1.80628752708
intensity: 29.3851966858
---
header: 
  seq: 3423992
  stamp: 
    secs: 1561686630
    nsecs: 743197198
  frame_id: "ti_mmwave"
point_id: 9
x: 1.962890625
y: -0.060546875
z: -0.029296875
range: 2.09169459343
velocity: 0.0
doppler_bin: 8
bearing: -1.7667722702
intensity: 26.6086540222
---
header: 
  seq: 3423993
  stamp: 
    secs: 1561686630
    nsecs: 743206119
  frame_id: "ti_mmwave"
point_id: 10
x: 2.5234375
y: -0.263671875
z: 1.23828125
range: 3.00681090355
velocity: 0.0
doppler_bin: 8
bearing: -5.96514177322
intensity: 29.4349460602
---
header: 
  seq: 3423994
  stamp: 
    secs: 1561686630
    nsecs: 743215599
  frame_id: "ti_mmwave"
point_id: 11
x: 2.607421875
y: -0.1796875
z: 1.171875
range: 3.05038785934
velocity: 0.0
doppler_bin: 8
bearing: -3.94223999977
intensity: 32.7184143066
---
header: 
  seq: 3423995
  stamp: 
    secs: 1561686630
    nsecs: 743224016
  frame_id: "ti_mmwave"
point_id: 12
x: 2.662109375
y: -0.181640625
z: 1.1484375
range: 3.09396481514
velocity: 0.0
doppler_bin: 8
bearing: -3.90334677696
intensity: 31.8977088928
---
header: 
  seq: 3423996
  stamp: 
    secs: 1561686630
    nsecs: 743234428
  frame_id: "ti_mmwave"
point_id: 14
x: 0.041015625
y: -0.033203125
z: 0.0625
range: 0.0871539413929
velocity: 0.0
doppler_bin: 8
bearing: -38.9909973145
intensity: 30.1494026184
---
header: 
  seq: 3423997
  stamp: 
    secs: 1561686630
    nsecs: 743242606
  frame_id: "ti_mmwave"
point_id: 15
x: 0.044921875
y: -0.046875
z: 0.103515625
range: 0.130730912089
velocity: 0.0
doppler_bin: 8
bearing: -46.218875885
intensity: 29.0525608063
---
header: 
  seq: 3423998
  stamp: 
    secs: 1561686630
    nsecs: 743253330
  frame_id: "ti_mmwave"
point_id: 17
x: 1.21484375
y: 0.357421875
z: 0.078125
range: 1.35088610649
velocity: 0.0
doppler_bin: 8
bearing: 16.3945274353
intensity: 19.0848503113
---
header: 
  seq: 3423999
  stamp: 
    secs: 1561686630
    nsecs: 802516804
  frame_id: "ti_mmwave"
point_id: 0
x: 0.01171875
y: -0.0390625
z: -0.0078125
range: 0.0435769706964
velocity: 0.0
doppler_bin: 8
bearing: -73.3007583618
intensity: 30.7335166931
---
header: 
  seq: 3424000
  stamp: 
    secs: 1561686630
    nsecs: 802595875
  frame_id: "ti_mmwave"
point_id: 1
x: 0.017578125
y: -0.080078125
z: -0.0078125
range: 0.0871539413929
velocity: 0.0
doppler_bin: 8
bearing: -77.6192398071
intensity: 31.9728050232
---
header: 
  seq: 3424001
  stamp: 
    secs: 1561686630
    nsecs: 802608012
  frame_id: "ti_mmwave"
point_id: 2
x: 0.029296875
y: -0.119140625
z: -0.00390625
range: 0.130730912089
velocity: 0.0
doppler_bin: 8
bearing: -76.1849746704
intensity: 30.1994667053
---
header: 
  seq: 3424002
  stamp: 
    secs: 1561686630
    nsecs: 802616512
  frame_id: "ti_mmwave"
point_id: 3
x: 0.056640625
y: -0.154296875
z: 0.005859375
range: 0.174307882786
velocity: 0.0
doppler_bin: 8
bearing: -69.8423843384
intensity: 25.490032196
---
header: 
  seq: 3424003
  stamp: 
    secs: 1561686630
    nsecs: 802624428
  frame_id: "ti_mmwave"
point_id: 4
x: 0.34765625
y: -0.080078125
z: -1.216796875
range: 1.35088610649
velocity: 0.0
doppler_bin: 8
bearing: -12.9711065292
intensity: 21.9865703583
---
header: 
  seq: 3424004
  stamp: 
    secs: 1561686630
    nsecs: 802632308
  frame_id: "ti_mmwave"
point_id: 5
x: 0.302734375
y: -0.041015625
z: 1.2734375
range: 1.39446306229
velocity: 0.0
doppler_bin: 8
bearing: -7.71567344666
intensity: 23.2633590698
---
header: 
  seq: 3424005
  stamp: 
    secs: 1561686630
    nsecs: 802639804
  frame_id: "ti_mmwave"
point_id: 6
x: 0.501953125
y: -0.04296875
z: 1.251953125
range: 1.43804001808
velocity: 0.0
doppler_bin: 8
bearing: -4.89276885986
intensity: 21.9589958191
---
header: 
  seq: 3424006
  stamp: 
    secs: 1561686630
    nsecs: 802648155
  frame_id: "ti_mmwave"
point_id: 7
x: 1.958984375
y: -0.123046875
z: -0.0703125
range: 2.09169459343
velocity: 0.0
doppler_bin: 8
bearing: -3.59411597252
intensity: 28.1888542175
---
header: 
  seq: 3424007
  stamp: 
    secs: 1561686630
    nsecs: 802658188
  frame_id: "ti_mmwave"
point_id: 8
x: 2.548828125
y: -0.263671875
z: 1.181640625
range: 3.00681090355
velocity: 0.0
doppler_bin: 8
bearing: -5.90614128113
intensity: 29.2992954254
---
header: 
  seq: 3424008
  stamp: 
    secs: 1561686630
    nsecs: 802667465
  frame_id: "ti_mmwave"
point_id: 9
x: 2.62109375
y: -0.1796875
z: 1.140625
range: 3.05038785934
velocity: 0.0
doppler_bin: 8
bearing: -3.9217414856
intensity: 32.7323265076
---
header: 
  seq: 3424009
  stamp: 
    secs: 1561686630
    nsecs: 802675525
  frame_id: "ti_mmwave"
point_id: 10
x: 2.662109375
y: -0.181640625
z: 1.1484375
range: 3.09396481514
velocity: 0.0
doppler_bin: 8
bearing: -3.90334677696
intensity: 32.0574569702
---
header: 
  seq: 3424010
  stamp: 
    secs: 1561686630
    nsecs: 802685901
  frame_id: "ti_mmwave"
point_id: 12
x: 0.041015625
y: -0.033203125
z: 0.0625
range: 0.0871539413929
velocity: 0.0
doppler_bin: 8
bearing: -38.9909973145
intensity: 30.1452045441
---
header: 
  seq: 3424011
  stamp: 
    secs: 1561686630
    nsecs: 802693976
  frame_id: "ti_mmwave"
point_id: 13
x: 0.044921875
y: -0.046875
z: 0.103515625
range: 0.130730912089
velocity: 0.0
doppler_bin: 8
bearing: -46.218875885
intensity: 29.0471553802
---
header: 
  seq: 3424012
  stamp: 
    secs: 1561686630
    nsecs: 802703592
  frame_id: "ti_mmwave"
point_id: 15
x: 1.212890625
y: 0.357421875
z: 0.091796875
range: 1.35088610649
velocity: 0.0
doppler_bin: 8
bearing: 16.419506073
intensity: 19.1381378174
---
header: 
  seq: 3424013
  stamp: 
    secs: 1561686630
    nsecs: 803541829
  frame_id: "ti_mmwave"
point_id: 0
x: 0.01171875
y: -0.0390625
z: -0.0078125
range: 0.0435769706964
velocity: 0.0
doppler_bin: 8
bearing: -73.3007583618
intensity: 30.7261753082
---
header: 
  seq: 3424014
  stamp: 
    secs: 1561686630
    nsecs: 803608262
  frame_id: "ti_mmwave"
point_id: 1
x: 0.017578125
y: -0.080078125
z: -0.0078125
range: 0.0871539413929
velocity: 0.0
doppler_bin: 8
bearing: -77.6192398071
intensity: 31.9700469971
---
header: 
  seq: 3424015
  stamp: 
    secs: 1561686630
    nsecs: 803627741
  frame_id: "ti_mmwave"
point_id: 2
x: 0.029296875
y: -0.119140625
z: -0.00390625
range: 0.130730912089
velocity: 0.0
doppler_bin: 8
bearing: -76.1849746704
intensity: 30.1994667053
---
header: 
  seq: 3424016
  stamp: 
    secs: 1561686630
    nsecs: 803645501
  frame_id: "ti_mmwave"
point_id: 3
x: 0.056640625
y: -0.154296875
z: 0.005859375
range: 0.174307882786
velocity: 0.0
doppler_bin: 8
bearing: -69.8423843384
intensity: 25.5022830963
---
header: 
  seq: 3424017
  stamp: 
    secs: 1561686630
    nsecs: 803659535
  frame_id: "ti_mmwave"
point_id: 4
x: 0.396484375
y: -0.080078125
z: -1.201171875
range: 1.35088610649
velocity: 0.0
doppler_bin: 8
bearing: -11.4184474945
intensity: 21.9589958191
---
header: 
  seq: 3424018
  stamp: 
    secs: 1561686630
    nsecs: 803742509
  frame_id: "ti_mmwave"
point_id: 5
x: 0.271484375
y: -0.041015625
z: 1.279296875
range: 1.39446306229
velocity: 0.0
doppler_bin: 8
bearing: -8.59122562408
intensity: 23.2633590698
---
header: 
  seq: 3424019
  stamp: 
    secs: 1561686630
    nsecs: 803753294
  frame_id: "ti_mmwave"
point_id: 6
x: 0.486328125
y: -0.04296875
z: 1.259765625
range: 1.43804001808
velocity: 0.0
doppler_bin: 8
bearing: -5.04916620255
intensity: 21.9589958191
---
header: 
  seq: 3424020
  stamp: 
    secs: 1561686630
    nsecs: 803761421
  frame_id: "ti_mmwave"
point_id: 7
x: 1.845703125
y: -0.05859375
z: -0.359375
range: 2.00454068184
velocity: 0.0
doppler_bin: 8
bearing: -1.81830310822
intensity: 27.9657440186
---
header: 
  seq: 3424021
  stamp: 
    secs: 1561686630
    nsecs: 803769465
  frame_id: "ti_mmwave"
point_id: 8
x: 1.958984375
y: -0.123046875
z: 0.046875
range: 2.09169459343
velocity: 0.0
doppler_bin: 8
bearing: -3.59411597252
intensity: 27.3878059387
---
header: 
  seq: 3424022
  stamp: 
    secs: 1561686630
    nsecs: 803777346
  frame_id: "ti_mmwave"
point_id: 9
x: 2.56640625
y: -0.263671875
z: 1.14453125
range: 3.00681090355
velocity: 0.0
doppler_bin: 8
bearing: -5.86597156525
intensity: 29.4694328308
---
header: 
  seq: 3424023
  stamp: 
    secs: 1561686630
    nsecs: 803786558
  frame_id: "ti_mmwave"
point_id: 10
x: 2.626953125
y: -0.1796875
z: 1.123046875
range: 3.05038785934
velocity: 0.0
doppler_bin: 8
bearing: -3.91302132607
intensity: 32.7207374573
---
header: 
  seq: 3424024
  stamp: 
    secs: 1561686630
    nsecs: 803798461
  frame_id: "ti_mmwave"
point_id: 11
x: 2.673828125
y: -0.181640625
z: 1.119140625
range: 3.09396481514
velocity: 0.0
doppler_bin: 8
bearing: -3.88629174232
intensity: 32.0411987305
---
header: 
  seq: 3424025
  stamp: 
    secs: 1561686630
    nsecs: 803814280
  frame_id: "ti_mmwave"
point_id: 13
x: 0.041015625
y: -0.033203125
z: 0.0625
range: 0.0871539413929
