header: 
  seq: 3313941
  stamp: 
    secs: 1561686457
    nsecs: 102171056
  frame_id: "ti_mmwave"
point_id: 0
x: 0.01171875
y: -0.0390625
z: -0.0078125
range: 0.0435769706964
velocity: 0.0
doppler_bin: 8
bearing: -73.3007583618
intensity: 30.7261753082
---
header: 
  seq: 3313942
  stamp: 
    secs: 1561686457
    nsecs: 102238997
  frame_id: "ti_mmwave"
point_id: 1
x: 0.017578125
y: -0.080078125
z: -0.0078125
range: 0.0871539413929
velocity: 0.0
doppler_bin: 8
bearing: -77.6192398071
intensity: 31.9755630493
---
header: 
  seq: 3313943
  stamp: 
    secs: 1561686457
    nsecs: 102253436
  frame_id: "ti_mmwave"
point_id: 2
x: 0.029296875
y: -0.119140625
z: -0.00390625
range: 0.130730912089
velocity: 0.0
doppler_bin: 8
bearing: -76.1849746704
intensity: 30.2077541351
---
header: 
  seq: 3313944
  stamp: 
    secs: 1561686457
    nsecs: 102267411
  frame_id: "ti_mmwave"
point_id: 3
x: 0.056640625
y: -0.154296875
z: 0.005859375
range: 0.174307882786
velocity: 0.0
doppler_bin: 8
bearing: -69.8423843384
intensity: 25.5144996643
---
header: 
  seq: 3313945
  stamp: 
    secs: 1561686457
    nsecs: 102315964
  frame_id: "ti_mmwave"
point_id: 4
x: 0.365234375
y: -0.080078125
z: -1.2109375
range: 1.35088610649
velocity: 0.0
doppler_bin: 8
bearing: -12.3664970398
intensity: 21.9865703583
---
header: 
  seq: 3313946
  stamp: 
    secs: 1561686457
    nsecs: 102358548
  frame_id: "ti_mmwave"
point_id: 5
x: 0.29296875
y: -0.041015625
z: 1.275390625
range: 1.39446306229
velocity: 0.0
doppler_bin: 8
bearing: -7.96961069107
intensity: 23.2633590698
---
header: 
  seq: 3313947
  stamp: 
    secs: 1561686457
    nsecs: 102372817
  frame_id: "ti_mmwave"
point_id: 6
x: 0.412109375
y: -0.0
z: 1.28515625
range: 1.43804001808
velocity: 0.0
doppler_bin: 8
bearing: -0.0
intensity: 21.9865703583
---
header: 
  seq: 3313948
  stamp: 
    secs: 1561686457
    nsecs: 102387771
  frame_id: "ti_mmwave"
point_id: 7
x: 1.837890625
y: -0.0
z: -0.109375
range: 1.96096372604
velocity: 0.0
doppler_bin: 8
bearing: -0.0
intensity: 30.3941402435
---
header: 
  seq: 3313949
  stamp: 
    secs: 1561686457
    nsecs: 102398877
  frame_id: "ti_mmwave"
point_id: 8
x: 1.876953125
y: -0.0
z: -0.12890625
range: 2.00454068184
velocity: 0.0
doppler_bin: 8
bearing: -0.0
intensity: 32.1431388855
---
header: 
  seq: 3313950
  stamp: 
    secs: 1561686457
    nsecs: 102409723
  frame_id: "ti_mmwave"
point_id: 9
x: 1.912109375
y: -0.0
z: -0.203125
range: 2.04811763763
velocity: 0.0
doppler_bin: 8
bearing: -0.0
intensity: 30.3502922058
---
header: 
  seq: 3313951
  stamp: 
    secs: 1561686457
    nsecs: 102420694
  frame_id: "ti_mmwave"
point_id: 10
x: 2.548828125
y: -0.263671875
z: 1.181640625
range: 3.00681090355
velocity: 0.0
doppler_bin: 8
bearing: -5.90614128113
intensity: 29.3196620941
---
header: 
  seq: 3313952
  stamp: 
    secs: 1561686457
    nsecs: 102432102
  frame_id: "ti_mmwave"
point_id: 11
x: 2.607421875
y: -0.267578125
z: 1.15234375
range: 3.05038785934
velocity: 0.0
doppler_bin: 8
bearing: -5.85928010941
intensity: 32.716091156
---
header: 
  seq: 3313953
  stamp: 
    secs: 1561686457
    nsecs: 102466514
  frame_id: "ti_mmwave"
point_id: 12
x: 2.6640625
y: -0.181640625
z: 1.142578125
range: 3.09396481514
velocity: 0.0
doppler_bin: 8
bearing: -3.90049386024
intensity: 32.030330658
---
header: 
  seq: 3313954
  stamp: 
    secs: 1561686457
    nsecs: 102480115
  frame_id: "ti_mmwave"
point_id: 13
x: 4.400390625
y: -0.287109375
z: 1.2421875
range: 4.88062095642
velocity: 0.0
doppler_bin: 8
bearing: -3.73304843903
intensity: 31.2319812775
---
header: 
  seq: 3313955
  stamp: 
    secs: 1561686457
    nsecs: 102493560
  frame_id: "ti_mmwave"
point_id: 14
x: 4.4375
y: -0.2890625
z: 1.263671875
range: 4.9241976738
velocity: 0.0
doppler_bin: 8
bearing: -3.72702980042
intensity: 30.700378418
---
header: 
  seq: 3313956
  stamp: 
    secs: 1561686457
    nsecs: 102507374
  frame_id: "ti_mmwave"
point_id: 15
x: 4.826171875
y: -0.306640625
z: 0.84375
range: 5.22923660278
velocity: 0.0
doppler_bin: 8
bearing: -3.63551664352
intensity: 30.2160263062
---
header: 
  seq: 3313957
  stamp: 
    secs: 1561686457
    nsecs: 102520485
  frame_id: "ti_mmwave"
point_id: 16
x: 4.87890625
y: -0.30859375
z: 0.771484375
range: 5.27281332016
velocity: 0.0
doppler_bin: 8
bearing: -3.61917114258
intensity: 31.4426269531
---
header: 
  seq: 3313958
  stamp: 
    secs: 1561686457
    nsecs: 102536228
  frame_id: "ti_mmwave"
point_id: 18
x: 0.041015625
y: -0.033203125
z: 0.0625
range: 0.0871539413929
velocity: 0.0
doppler_bin: 8
bearing: -38.9909973145
intensity: 30.1452045441
---
header: 
  seq: 3313959
  stamp: 
    secs: 1561686457
    nsecs: 102549999
  frame_id: "ti_mmwave"
point_id: 19
x: 0.044921875
y: -0.046875
z: 0.103515625
range: 0.130730912089
velocity: 0.0
doppler_bin: 8
bearing: -46.218875885
intensity: 29.0471553802
---
header: 
  seq: 3313960
  stamp: 
    secs: 1561686457
    nsecs: 102574735
  frame_id: "ti_mmwave"
point_id: 21
x: 1.216796875
y: 0.357421875
z: 0.044921875
range: 1.35088610649
velocity: 0.0
doppler_bin: 8
bearing: 16.3696231842
intensity: 19.3951931
---
header: 
  seq: 3313961
  stamp: 
    secs: 1561686457
    nsecs: 103630431
  frame_id: "ti_mmwave"
point_id: 0
x: 0.01171875
y: -0.0390625
z: -0.0078125
range: 0.0435769706964
velocity: 0.0
doppler_bin: 8
bearing: -73.3007583618
intensity: 30.7298469543
---
header: 
  seq: 3313962
  stamp: 
    secs: 1561686457
    nsecs: 103676258
  frame_id: "ti_mmwave"
point_id: 1
x: 0.017578125
y: -0.080078125
z: -0.0078125
range: 0.0871539413929
velocity: 0.0
doppler_bin: 8
bearing: -77.6192398071
intensity: 31.9755630493
---
header: 
  seq: 3313963
  stamp: 
    secs: 1561686457
    nsecs: 103692072
  frame_id: "ti_mmwave"
point_id: 2
x: 0.029296875
y: -0.119140625
z: -0.00390625
range: 0.130730912089
velocity: 0.0
doppler_bin: 8
bearing: -76.1849746704
intensity: 30.2036132812
---
header: 
  seq: 3313964
  stamp: 
    secs: 1561686457
    nsecs: 103707046
  frame_id: "ti_mmwave"
point_id: 3
x: 0.056640625
y: -0.154296875
z: 0.005859375
range: 0.174307882786
velocity: 0.0
doppler_bin: 8
bearing: -69.8423843384
intensity: 25.5022830963
---
header: 
  seq: 3313965
  stamp: 
    secs: 1561686457
    nsecs: 103718874
  frame_id: "ti_mmwave"
point_id: 4
x: 0.30078125
y: -0.080078125
z: -1.228515625
range: 1.35088610649
velocity: 0.0
doppler_bin: 8
bearing: -14.9082593918
intensity: 21.9865703583
---
header: 
  seq: 3313966
  stamp: 
    secs: 1561686457
    nsecs: 103731173
  frame_id: "ti_mmwave"
point_id: 5
x: 0.337890625
y: -0.041015625
z: 1.263671875
range: 1.39446306229
velocity: 0.0
doppler_bin: 8
bearing: -6.92111730576
intensity: 23.2633590698
---
header: 
  seq: 3313967
  stamp: 
    secs: 1561686457
    nsecs: 103743072
  frame_id: "ti_mmwave"
point_id: 6
x: 0.537109375
y: -0.04296875
z: 1.23828125
range: 1.43804001808
velocity: 0.0
doppler_bin: 8
bearing: -4.57392120361
intensity: 22.0412006378
---
header: 
  seq: 3313968
  stamp: 
    secs: 1561686457
    nsecs: 103757098
  frame_id: "ti_mmwave"
point_id: 7
x: 1.837890625
y: -0.0
z: -0.10546875
range: 1.96096372604
velocity: 0.0
doppler_bin: 8
bearing: -0.0
intensity: 27.6342792511
---
header: 
  seq: 3313969
  stamp: 
    secs: 1561686457
    nsecs: 103769397
  frame_id: "ti_mmwave"
point_id: 8
x: 1.880859375
y: -0.0
z: -0.07421875
range: 2.00454068184
velocity: 0.0
doppler_bin: 8
bearing: -0.0
intensity: 29.2012329102
---
header: 
  seq: 3313970
  stamp: 
    secs: 1561686457
    nsecs: 103781397
  frame_id: "ti_mmwave"
point_id: 9
x: 1.91796875
y: 0.060546875
z: -0.12109375
range: 2.04811763763
velocity: 0.0
doppler_bin: 8
bearing: 1.80812585354
intensity: 27.466342926
---
header: 
  seq: 3313971
  stamp: 
    secs: 1561686457
    nsecs: 103792895
  frame_id: "ti_mmwave"
point_id: 10
x: 2.548828125
y: -0.263671875
z: 1.18359375
range: 3.00681090355
velocity: 0.0
doppler_bin: 8
bearing: -5.90614128113
intensity: 29.4987773895
---
header: 
  seq: 3313972
  stamp: 
    secs: 1561686457
    nsecs: 103807020
  frame_id: "ti_mmwave"
point_id: 11
x: 2.603515625
y: -0.267578125
z: 1.16015625
range: 3.05038785934
velocity: 0.0
doppler_bin: 8
bearing: -5.8680100441
intensity: 32.7966690063
---
header: 
  seq: 3313973
  stamp: 
    secs: 1561686457
    nsecs: 103819344
  frame_id: "ti_mmwave"
point_id: 12
x: 2.658203125
y: -0.181640625
z: 1.15625
range: 3.09396481514
velocity: 0.0
doppler_bin: 8
bearing: -3.90906453133
intensity: 32.0736503601
---
header: 
  seq: 3313974
  stamp: 
    secs: 1561686457
    nsecs: 103833037
  frame_id: "ti_mmwave"
point_id: 13
x: 4.322265625
y: -0.283203125
z: 1.361328125
range: 4.83704376221
velocity: 0.0
doppler_bin: 8
bearing: -3.74877071381
intensity: 27.7887439728
---
header: 
  seq: 3313975
  stamp: 
    secs: 1561686457
    nsecs: 103847877
  frame_id: "ti_mmwave"
point_id: 14
x: 4.404296875
y: -0.287109375
z: 1.228515625
range: 4.88062095642
velocity: 0.0
doppler_bin: 8
bearing: -3.72974681854
intensity: 31.5075645447
---
header: 
  seq: 3313976
  stamp: 
    secs: 1561686457
    nsecs: 103859911
  frame_id: "ti_mmwave"
point_id: 15
x: 4.44140625
y: -0.2890625
z: 1.248046875
range: 4.9241976738
velocity: 0.0
doppler_bin: 8
bearing: -3.7237610817
intensity: 31.0140342712
---
header: 
  seq: 3313977
  stamp: 
    secs: 1561686457
    nsecs: 103871249
  frame_id: "ti_mmwave"
point_id: 16
x: 4.865234375
y: -0.30859375
z: 0.853515625
range: 5.27281332016
velocity: 0.0
doppler_bin: 8
bearing: -3.62931442261
intensity: 30.4571399689
---
header: 
  seq: 3313978
  stamp: 
    secs: 1561686457
    nsecs: 103885135
  frame_id: "ti_mmwave"
point_id: 18
x: 0.041015625
y: -0.033203125
z: 0.0625
range: 0.0871539413929
velocity: 0.0
doppler_bin: 8
bearing: -38.9909973145
intensity: 30.141002655
---
header: 
  seq: 3313979
  stamp: 
    secs: 1561686457
    nsecs: 103897931
  frame_id: "ti_mmwave"
point_id: 19
x: 0.044921875
y: -0.046875
z: 0.103515625
range: 0.130730912089
velocity: 0.0
doppler_bin: 8
bearing: -46.218875885
intensity: 29.0471553802
---
header: 
  seq: 3313980
  stamp: 
    secs: 1561686457
    nsecs: 103913247
  frame_id: "ti_mmwave"
point_id: 21
x: 1.216796875
y: 0.357421875
z: 0.00390625
range: 1.35088610649
velocity: 0.0
doppler_bin: 8
bearing: 16.3696231842
intensity: 19.2941894531
---
header: 
  seq: 3313981
  stamp: 
    secs: 1561686457
    nsecs: 103924919
  frame_id: "ti_mmwave"
point_id: 22
x: 3.55859375
y: -1.84375
z: -2.134765625
range: 4.83704376221
velocity: 0.0
doppler_bin: 8
bearing: -27.389213562
intensity: 24.8429985046
---
header: 
  seq: 3313982
  stamp: 
    secs: 1561686457
    nsecs: 162351241
  frame_id: "ti_mmwave"
point_id: 0
x: 0.01171875
y: -0.0390625
z: -0.0078125
range: 0.0435769706964
velocity: 0.0
doppler_bin: 8
bearing: -73.3007583618
intensity: 30.7408466339
---
header: 
  seq: 3313983
  stamp: 
    secs: 1561686457
    nsecs: 162424875
  frame_id: "ti_mmwave"
point_id: 1
x: 0.017578125
y: -0.080078125
z: -0.0078125
range: 0.0871539413929
velocity: 0.0
doppler_bin: 8
bearing: -77.6192398071
intensity: 31.9755630493
---
header: 
  seq: 3313984
  stamp: 
    secs: 1561686457
    nsecs: 162437562
  frame_id: "ti_mmwave"
point_id: 2
x: 0.029296875
y: -0.119140625
z: -0.00390625
range: 0.130730912089
velocity: 0.0
doppler_bin: 8
bearing: -76.1849746704
intensity: 30.2077541351
---
header: 
  seq: 3313985
  stamp: 
    secs: 1561686457
    nsecs: 162447713
  frame_id: "ti_mmwave"
point_id: 3
x: 0.056640625
y: -0.154296875
z: 0.005859375
range: 0.174307882786
velocity: 0.0
doppler_bin: 8
bearing: -69.8423843384
intensity: 25.5144996643
---
header: 
  seq: 3313986
  stamp: 
    secs: 1561686457
    nsecs: 162455792
  frame_id: "ti_mmwave"
point_id: 4
x: 0.314453125
y: -0.080078125
z: -1.2265625
range: 1.35088610649
velocity: 0.0
doppler_bin: 8
bearing: -14.2871713638
intensity: 21.9865703583
---
header: 
  seq: 3313987
  stamp: 
    secs: 1561686457
    nsecs: 162464027
  frame_id: "ti_mmwave"
point_id: 5
x: 0.3359375
y: -0.041015625
z: 1.263671875
range: 1.39446306229
velocity: 0.0
doppler_bin: 8
bearing: -6.96096277237
intensity: 23.2221927643
---
header: 
  seq: 3313988
  stamp: 
    secs: 1561686457
    nsecs: 162471687
  frame_id: "ti_mmwave"
point_id: 6
x: 0.517578125
y: -0.04296875
z: 1.24609375
range: 1.43804001808
velocity: 0.0
doppler_bin: 8
bearing: -4.74574804306
intensity: 21.9589958191
---
header: 
  seq: 3313989
  stamp: 
    secs: 1561686457
    nsecs: 162479421
  frame_id: "ti_mmwave"
point_id: 7
x: 1.837890625
y: -0.0
z: -0.1015625
range: 1.96096372604
velocity: 0.0
doppler_bin: 8
bearing: -0.0
intensity: 28.4571800232
---
header: 
  seq: 3313990
  stamp: 
    secs: 1561686457
    nsecs: 162487205
  frame_id: "ti_mmwave"
point_id: 8
x: 1.880859375
y: -0.0
z: -0.04296875
range: 2.00454068184
velocity: 0.0
doppler_bin: 8
bearing: -0.0
intensity: 29.1592712402
---
header: 
  seq: 3313991
  stamp: 
    secs: 1561686457
    nsecs: 162495277
  frame_id: "ti_mmwave"
point_id: 9
x: 1.921875
y: -0.0
z: 0.009765625
range: 2.04811763763
velocity: 0.0
doppler_bin: 8
bearing: -0.0
intensity: 28.3758850098
---
header: 
  seq: 3313992
  stamp: 
    secs: 1561686457
    nsecs: 162505592
  frame_id: "ti_mmwave"
point_id: 10
x: 1.9609375
y: -0.0
z: 0.087890625
range: 2.09169459343
velocity: 0.0
doppler_bin: 8
bearing: -0.0
intensity: 27.5358314514
---
header: 
  seq: 3313993
  stamp: 
    secs: 1561686457
    nsecs: 162514542
  frame_id: "ti_mmwave"
point_id: 11
x: 2.548828125
y: -0.263671875
z: 1.18359375
range: 3.00681090355
velocity: 0.0
doppler_bin: 8
bearing: -5.90614128113
intensity: 29.1697998047
---
header: 
  seq: 3313994
  stamp: 
    secs: 1561686457
    nsecs: 162522611
  frame_id: "ti_mmwave"
point_id: 12
x: 2.609375
y: -0.267578125
z: 1.150390625
range: 3.05038785934
velocity: 0.0
doppler_bin: 8
bearing: -5.85492515564
intensity: 32.688117981
---
header: 
  seq: 3313995
  stamp: 
    secs: 1561686457
    nsecs: 162530638
  frame_id: "ti_mmwave"
point_id: 13
x: 2.66796875
y: -0.181640625
z: 1.130859375
range: 3.09396481514
velocity: 0.0
doppler_bin: 8
bearing: -3.89480042458
intensity: 32.0493354797
---
header: 
  seq: 3313996
  stamp: 
    secs: 1561686457
    nsecs: 162538667
  frame_id: "ti_mmwave"
point_id: 14
x: 4.318359375
y: -0.283203125
z: 1.373046875
range: 4.83704376221
velocity: 0.0
doppler_bin: 8
bearing: -3.75215196609
intensity: 27.8247261047
---
header: 
  seq: 3313997
  stamp: 
    secs: 1561686457
    nsecs: 162547053
  frame_id: "ti_mmwave"
point_id: 15
x: 4.40234375
y: -0.287109375
z: 1.23828125
range: 4.88062095642
velocity: 0.0
doppler_bin: 8
bearing: -3.73139691353
intensity: 31.6375751495
---
header: 
  seq: 3313998
  stamp: 
    secs: 1561686457
    nsecs: 162555652
  frame_id: "ti_mmwave"
point_id: 16
x: 4.439453125
y: -0.2890625
z: 1.2578125
range: 4.9241976738
velocity: 0.0
doppler_bin: 8
bearing: -3.7253947258
intensity: 31.2807598114
---
header: 
  seq: 3313999
  stamp: 
    secs: 1561686457
    nsecs: 162565508
  frame_id: "ti_mmwave"
point_id: 17
x: 4.806640625
y: -0.306640625
z: 0.94921875
range: 5.22923660278
velocity: 0.0
doppler_bin: 8
bearing: -3.65024900436
intensity: 29.4792366028
---
header: 
  seq: 3314000
  stamp: 
    secs: 1561686457
    nsecs: 162575204
  frame_id: "ti_mmwave"
point_id: 18
x: 4.8359375
y: -0.46484375
z: 0.947265625
range: 5.27281332016
velocity: 0.0
doppler_bin: 8
bearing: -5.49056053162
intensity: 31.2548122406
---
header: 
  seq: 3314001
  stamp: 
    secs: 1561686457
    nsecs: 162587746
  frame_id: "ti_mmwave"
point_id: 20
x: 0.041015625
y: -0.033203125
z: 0.0625
range: 0.0871539413929
velocity: 0.0
doppler_bin: 8
bearing: -38.9909973145
intensity: 30.1452045441
---
header: 
  seq: 3314002
  stamp: 
    secs: 1561686457
    nsecs: 162753091
  frame_id: "ti_mmwave"
point_id: 21
x: 0.044921875
y: -0.046875
z: 0.103515625
range: 0.130730912089
velocity: 0.0
doppler_bin: 8
bearing: -46.218875885
intensity: 29.0471553802
---
header: 
  seq: 3314003
  stamp: 
    secs: 1561686457
    nsecs: 162774819
  frame_id: "ti_mmwave"
point_id: 23
x: 1.216796875
y: 0.357421875
z: 0.02734375
range: 1.35088610649
velocity: 0.0
doppler_bin: 8
bearing: 16.3696231842
intensity: 19.3449840546
---
header: 
  seq: 3314004
  stamp: 
    secs: 1561686457
    nsecs: 162783866
  frame_id: "ti_mmwave"
point_id: 24
x: 3.572265625
y: -1.84375
z: -2.111328125
range: 4.83704376221
velocity: 0.0
doppler_bin: 8
bearing: -27.299571991
intensity: 25.0785579681
---
header: 
  seq: 3314005
  stamp: 
    secs: 1561686457
    nsecs: 163850959
  frame_id: "ti_mmwave"
point_id: 0
x: 0.01171875
y: -0.0390625
z: -0.0078125
range: 0.0435769706964
velocity: 0.0
doppler_bin: 8
bearing: -73.3007583618
intensity: 30.7261753082
---
header: 
  seq: 3314006
  stamp: 
    secs: 1561686457
    nsecs: 163930596
  frame_id: "ti_mmwave"
point_id: 1
x: 0.017578125
y: -0.080078125
z: -0.0078125
range: 0.0871539413929
velocity: 0.0
doppler_bin: 8
bearing: -77.6192398071
intensity: 31.9728050232
---
header: 
  seq: 3314007
  stamp: 
    secs: 1561686457
    nsecs: 163956408
  frame_id: "ti_mmwave"
point_id: 2
x: 0.029296875
y: -0.119140625
z: -0.00390625
range: 0.130730912089
velocity: 0.0
doppler_bin: 8
bearing: -76.1849746704
intensity: 30.2036132812
---
header: 
  seq: 3314008
  stamp: 
    secs: 1561686457
    nsecs: 163974671
  frame_id: "ti_mmwave"
point_id: 3
x: 0.056640625
y: -0.154296875
z: 0.005859375
range: 0.174307882786
velocity: 0.0
doppler_bin: 8
bearing: -69.8423843384
intensity: 25.490032196
---
header: 
  seq: 3314009
  stamp: 
    secs: 1561686457
    nsecs: 164052679
  frame_id: "ti_mmwave"
point_id: 4
x: 0.36328125
y: -0.080078125
z: -1.212890625
range: 1.35088610649
velocity: 0.0
doppler_bin: 8
bearing: -12.4309225082
intensity: 22.0412006378
---
header: 
  seq: 3314010
  stamp: 
    secs: 1561686457
    nsecs: 164073463
  frame_id: "ti_mmwave"
point_id: 5
x: 0.306640625
y: -0.041015625
z: 1.271484375
range: 1.39446306229
velocity: 0.0
doppler_bin: 8
bearing: -7.6185464859
intensity: 23.2837963104
---
header: 
  seq: 3314011
  stamp: 
    secs: 1561686457
    nsecs: 164142875
  frame_id: "ti_mmwave"
point_id: 6
x: 0.490234375
y: -0.04296875
z: 1.255859375
range: 1.43804001808
velocity: 0.0
doppler_bin: 8
bearing: -5.00914001465
intensity: 21.9589958191
---
header: 
  seq: 3314012
  stamp: 
    secs: 1561686457
    nsecs: 164199895
  frame_id: "ti_mmwave"
point_id: 7
x: 1.904296875
y: -0.0
z: -0.265625
range: 2.04811763763
velocity: 0.0
doppler_bin: 8
bearing: -0.0
intensity: 27.1767044067
---
header: 
  seq: 3314013
  stamp: 
    secs: 1561686457
    nsecs: 164240916
  frame_id: "ti_mmwave"
point_id: 8
x: 2.57421875
y: -0.263671875
z: 1.12890625
range: 3.00681090355
velocity: 0.0
doppler_bin: 8
bearing: -5.84829235077
intensity: 29.5327625275
---
header: 
  seq: 3314014
  stamp: 
    secs: 1561686457
    nsecs: 164274020
  frame_id: "ti_mmwave"
point_id: 9
x: 2.62890625
y: -0.1796875
z: 1.119140625
range: 3.05038785934
velocity: 0.0
doppler_bin: 8
bearing: -3.91012310982
intensity: 32.7829627991
---
header: 
  seq: 3314015
  stamp: 
    secs: 1561686457
    nsecs: 164287907
  frame_id: "ti_mmwave"
point_id: 10
x: 2.681640625
y: -0.181640625
z: 1.099609375
range: 3.09396481514
velocity: 0.0
doppler_bin: 8
bearing: -3.87500452995
intensity: 32.0112380981
---
header: 
  seq: 3314016
  stamp: 
    secs: 1561686457
    nsecs: 164300895
  frame_id: "ti_mmwave"
point_id: 11
x: 4.32421875
y: -0.283203125
z: 1.357421875
range: 4.83704376221
velocity: 0.0
doppler_bin: 8
bearing: -3.74708223343
intensity: 27.8887519836
---
header: 
  seq: 3314017
  stamp: 
    secs: 1561686457
    nsecs: 164313809
  frame_id: "ti_mmwave"
point_id: 12
x: 4.404296875
y: -0.287109375
z: 1.228515625
range: 4.88062095642
velocity: 0.0
doppler_bin: 8
bearing: -3.72974681854
intensity: 31.7026176453
---
header: 
  seq: 3314018
  stamp: 
    secs: 1561686457
    nsecs: 164326955
  frame_id: "ti_mmwave"
point_id: 13
x: 4.447265625
y: -0.2890625
z: 1.2265625
range: 4.9241976738
velocity: 0.0
doppler_bin: 8
bearing: -3.71886897087
intensity: 31.3608608246
---
header: 
  seq: 3314019
  stamp: 
    secs: 1561686457
    nsecs: 164392750
  frame_id: "ti_mmwave"
point_id: 14
x: 4.810546875
y: -0.4609375
z: 0.859375
range: 5.22923660278
velocity: 0.0
doppler_bin: 8
bearing: -5.47326421738
intensity: 29.8587532043
---
header: 
  seq: 3314020
  stamp: 
    secs: 1561686457
    nsecs: 164402713
  frame_id: "ti_mmwave"
point_id: 15
x: 4.890625
y: -0.30859375
z: 0.693359375
range: 5.27281332016
velocity: 0.0
doppler_bin: 8
bearing: -3.61052203178
intensity: 31.4207649231
---
header: 
  seq: 3314021
  stamp: 
    secs: 1561686457
    nsecs: 164413588
  frame_id: "ti_mmwave"
point_id: 16
x: 1.84375
y: -0.67578125
z: 0.01953125
range: 2.09169459343
velocity: 1.22933733463
doppler_bin: 10
bearing: -20.1291694641
intensity: 23.5024795532
---
header: 
  seq: 3314022
  stamp: 
    secs: 1561686457
    nsecs: 164448312
  frame_id: "ti_mmwave"
point_id: 18
x: 0.041015625
y: -0.033203125
z: 0.0625
range: 0.0871539413929
velocity: 0.0
doppler_bin: 8
bearing: -38.9909973145
intensity: 30.1494026184
---
header: 
  seq: 3314023
  stamp: 
    secs: 1561686457
    nsecs: 164456834
  frame_id: "ti_mmwave"
point_id: 19
x: 0.044921875
y: -0.046875
z: 0.103515625
range: 0.130730912089
velocity: 0.0
doppler_bin: 8
bearing: -46.218875885
intensity: 29.0525608063
---
header: 
  seq: 3314024
  stamp: 
    secs: 1561686457
    nsecs: 164466430
  frame_id: "ti_mmwave"
point_id: 21
x: 1.216796875
y: 0.357421875
z: 0.044921875
range: 1.35088610649
velocity: 0.0
doppler_bin: 8
bearing: 16.3696231842
intensity: 19.3951931
---
header: 
  seq: 3314025
  stamp: 
    secs: 1561686457
    nsecs: 164481319
  frame_id: "ti_mmwave"
point_id: 22
x: 3.552734375
y: -1.84375
z: -2.14453125
range: 4.83704376221
velocity: 0.0
doppler_bin: 8
bearing: -27.4277973175
intensity: 25.0650501251
---
header: 
  seq: 3314026
  stamp: 
    secs: 1561686457
    nsecs: 222142813
  frame_id: "ti_mmwave"
point_id: 0
x: 0.01171875
y: -0.0390625
z: -0.0078125
range: 0.0435769706964
velocity: 0.0
doppler_bin: 8
bearing: -73.3007583618
intensity: 30.7335166931
---
header: 
  seq: 3314027
  stamp: 
    secs: 1561686457
    nsecs: 222212376
  frame_id: "ti_mmwave"
point_id: 1
x: 0.017578125
y: -0.080078125
z: -0.0078125
range: 0.0871539413929
velocity: 0.0
doppler_bin: 8
bearing: -77.6192398071
intensity: 31.9755630493
---
header: 
  seq: 3314028
  stamp: 
    secs: 1561686457
    nsecs: 222223436
  frame_id: "ti_mmwave"
point_id: 2
x: 0.029296875
y: -0.119140625
z: -0.00390625
range: 0.130730912089
velocity: 0.0
doppler_bin: 8
bearing: -76.1849746704
intensity: 30.2077541351
---
header: 
  seq: 3314029
  stamp: 
    secs: 1561686457
    nsecs: 222234182
  frame_id: "ti_mmwave"
point_id: 3
x: 0.056640625
y: -0.154296875
z: 0.005859375
range: 0.174307882786
velocity: 0.0
doppler_bin: 8
bearing: -69.8423843384
intensity: 25.5144996643
---
header: 
  seq: 3314030
  stamp: 
    secs: 1561686457
    nsecs: 222243597
  frame_id: "ti_mmwave"
point_id: 4
x: 0.3515625
y: -0.080078125
z: -1.216796875
range: 1.35088610649
velocity: 0.0
doppler_bin: 8
bearing: -12.83177948
intensity: 21.9589958191
---
header: 
  seq: 3314031
  stamp: 
    secs: 1561686457
    nsecs: 222252063
  frame_id: "ti_mmwave"
point_id: 5
x: 0.30859375
y: -0.041015625
z: 1.271484375
range: 1.39446306229
velocity: 0.0
doppler_bin: 8
bearing: -7.57088899612
intensity: 23.2428245544
---
header: 
  seq: 3314032
  stamp: 
    secs: 1561686457
    nsecs: 222262037
  frame_id: "ti_mmwave"
point_id: 6
x: 0.419921875
y: -0.0
z: 1.283203125
range: 1.43804001808
velocity: 0.0
doppler_bin: 8
bearing: -0.0
intensity: 21.9865703583
---
header: 
  seq: 3314033
  stamp: 
    secs: 1561686457
    nsecs: 222270287
  frame_id: "ti_mmwave"
point_id: 7
x: 1.83203125
y: -0.0
z: -0.1875
range: 1.96096372604
velocity: 0.0
doppler_bin: 8
bearing: -0.0
intensity: 28.5793533325
---
header: 
  seq: 3314034
  stamp: 
    secs: 1561686457
    nsecs: 222278116
  frame_id: "ti_mmwave"
point_id: 8
x: 1.87109375
y: -0.0
z: -0.203125
range: 2.00454068184
velocity: 0.0
doppler_bin: 8
bearing: -0.0
intensity: 29.4001808167
---
header: 
  seq: 3314035
  stamp: 
    secs: 1561686457
    nsecs: 222432844
  frame_id: "ti_mmwave"
point_id: 9
x: 1.916015625
y: 0.060546875
z: -0.146484375
range: 2.04811763763
velocity: 0.0
doppler_bin: 8
bearing: 1.80996763706
intensity: 27.7011528015
---
header: 
  seq: 3314036
  stamp: 
    secs: 1561686457
    nsecs: 222451553
  frame_id: "ti_mmwave"
point_id: 10
x: 2.5234375
y: -0.263671875
z: 1.236328125
range: 3.00681090355
velocity: 0.0
doppler_bin: 8
bearing: -5.96514177322
intensity: 29.3196620941
---
header: 
  seq: 3314037
  stamp: 
    secs: 1561686457
    nsecs: 222462401
  frame_id: "ti_mmwave"
point_id: 11
x: 2.595703125
y: -0.267578125
z: 1.177734375
range: 3.05038785934
velocity: 0.0
doppler_bin: 8
bearing: -5.88554811478
intensity: 32.7300109863
---
header: 
  seq: 3314038
  stamp: 
    secs: 1561686457
    nsecs: 222470601
  frame_id: "ti_mmwave"
point_id: 12
x: 2.65625
y: -0.181640625
z: 1.16015625
range: 3.09396481514
velocity: 0.0
doppler_bin: 8
bearing: -3.91193032265
intensity: 31.9920654297
---
header: 
  seq: 3314039
  stamp: 
    secs: 1561686457
    nsecs: 222480613
  frame_id: "ti_mmwave"
point_id: 13
x: 4.328125
y: -0.283203125
z: 1.345703125
range: 4.83704376221
velocity: 0.0
doppler_bin: 8
bearing: -3.74371004105
intensity: 27.9657440186
---
header: 
  seq: 3314040
  stamp: 
    secs: 1561686457
    nsecs: 222488488
  frame_id: "ti_mmwave"
point_id: 14
x: 4.412109375
y: -0.287109375
z: 1.197265625
range: 4.88062095642
velocity: 0.0
doppler_bin: 8
bearing: -3.72316122055
intensity: 31.7551174164
---
header: 
  seq: 3314041
  stamp: 
    secs: 1561686457
    nsecs: 222496809
  frame_id: "ti_mmwave"
point_id: 15
x: 4.453125
y: -0.2890625
z: 1.208984375
range: 4.9241976738
velocity: 0.0
doppler_bin: 8
bearing: -3.71398925781
intensity: 31.4082221985
---
header: 
  seq: 3314042
  stamp: 
    secs: 1561686457
    nsecs: 222524261
  frame_id: "ti_mmwave"
point_id: 16
x: 4.875
y: -0.30859375
z: 0.798828125
range: 5.27281332016
velocity: 0.0
doppler_bin: 8
bearing: -3.62206339836
intensity: 31.0653076172
---
header: 
  seq: 3314043
  stamp: 
    secs: 1561686457
    nsecs: 222537325
  frame_id: "ti_mmwave"
point_id: 18
x: 0.041015625
y: -0.033203125
z: 0.0625
range: 0.0871539413929
velocity: 0.0
doppler_bin: 8
bearing: -38.9909973145
intensity: 30.1452045441
---
header: 
  seq: 3314044
  stamp: 
    secs: 1561686457
    nsecs: 222611118
  frame_id: "ti_mmwave"
point_id: 19
x: 0.044921875
y: -0.046875
z: 0.103515625
range: 0.130730912089
velocity: 0.0
doppler_bin: 8
bearing: -46.218875885
intensity: 29.0471553802
---
header: 
  seq: 3314045
  stamp: 
    secs: 1561686457
    nsecs: 222630095
  frame_id: "ti_mmwave"
point_id: 21
x: 1.216796875
y: 0.357421875
z: 0.0234375
range: 1.35088610649
velocity: 0.0
doppler_bin: 8
bearing: 16.3696231842
intensity: 19.2427921295
---
header: 
  seq: 3314046
  stamp: 
    secs: 1561686457
    nsecs: 222644918
  frame_id: "ti_mmwave"
point_id: 22
x: 3.3671875
y: -1.84375
z: -2.423828125
range: 4.83704376221
velocity: 0.0
doppler_bin: 8
bearing: -28.7035179138
intensity: 25.1054496765
---
header: 
  seq: 3314047
  stamp: 
    secs: 1561686457
    nsecs: 223515502
  frame_id: "ti_mmwave"
point_id: 0
x: 0.01171875
y: -0.0390625
z: -0.0078125
range: 0.0435769706964
velocity: 0.0
doppler_bin: 8
bearing: -73.3007583618
intensity: 30.7371826172
---
header: 
  seq: 3314048
  stamp: 
    secs: 1561686457
    nsecs: 223565776
  frame_id: "ti_mmwave"
point_id: 1
x: 0.017578125
y: -0.080078125
z: -0.0078125
range: 0.0871539413929
velocity: 0.0
doppler_bin: 8
bearing: -77.6192398071
intensity: 31.9783172607
---
header: 
  seq: 3314049
  stamp: 
    secs: 1561686457
    nsecs: 223586215
  frame_id: "ti_mmwave"
point_id: 2
x: 0.029296875
y: -0.119140625
z: -0.00390625
range: 0.130730912089
velocity: 0.0
doppler_bin: 8
bearing: -76.1849746704
intensity: 30.2077541351
---
header: 
  seq: 3314050
  stamp: 
    secs: 1561686457
    nsecs: 223600193
  frame_id: "ti_mmwave"
point_id: 3
x: 0.056640625
y: -0.154296875
z: 0.0078125
range: 0.174307882786
velocity: 0.0
doppler_bin: 8
bearing: -69.8423843384
intensity: 25.5144996643
---
header: 
  seq: 3314051
  stamp: 
    secs: 1561686457
    nsecs: 223668413
  frame_id: "ti_mmwave"
point_id: 4
x: 0.333984375
y: -0.080078125
z: -1.220703125
range: 1.35088610649
velocity: 0.0
doppler_bin: 8
bearing: -13.4830598831
intensity: 22.0139713287
---
header: 
  seq: 3314052
  stamp: 
    secs: 1561686457
    nsecs: 223690756
  frame_id: "ti_mmwave"
point_id: 5
x: 0.3125
y: -0.041015625
z: 1.271484375
range: 1.39446306229
velocity: 0.0
doppler_bin: 8
bearing: -7.47732973099
intensity: 23.2633590698
---
header: 
  seq: 3314053
  stamp: 
    secs: 1561686457
    nsecs: 223706464
  frame_id: "ti_mmwave"
point_id: 6
x: 0.498046875
y: -0.04296875
z: 1.25390625
range: 1.43804001808
velocity: 0.0
doppler_bin: 8
bearing: -4.93095541
intensity: 21.9865703583
---
header: 
  seq: 3314054
  stamp: 
    secs: 1561686457
    nsecs: 223718686
  frame_id: "ti_mmwave"
point_id: 7
x: 1.876953125
y: -0.05859375
z: -0.111328125
range: 2.00454068184
velocity: 0.0
doppler_bin: 8
bearing: -1.78804934025
intensity: 27.8318862915
---
header: 
  seq: 3314055
  stamp: 
    secs: 1561686457
    nsecs: 223752077
  frame_id: "ti_mmwave"
point_id: 8
x: 2.552734375
y: -0.263671875
z: 1.173828125
range: 3.00681090355
velocity: 0.0
doppler_bin: 8
bearing: -5.89716720581
intensity: 29.4151134491
---
header: 
  seq: 3314056
  stamp: 
    secs: 1561686457
    nsecs: 223819448
  frame_id: "ti_mmwave"
point_id: 9
x: 2.611328125
y: -0.267578125
z: 1.142578125
range: 3.05038785934
velocity: 0.0
doppler_bin: 8
bearing: -5.85057687759
intensity: 32.7715072632
---
header: 
  seq: 3314057
  stamp: 
    secs: 1561686457
    nsecs: 223837185
  frame_id: "ti_mmwave"
point_id: 10
x: 2.669921875
y: -0.181640625
z: 1.130859375
range: 3.09396481514
velocity: 0.0
doppler_bin: 8
bearing: -3.89196038246
intensity: 32.0628585815
---
header: 
  seq: 3314058
  stamp: 
    secs: 1561686457
    nsecs: 223852101
  frame_id: "ti_mmwave"
point_id: 11
x: 4.365234375
y: -0.283203125
z: 1.21484375
range: 4.83704376221
velocity: 0.0
doppler_bin: 8
bearing: -3.71197390556
intensity: 28.1888542175
---
header: 
  seq: 3314059
  stamp: 
    secs: 1561686457
    nsecs: 223881827
  frame_id: "ti_mmwave"
point_id: 12
x: 4.419921875
y: -0.287109375
z: 1.169921875
range: 4.88062095642
velocity: 0.0
doppler_bin: 8
bearing: -3.71659874916
intensity: 31.7289466858
---
header: 
  seq: 3314060
  stamp: 
    secs: 1561686457
    nsecs: 223934984
  frame_id: "ti_mmwave"
point_id: 13
x: 4.45703125
y: -0.2890625
z: 1.19140625
range: 4.9241976738
velocity: 0.0
doppler_bin: 8
bearing: -3.71074318886
intensity: 31.2548122406
---
header: 
  seq: 3314061
  stamp: 
    secs: 1561686457
    nsecs: 223955035
  frame_id: "ti_mmwave"
point_id: 14
x: 4.763671875
y: -0.603515625
z: -0.5
range: 5.14208269119
velocity: 0.0
doppler_bin: 8
bearing: -7.2204079628
intensity: 29.9166908264
---
header: 
  seq: 3314062
  stamp: 
    secs: 1561686457
    nsecs: 223969847
  frame_id: "ti_mmwave"
point_id: 15
x: 4.84375
y: -0.46484375
z: 0.904296875
range: 5.27281332016
velocity: 0.0
doppler_bin: 8
bearing: -5.48175907135
intensity: 30.2118930817
---
header: 
  seq: 3314063
  stamp: 
    secs: 1561686457
    nsecs: 223985056
  frame_id: "ti_mmwave"
point_id: 17
x: 0.041015625
y: -0.033203125
z: 0.0625
range: 0.0871539413929
velocity: 0.0
doppler_bin: 8
bearing: -38.9909973145
intensity: 30.1535968781
---
header: 
  seq: 3314064
  stamp: 
    secs: 1561686457
    nsecs: 224008531
  frame_id: "ti_mmwave"
point_id: 18
x: 0.044921875
y: -0.046875
z: 0.103515625
range: 0.130730912089
velocity: 0.0
doppler_bin: 8
bearing: -46.218875885
intensity: 29.0525608063
---
header: 
  seq: 3314065
  stamp: 
    secs: 1561686457
    nsecs: 224036844
  frame_id: "ti_mmwave"
point_id: 20
x: 1.216796875
y: 0.357421875
z: 0.03515625
range: 1.35088610649
velocity: 0.0
doppler_bin: 8
bearing: 16.3696231842
intensity: 19.1907806396
---
header: 
  seq: 3314066
  stamp: 
    secs: 1561686457
    nsecs: 282145865
  frame_id: "ti_mmwave"
point_id: 0
x: 0.01171875
y: -0.0390625
z: -0.0078125
range: 0.0435769706964
velocity: 0.0
doppler_bin: 8
bearing: -73.3007583618
intensity: 30.7408466339
---
header: 
  seq: 3314067
  stamp: 
    secs: 1561686457
    nsecs: 282218976
  frame_id: "ti_mmwave"
point_id: 1
x: 0.017578125
y: -0.080078125
z: -0.0078125
range: 0.0871539413929
velocity: 0.0
doppler_bin: 8
bearing: -77.6192398071
intensity: 31.9755630493
---
header: 
  seq: 3314068
  stamp: 
    secs: 1561686457
    nsecs: 282230499
  frame_id: "ti_mmwave"
point_id: 2
x: 0.029296875
y: -0.119140625
z: -0.00390625
range: 0.130730912089
velocity: 0.0
doppler_bin: 8
bearing: -76.1849746704
intensity: 30.2077541351
---
header: 
  seq: 3314069
  stamp: 
    secs: 1561686457
    nsecs: 282241839
  frame_id: "ti_mmwave"
point_id: 3
x: 0.056640625
y: -0.154296875
z: 0.005859375
range: 0.174307882786
velocity: 0.0
doppler_bin: 8
bearing: -69.8423843384
intensity: 25.5144996643
---
header: 
  seq: 3314070
  stamp: 
    secs: 1561686457
    nsecs: 282250679
  frame_id: "ti_mmwave"
point_id: 4
x: 0.33984375
y: -0.080078125
z: -1.21875
range: 1.35088610649
velocity: 0.0
doppler_bin: 8
bearing: -13.2588720322
intensity: 21.9865703583
---
header: 
  seq: 3314071
  stamp: 
    secs: 1561686457
    nsecs: 282258907
  frame_id: "ti_mmwave"
point_id: 5
x: 0.31640625
y: -0.041015625
z: 1.26953125
range: 1.39446306229
velocity: 0.0
doppler_bin: 8
bearing: -7.38604259491
intensity: 23.2633590698
---
header: 
  seq: 3314072
  stamp: 
    secs: 1561686457
    nsecs: 282268536
  frame_id: "ti_mmwave"
point_id: 6
x: 0.50390625
y: -0.04296875
z: 1.251953125
range: 1.43804001808
velocity: 0.0
doppler_bin: 8
bearing: -4.87389659882
intensity: 22.0139713287
---
header: 
  seq: 3314073
  stamp: 
    secs: 1561686457
    nsecs: 282277316
  frame_id: "ti_mmwave"
point_id: 7
x: 1.984375
y: 0.521484375
z: 0.37890625
range: 2.22242546082
velocity: 0.0
doppler_bin: 8
bearing: 14.7241287231
intensity: 27.3158874512
---
header: 
  seq: 3314074
  stamp: 
    secs: 1561686457
    nsecs: 282288644
  frame_id: "ti_mmwave"
point_id: 8
x: 2.0390625
y: 0.46484375
z: 0.390625
range: 2.26600241661
velocity: 0.0
doppler_bin: 8
bearing: 12.842212677
intensity: 28.9209461212
---
header: 
  seq: 3314075
  stamp: 
    secs: 1561686457
    nsecs: 282444548
  frame_id: "ti_mmwave"
point_id: 9
x: 2.568359375
y: -0.263671875
z: 1.138671875
range: 3.00681090355
velocity: 0.0
doppler_bin: 8
bearing: -5.86154127121
intensity: 29.5036487579
---
header: 
  seq: 3314076
  stamp: 
    secs: 1561686457
    nsecs: 282487273
  frame_id: "ti_mmwave"
point_id: 10
x: 2.62109375
y: -0.1796875
z: 1.140625
range: 3.05038785934
velocity: 0.0
doppler_bin: 8
bearing: -3.9217414856
intensity: 32.7737998962
---
header: 
  seq: 3314077
  stamp: 
    secs: 1561686457
    nsecs: 282501494
  frame_id: "ti_mmwave"
point_id: 11
x: 2.666015625
y: -0.181640625
z: 1.13671875
range: 3.09396481514
velocity: 0.0
doppler_bin: 8
bearing: -3.89764523506
intensity: 32.030330658
---
header: 
  seq: 3314078
  stamp: 
    secs: 1561686457
    nsecs: 282513508
  frame_id: "ti_mmwave"
point_id: 12
x: 4.3203125
y: -0.283203125
z: 1.369140625
range: 4.83704376221
velocity: 0.0
doppler_bin: 8
bearing: -3.75046038628
intensity: 27.8175544739
---
header: 
  seq: 3314079
  stamp: 
    secs: 1561686457
    nsecs: 282526036
  frame_id: "ti_mmwave"
point_id: 13
x: 4.40234375
y: -0.287109375
z: 1.234375
range: 4.88062095642
velocity: 0.0
doppler_bin: 8
bearing: -3.73139691353
intensity: 31.4488544464
---
header: 
  seq: 3314080
  stamp: 
    secs: 1561686457
    nsecs: 282537098
  frame_id: "ti_mmwave"
point_id: 14
x: 4.44140625
y: -0.2890625
z: 1.24609375
range: 4.9241976738
velocity: 0.0
doppler_bin: 8
bearing: -3.7237610817
intensity: 30.8707122803
---
header: 
  seq: 3314081
  stamp: 
    secs: 1561686457
    nsecs: 282544858
  frame_id: "ti_mmwave"
point_id: 15
x: 4.806640625
y: -0.4609375
z: 0.884765625
range: 5.22923660278
velocity: 0.0
doppler_bin: 8
bearing: -5.47768449783
intensity: 30.3221569061
---
header: 
  seq: 3314082
  stamp: 
    secs: 1561686457
    nsecs: 282576457
  frame_id: "ti_mmwave"
point_id: 16
x: 4.873046875
y: -0.30859375
z: 0.814453125
range: 5.27281332016
velocity: 0.0
doppler_bin: 8
bearing: -3.62351131439
intensity: 31.8127174377
---
header: 
  seq: 3314083
  stamp: 
    secs: 1561686457
    nsecs: 282651516
  frame_id: "ti_mmwave"
point_id: 18
x: 0.041015625
y: -0.033203125
z: 0.0625
range: 0.0871539413929
velocity: 0.0
doppler_bin: 8
bearing: -38.9909973145
intensity: 30.1494026184
---
header: 
  seq: 3314084
  stamp: 
    secs: 1561686457
    nsecs: 282669726
  frame_id: "ti_mmwave"
point_id: 19
x: 0.044921875
y: -0.046875
z: 0.103515625
range: 0.130730912089
velocity: 0.0
doppler_bin: 8
bearing: -46.218875885
intensity: 29.0525608063
---
header: 
  seq: 3314085
  stamp: 
    secs: 1561686457
    nsecs: 282687845
  frame_id: "ti_mmwave"
point_id: 21
x: 1.216796875
y: 0.357421875
z: 0.05078125
range: 1.35088610649
velocity: 0.0
doppler_bin: 8
bearing: 16.3696231842
intensity: 19.3951931
---
header: 
  seq: 3314086
  stamp: 
    secs: 1561686457
    nsecs: 282701649
  frame_id: "ti_mmwave"
point_id: 22
x: 3.6015625
y: -1.84375
z: -2.0625
range: 4.83704376221
velocity: 0.0
doppler_bin: 8
bearing: -27.1092948914
intensity: 25.0920257568
---
header: 
  seq: 3314087
  stamp: 
    secs: 1561686457
    nsecs: 283422662
  frame_id: "ti_mmwave"
point_id: 0
x: 0.01171875
y: -0.0390625
z: -0.0078125
range: 0.0435769706964
velocity: 0.0
doppler_bin: 8
bearing: -73.3007583618
intensity: 30.7445068359
---
header: 
  seq: 3314088
  stamp: 
    secs: 1561686457
    nsecs: 283492206
  frame_id: "ti_mmwave"
point_id: 1
x: 0.017578125
y: -0.080078125
z: -0.0078125
range: 0.0871539413929
velocity: 0.0
doppler_bin: 8
bearing: -77.6192398071
intensity: 31.9755630493
---
header: 
  seq: 3314089
  stamp: 
    secs: 1561686457
    nsecs: 283509511
  frame_id: "ti_mmwave"
point_id: 2
x: 0.029296875
y: -0.119140625
z: -0.00390625
range: 0.130730912089
velocity: 0.0
doppler_bin: 8
bearing: -76.1849746704
intensity: 30.2036132812
---
header: 
  seq: 3314090
  stamp: 
    secs: 1561686457
    nsecs: 283524002
  frame_id: "ti_mmwave"
point_id: 3
x: 0.056640625
y: -0.154296875
z: 0.0078125
range: 0.174307882786
velocity: 0.0
doppler_bin: 8
bearing: -69.8423843384
intensity: 25.5022830963
---
header: 
  seq: 3314091
  stamp: 
    secs: 1561686457
    nsecs: 283536074
  frame_id: "ti_mmwave"
point_id: 4
x: 0.3359375
y: -0.080078125
z: -1.220703125
range: 1.35088610649
velocity: 0.0
doppler_bin: 8
bearing: -13.4075088501
intensity: 22.0139713287
---
header: 
  seq: 3314092
  stamp: 
    secs: 1561686457
    nsecs: 283618740
  frame_id: "ti_mmwave"
point_id: 5
x: 0.30859375
y: -0.041015625
z: 1.271484375
range: 1.39446306229
velocity: 0.0
doppler_bin: 8
bearing: -7.57088899612
intensity: 23.2633590698
---
header: 
  seq: 3314093
  stamp: 
    secs: 1561686457
    nsecs: 283635337
  frame_id: "ti_mmwave"
point_id: 6
x: 0.41015625
y: -0.0
z: 1.28515625
range: 1.43804001808
velocity: 0.0
doppler_bin: 8
bearing: -0.0
intensity: 21.9589958191
---
header: 
  seq: 3314094
  stamp: 
    secs: 1561686457
    nsecs: 283644346
  frame_id: "ti_mmwave"
point_id: 7
x: 2.04296875
y: 0.46484375
z: 0.369140625
range: 2.26600241661
velocity: 0.0
doppler_bin: 8
bearing: 12.8184700012
intensity: 28.2151355743
---
header: 
  seq: 3314095
  stamp: 
    secs: 1561686457
    nsecs: 283668777
  frame_id: "ti_mmwave"
point_id: 8
x: 2.537109375
y: -0.263671875
z: 1.208984375
range: 3.00681090355
velocity: 0.0
doppler_bin: 8
bearing: -5.93322753906
intensity: 29.3651371002
---
header: 
  seq: 3314096
  stamp: 
    secs: 1561686457
    nsecs: 283691782
  frame_id: "ti_mmwave"
point_id: 9
x: 2.6171875
y: -0.1796875
z: 1.1484375
range: 3.05038785934
velocity: 0.0
doppler_bin: 8
bearing: -3.9275765419
intensity: 32.7415771484
---
header: 
  seq: 3314097
  stamp: 
    secs: 1561686457
    nsecs: 283714912
  frame_id: "ti_mmwave"
point_id: 10
x: 2.67578125
y: -0.181640625
z: 1.115234375
range: 3.09396481514
velocity: 0.0
doppler_bin: 8
bearing: -3.88346338272
intensity: 32.0520439148
---
header: 
  seq: 3314098
  stamp: 
    secs: 1561686457
    nsecs: 283798086
  frame_id: "ti_mmwave"
point_id: 11
x: 4.408203125
y: -0.287109375
z: 1.21875
range: 4.88062095642
velocity: 0.0
doppler_bin: 8
bearing: -3.72645139694
intensity: 31.5986785889
---
header: 
  seq: 3314099
  stamp: 
    secs: 1561686457
    nsecs: 283820067
  frame_id: "ti_mmwave"
point_id: 12
x: 4.4453125
y: -0.2890625
z: 1.236328125
range: 4.9241976738
velocity: 0.0
doppler_bin: 8
bearing: -3.72049832344
intensity: 31.1826477051
---
header: 
  seq: 3314100
  stamp: 
    secs: 1561686457
    nsecs: 283833244
  frame_id: "ti_mmwave"
point_id: 13
x: 4.818359375
y: -0.4609375
z: 0.8125
range: 5.22923660278
velocity: 0.0
doppler_bin: 8
bearing: -5.46444320679
intensity: 31.2155990601
---
header: 
  seq: 3314101
  stamp: 
    secs: 1561686457
    nsecs: 283846817
  frame_id: "ti_mmwave"
point_id: 14
x: 4.87890625
y: -0.30859375
z: 0.78125
range: 5.27281332016
velocity: 0.0
doppler_bin: 8
bearing: -3.61917114258
intensity: 32.2219619751
---
header: 
  seq: 3314102
  stamp: 
    secs: 1561686457
    nsecs: 283861960
  frame_id: "ti_mmwave"
point_id: 16
x: 0.041015625
y: -0.033203125
z: 0.0625
range: 0.0871539413929
velocity: 0.0
doppler_bin: 8
bearing: -38.9909973145
intensity: 30.1494026184
---
header: 
  seq: 3314103
  stamp: 
    secs: 1561686457
    nsecs: 283875320
  frame_id: "ti_mmwave"
point_id: 17
x: 0.044921875
y: -0.046875
z: 0.103515625
range: 0.130730912089
velocity: 0.0
doppler_bin: 8
bearing: -46.218875885
intensity: 29.0525608063
---
header: 
  seq: 3314104
  stamp: 
    secs: 1561686457
    nsecs: 283889846
  frame_id: "ti_mmwave"
point_id: 19
x: 1.216796875
y: 0.357421875
z: 0.0234375
range: 1.35088610649
velocity: 0.0
doppler_bin: 8
bearing: 16.3696231842
intensity: 19.2941894531
---
header: 
  seq: 3314105
  stamp: 
    secs: 1561686457
    nsecs: 343234654
  frame_id: "ti_mmwave"
point_id: 0
x: 0.01171875
y: -0.0390625
z: -0.0078125
range: 0.0435769706964
velocity: 0.0
doppler_bin: 8
bearing: -73.3007583618
intensity: 30.7408466339
---
header: 
  seq: 3314106
  stamp: 
    secs: 1561686457
    nsecs: 343303838
  frame_id: "ti_mmwave"
point_id: 1
x: 0.017578125
y: -0.080078125
z: -0.0078125
range: 0.0871539413929
velocity: 0.0
doppler_bin: 8
bearing: -77.6192398071
intensity: 31.9755630493
---
header: 
  seq: 3314107
  stamp: 
    secs: 1561686457
    nsecs: 343314176
  frame_id: "ti_mmwave"
point_id: 2
x: 0.029296875
y: -0.119140625
z: -0.00390625
range: 0.130730912089
velocity: 0.0
doppler_bin: 8
bearing: -76.1849746704
intensity: 30.2077541351
---
header: 
  seq: 3314108
  stamp: 
    secs: 1561686457
    nsecs: 343322918
  frame_id: "ti_mmwave"
point_id: 3
x: 0.056640625
y: -0.154296875
z: 0.005859375
range: 0.174307882786
velocity: 0.0
doppler_bin: 8
bearing: -69.8423843384
intensity: 25.5144996643
---
header: 
  seq: 3314109
  stamp: 
    secs: 1561686457
    nsecs: 343332863
  frame_id: "ti_mmwave"
point_id: 4
x: 0.361328125
y: -0.080078125
z: -1.212890625
range: 1.35088610649
velocity: 0.0
doppler_bin: 8
bearing: -12.4960107803
intensity: 22.0682582855
---
header: 
  seq: 3314110
  stamp: 
    secs: 1561686457
    nsecs: 343341376
  frame_id: "ti_mmwave"
point_id: 5
x: 0.330078125
y: -0.041015625
z: 1.265625
range: 1.39446306229
velocity: 0.0
doppler_bin: 8
bearing: -7.0832862854
intensity: 23.2837963104
---
header: 
  seq: 3314111
  stamp: 
    secs: 1561686457
    nsecs: 343349917
  frame_id: "ti_mmwave"
point_id: 6
x: 0.51953125
y: -0.04296875
z: 1.244140625
range: 1.43804001808
velocity: 0.0
doppler_bin: 8
bearing: -4.72798776627
intensity: 21.9312458038
---
header: 
  seq: 3314112
  stamp: 
    secs: 1561686457
    nsecs: 343395375
  frame_id: "ti_mmwave"
point_id: 7
x: 2.56640625
y: -0.263671875
z: 1.146484375
range: 3.00681090355
velocity: 0.0
doppler_bin: 8
bearing: -5.86597156525
intensity: 29.4398880005
---
header: 
  seq: 3314113
  stamp: 
    secs: 1561686457
    nsecs: 343410315
  frame_id: "ti_mmwave"
point_id: 8
x: 2.61328125
y: -0.267578125
z: 1.138671875
range: 3.05038785934
velocity: 0.0
doppler_bin: 8
bearing: -5.84623432159
intensity: 32.7392692566
---
header: 
  seq: 3314114
  stamp: 
    secs: 1561686457
    nsecs: 343421500
  frame_id: "ti_mmwave"
point_id: 9
x: 2.671875
y: -0.181640625
z: 1.126953125
range: 3.09396481514
velocity: 0.0
doppler_bin: 8
bearing: -3.88912391663
intensity: 32.0167007446
---
header: 
  seq: 3314115
  stamp: 
    secs: 1561686457
    nsecs: 343607167
  frame_id: "ti_mmwave"
point_id: 10
x: 4.33984375
y: -0.283203125
z: 1.3046875
range: 4.83704376221
velocity: 0.0
doppler_bin: 8
bearing: -3.73362994194
intensity: 28.6213130951
---
header: 
  seq: 3314116
  stamp: 
    secs: 1561686457
    nsecs: 343626208
  frame_id: "ti_mmwave"
point_id: 11
x: 4.419921875
y: -0.287109375
z: 1.173828125
range: 4.88062095642
velocity: 0.0
doppler_bin: 8
bearing: -3.71659874916
intensity: 32.3628540039
---
header: 
  seq: 3314117
  stamp: 
    secs: 1561686457
    nsecs: 343637821
  frame_id: "ti_mmwave"
point_id: 12
x: 4.474609375
y: -0.2890625
z: 1.12109375
range: 4.9241976738
velocity: 0.0
doppler_bin: 8
bearing: -3.69620633125
intensity: 32.0871009827
---
header: 
  seq: 3314118
  stamp: 
    secs: 1561686457
    nsecs: 343646263
  frame_id: "ti_mmwave"
point_id: 13
x: 4.8203125
y: -0.4609375
z: 0.8046875
range: 5.22923660278
velocity: 0.0
doppler_bin: 8
bearing: -5.46224212646
intensity: 30.5115261078
---
header: 
  seq: 3314119
  stamp: 
    secs: 1561686457
    nsecs: 343655934
  frame_id: "ti_mmwave"
point_id: 14
x: 4.876953125
y: -0.30859375
z: 0.78125
range: 5.27281332016
velocity: 0.0
doppler_bin: 8
bearing: -3.62061715126
intensity: 31.225435257
---
header: 
  seq: 3314120
  stamp: 
    secs: 1561686457
    nsecs: 343663753
  frame_id: "ti_mmwave"
point_id: 15
x: 1.859375
y: 0.05859375
z: -0.279296875
range: 2.00454068184
velocity: 0.614668667316
doppler_bin: 9
bearing: 1.80494213104
intensity: 26.4738292694
---
header: 
  seq: 3314121
  stamp: 
    secs: 1561686457
    nsecs: 343668958
  frame_id: "ti_mmwave"
point_id: 16
x: 2.05078125
y: 0.33203125
z: 0.458984375
range: 2.26600241661
velocity: -0.614668667316
doppler_bin: 7
bearing: 9.19665622711
intensity: 25.9439258575
---
header: 
  seq: 3314122
  stamp: 
    secs: 1561686457
    nsecs: 343680526
  frame_id: "ti_mmwave"
point_id: 18
x: 0.041015625
y: -0.033203125
z: 0.0625
range: 0.0871539413929
velocity: 0.0
doppler_bin: 8
bearing: -38.9909973145
intensity: 30.1494026184
---
header: 
  seq: 3314123
  stamp: 
    secs: 1561686457
    nsecs: 343737204
  frame_id: "ti_mmwave"
point_id: 19
x: 0.044921875
y: -0.046875
z: 0.103515625
range: 0.130730912089
velocity: 0.0
doppler_bin: 8
bearing: -46.218875885
intensity: 29.0579586029
---
header: 
  seq: 3314124
  stamp: 
    secs: 1561686457
    nsecs: 343748694
  frame_id: "ti_mmwave"
point_id: 21
x: 1.216796875
y: 0.357421875
z: 0.03515625
range: 1.35088610649
velocity: 0.0
doppler_bin: 8
bearing: 16.3696231842
intensity: 19.3951931
---
header: 
  seq: 3314125
  stamp: 
    secs: 1561686457
    nsecs: 343760821
  frame_id: "ti_mmwave"
point_id: 22
x: 3.435546875
y: -1.84375
z: -2.328125
range: 4.83704376221
velocity: 0.0
doppler_bin: 8
bearing: -28.2210559845
intensity: 25.7287158966
---
header: 
  seq: 3314126
  stamp: 
    secs: 1561686457
    nsecs: 402343149
  frame_id: "ti_mmwave"
point_id: 0
x: 0.01171875
y: -0.0390625
z: -0.0078125
range: 0.0435769706964
velocity: 0.0
doppler_bin: 8
bearing: -73.3007583618
intensity: 30.7481651306
---
header: 
  seq: 3314127
  stamp: 
    secs: 1561686457
    nsecs: 402422893
  frame_id: "ti_mmwave"
point_id: 1
x: 0.017578125
y: -0.080078125
z: -0.0078125
range: 0.0871539413929
velocity: 0.0
doppler_bin: 8
bearing: -77.6192398071
intensity: 31.9783172607
---
header: 
  seq: 3314128
  stamp: 
    secs: 1561686457
    nsecs: 402434481
  frame_id: "ti_mmwave"
point_id: 2
x: 0.04296875
y: -0.115234375
z: -0.0078125
range: 0.130730912089
velocity: 0.0
doppler_bin: 8
bearing: -69.550453186
intensity: 30.2036132812
---
header: 
  seq: 3314129
  stamp: 
    secs: 1561686457
    nsecs: 402446389
  frame_id: "ti_mmwave"
point_id: 3
x: 0.056640625
y: -0.154296875
z: 0.0078125
range: 0.174307882786
velocity: 0.0
doppler_bin: 8
bearing: -69.8423843384
intensity: 25.5022830963
---
header: 
  seq: 3314130
  stamp: 
    secs: 1561686457
    nsecs: 402455043
  frame_id: "ti_mmwave"
point_id: 4
x: 0.3515625
y: -0.080078125
z: -1.21484375
range: 1.35088610649
velocity: 0.0
doppler_bin: 8
bearing: -12.83177948
intensity: 21.9865703583
---
header: 
  seq: 3314131
  stamp: 
    secs: 1561686457
    nsecs: 402463811
  frame_id: "ti_mmwave"
point_id: 5
x: 0.28515625
y: -0.041015625
z: 1.27734375
range: 1.39446306229
velocity: 0.0
doppler_bin: 8
bearing: -8.18503570557
intensity: 23.2633590698
---
header: 
  seq: 3314132
  stamp: 
    secs: 1561686457
    nsecs: 402474244
  frame_id: "ti_mmwave"
point_id: 6
x: 0.484375
y: -0.04296875
z: 1.259765625
range: 1.43804001808
velocity: 0.0
doppler_bin: 8
bearing: -5.06942033768
intensity: 21.9865703583
---
header: 
  seq: 3314133
  stamp: 
    secs: 1561686457
    nsecs: 402495026
  frame_id: "ti_mmwave"
point_id: 7
x: 1.857421875
y: -0.0
z: -0.294921875
range: 2.00454068184
velocity: 0.0
doppler_bin: 8
bearing: -0.0
intensity: 29.5664863586
---
header: 
  seq: 3314134
  stamp: 
    secs: 1561686457
    nsecs: 402510840
  frame_id: "ti_mmwave"
point_id: 8
x: 1.89453125
y: -0.0
z: -0.326171875
range: 2.04811763763
velocity: 0.0
doppler_bin: 8
bearing: -0.0
intensity: 30.2077541351
---
header: 
  seq: 3314135
  stamp: 
    secs: 1561686457
    nsecs: 402526779
  frame_id: "ti_mmwave"
point_id: 9
x: 1.923828125
y: 0.060546875
z: -0.392578125
range: 2.09169459343
velocity: 0.0
doppler_bin: 8
bearing: 1.80262219906
intensity: 27.9379043579
---
header: 
  seq: 3314136
  stamp: 
    secs: 1561686457
    nsecs: 402542627
  frame_id: "ti_mmwave"
point_id: 10
x: 2.046875
y: 0.33203125
z: 0.4765625
range: 2.26600241661
velocity: 0.0
doppler_bin: 8
bearing: 9.21390628815
intensity: 29.2737045288
---
header: 
  seq: 3314137
  stamp: 
    secs: 1561686457
    nsecs: 402557789
  frame_id: "ti_mmwave"
point_id: 11
x: 2.5546875
y: -0.263671875
z: 1.171875
range: 3.00681090355
velocity: 0.0
doppler_bin: 8
bearing: -5.89269018173
intensity: 29.4939002991
---
header: 
  seq: 3314138
  stamp: 
    secs: 1561686457
    nsecs: 402571786
  frame_id: "ti_mmwave"
point_id: 12
x: 2.609375
y: -0.267578125
z: 1.1484375
range: 3.05038785934
velocity: 0.0
doppler_bin: 8
bearing: -5.85492515564
intensity: 32.7715072632
---
header: 
  seq: 3314139
  stamp: 
    secs: 1561686457
    nsecs: 402586572
  frame_id: "ti_mmwave"
point_id: 13
x: 2.669921875
y: -0.181640625
z: 1.126953125
range: 3.09396481514
velocity: 0.0
doppler_bin: 8
bearing: -3.89196038246
intensity: 32.0276069641
---
header: 
  seq: 3314140
  stamp: 
    secs: 1561686457
    nsecs: 402597083
  frame_id: "ti_mmwave"
point_id: 14
x: 4.3359375
y: -0.283203125
z: 1.318359375
range: 4.83704376221
velocity: 0.0
doppler_bin: 8
bearing: -3.73698401451
intensity: 28.1491317749
---
header: 
  seq: 3314141
  stamp: 
    secs: 1561686457
    nsecs: 402762847
  frame_id: "ti_mmwave"
point_id: 15
x: 4.41796875
y: -0.287109375
z: 1.17578125
range: 4.88062095642
velocity: 0.0
doppler_bin: 8
bearing: -3.71823716164
intensity: 32.0030326843
---
header: 
  seq: 3314142
  stamp: 
    secs: 1561686457
    nsecs: 402782649
  frame_id: "ti_mmwave"
point_id: 16
x: 4.466796875
y: -0.2890625
z: 1.15234375
range: 4.9241976738
velocity: 0.0
doppler_bin: 8
bearing: -3.70265316963
intensity: 31.7811317444
---
header: 
  seq: 3314143
  stamp: 
    secs: 1561686457
    nsecs: 402791684
  frame_id: "ti_mmwave"
point_id: 17
x: 4.826171875
y: -0.306640625
z: 0.83984375
range: 5.22923660278
velocity: 0.0
doppler_bin: 8
bearing: -3.63551664352
intensity: 30.3862018585
---
header: 
  seq: 3314144
  stamp: 
    secs: 1561686457
    nsecs: 402799894
  frame_id: "ti_mmwave"
point_id: 18
x: 4.8828125
y: -0.30859375
z: 0.74609375
range: 5.27281332016
velocity: 0.0
doppler_bin: 8
bearing: -3.61628341675
intensity: 31.5075645447
---
header: 
  seq: 3314145
  stamp: 
    secs: 1561686457
    nsecs: 402809116
  frame_id: "ti_mmwave"
point_id: 19
x: 1.99609375
y: 0.255859375
z: 0.361328125
range: 2.17884850502
velocity: -0.614668667316
doppler_bin: 7
bearing: 7.30434513092
intensity: 26.2428207397
---
header: 
  seq: 3314146
  stamp: 
    secs: 1561686457
    nsecs: 402820037
  frame_id: "ti_mmwave"
point_id: 20
x: 2.025390625
y: 0.326171875
z: 0.376953125
range: 2.22242546082
velocity: -0.614668667316
doppler_bin: 7
bearing: 9.14844989777
intensity: 29.7173957825
---
header: 
  seq: 3314147
  stamp: 
    secs: 1561686457
    nsecs: 402830269
  frame_id: "ti_mmwave"
point_id: 22
x: 0.041015625
y: -0.033203125
z: 0.0625
range: 0.0871539413929
velocity: 0.0
doppler_bin: 8
bearing: -38.9909973145
intensity: 30.1452045441
---
header: 
  seq: 3314148
  stamp: 
    secs: 1561686457
    nsecs: 402839953
  frame_id: "ti_mmwave"
point_id: 23
x: 0.044921875
y: -0.046875
z: 0.103515625
range: 0.130730912089
velocity: 0.0
doppler_bin: 8
bearing: -46.218875885
intensity: 29.0471553802
---
header: 
  seq: 3314149
  stamp: 
    secs: 1561686457
    nsecs: 402852073
  frame_id: "ti_mmwave"
point_id: 25
x: 1.21484375
y: 0.357421875
z: 0.052734375
range: 1.35088610649
velocity: 0.0
doppler_bin: 8
bearing: 16.3945274353
intensity: 19.2941894531
---
header: 
  seq: 3314150
  stamp: 
    secs: 1561686457
    nsecs: 402860797
  frame_id: "ti_mmwave"
point_id: 26
x: 3.451171875
y: -1.84375
z: -2.3046875
range: 4.83704376221
velocity: 0.0
doppler_bin: 8
bearing: -28.1128616333
intensity: 25.3529415131
---
header: 
  seq: 3314151
  stamp: 
    secs: 1561686457
    nsecs: 403653882
  frame_id: "ti_mmwave"
point_id: 0
x: 0.01171875
y: -0.0390625
z: -0.0078125
range: 0.0435769706964
velocity: 0.0
doppler_bin: 8
bearing: -73.3007583618
intensity: 30.7408466339
---
header: 
  seq: 3314152
  stamp: 
    secs: 1561686457
    nsecs: 403734601
  frame_id: "ti_mmwave"
point_id: 1
x: 0.017578125
y: -0.080078125
z: -0.0078125
range: 0.0871539413929
velocity: 0.0
doppler_bin: 8
bearing: -77.6192398071
intensity: 31.9783172607
---
header: 
  seq: 3314153
  stamp: 
    secs: 1561686457
    nsecs: 403756381
  frame_id: "ti_mmwave"
point_id: 2
x: 0.029296875
y: -0.119140625
z: -0.00390625
range: 0.130730912089
velocity: 0.0
doppler_bin: 8
bearing: -76.1849746704
intensity: 30.2077541351
---
header: 
  seq: 3314154
  stamp: 
    secs: 1561686457
    nsecs: 403773981
  frame_id: "ti_mmwave"
point_id: 3
x: 0.056640625
y: -0.154296875
z: 0.005859375
range: 0.174307882786
velocity: 0.0
doppler_bin: 8
bearing: -69.8423843384
intensity: 25.5022830963
---
header: 
  seq: 3314155
  stamp: 
    secs: 1561686457
    nsecs: 403788037
  frame_id: "ti_mmwave"
point_id: 4
x: 0.33984375
y: -0.080078125
z: -1.21875
range: 1.35088610649
velocity: 0.0
doppler_bin: 8
bearing: -13.2588720322
intensity: 21.9865703583
---
header: 
  seq: 3314156
  stamp: 
    secs: 1561686457
    nsecs: 403931158
  frame_id: "ti_mmwave"
point_id: 5
x: 0.287109375
y: -0.041015625
z: 1.27734375
range: 1.39446306229
velocity: 0.0
doppler_bin: 8
bearing: -8.13010311127
intensity: 23.2837963104
---
header: 
  seq: 3314157
  stamp: 
    secs: 1561686457
    nsecs: 403980619
  frame_id: "ti_mmwave"
point_id: 6
x: 0.416015625
y: -0.0
z: 1.28515625
range: 1.43804001808
velocity: 0.0
doppler_bin: 8
bearing: -0.0
intensity: 22.0139713287
---
header: 
  seq: 3314158
  stamp: 
    secs: 1561686457
    nsecs: 404011265
  frame_id: "ti_mmwave"
point_id: 7
x: 1.888671875
y: -0.390625
z: 0.796875
range: 2.22242546082
velocity: 0.0
doppler_bin: 8
bearing: -11.6854505539
intensity: 28.8817958832
---
header: 
  seq: 3314159
  stamp: 
    secs: 1561686457
    nsecs: 404069727
  frame_id: "ti_mmwave"
point_id: 8
x: 1.974609375
y: -0.3984375
z: 0.68359375
range: 2.26600241661
velocity: 0.0
doppler_bin: 8
bearing: -11.4079847336
intensity: 28.6391735077
---
header: 
  seq: 3314160
  stamp: 
    secs: 1561686457
    nsecs: 404135908
  frame_id: "ti_mmwave"
point_id: 9
x: 2.537109375
y: -0.263671875
z: 1.20703125
range: 3.00681090355
velocity: 0.0
doppler_bin: 8
bearing: -5.93322753906
intensity: 29.2941894531
---
header: 
  seq: 3314161
  stamp: 
    secs: 1561686457
    nsecs: 404152227
  frame_id: "ti_mmwave"
point_id: 10
x: 2.603515625
y: -0.267578125
z: 1.162109375
range: 3.05038785934
velocity: 0.0
doppler_bin: 8
bearing: -5.8680100441
intensity: 32.702129364
---
header: 
  seq: 3314162
  stamp: 
    secs: 1561686457
    nsecs: 404160699
  frame_id: "ti_mmwave"
point_id: 11
x: 2.666015625
y: -0.181640625
z: 1.138671875
range: 3.09396481514
velocity: 0.0
doppler_bin: 8
bearing: -3.89764523506
intensity: 31.9700469971
---
header: 
  seq: 3314163
  stamp: 
    secs: 1561686457
    nsecs: 404168331
  frame_id: "ti_mmwave"
point_id: 12
x: 4.802734375
y: -0.4609375
z: 0.90234375
range: 5.22923660278
velocity: 0.0
doppler_bin: 8
bearing: -5.48211288452
intensity: 29.9563522339
---
header: 
  seq: 3314164
  stamp: 
    secs: 1561686457
    nsecs: 404176452
  frame_id: "ti_mmwave"
point_id: 13
x: 4.87890625
y: -0.30859375
z: 0.77734375
range: 5.27281332016
velocity: 0.0
doppler_bin: 8
bearing: -3.61917114258
intensity: 31.1360912323
---
header: 
  seq: 3314165
  stamp: 
    secs: 1561686457
    nsecs: 404188298
  frame_id: "ti_mmwave"
point_id: 15
x: 0.041015625
y: -0.033203125
z: 0.0625
range: 0.0871539413929
velocity: 0.0
doppler_bin: 8
bearing: -38.9909973145
intensity: 30.1494026184
---
header: 
  seq: 3314166
  stamp: 
    secs: 1561686457
    nsecs: 404200589
  frame_id: "ti_mmwave"
point_id: 16
x: 0.044921875
y: -0.046875
z: 0.103515625
range: 0.130730912089
velocity: 0.0
doppler_bin: 8
bearing: -46.218875885
intensity: 29.0525608063
---
header: 
  seq: 3314167
  stamp: 
    secs: 1561686457
    nsecs: 404215234
  frame_id: "ti_mmwave"
point_id: 18
x: 1.21484375
y: 0.357421875
z: 0.0546875
range: 1.35088610649
velocity: 0.0
doppler_bin: 8
bearing: 16.3945274353
intensity: 19.2941894531
---
header: 
  seq: 3314168
  stamp: 
    secs: 1561686457
    nsecs: 404227241
  frame_id: "ti_mmwave"
point_id: 19
x: 2.056640625
y: 0.326171875
z: -0.13671875
range: 2.22242546082
velocity: 0.0
doppler_bin: 8
bearing: 9.01173973083
intensity: 27.4585514069
---
header: 
  seq: 3314169
  stamp: 
    secs: 1561686457
    nsecs: 404238823
  frame_id: "ti_mmwave"
point_id: 20
x: 2.037109375
y: 0.3984375
z: -0.46484375
range: 2.26600241661
velocity: 0.0
doppler_bin: 8
bearing: 11.0667524338
intensity: 25.8546066284
---
header: 
  seq: 3314170
  stamp: 
    secs: 1561686457
    nsecs: 462347526
  frame_id: "ti_mmwave"
point_id: 0
x: 0.01171875
y: -0.0390625
z: -0.0078125
range: 0.0435769706964
velocity: 0.0
doppler_bin: 8
bearing: -73.3007583618
intensity: 30.7371826172
---
header: 
  seq: 3314171
  stamp: 
    secs: 1561686457
    nsecs: 462424488
  frame_id: "ti_mmwave"
point_id: 1
x: 0.017578125
y: -0.080078125
z: -0.0078125
range: 0.0871539413929
velocity: 0.0
doppler_bin: 8
bearing: -77.6192398071
intensity: 31.9755630493
---
header: 
  seq: 3314172
  stamp: 
    secs: 1561686457
    nsecs: 462441185
  frame_id: "ti_mmwave"
point_id: 2
x: 0.029296875
y: -0.119140625
z: -0.00390625
range: 0.130730912089
velocity: 0.0
doppler_bin: 8
bearing: -76.1849746704
intensity: 30.2036132812
---
header: 
  seq: 3314173
  stamp: 
    secs: 1561686457
    nsecs: 462454867
  frame_id: "ti_mmwave"
point_id: 3
