header: 
  seq: 1150464
  stamp: 
    secs: 1561683082
    nsecs:  43734550
  frame_id: "ti_mmwave"
point_id: 0
x: 0.01171875
y: -0.0390625
z: -0.0078125
range: 0.0435769706964
velocity: 0.0
doppler_bin: 8
bearing: -73.3007583618
intensity: 30.7298469543
---
header: 
  seq: 1150465
  stamp: 
    secs: 1561683082
    nsecs:  43798337
  frame_id: "ti_mmwave"
point_id: 1
x: 0.017578125
y: -0.080078125
z: -0.0078125
range: 0.0871539413929
velocity: 0.0
doppler_bin: 8
bearing: -77.6192398071
intensity: 31.9645252228
---
header: 
  seq: 1150466
  stamp: 
    secs: 1561683082
    nsecs:  43811085
  frame_id: "ti_mmwave"
point_id: 2
x: 0.041015625
y: -0.115234375
z: -0.0078125
range: 0.130730912089
velocity: 0.0
doppler_bin: 8
bearing: -70.4077224731
intensity: 30.2201576233
---
header: 
  seq: 1150467
  stamp: 
    secs: 1561683082
    nsecs:  43819680
  frame_id: "ti_mmwave"
point_id: 3
x: 0.056640625
y: -0.154296875
z: 0.005859375
range: 0.174307882786
velocity: 0.0
doppler_bin: 8
bearing: -69.8423843384
intensity: 25.490032196
---
header: 
  seq: 1150468
  stamp: 
    secs: 1561683082
    nsecs:  43828519
  frame_id: "ti_mmwave"
point_id: 4
x: 0.3515625
y: -0.080078125
z: -1.216796875
range: 1.35088610649
velocity: 0.0
doppler_bin: 8
bearing: -12.83177948
intensity: 21.9033164978
---
header: 
  seq: 1150469
  stamp: 
    secs: 1561683082
    nsecs:  43838675
  frame_id: "ti_mmwave"
point_id: 5
x: 0.306640625
y: -0.041015625
z: 1.271484375
range: 1.39446306229
velocity: 0.0
doppler_bin: 8
bearing: -7.6185464859
intensity: 23.2428245544
---
header: 
  seq: 1150470
  stamp: 
    secs: 1561683082
    nsecs:  43859967
  frame_id: "ti_mmwave"
point_id: 6
x: 0.423828125
y: -0.0
z: 1.28125
range: 1.43804001808
velocity: 0.0
doppler_bin: 8
bearing: -0.0
intensity: 21.9312458038
---
header: 
  seq: 1150471
  stamp: 
    secs: 1561683082
    nsecs:  43876179
  frame_id: "ti_mmwave"
point_id: 7
x: 1.7421875
y: -0.109375
z: -0.208984375
range: 1.87380969524
velocity: 0.0
doppler_bin: 8
bearing: -3.59232997894
intensity: 29.6425971985
---
header: 
  seq: 1150472
  stamp: 
    secs: 1561683082
    nsecs:  43890342
  frame_id: "ti_mmwave"
point_id: 8
x: 1.779296875
y: -0.11328125
z: -0.25
range: 1.91738677025
velocity: 0.0
doppler_bin: 8
bearing: -3.64289331436
intensity: 29.986951828
---
header: 
  seq: 1150473
  stamp: 
    secs: 1561683082
    nsecs:  43904059
  frame_id: "ti_mmwave"
point_id: 9
x: 1.806640625
y: -0.470703125
z: 0.232421875
range: 2.00454068184
velocity: 0.0
doppler_bin: 8
bearing: -14.603222847
intensity: 28.1888542175
---
header: 
  seq: 1150474
  stamp: 
    secs: 1561683082
    nsecs:  43913721
  frame_id: "ti_mmwave"
point_id: 10
x: 1.857421875
y: -0.419921875
z: 0.267578125
range: 2.04811763763
velocity: 0.0
doppler_bin: 8
bearing: -12.73914814
intensity: 27.6715583801
---
header: 
  seq: 1150475
  stamp: 
    secs: 1561683082
    nsecs:  44057206
  frame_id: "ti_mmwave"
point_id: 11
x: 2.556640625
y: -0.263671875
z: 1.1640625
range: 3.00681090355
velocity: 0.0
doppler_bin: 8
bearing: -5.88822031021
intensity: 29.5085144043
---
header: 
  seq: 1150476
  stamp: 
    secs: 1561683082
    nsecs:  44077936
  frame_id: "ti_mmwave"
point_id: 12
x: 2.607421875
y: -0.267578125
z: 1.154296875
range: 3.05038785934
velocity: 0.0
doppler_bin: 8
bearing: -5.85928010941
intensity: 32.7875366211
---
header: 
  seq: 1150477
  stamp: 
    secs: 1561683082
    nsecs:  44086680
  frame_id: "ti_mmwave"
point_id: 13
x: 2.662109375
y: -0.181640625
z: 1.14453125
range: 3.09396481514
velocity: 0.0
doppler_bin: 8
bearing: -3.90334677696
intensity: 31.9368095398
---
header: 
  seq: 1150478
  stamp: 
    secs: 1561683082
    nsecs:  44094765
  frame_id: "ti_mmwave"
point_id: 14
x: 4.4140625
y: -0.287109375
z: 1.19140625
range: 4.88062095642
velocity: 0.0
doppler_bin: 8
bearing: -3.72151875496
intensity: 30.700378418
---
header: 
  seq: 1150479
  stamp: 
    secs: 1561683082
    nsecs:  44102714
  frame_id: "ti_mmwave"
point_id: 15
x: 4.478515625
y: -0.2890625
z: 1.109375
range: 4.9241976738
velocity: 0.0
doppler_bin: 8
bearing: -3.69299149513
intensity: 30.1703338623
---
header: 
  seq: 1150480
  stamp: 
    secs: 1561683082
    nsecs:  44110746
  frame_id: "ti_mmwave"
point_id: 16
x: 4.89453125
y: -0.30859375
z: 0.6640625
range: 5.27281332016
velocity: 0.0
doppler_bin: 8
bearing: -3.60764837265
intensity: 29.7543182373
---
header: 
  seq: 1150481
  stamp: 
    secs: 1561683082
    nsecs:  44120369
  frame_id: "ti_mmwave"
point_id: 18
x: 0.041015625
y: -0.033203125
z: 0.0625
range: 0.0871539413929
velocity: 0.0
doppler_bin: 8
bearing: -38.9909973145
intensity: 30.1367969513
---
header: 
  seq: 1150482
  stamp: 
    secs: 1561683082
    nsecs:  44130197
  frame_id: "ti_mmwave"
point_id: 19
x: 0.044921875
y: -0.046875
z: 0.103515625
range: 0.130730912089
velocity: 0.0
doppler_bin: 8
bearing: -46.218875885
intensity: 29.0145835876
---
header: 
  seq: 1150483
  stamp: 
    secs: 1561683082
    nsecs:  44141271
  frame_id: "ti_mmwave"
point_id: 21
x: 1.212890625
y: 0.357421875
z: 0.095703125
range: 1.35088610649
velocity: 0.0
doppler_bin: 8
bearing: 16.419506073
intensity: 19.1907806396
---
header: 
  seq: 1150484
  stamp: 
    secs: 1561683082
    nsecs:  44148807
  frame_id: "ti_mmwave"
point_id: 22
x: 4.81640625
y: -0.619140625
z: 0.9609375
range: 5.27281332016
velocity: 0.0
doppler_bin: 8
bearing: -7.32510042191
intensity: 29.7405090332
---
header: 
  seq: 1150485
  stamp: 
    secs: 1561683082
    nsecs: 103769473
  frame_id: "ti_mmwave"
point_id: 0
x: 0.01171875
y: -0.0390625
z: -0.0078125
range: 0.0435769706964
velocity: 0.0
doppler_bin: 8
bearing: -73.3007583618
intensity: 30.7445068359
---
header: 
  seq: 1150486
  stamp: 
    secs: 1561683082
    nsecs: 103851875
  frame_id: "ti_mmwave"
point_id: 1
x: 0.017578125
y: -0.080078125
z: -0.0078125
range: 0.0871539413929
velocity: 0.0
doppler_bin: 8
bearing: -77.6192398071
intensity: 31.9672870636
---
header: 
  seq: 1150487
  stamp: 
    secs: 1561683082
    nsecs: 103862519
  frame_id: "ti_mmwave"
point_id: 2
x: 0.041015625
y: -0.115234375
z: -0.0078125
range: 0.130730912089
velocity: 0.0
doppler_bin: 8
bearing: -70.4077224731
intensity: 30.2160263062
---
header: 
  seq: 1150488
  stamp: 
    secs: 1561683082
    nsecs: 103870790
  frame_id: "ti_mmwave"
point_id: 3
x: 0.056640625
y: -0.154296875
z: 0.005859375
range: 0.174307882786
velocity: 0.0
doppler_bin: 8
bearing: -69.8423843384
intensity: 25.4654273987
---
header: 
  seq: 1150489
  stamp: 
    secs: 1561683082
    nsecs: 103881082
  frame_id: "ti_mmwave"
point_id: 4
x: 0.32421875
y: -0.080078125
z: -1.22265625
range: 1.35088610649
velocity: 0.0
doppler_bin: 8
bearing: -13.8737030029
intensity: 21.9033164978
---
header: 
  seq: 1150490
  stamp: 
    secs: 1561683082
    nsecs: 103890848
  frame_id: "ti_mmwave"
point_id: 5
x: 0.30078125
y: -0.041015625
z: 1.2734375
range: 1.39446306229
velocity: 0.0
doppler_bin: 8
bearing: -7.76516628265
intensity: 23.2014636993
---
header: 
  seq: 1150491
  stamp: 
    secs: 1561683082
    nsecs: 103899124
  frame_id: "ti_mmwave"
point_id: 6
x: 0.3515625
y: -0.0
z: 1.302734375
range: 1.43804001808
velocity: 0.0
doppler_bin: 8
bearing: -0.0
intensity: 21.9033164978
---
header: 
  seq: 1150492
  stamp: 
    secs: 1561683082
    nsecs: 103939109
  frame_id: "ti_mmwave"
point_id: 7
x: 2.544921875
y: -0.263671875
z: 1.19140625
range: 3.00681090355
velocity: 0.0
doppler_bin: 8
bearing: -5.91514253616
intensity: 29.4743366241
---
header: 
  seq: 1150493
  stamp: 
    secs: 1561683082
    nsecs: 103952473
  frame_id: "ti_mmwave"
point_id: 8
x: 2.59765625
y: -0.267578125
z: 1.17578125
range: 3.05038785934
velocity: 0.0
doppler_bin: 8
bearing: -5.88115358353
intensity: 32.7921066284
---
header: 
  seq: 1150494
  stamp: 
    secs: 1561683082
    nsecs: 103960400
  frame_id: "ti_mmwave"
point_id: 9
x: 2.65625
y: -0.181640625
z: 1.16015625
range: 3.09396481514
velocity: 0.0
doppler_bin: 8
bearing: -3.91193032265
intensity: 31.9755630493
---
header: 
  seq: 1150495
  stamp: 
    secs: 1561683082
    nsecs: 104122818
  frame_id: "ti_mmwave"
point_id: 10
x: 4.4140625
y: -0.287109375
z: 1.189453125
range: 4.88062095642
velocity: 0.0
doppler_bin: 8
bearing: -3.72151875496
intensity: 30.9864368439
---
header: 
  seq: 1150496
  stamp: 
    secs: 1561683082
    nsecs: 104163485
  frame_id: "ti_mmwave"
point_id: 11
x: 4.4765625
y: -0.2890625
z: 1.119140625
range: 4.9241976738
velocity: 0.0
doppler_bin: 8
bearing: -3.69459795952
intensity: 30.5842609406
---
header: 
  seq: 1150497
  stamp: 
    secs: 1561683082
    nsecs: 104214048
  frame_id: "ti_mmwave"
point_id: 12
x: 4.818359375
y: -0.46484375
z: 1.037109375
range: 5.27281332016
velocity: 0.0
doppler_bin: 8
bearing: -5.51046800613
intensity: 30.1703338623
---
header: 
  seq: 1150498
  stamp: 
    secs: 1561683082
    nsecs: 104230310
  frame_id: "ti_mmwave"
point_id: 13
x: 1.734375
y: -0.0
z: -0.296875
range: 1.87380969524
velocity: 0.614668667316
doppler_bin: 9
bearing: -0.0
intensity: 26.5991611481
---
header: 
  seq: 1150499
  stamp: 
    secs: 1561683082
    nsecs: 104242674
  frame_id: "ti_mmwave"
point_id: 14
x: 1.765625
y: -0.0
z: -0.353515625
range: 1.91738677025
velocity: 0.614668667316
doppler_bin: 9
bearing: -0.0
intensity: 27.6937732697
---
header: 
  seq: 1150500
  stamp: 
    secs: 1561683082
    nsecs: 104280298
  frame_id: "ti_mmwave"
point_id: 15
x: 1.939453125
y: 0.24609375
z: 0.181640625
range: 2.09169459343
velocity: -0.614668667316
doppler_bin: 7
bearing: 7.23151397705
intensity: 25.7634143829
---
header: 
  seq: 1150501
  stamp: 
    secs: 1561683082
    nsecs: 104295365
  frame_id: "ti_mmwave"
point_id: 16
x: 1.98828125
y: 0.1875
z: 0.169921875
range: 2.13527154922
velocity: -0.614668667316
doppler_bin: 7
bearing: 5.38720655441
intensity: 26.2736587524
---
header: 
  seq: 1150502
  stamp: 
    secs: 1561683082
    nsecs: 104319686
  frame_id: "ti_mmwave"
point_id: 18
x: 0.041015625
y: -0.033203125
z: 0.0625
range: 0.0871539413929
velocity: 0.0
doppler_bin: 8
bearing: -38.9909973145
intensity: 30.1325874329
---
header: 
  seq: 1150503
  stamp: 
    secs: 1561683082
    nsecs: 104361970
  frame_id: "ti_mmwave"
point_id: 19
x: 0.046875
y: -0.046875
z: 0.103515625
range: 0.130730912089
velocity: 0.0
doppler_bin: 8
bearing: -45.0
intensity: 29.0145835876
---
header: 
  seq: 1150504
  stamp: 
    secs: 1561683082
    nsecs: 104378663
  frame_id: "ti_mmwave"
point_id: 21
x: 1.2109375
y: 0.357421875
z: 0.111328125
range: 1.35088610649
velocity: 0.0
doppler_bin: 8
bearing: 16.4445590973
intensity: 19.0848503113
---
header: 
  seq: 1150505
  stamp: 
    secs: 1561683082
    nsecs: 105286499
  frame_id: "ti_mmwave"
point_id: 0
x: 0.01171875
y: -0.0390625
z: -0.0078125
range: 0.0435769706964
velocity: 0.0
doppler_bin: 8
bearing: -73.3007583618
intensity: 30.7408466339
---
header: 
  seq: 1150506
  stamp: 
    secs: 1561683082
    nsecs: 105351549
  frame_id: "ti_mmwave"
point_id: 1
x: 0.017578125
y: -0.080078125
z: -0.0078125
range: 0.0871539413929
velocity: 0.0
doppler_bin: 8
bearing: -77.6192398071
intensity: 31.9672870636
---
header: 
  seq: 1150507
  stamp: 
    secs: 1561683082
    nsecs: 105368447
  frame_id: "ti_mmwave"
point_id: 2
x: 0.041015625
y: -0.115234375
z: -0.0078125
range: 0.130730912089
velocity: 0.0
doppler_bin: 8
bearing: -70.4077224731
intensity: 30.2201576233
---
header: 
  seq: 1150508
  stamp: 
    secs: 1561683082
    nsecs: 105383422
  frame_id: "ti_mmwave"
point_id: 3
x: 0.056640625
y: -0.154296875
z: 0.005859375
range: 0.174307882786
velocity: 0.0
doppler_bin: 8
bearing: -69.8423843384
intensity: 25.490032196
---
header: 
  seq: 1150509
  stamp: 
    secs: 1561683082
    nsecs: 105411616
  frame_id: "ti_mmwave"
point_id: 4
x: 0.33984375
y: -0.080078125
z: -1.21875
range: 1.35088610649
velocity: 0.0
doppler_bin: 8
bearing: -13.2588720322
intensity: 21.9312458038
---
header: 
  seq: 1150510
  stamp: 
    secs: 1561683082
    nsecs: 105490703
  frame_id: "ti_mmwave"
point_id: 5
x: 0.34375
y: -0.041015625
z: 1.26171875
range: 1.39446306229
velocity: 0.0
doppler_bin: 8
bearing: -6.80425977707
intensity: 23.2221927643
---
header: 
  seq: 1150511
  stamp: 
    secs: 1561683082
    nsecs: 105505148
  frame_id: "ti_mmwave"
point_id: 6
x: 0.478515625
y: -0.0
z: 1.26171875
range: 1.43804001808
velocity: 0.0
doppler_bin: 8
bearing: -0.0
intensity: 21.9033164978
---
header: 
  seq: 1150512
  stamp: 
    secs: 1561683082
    nsecs: 105518643
  frame_id: "ti_mmwave"
point_id: 7
x: 1.79296875
y: -0.056640625
z: -0.1484375
range: 1.91738677025
velocity: 0.0
doppler_bin: 8
bearing: -1.80939567089
intensity: 29.0091304779
---
header: 
  seq: 1150513
  stamp: 
    secs: 1561683082
    nsecs: 105533163
  frame_id: "ti_mmwave"
point_id: 8
x: 1.8359375
y: -0.115234375
z: -0.0546875
range: 1.96096372604
velocity: 0.0
doppler_bin: 8
bearing: -3.59151291847
intensity: 28.0753498077
---
header: 
  seq: 1150514
  stamp: 
    secs: 1561683082
    nsecs: 105548181
  frame_id: "ti_mmwave"
point_id: 9
x: 1.853515625
y: -0.294921875
z: 0.125
range: 2.00454068184
velocity: 0.0
doppler_bin: 8
bearing: -9.04082107544
intensity: 28.1756534576
---
header: 
  seq: 1150515
  stamp: 
    secs: 1561683082
    nsecs: 105561405
  frame_id: "ti_mmwave"
point_id: 10
x: 1.818359375
y: -0.361328125
z: 0.509765625
range: 2.04811763763
velocity: 0.0
doppler_bin: 8
bearing: -11.238904953
intensity: 28.9265098572
---
header: 
  seq: 1150516
  stamp: 
    secs: 1561683082
    nsecs: 105577764
  frame_id: "ti_mmwave"
point_id: 11
x: 1.9453125
y: 0.18359375
z: 0.1953125
range: 2.09169459343
velocity: 0.0
doppler_bin: 8
bearing: 5.39146375656
intensity: 30.3862018585
---
header: 
  seq: 1150517
  stamp: 
    secs: 1561683082
    nsecs: 105591668
  frame_id: "ti_mmwave"
point_id: 12
x: 1.96875
y: 0.25
z: 0.279296875
range: 2.13527154922
velocity: 0.0
doppler_bin: 8
bearing: 7.23692274094
intensity: 29.8317508698
---
header: 
  seq: 1150518
  stamp: 
    secs: 1561683082
    nsecs: 105648723
  frame_id: "ti_mmwave"
point_id: 13
x: 2.54296875
y: -0.263671875
z: 1.1953125
range: 3.00681090355
velocity: 0.0
doppler_bin: 8
bearing: -5.91965341568
intensity: 29.5520648956
---
header: 
  seq: 1150519
  stamp: 
    secs: 1561683082
    nsecs: 105662681
  frame_id: "ti_mmwave"
point_id: 14
x: 2.6015625
y: -0.267578125
z: 1.1640625
range: 3.05038785934
velocity: 0.0
doppler_bin: 8
bearing: -5.87238502502
intensity: 32.7921066284
---
header: 
  seq: 1150520
  stamp: 
    secs: 1561683082
    nsecs: 105676443
  frame_id: "ti_mmwave"
point_id: 15
x: 2.6640625
y: -0.181640625
z: 1.142578125
range: 3.09396481514
velocity: 0.0
doppler_bin: 8
bearing: -3.90049386024
intensity: 31.9256744385
---
header: 
  seq: 1150521
  stamp: 
    secs: 1561683082
    nsecs: 105690977
  frame_id: "ti_mmwave"
point_id: 16
x: 4.42578125
y: -0.287109375
z: 1.15234375
range: 4.88062095642
velocity: 0.0
doppler_bin: 8
bearing: -3.7116920948
intensity: 30.8671569824
---
header: 
  seq: 1150522
  stamp: 
    secs: 1561683082
    nsecs: 105705525
  frame_id: "ti_mmwave"
point_id: 17
x: 4.4921875
y: -0.2890625
z: 1.05078125
range: 4.9241976738
velocity: 0.0
doppler_bin: 8
bearing: -3.68178272247
intensity: 30.3941402435
---
header: 
  seq: 1150523
  stamp: 
    secs: 1561683082
    nsecs: 105721185
  frame_id: "ti_mmwave"
point_id: 18
x: 4.845703125
y: -0.46484375
z: 0.896484375
range: 5.27281332016
velocity: 0.0
doppler_bin: 8
bearing: -5.47956323624
intensity: 30.3702793121
---
header: 
  seq: 1150524
  stamp: 
    secs: 1561683082
    nsecs: 105738086
  frame_id: "ti_mmwave"
point_id: 20
x: 0.041015625
y: -0.033203125
z: 0.0625
range: 0.0871539413929
velocity: 0.0
doppler_bin: 8
bearing: -38.9909973145
intensity: 30.1325874329
---
header: 
  seq: 1150525
  stamp: 
    secs: 1561683082
    nsecs: 105751870
  frame_id: "ti_mmwave"
point_id: 21
x: 0.052734375
y: -0.04296875
z: 0.1015625
range: 0.130730912089
velocity: 0.0
doppler_bin: 8
bearing: -39.1736602783
intensity: 29.0091304779
---
header: 
  seq: 1150526
  stamp: 
    secs: 1561683082
    nsecs: 105768882
  frame_id: "ti_mmwave"
point_id: 23
x: 1.20703125
y: 0.357421875
z: 0.150390625
range: 1.35088610649
velocity: 0.0
doppler_bin: 8
bearing: 16.4948921204
intensity: 19.0848503113
---
header: 
  seq: 1150527
  stamp: 
    secs: 1561683082
    nsecs: 105827965
  frame_id: "ti_mmwave"
point_id: 24
x: 1.890625
y: 0.30078125
z: -0.169921875
range: 2.04811763763
velocity: 0.0
doppler_bin: 8
bearing: 9.03948307037
intensity: 27.7524623871
---
header: 
  seq: 1150528
  stamp: 
    secs: 1561683082
    nsecs: 105842927
  frame_id: "ti_mmwave"
point_id: 25
x: 1.19921875
y: -0.4296875
z: 1.494140625
range: 2.09169459343
velocity: 0.0
doppler_bin: 8
bearing: -19.7129154205
intensity: 28.1157493591
---
header: 
  seq: 1150529
  stamp: 
    secs: 1561683082
    nsecs: 105857161
  frame_id: "ti_mmwave"
point_id: 26
x: 2.51171875
y: -2.00390625
z: -3.265625
range: 4.88062095642
velocity: 0.0
doppler_bin: 8
bearing: -38.5836601257
intensity: 28.034570694
---
header: 
  seq: 1150530
  stamp: 
    secs: 1561683082
    nsecs: 105873894
  frame_id: "ti_mmwave"
point_id: 27
x: 2.29296875
y: -2.021484375
z: -3.466796875
range: 4.9241976738
velocity: 0.0
doppler_bin: 8
bearing: -41.3994445801
intensity: 27.5434837341
---
header: 
  seq: 1150531
  stamp: 
    secs: 1561683082
    nsecs: 163845509
  frame_id: "ti_mmwave"
point_id: 0
x: 0.01171875
y: -0.0390625
z: -0.0078125
range: 0.0435769706964
velocity: 0.0
doppler_bin: 8
bearing: -73.3007583618
intensity: 30.7408466339
---
header: 
  seq: 1150532
  stamp: 
    secs: 1561683082
    nsecs: 163950317
  frame_id: "ti_mmwave"
point_id: 1
x: 0.017578125
y: -0.080078125
z: -0.0078125
range: 0.0871539413929
velocity: 0.0
doppler_bin: 8
bearing: -77.6192398071
intensity: 31.9672870636
---
header: 
  seq: 1150533
  stamp: 
    secs: 1561683082
    nsecs: 163972388
  frame_id: "ti_mmwave"
point_id: 2
x: 0.029296875
y: -0.119140625
z: -0.005859375
range: 0.130730912089
velocity: 0.0
doppler_bin: 8
bearing: -76.1849746704
intensity: 30.2160263062
---
header: 
  seq: 1150534
  stamp: 
    secs: 1561683082
    nsecs: 163984805
  frame_id: "ti_mmwave"
point_id: 3
x: 0.056640625
y: -0.154296875
z: 0.005859375
range: 0.174307882786
velocity: 0.0
doppler_bin: 8
bearing: -69.8423843384
intensity: 25.4777469635
---
header: 
  seq: 1150535
  stamp: 
    secs: 1561683082
    nsecs: 164056692
  frame_id: "ti_mmwave"
point_id: 4
x: 0.365234375
y: -0.080078125
z: -1.212890625
range: 1.35088610649
velocity: 0.0
doppler_bin: 8
bearing: -12.3664970398
intensity: 21.875207901
---
header: 
  seq: 1150536
  stamp: 
    secs: 1561683082
    nsecs: 164104057
  frame_id: "ti_mmwave"
point_id: 5
x: 0.30078125
y: -0.041015625
z: 1.2734375
range: 1.39446306229
velocity: 0.0
doppler_bin: 8
bearing: -7.76516628265
intensity: 23.1806335449
---
header: 
  seq: 1150537
  stamp: 
    secs: 1561683082
    nsecs: 164117699
  frame_id: "ti_mmwave"
point_id: 6
x: 0.494140625
y: -0.04296875
z: 1.255859375
range: 1.43804001808
velocity: 0.0
doppler_bin: 8
bearing: -4.96974086761
intensity: 21.8469142914
---
header: 
  seq: 1150538
  stamp: 
    secs: 1561683082
    nsecs: 164151608
  frame_id: "ti_mmwave"
point_id: 7
x: 1.73828125
y: -0.109375
z: -0.244140625
range: 1.87380969524
velocity: 0.0
doppler_bin: 8
bearing: -3.60038089752
intensity: 28.5186958313
---
header: 
  seq: 1150539
  stamp: 
    secs: 1561683082
    nsecs: 164169000
  frame_id: "ti_mmwave"
point_id: 8
x: 1.78515625
y: -0.056640625
z: -0.2265625
range: 1.91738677025
velocity: 0.0
doppler_bin: 8
bearing: -1.81730902195
intensity: 30.081741333
---
header: 
  seq: 1150540
  stamp: 
    secs: 1561683082
    nsecs: 164213883
  frame_id: "ti_mmwave"
point_id: 9
x: 1.828125
y: -0.056640625
z: -0.205078125
range: 1.96096372604
velocity: 0.0
doppler_bin: 8
bearing: -1.77462208271
intensity: 28.4135951996
---
header: 
  seq: 1150541
  stamp: 
    secs: 1561683082
    nsecs: 164230156
  frame_id: "ti_mmwave"
point_id: 10
x: 1.884765625
y: -0.361328125
z: 0.115234375
range: 2.04811763763
velocity: 0.0
doppler_bin: 8
bearing: -10.8524913788
intensity: 26.5896492004
---
header: 
  seq: 1150542
  stamp: 
    secs: 1561683082
    nsecs: 164241709
  frame_id: "ti_mmwave"
point_id: 11
x: 1.84375
y: 0.18359375
z: 0.6484375
range: 2.09169459343
velocity: 0.0
doppler_bin: 8
bearing: 5.68655490875
intensity: 26.394865036
---
header: 
  seq: 1150543
  stamp: 
    secs: 1561683082
    nsecs: 164256136
  frame_id: "ti_mmwave"
point_id: 12
x: 2.548828125
y: -0.263671875
z: 1.18359375
range: 3.00681090355
velocity: 0.0
doppler_bin: 8
bearing: -5.90614128113
intensity: 29.3550720215
---
header: 
  seq: 1150544
  stamp: 
    secs: 1561683082
    nsecs: 164287864
  frame_id: "ti_mmwave"
point_id: 13
x: 2.603515625
y: -0.267578125
z: 1.16015625
range: 3.05038785934
velocity: 0.0
doppler_bin: 8
bearing: -5.8680100441
intensity: 32.7067871094
---
header: 
  seq: 1150545
  stamp: 
    secs: 1561683082
    nsecs: 164312300
  frame_id: "ti_mmwave"
point_id: 14
x: 2.666015625
y: -0.181640625
z: 1.13671875
range: 3.09396481514
velocity: 0.0
doppler_bin: 8
bearing: -3.89764523506
intensity: 31.9005146027
---
header: 
  seq: 1150546
  stamp: 
    secs: 1561683082
    nsecs: 164334400
  frame_id: "ti_mmwave"
point_id: 15
x: 4.419921875
y: -0.287109375
z: 1.169921875
range: 4.88062095642
velocity: 0.0
doppler_bin: 8
bearing: -3.71659874916
intensity: 30.8386077881
---
header: 
  seq: 1150547
  stamp: 
    secs: 1561683082
    nsecs: 164352084
  frame_id: "ti_mmwave"
point_id: 16
x: 4.484375
y: -0.2890625
z: 1.083984375
range: 4.9241976738
velocity: 0.0
doppler_bin: 8
bearing: -3.68817925453
intensity: 30.4493160248
---
header: 
  seq: 1150548
  stamp: 
    secs: 1561683082
    nsecs: 164585524
  frame_id: "ti_mmwave"
point_id: 17
x: 4.8125
y: -0.619140625
z: 0.974609375
range: 5.27281332016
velocity: 0.0
doppler_bin: 8
bearing: -7.33098220825
intensity: 30.5918464661
---
header: 
  seq: 1150549
  stamp: 
    secs: 1561683082
    nsecs: 164606110
  frame_id: "ti_mmwave"
point_id: 18
x: 4.888671875
y: -0.3125
z: 0.955078125
range: 5.31639051437
velocity: 0.0
doppler_bin: 8
bearing: -3.65755867958
intensity: 28.3821926117
---
header: 
  seq: 1150550
  stamp: 
    secs: 1561683082
    nsecs: 164623444
  frame_id: "ti_mmwave"
point_id: 20
x: 0.041015625
y: -0.033203125
z: 0.0625
range: 0.0871539413929
velocity: 0.0
doppler_bin: 8
bearing: -38.9909973145
intensity: 30.1325874329
---
header: 
  seq: 1150551
  stamp: 
    secs: 1561683082
    nsecs: 164635924
  frame_id: "ti_mmwave"
point_id: 21
x: 0.044921875
y: -0.046875
z: 0.103515625
range: 0.130730912089
velocity: 0.0
doppler_bin: 8
bearing: -46.218875885
intensity: 29.0145835876
---
header: 
  seq: 1150552
  stamp: 
    secs: 1561683082
    nsecs: 164651580
  frame_id: "ti_mmwave"
point_id: 23
x: 1.20703125
y: 0.357421875
z: 0.15234375
range: 1.35088610649
velocity: 0.0
doppler_bin: 8
bearing: 16.4948921204
intensity: 19.1907806396
---
header: 
  seq: 1150553
  stamp: 
    secs: 1561683082
    nsecs: 164663395
  frame_id: "ti_mmwave"
point_id: 24
x: 1.93359375
y: -0.306640625
z: -0.140625
range: 2.09169459343
velocity: 0.0
doppler_bin: 8
bearing: -9.01125812531
intensity: 25.9217681885
---
header: 
  seq: 1150554
  stamp: 
    secs: 1561683082
    nsecs: 164675375
  frame_id: "ti_mmwave"
point_id: 25
x: 2.71875
y: -2.00390625
z: -3.095703125
range: 4.88062095642
velocity: 0.0
doppler_bin: 8
bearing: -36.3927726746
intensity: 27.9448795319
---
header: 
  seq: 1150555
  stamp: 
    secs: 1561683082
    nsecs: 164685942
  frame_id: "ti_mmwave"
point_id: 26
x: 2.6484375
y: -2.021484375
z: -3.203125
range: 4.9241976738
velocity: 0.0
doppler_bin: 8
bearing: -37.3535652161
intensity: 27.4896278381
---
header: 
  seq: 1150556
  stamp: 
    secs: 1561683082
    nsecs: 164696578
  frame_id: "ti_mmwave"
point_id: 27
x: 4.337890625
y: 1.87109375
z: 1.607421875
range: 5.31639051437
velocity: 0.0
doppler_bin: 8
bearing: 23.3323364258
intensity: 26.294095993
---
header: 
  seq: 1150557
  stamp: 
    secs: 1561683082
    nsecs: 165386343
  frame_id: "ti_mmwave"
point_id: 0
x: 0.01171875
y: -0.0390625
z: -0.0078125
range: 0.0435769706964
velocity: 0.0
doppler_bin: 8
bearing: -73.3007583618
intensity: 30.7445068359
---
header: 
  seq: 1150558
  stamp: 
    secs: 1561683082
    nsecs: 165440603
  frame_id: "ti_mmwave"
point_id: 1
x: 0.017578125
y: -0.080078125
z: -0.0078125
range: 0.0871539413929
velocity: 0.0
doppler_bin: 8
bearing: -77.6192398071
intensity: 31.9672870636
---
header: 
  seq: 1150559
  stamp: 
    secs: 1561683082
    nsecs: 165451579
  frame_id: "ti_mmwave"
point_id: 2
x: 0.029296875
y: -0.119140625
z: -0.005859375
range: 0.130730912089
velocity: 0.0
doppler_bin: 8
bearing: -76.1849746704
intensity: 30.2160263062
---
header: 
  seq: 1150560
  stamp: 
    secs: 1561683082
    nsecs: 165460621
  frame_id: "ti_mmwave"
point_id: 3
x: 0.056640625
y: -0.154296875
z: 0.005859375
range: 0.174307882786
velocity: 0.0
doppler_bin: 8
bearing: -69.8423843384
intensity: 25.4777469635
---
header: 
  seq: 1150561
  stamp: 
    secs: 1561683082
    nsecs: 165472562
  frame_id: "ti_mmwave"
point_id: 4
x: 0.37109375
y: -0.080078125
z: -1.2109375
range: 1.35088610649
velocity: 0.0
doppler_bin: 8
bearing: -12.177107811
intensity: 21.9033164978
---
header: 
  seq: 1150562
  stamp: 
    secs: 1561683082
    nsecs: 165516434
  frame_id: "ti_mmwave"
point_id: 5
x: 0.28515625
y: -0.041015625
z: 1.27734375
range: 1.39446306229
velocity: 0.0
doppler_bin: 8
bearing: -8.18503570557
intensity: 23.2014636993
---
header: 
  seq: 1150563
  stamp: 
    secs: 1561683082
    nsecs: 165526554
  frame_id: "ti_mmwave"
point_id: 6
x: 0.482421875
y: -0.04296875
z: 1.259765625
range: 1.43804001808
velocity: 0.0
doppler_bin: 8
bearing: -5.08983659744
intensity: 21.875207901
---
header: 
  seq: 1150564
  stamp: 
    secs: 1561683082
    nsecs: 165534317
  frame_id: "ti_mmwave"
point_id: 7
x: 1.734375
y: -0.109375
z: -0.267578125
range: 1.87380969524
velocity: 0.0
doppler_bin: 8
bearing: -3.60846877098
intensity: 27.4193916321
---
header: 
  seq: 1150565
  stamp: 
    secs: 1561683082
    nsecs: 165542395
  frame_id: "ti_mmwave"
point_id: 8
x: 1.779296875
y: -0.11328125
z: -0.248046875
range: 1.91738677025
velocity: 0.0
doppler_bin: 8
bearing: -3.64289331436
intensity: 29.1009063721
---
header: 
  seq: 1150566
  stamp: 
    secs: 1561683082
    nsecs: 165554046
  frame_id: "ti_mmwave"
point_id: 9
x: 1.818359375
y: -0.056640625
z: -0.283203125
range: 1.96096372604
velocity: 0.0
doppler_bin: 8
bearing: -1.78414654732
intensity: 26.541765213
---
header: 
  seq: 1150567
  stamp: 
    secs: 1561683082
    nsecs: 165566899
  frame_id: "ti_mmwave"
point_id: 10
x: 1.828125
y: -0.412109375
z: 0.173828125
range: 2.00454068184
velocity: 0.0
doppler_bin: 8
bearing: -12.7036867142
intensity: 29.3601074219
---
header: 
  seq: 1150568
  stamp: 
    secs: 1561683082
    nsecs: 165589779
  frame_id: "ti_mmwave"
point_id: 11
x: 1.86328125
y: -0.419921875
z: 0.224609375
range: 2.04811763763
velocity: 0.0
doppler_bin: 8
bearing: -12.7003889084
intensity: 30.9968070984
---
header: 
  seq: 1150569
  stamp: 
    secs: 1561683082
    nsecs: 165637573
  frame_id: "ti_mmwave"
point_id: 12
x: 1.904296875
y: -0.4296875
z: 0.216796875
range: 2.09169459343
velocity: 0.0
doppler_bin: 8
bearing: -12.7153367996
intensity: 28.6687774658
---
header: 
  seq: 1150570
  stamp: 
    secs: 1561683082
    nsecs: 165656959
  frame_id: "ti_mmwave"
point_id: 13
x: 2.552734375
y: -0.263671875
z: 1.17578125
range: 3.00681090355
velocity: 0.0
doppler_bin: 8
bearing: -5.89716720581
intensity: 29.527923584
---
header: 
  seq: 1150571
  stamp: 
    secs: 1561683082
    nsecs: 165671770
  frame_id: "ti_mmwave"
point_id: 14
x: 2.60546875
y: -0.267578125
z: 1.15625
range: 3.05038785934
velocity: 0.0
doppler_bin: 8
bearing: -5.86364221573
intensity: 32.8239555359
---
header: 
  seq: 1150572
  stamp: 
    secs: 1561683082
    nsecs: 165685014
  frame_id: "ti_mmwave"
point_id: 15
x: 2.6640625
y: -0.181640625
z: 1.142578125
range: 3.09396481514
velocity: 0.0
doppler_bin: 8
bearing: -3.90049386024
intensity: 31.9975509644
---
header: 
  seq: 1150573
  stamp: 
    secs: 1561683082
    nsecs: 165701745
  frame_id: "ti_mmwave"
point_id: 16
x: 4.40234375
y: -0.287109375
z: 1.232421875
range: 4.88062095642
velocity: 0.0
doppler_bin: 8
bearing: -3.73139691353
intensity: 30.9307136536
---
header: 
  seq: 1150574
  stamp: 
    secs: 1561683082
    nsecs: 165790828
  frame_id: "ti_mmwave"
point_id: 17
x: 4.4609375
y: -0.2890625
z: 1.173828125
range: 4.9241976738
velocity: 0.0
doppler_bin: 8
bearing: -3.70750308037
intensity: 30.5384635925
---
header: 
  seq: 1150575
  stamp: 
    secs: 1561683082
    nsecs: 165818755
  frame_id: "ti_mmwave"
point_id: 18
x: 4.845703125
y: -0.30859375
z: 0.962890625
range: 5.27281332016
velocity: 0.0
doppler_bin: 8
bearing: -3.6439037323
intensity: 30.1325874329
---
header: 
  seq: 1150576
  stamp: 
    secs: 1561683082
    nsecs: 165832786
  frame_id: "ti_mmwave"
point_id: 19
x: 1.9296875
y: 0.125
z: 0.525390625
range: 2.13527154922
velocity: 0.614668667316
doppler_bin: 9
bearing: 3.7062895298
intensity: 25.3529415131
---
header: 
  seq: 1150577
  stamp: 
    secs: 1561683082
    nsecs: 165904402
  frame_id: "ti_mmwave"
point_id: 21
x: 0.041015625
y: -0.033203125
z: 0.0625
range: 0.0871539413929
velocity: 0.0
doppler_bin: 8
bearing: -38.9909973145
intensity: 30.1325874329
---
header: 
  seq: 1150578
  stamp: 
    secs: 1561683082
    nsecs: 165920740
  frame_id: "ti_mmwave"
point_id: 22
x: 0.046875
y: -0.046875
z: 0.103515625
range: 0.130730912089
velocity: 0.0
doppler_bin: 8
bearing: -45.0
intensity: 29.0145835876
---
header: 
  seq: 1150579
  stamp: 
    secs: 1561683082
    nsecs: 165948937
  frame_id: "ti_mmwave"
point_id: 24
x: 1.2109375
y: 0.357421875
z: 0.1171875
range: 1.35088610649
velocity: 0.0
doppler_bin: 8
bearing: 16.4445590973
intensity: 19.2427921295
---
header: 
  seq: 1150580
  stamp: 
    secs: 1561683082
    nsecs: 223880105
  frame_id: "ti_mmwave"
point_id: 0
x: 0.01171875
y: -0.0390625
z: -0.0078125
range: 0.0435769706964
velocity: 0.0
doppler_bin: 8
bearing: -73.3007583618
intensity: 30.7371826172
---
header: 
  seq: 1150581
  stamp: 
    secs: 1561683082
    nsecs: 223962403
  frame_id: "ti_mmwave"
point_id: 1
x: 0.017578125
y: -0.080078125
z: -0.0078125
range: 0.0871539413929
velocity: 0.0
doppler_bin: 8
bearing: -77.6192398071
intensity: 31.9645252228
---
header: 
  seq: 1150582
  stamp: 
    secs: 1561683082
    nsecs: 223976705
  frame_id: "ti_mmwave"
point_id: 2
x: 0.041015625
y: -0.115234375
z: -0.0078125
range: 0.130730912089
velocity: 0.0
doppler_bin: 8
bearing: -70.4077224731
intensity: 30.2160263062
---
header: 
  seq: 1150583
  stamp: 
    secs: 1561683082
    nsecs: 223990499
  frame_id: "ti_mmwave"
point_id: 3
x: 0.056640625
y: -0.154296875
z: 0.005859375
range: 0.174307882786
velocity: 0.0
doppler_bin: 8
bearing: -69.8423843384
intensity: 25.4777469635
---
header: 
  seq: 1150584
  stamp: 
    secs: 1561683082
    nsecs: 224003247
  frame_id: "ti_mmwave"
point_id: 4
x: 0.3671875
y: -0.080078125
z: -1.2109375
range: 1.35088610649
velocity: 0.0
doppler_bin: 8
bearing: -12.3027267456
intensity: 21.875207901
---
header: 
  seq: 1150585
  stamp: 
    secs: 1561683082
    nsecs: 224059713
  frame_id: "ti_mmwave"
point_id: 5
x: 0.302734375
y: -0.041015625
z: 1.2734375
range: 1.39446306229
velocity: 0.0
doppler_bin: 8
bearing: -7.71567344666
intensity: 23.2014636993
---
header: 
  seq: 1150586
  stamp: 
    secs: 1561683082
    nsecs: 224074389
  frame_id: "ti_mmwave"
point_id: 6
x: 0.421875
y: -0.0
z: 1.283203125
range: 1.43804001808
velocity: 0.0
doppler_bin: 8
bearing: -0.0
intensity: 21.875207901
---
header: 
  seq: 1150587
  stamp: 
    secs: 1561683082
    nsecs: 224084230
  frame_id: "ti_mmwave"
point_id: 7
x: 2.54296875
y: -0.263671875
z: 1.197265625
range: 3.00681090355
velocity: 0.0
doppler_bin: 8
bearing: -5.91965341568
intensity: 29.5182304382
---
header: 
  seq: 1150588
  stamp: 
    secs: 1561683082
    nsecs: 224093109
  frame_id: "ti_mmwave"
point_id: 8
x: 2.6015625
y: -0.267578125
z: 1.1640625
range: 3.05038785934
velocity: 0.0
doppler_bin: 8
bearing: -5.87238502502
intensity: 32.8869628906
---
header: 
  seq: 1150589
  stamp: 
    secs: 1561683082
    nsecs: 224102289
  frame_id: "ti_mmwave"
point_id: 9
x: 2.658203125
y: -0.181640625
z: 1.15625
range: 3.09396481514
velocity: 0.0
doppler_bin: 8
bearing: -3.90906453133
intensity: 32.1085319519
---
header: 
  seq: 1150590
  stamp: 
    secs: 1561683082
    nsecs: 224113361
  frame_id: "ti_mmwave"
point_id: 10
x: 4.4140625
y: -0.287109375
z: 1.1953125
range: 4.88062095642
velocity: 0.0
doppler_bin: 8
bearing: -3.72151875496
intensity: 30.8919830322
---
header: 
  seq: 1150591
  stamp: 
    secs: 1561683082
    nsecs: 224122639
  frame_id: "ti_mmwave"
point_id: 11
x: 4.46875
y: -0.2890625
z: 1.142578125
range: 4.9241976738
velocity: 0.0
doppler_bin: 8
bearing: -3.70103907585
intensity: 30.3019485474
---
header: 
  seq: 1150592
  stamp: 
    secs: 1561683082
    nsecs: 224133176
  frame_id: "ti_mmwave"
point_id: 12
x: 2.013671875
y: 0.3203125
z: 0.15625
range: 2.17884850502
velocity: 1.22933733463
doppler_bin: 10
bearing: 9.03825092316
intensity: 22.7875366211
---
header: 
  seq: 1150593
  stamp: 
    secs: 1561683082
    nsecs: 224146506
  frame_id: "ti_mmwave"
point_id: 14
x: 0.041015625
y: -0.033203125
z: 0.0625
range: 0.0871539413929
velocity: 0.0
doppler_bin: 8
bearing: -38.9909973145
intensity: 30.1325874329
---
header: 
  seq: 1150594
  stamp: 
    secs: 1561683082
    nsecs: 224159557
  frame_id: "ti_mmwave"
point_id: 15
x: 0.044921875
y: -0.046875
z: 0.103515625
range: 0.130730912089
velocity: 0.0
doppler_bin: 8
bearing: -46.218875885
intensity: 29.0091304779
---
header: 
  seq: 1150595
  stamp: 
    secs: 1561683082
    nsecs: 224174116
  frame_id: "ti_mmwave"
point_id: 17
x: 1.208984375
y: 0.357421875
z: 0.146484375
range: 1.35088610649
velocity: 0.0
doppler_bin: 8
bearing: 16.4696884155
intensity: 19.0848503113
---
header: 
  seq: 1150596
  stamp: 
    secs: 1561683082
    nsecs: 224193677
  frame_id: "ti_mmwave"
point_id: 18
x: 2.796875
y: -2.00390625
z: -3.0234375
range: 4.88062095642
velocity: 0.0
doppler_bin: 8
bearing: -35.6208572388
intensity: 27.9028511047
---
header: 
  seq: 1150597
  stamp: 
    secs: 1561683082
    nsecs: 224254198
  frame_id: "ti_mmwave"
point_id: 19
x: 2.837890625
y: -2.021484375
z: -3.037109375
range: 4.9241976738
velocity: 0.0
doppler_bin: 8
bearing: -35.4630050659
intensity: 27.3878059387
---
header: 
  seq: 1150598
  stamp: 
    secs: 1561683082
    nsecs: 224270556
  frame_id: "ti_mmwave"
point_id: 20
x: 0.994140625
y: -0.447265625
z: -1.73046875
range: 2.17884850502
velocity: 1.22933733463
doppler_bin: 10
bearing: -24.2230644226
intensity: 20.6069774628
---
header: 
  seq: 1150599
  stamp: 
    secs: 1561683082
    nsecs: 224990153
  frame_id: "ti_mmwave"
point_id: 0
x: 0.01171875
y: -0.0390625
z: -0.0078125
range: 0.0435769706964
velocity: 0.0
doppler_bin: 8
bearing: -73.3007583618
intensity: 30.7335166931
---
header: 
  seq: 1150600
  stamp: 
    secs: 1561683082
    nsecs: 225056414
  frame_id: "ti_mmwave"
point_id: 1
x: 0.017578125
y: -0.080078125
z: -0.0078125
range: 0.0871539413929
velocity: 0.0
doppler_bin: 8
bearing: -77.6192398071
intensity: 31.9645252228
---
header: 
  seq: 1150601
  stamp: 
    secs: 1561683082
    nsecs: 225077318
  frame_id: "ti_mmwave"
point_id: 2
x: 0.041015625
y: -0.115234375
z: -0.0078125
range: 0.130730912089
velocity: 0.0
doppler_bin: 8
bearing: -70.4077224731
intensity: 30.2160263062
---
header: 
  seq: 1150602
  stamp: 
    secs: 1561683082
    nsecs: 225095885
  frame_id: "ti_mmwave"
point_id: 3
x: 0.056640625
y: -0.154296875
z: 0.005859375
range: 0.174307882786
velocity: 0.0
doppler_bin: 8
bearing: -69.8423843384
intensity: 25.490032196
---
header: 
  seq: 1150603
  stamp: 
    secs: 1561683082
    nsecs: 225171901
  frame_id: "ti_mmwave"
point_id: 4
x: 0.380859375
y: -0.080078125
z: -1.20703125
range: 1.35088610649
velocity: 0.0
doppler_bin: 8
bearing: -11.8738489151
intensity: 21.9589958191
---
header: 
  seq: 1150604
  stamp: 
    secs: 1561683082
    nsecs: 225187195
  frame_id: "ti_mmwave"
point_id: 5
x: 0.271484375
y: -0.041015625
z: 1.279296875
range: 1.39446306229
velocity: 0.0
doppler_bin: 8
bearing: -8.59122562408
intensity: 23.2428245544
---
header: 
  seq: 1150605
  stamp: 
    secs: 1561683082
    nsecs: 225201440
  frame_id: "ti_mmwave"
point_id: 6
x: 0.40625
y: -0.0
z: 1.287109375
range: 1.43804001808
velocity: 0.0
doppler_bin: 8
bearing: -0.0
intensity: 21.9033164978
---
header: 
  seq: 1150606
  stamp: 
    secs: 1561683082
    nsecs: 225214063
  frame_id: "ti_mmwave"
point_id: 7
x: 2.537109375
y: -0.263671875
z: 1.20703125
range: 3.00681090355
velocity: 0.0
doppler_bin: 8
bearing: -5.93322753906
intensity: 29.2634239197
---
header: 
  seq: 1150607
  stamp: 
    secs: 1561683082
    nsecs: 225225318
  frame_id: "ti_mmwave"
point_id: 8
x: 2.595703125
y: -0.267578125
z: 1.1796875
range: 3.05038785934
velocity: 0.0
doppler_bin: 8
bearing: -5.88554811478
intensity: 32.5815811157
---
header: 
  seq: 1150608
  stamp: 
    secs: 1561683082
    nsecs: 225237223
  frame_id: "ti_mmwave"
point_id: 9
x: 2.646484375
y: -0.271484375
z: 1.166015625
range: 3.09396481514
velocity: 0.0
doppler_bin: 8
bearing: -5.85708665848
intensity: 31.7695903778
---
header: 
  seq: 1150609
  stamp: 
    secs: 1561683082
    nsecs: 225270004
  frame_id: "ti_mmwave"
point_id: 10
x: 4.41796875
y: -0.287109375
z: 1.17578125
range: 4.88062095642
velocity: 0.0
doppler_bin: 8
bearing: -3.71823716164
intensity: 30.8707122803
---
header: 
  seq: 1150610
  stamp: 
    secs: 1561683082
    nsecs: 225286741
  frame_id: "ti_mmwave"
point_id: 11
x: 4.4609375
y: -0.2890625
z: 1.17578125
range: 4.9241976738
velocity: 0.0
doppler_bin: 8
bearing: -3.70750308037
intensity: 30.0475120544
---
header: 
  seq: 1150611
  stamp: 
    secs: 1561683082
    nsecs: 225302087
  frame_id: "ti_mmwave"
point_id: 13
x: 0.041015625
y: -0.033203125
z: 0.0625
range: 0.0871539413929
velocity: 0.0
doppler_bin: 8
bearing: -38.9909973145
intensity: 30.1283721924
---
header: 
  seq: 1150612
  stamp: 
    secs: 1561683082
    nsecs: 225313125
  frame_id: "ti_mmwave"
point_id: 14
x: 0.044921875
y: -0.046875
z: 0.103515625
range: 0.130730912089
velocity: 0.0
doppler_bin: 8
bearing: -46.218875885
intensity: 29.0091304779
---
header: 
  seq: 1150613
  stamp: 
    secs: 1561683082
    nsecs: 225339792
  frame_id: "ti_mmwave"
point_id: 16
x: 1.20703125
y: 0.357421875
z: 0.15234375
range: 1.35088610649
velocity: 0.0
doppler_bin: 8
bearing: 16.4948921204
intensity: 19.0848503113
---
header: 
  seq: 1150614
  stamp: 
    secs: 1561683082
    nsecs: 225426506
  frame_id: "ti_mmwave"
point_id: 17
x: 2.77734375
y: -2.021484375
z: -3.091796875
range: 4.9241976738
velocity: 0.0
doppler_bin: 8
bearing: -36.0489273071
intensity: 27.2916469574
---
header: 
  seq: 1150615
  stamp: 
    secs: 1561683082
    nsecs: 283739762
  frame_id: "ti_mmwave"
point_id: 0
x: 0.01171875
y: -0.0390625
z: -0.0078125
range: 0.0435769706964
velocity: 0.0
doppler_bin: 8
bearing: -73.3007583618
intensity: 30.7335166931
---
header: 
  seq: 1150616
  stamp: 
    secs: 1561683082
    nsecs: 283805224
  frame_id: "ti_mmwave"
point_id: 1
x: 0.017578125
y: -0.080078125
z: -0.0078125
range: 0.0871539413929
velocity: 0.0
doppler_bin: 8
bearing: -77.6192398071
intensity: 31.9617614746
---
header: 
  seq: 1150617
  stamp: 
    secs: 1561683082
    nsecs: 283815073
  frame_id: "ti_mmwave"
point_id: 2
x: 0.041015625
y: -0.115234375
z: -0.0078125
range: 0.130730912089
velocity: 0.0
doppler_bin: 8
bearing: -70.4077224731
intensity: 30.2160263062
---
header: 
  seq: 1150618
  stamp: 
    secs: 1561683082
    nsecs: 283823802
  frame_id: "ti_mmwave"
point_id: 3
x: 0.056640625
y: -0.154296875
z: 0.005859375
range: 0.174307882786
velocity: 0.0
doppler_bin: 8
bearing: -69.8423843384
intensity: 25.4777469635
---
header: 
  seq: 1150619
  stamp: 
    secs: 1561683082
    nsecs: 283831163
  frame_id: "ti_mmwave"
point_id: 4
x: 0.34375
y: -0.080078125
z: -1.21875
range: 1.35088610649
velocity: 0.0
doppler_bin: 8
bearing: -13.1134386063
intensity: 21.9033164978
---
header: 
  seq: 1150620
  stamp: 
    secs: 1561683082
    nsecs: 283838157
  frame_id: "ti_mmwave"
point_id: 5
x: 0.294921875
y: -0.041015625
z: 1.275390625
range: 1.39446306229
velocity: 0.0
doppler_bin: 8
bearing: -7.91750335693
intensity: 23.2221927643
---
header: 
  seq: 1150621
  stamp: 
    secs: 1561683082
    nsecs: 283844849
  frame_id: "ti_mmwave"
point_id: 6
x: 0.40625
y: -0.0
z: 1.287109375
range: 1.43804001808
velocity: 0.0
doppler_bin: 8
bearing: -0.0
intensity: 21.875207901
---
header: 
  seq: 1150622
  stamp: 
    secs: 1561683082
    nsecs: 283851898
  frame_id: "ti_mmwave"
point_id: 7
x: 1.73828125
y: -0.109375
z: -0.240234375
range: 1.87380969524
velocity: 0.0
doppler_bin: 8
bearing: -3.60038089752
intensity: 29.5999488831
---
header: 
  seq: 1150623
  stamp: 
    secs: 1561683082
    nsecs: 283859849
  frame_id: "ti_mmwave"
point_id: 8
x: 1.77734375
y: -0.11328125
z: -0.25390625
range: 1.91738677025
velocity: 0.0
doppler_bin: 8
bearing: -3.64688611031
intensity: 30.5346260071
---
header: 
  seq: 1150624
  stamp: 
    secs: 1561683082
    nsecs: 283869207
  frame_id: "ti_mmwave"
point_id: 9
x: 1.982421875
y: 0.447265625
z: 0.236328125
range: 2.17884850502
velocity: 0.0
doppler_bin: 8
bearing: 12.7139596939
intensity: 27.2427577972
---
header: 
  seq: 1150625
  stamp: 
    secs: 1561683082
    nsecs: 283876407
  frame_id: "ti_mmwave"
point_id: 10
x: 2.55078125
y: -0.263671875
z: 1.1796875
range: 3.00681090355
velocity: 0.0
doppler_bin: 8
bearing: -5.90165042877
intensity: 29.3901977539
---
header: 
  seq: 1150626
  stamp: 
    secs: 1561683082
    nsecs: 283884996
  frame_id: "ti_mmwave"
point_id: 11
x: 2.61328125
y: -0.267578125
z: 1.138671875
range: 3.05038785934
velocity: 0.0
doppler_bin: 8
bearing: -5.84623432159
intensity: 32.7760925293
---
header: 
  seq: 1150627
  stamp: 
    secs: 1561683082
    nsecs: 283892016
  frame_id: "ti_mmwave"
point_id: 12
x: 2.67578125
y: -0.271484375
z: 1.09765625
range: 3.09396481514
velocity: 0.0
doppler_bin: 8
bearing: -5.79339647293
intensity: 32.0030326843
---
header: 
  seq: 1150628
  stamp: 
    secs: 1561683082
    nsecs: 283899240
  frame_id: "ti_mmwave"
point_id: 13
x: 4.408203125
y: -0.287109375
z: 1.212890625
range: 4.88062095642
velocity: 0.0
doppler_bin: 8
bearing: -3.72645139694
intensity: 31.0105934143
---
header: 
  seq: 1150629
  stamp: 
    secs: 1561683082
    nsecs: 283906365
  frame_id: "ti_mmwave"
point_id: 14
x: 4.466796875
y: -0.2890625
z: 1.15625
range: 4.9241976738
velocity: 0.0
doppler_bin: 8
bearing: -3.70265316963
intensity: 30.6520614624
---
header: 
  seq: 1150630
  stamp: 
    secs: 1561683082
    nsecs: 283927313
  frame_id: "ti_mmwave"
point_id: 16
x: 0.041015625
y: -0.033203125
z: 0.0625
range: 0.0871539413929
velocity: 0.0
doppler_bin: 8
bearing: -38.9909973145
intensity: 30.1283721924
---
header: 
  seq: 1150631
  stamp: 
    secs: 1561683082
    nsecs: 283939164
  frame_id: "ti_mmwave"
point_id: 17
x: 0.044921875
y: -0.046875
z: 0.103515625
range: 0.130730912089
velocity: 0.0
doppler_bin: 8
bearing: -46.218875885
intensity: 29.0036716461
---
header: 
  seq: 1150632
  stamp: 
    secs: 1561683082
    nsecs: 283947825
  frame_id: "ti_mmwave"
point_id: 19
x: 1.2109375
y: 0.357421875
z: 0.123046875
range: 1.35088610649
velocity: 0.0
doppler_bin: 8
bearing: 16.4445590973
intensity: 19.0308990479
---
header: 
  seq: 1150633
  stamp: 
    secs: 1561683082
    nsecs: 285050996
  frame_id: "ti_mmwave"
point_id: 0
x: 0.01171875
y: -0.0390625
z: -0.0078125
range: 0.0435769706964
velocity: 0.0
doppler_bin: 8
bearing: -73.3007583618
intensity: 30.7371826172
---
header: 
  seq: 1150634
  stamp: 
    secs: 1561683082
    nsecs: 285110615
  frame_id: "ti_mmwave"
point_id: 1
x: 0.017578125
y: -0.080078125
z: -0.0078125
range: 0.0871539413929
velocity: 0.0
doppler_bin: 8
bearing: -77.6192398071
intensity: 31.9645252228
---
header: 
  seq: 1150635
  stamp: 
    secs: 1561683082
    nsecs: 285128487
  frame_id: "ti_mmwave"
point_id: 2
x: 0.041015625
y: -0.115234375
z: -0.0078125
range: 0.130730912089
velocity: 0.0
doppler_bin: 8
bearing: -70.4077224731
intensity: 30.2160263062
---
header: 
  seq: 1150636
  stamp: 
    secs: 1561683082
    nsecs: 285151541
  frame_id: "ti_mmwave"
point_id: 3
x: 0.056640625
y: -0.154296875
z: 0.005859375
range: 0.174307882786
velocity: 0.0
doppler_bin: 8
bearing: -69.8423843384
intensity: 25.4777469635
---
header: 
  seq: 1150637
  stamp: 
    secs: 1561683082
    nsecs: 285208164
  frame_id: "ti_mmwave"
point_id: 4
x: 0.3671875
y: -0.080078125
z: -1.2109375
range: 1.35088610649
velocity: 0.0
doppler_bin: 8
bearing: -12.3027267456
intensity: 21.9033164978
---
header: 
  seq: 1150638
  stamp: 
    secs: 1561683082
    nsecs: 285222058
  frame_id: "ti_mmwave"
point_id: 5
x: 0.271484375
y: -0.041015625
z: 1.279296875
range: 1.39446306229
velocity: 0.0
doppler_bin: 8
bearing: -8.59122562408
intensity: 23.2428245544
---
header: 
  seq: 1150639
  stamp: 
    secs: 1561683082
    nsecs: 285233886
  frame_id: "ti_mmwave"
point_id: 6
x: 0.404296875
y: -0.0
z: 1.2890625
range: 1.43804001808
velocity: 0.0
doppler_bin: 8
bearing: -0.0
intensity: 21.9312458038
---
header: 
  seq: 1150640
  stamp: 
    secs: 1561683082
    nsecs: 285245440
  frame_id: "ti_mmwave"
point_id: 7
x: 1.740234375
y: -0.0546875
z: -0.25390625
range: 1.87380969524
velocity: 0.0
doppler_bin: 8
bearing: -1.7999484539
intensity: 30.7990455627
---
header: 
  seq: 1150641
  stamp: 
    secs: 1561683082
    nsecs: 285257029
  frame_id: "ti_mmwave"
point_id: 8
x: 1.78125
y: -0.11328125
z: -0.2265625
range: 1.91738677025
velocity: 0.0
doppler_bin: 8
bearing: -3.63891005516
intensity: 32.229763031
---
header: 
  seq: 1150642
  stamp: 
    secs: 1561683082
    nsecs: 285270523
  frame_id: "ti_mmwave"
point_id: 9
x: 1.833984375
y: -0.056640625
z: -0.134765625
range: 1.96096372604
velocity: 0.0
doppler_bin: 8
bearing: -1.76895594597
intensity: 30.678144455
---
header: 
  seq: 1150643
  stamp: 
    secs: 1561683082
    nsecs: 285309657
  frame_id: "ti_mmwave"
point_id: 10
x: 1.982421875
y: 0.447265625
z: 0.23046875
range: 2.17884850502
velocity: 0.0
doppler_bin: 8
bearing: 12.7139596939
intensity: 29.8900470734
---
header: 
  seq: 1150644
  stamp: 
    secs: 1561683082
    nsecs: 285322157
  frame_id: "ti_mmwave"
point_id: 11
x: 2.0234375
y: 0.45703125
z: 0.228515625
range: 2.22242546082
velocity: 0.0
doppler_bin: 8
bearing: 12.7277507782
intensity: 29.8272342682
---
header: 
  seq: 1150645
  stamp: 
    secs: 1561683082
    nsecs: 285334228
  frame_id: "ti_mmwave"
point_id: 12
x: 2.54296875
y: -0.263671875
z: 1.197265625
range: 3.00681090355
velocity: 0.0
doppler_bin: 8
bearing: -5.91965341568
intensity: 29.3348731995
---
header: 
  seq: 1150646
  stamp: 
    secs: 1561683082
    nsecs: 285355474
  frame_id: "ti_mmwave"
point_id: 13
x: 2.609375
y: -0.267578125
z: 1.150390625
range: 3.05038785934
velocity: 0.0
doppler_bin: 8
bearing: -5.85492515564
intensity: 32.7669143677
---
header: 
  seq: 1150647
  stamp: 
    secs: 1561683082
    nsecs: 285398190
  frame_id: "ti_mmwave"
point_id: 14
x: 2.671875
y: -0.181640625
z: 1.125
range: 3.09396481514
velocity: 0.0
doppler_bin: 8
bearing: -3.88912391663
intensity: 32.0167007446
---
header: 
  seq: 1150648
  stamp: 
    secs: 1561683082
    nsecs: 285411552
  frame_id: "ti_mmwave"
point_id: 15
x: 4.40625
y: -0.287109375
z: 1.22265625
range: 4.88062095642
velocity: 0.0
doppler_bin: 8
bearing: -3.72809815407
intensity: 30.8955192566
---
header: 
  seq: 1150649
  stamp: 
    secs: 1561683082
    nsecs: 285423270
  frame_id: "ti_mmwave"
point_id: 16
x: 4.455078125
y: -0.2890625
z: 1.1953125
range: 4.9241976738
velocity: 0.0
doppler_bin: 8
bearing: -3.71236538887
intensity: 30.7736797333
---
header: 
  seq: 1150650
  stamp: 
    secs: 1561683082
    nsecs: 285450854
  frame_id: "ti_mmwave"
point_id: 18
x: 0.041015625
y: -0.033203125
z: 0.0625
range: 0.0871539413929
velocity: 0.0
doppler_bin: 8
bearing: -38.9909973145
intensity: 30.1325874329
---
header: 
  seq: 1150651
  stamp: 
    secs: 1561683082
    nsecs: 285491270
  frame_id: "ti_mmwave"
point_id: 19
x: 0.044921875
y: -0.046875
z: 0.103515625
range: 0.130730912089
velocity: 0.0
doppler_bin: 8
bearing: -46.218875885
intensity: 29.0091304779
---
header: 
  seq: 1150652
  stamp: 
    secs: 1561683082
    nsecs: 285506398
  frame_id: "ti_mmwave"
point_id: 21
x: 1.208984375
y: 0.357421875
z: 0.134765625
range: 1.35088610649
velocity: 0.0
doppler_bin: 8
bearing: 16.4696884155
intensity: 19.1907806396
---
header: 
  seq: 1150653
  stamp: 
    secs: 1561683082
    nsecs: 343794617
  frame_id: "ti_mmwave"
point_id: 0
x: 0.01171875
y: -0.0390625
z: -0.0078125
range: 0.0435769706964
velocity: 0.0
doppler_bin: 8
bearing: -73.3007583618
intensity: 30.7371826172
---
header: 
  seq: 1150654
  stamp: 
    secs: 1561683082
    nsecs: 343885787
  frame_id: "ti_mmwave"
point_id: 1
x: 0.017578125
y: -0.080078125
z: -0.0078125
range: 0.0871539413929
velocity: 0.0
doppler_bin: 8
bearing: -77.6192398071
intensity: 31.9672870636
---
header: 
  seq: 1150655
  stamp: 
    secs: 1561683082
    nsecs: 343902954
  frame_id: "ti_mmwave"
point_id: 2
x: 0.029296875
y: -0.119140625
z: -0.005859375
range: 0.130730912089
velocity: 0.0
doppler_bin: 8
bearing: -76.1849746704
intensity: 30.2201576233
---
header: 
  seq: 1150656
  stamp: 
    secs: 1561683082
    nsecs: 343920221
  frame_id: "ti_mmwave"
point_id: 3
x: 0.056640625
y: -0.154296875
z: 0.005859375
range: 0.174307882786
velocity: 0.0
doppler_bin: 8
bearing: -69.8423843384
intensity: 25.4777469635
---
header: 
  seq: 1150657
  stamp: 
    secs: 1561683082
    nsecs: 343933878
  frame_id: "ti_mmwave"
point_id: 4
x: 0.38671875
y: -0.080078125
z: -1.205078125
range: 1.35088610649
velocity: 0.0
doppler_bin: 8
bearing: -11.6989374161
intensity: 21.9312458038
---
header: 
  seq: 1150658
  stamp: 
    secs: 1561683082
    nsecs: 343948684
  frame_id: "ti_mmwave"
point_id: 5
x: 0.255859375
y: -0.041015625
z: 1.283203125
range: 1.39446306229
velocity: 0.0
doppler_bin: 8
bearing: -9.10733413696
intensity: 23.2221927643
---
header: 
  seq: 1150659
  stamp: 
    secs: 1561683082
    nsecs: 343964608
  frame_id: "ti_mmwave"
point_id: 6
x: 0.34765625
y: -0.0
z: 1.3046875
range: 1.43804001808
velocity: 0.0
doppler_bin: 8
bearing: -0.0
intensity: 21.9033164978
---
header: 
  seq: 1150660
  stamp: 
    secs: 1561683082
    nsecs: 343981100
  frame_id: "ti_mmwave"
point_id: 7
x: 1.833984375
y: -0.115234375
z: -0.08984375
range: 1.96096372604
velocity: 0.0
doppler_bin: 8
bearing: -3.59532785416
intensity: 28.3695678711
---
header: 
  seq: 1150661
  stamp: 
    secs: 1561683082
    nsecs: 343998841
  frame_id: "ti_mmwave"
point_id: 8
x: 2.546875
y: -0.263671875
z: 1.1875
range: 3.00681090355
velocity: 0.0
doppler_bin: 8
bearing: -5.91063833237
intensity: 29.31457901
---
header: 
  seq: 1150662
  stamp: 
    secs: 1561683082
    nsecs: 344070412
  frame_id: "ti_mmwave"
point_id: 9
x: 2.607421875
y: -0.267578125
z: 1.15234375
range: 3.05038785934
velocity: 0.0
doppler_bin: 8
bearing: -5.85928010941
intensity: 32.7392692566
---
header: 
  seq: 1150663
  stamp: 
    secs: 1561683082
    nsecs: 344088454
  frame_id: "ti_mmwave"
point_id: 10
x: 2.662109375
y: -0.181640625
z: 1.14453125
range: 3.09396481514
velocity: 0.0
doppler_bin: 8
bearing: -3.90334677696
intensity: 31.9033164978
---
header: 
  seq: 1150664
  stamp: 
    secs: 1561683082
    nsecs: 344102717
  frame_id: "ti_mmwave"
point_id: 11
x: 4.41015625
y: -0.287109375
z: 1.208984375
range: 4.88062095642
velocity: 0.0
doppler_bin: 8
bearing: -3.72480559349
intensity: 30.6520614624
---
header: 
  seq: 1150665
  stamp: 
    secs: 1561683082
    nsecs: 344116055
  frame_id: "ti_mmwave"
point_id: 12
x: 4.4609375
y: -0.2890625
z: 1.177734375
range: 4.9241976738
velocity: 0.0
doppler_bin: 8
bearing: -3.70750308037
intensity: 30.4921798706
---
header: 
  seq: 1150666
  stamp: 
    secs: 1561683082
    nsecs: 344136350
  frame_id: "ti_mmwave"
point_id: 14
x: 0.041015625
y: -0.033203125
z: 0.0625
range: 0.0871539413929
velocity: 0.0
doppler_bin: 8
bearing: -38.9909973145
intensity: 30.1325874329
---
header: 
  seq: 1150667
  stamp: 
    secs: 1561683082
    nsecs: 344149942
  frame_id: "ti_mmwave"
point_id: 15
x: 0.052734375
y: -0.04296875
z: 0.1015625
range: 0.130730912089
velocity: 0.0
doppler_bin: 8
bearing: -39.1736602783
intensity: 29.0036716461
---
header: 
  seq: 1150668
  stamp: 
    secs: 1561683082
    nsecs: 344167054
  frame_id: "ti_mmwave"
point_id: 17
x: 1.2109375
y: 0.357421875
z: 0.12890625
range: 1.35088610649
velocity: 0.0
doppler_bin: 8
bearing: 16.4445590973
intensity: 19.2427921295
---
header: 
  seq: 1150669
  stamp: 
    secs: 1561683082
    nsecs: 403865388
  frame_id: "ti_mmwave"
point_id: 0
x: 0.01171875
y: -0.0390625
z: -0.0078125
range: 0.0435769706964
velocity: 0.0
doppler_bin: 8
bearing: -73.3007583618
intensity: 30.7371826172
---
header: 
  seq: 1150670
  stamp: 
    secs: 1561683082
    nsecs: 403986710
  frame_id: "ti_mmwave"
point_id: 1
x: 0.017578125
y: -0.080078125
z: -0.0078125
range: 0.0871539413929
velocity: 0.0
doppler_bin: 8
bearing: -77.6192398071
intensity: 31.9645252228
---
header: 
  seq: 1150671
  stamp: 
    secs: 1561683082
    nsecs: 404005486
  frame_id: "ti_mmwave"
point_id: 2
x: 0.029296875
y: -0.119140625
z: -0.005859375
range: 0.130730912089
velocity: 0.0
doppler_bin: 8
bearing: -76.1849746704
intensity: 30.2201576233
---
header: 
  seq: 1150672
  stamp: 
    secs: 1561683082
    nsecs: 404020668
  frame_id: "ti_mmwave"
point_id: 3
x: 0.056640625
y: -0.154296875
z: 0.005859375
range: 0.174307882786
velocity: 0.0
doppler_bin: 8
bearing: -69.8423843384
intensity: 25.5022830963
---
header: 
  seq: 1150673
  stamp: 
    secs: 1561683082
    nsecs: 404034865
  frame_id: "ti_mmwave"
point_id: 4
x: 0.361328125
y: -0.080078125
z: -1.212890625
range: 1.35088610649
velocity: 0.0
doppler_bin: 8
bearing: -12.4960107803
intensity: 21.9312458038
---
header: 
  seq: 1150674
  stamp: 
    secs: 1561683082
    nsecs: 404150251
  frame_id: "ti_mmwave"
point_id: 5
x: 0.265625
y: -0.041015625
z: 1.28125
range: 1.39446306229
velocity: 0.0
doppler_bin: 8
bearing: -8.77781772614
intensity: 23.2837963104
---
header: 
  seq: 1150675
  stamp: 
    secs: 1561683082
    nsecs: 404167236
  frame_id: "ti_mmwave"
point_id: 6
x: 0.369140625
y: -0.0
z: 1.298828125
range: 1.43804001808
velocity: 0.0
doppler_bin: 8
bearing: -0.0
intensity: 21.9865703583
---
header: 
  seq: 1150676
  stamp: 
    secs: 1561683082
    nsecs: 404184506
  frame_id: "ti_mmwave"
point_id: 7
x: 1.75
y: -0.109375
z: -0.150390625
range: 1.87380969524
velocity: 0.0
doppler_bin: 8
bearing: -3.57633447647
intensity: 28.7332057953
---
header: 
  seq: 1150677
  stamp: 
    secs: 1561683082
    nsecs: 404198060
  frame_id: "ti_mmwave"
point_id: 8
x: 1.791015625
y: -0.056640625
z: -0.16796875
range: 1.91738677025
velocity: 0.0
doppler_bin: 8
bearing: -1.81136763096
intensity: 30.2036132812
---
header: 
  seq: 1150678
  stamp: 
    secs: 1561683082
    nsecs: 404225861
  frame_id: "ti_mmwave"
point_id: 9
x: 1.994140625
y: 0.447265625
z: -0.052734375
range: 2.17884850502
velocity: 0.0
doppler_bin: 8
bearing: 12.6416530609
intensity: 30.4610481262
---
header: 
  seq: 1150679
  stamp: 
    secs: 1561683082
    nsecs: 404247741
  frame_id: "ti_mmwave"
point_id: 10
x: 2.03515625
y: 0.45703125
z: -0.05078125
range: 2.22242546082
velocity: 0.0
doppler_bin: 8
bearing: 12.656829834
intensity: 30.5076637268
---
header: 
  seq: 1150680
  stamp: 
    secs: 1561683082
    nsecs: 404263965
  frame_id: "ti_mmwave"
point_id: 11
x: 2.5390625
y: -0.263671875
z: 1.203125
range: 3.00681090355
velocity: 0.0
doppler_bin: 8
bearing: -5.92869567871
intensity: 29.3651371002
---
header: 
  seq: 1150681
  stamp: 
    secs: 1561683082
    nsecs: 404325080
  frame_id: "ti_mmwave"
point_id: 12
x: 2.609375
y: -0.267578125
z: 1.1484375
range: 3.05038785934
velocity: 0.0
doppler_bin: 8
bearing: -5.85492515564
intensity: 32.7829627991
---
header: 
  seq: 1150682
  stamp: 
    secs: 1561683082
    nsecs: 404342144
  frame_id: "ti_mmwave"
point_id: 13
x: 2.662109375
y: -0.271484375
z: 1.126953125
range: 3.09396481514
velocity: 0.0
doppler_bin: 8
bearing: -5.82294607162
intensity: 32.0030326843
---
header: 
  seq: 1150683
  stamp: 
    secs: 1561683082
    nsecs: 404358237
  frame_id: "ti_mmwave"
point_id: 14
x: 4.40625
y: -0.287109375
z: 1.224609375
range: 4.88062095642
velocity: 0.0
doppler_bin: 8
bearing: -3.72809815407
intensity: 30.9725723267
---
header: 
  seq: 1150684
  stamp: 
    secs: 1561683082
    nsecs: 404371993
  frame_id: "ti_mmwave"
point_id: 15
x: 4.45703125
y: -0.2890625
z: 1.19140625
range: 4.9241976738
velocity: 0.0
doppler_bin: 8
bearing: -3.71074318886
intensity: 30.8026561737
---
header: 
  seq: 1150685
  stamp: 
    secs: 1561683082
    nsecs: 404388770
  frame_id: "ti_mmwave"
point_id: 17
x: 0.041015625
y: -0.033203125
z: 0.0625
range: 0.0871539413929
velocity: 0.0
doppler_bin: 8
bearing: -38.9909973145
intensity: 30.1283721924
---
header: 
  seq: 1150686
  stamp: 
    secs: 1561683082
    nsecs: 404414857
  frame_id: "ti_mmwave"
point_id: 18
x: 0.046875
y: -0.046875
z: 0.103515625
range: 0.130730912089
velocity: 0.0
doppler_bin: 8
bearing: -45.0
intensity: 29.0036716461
---
header: 
  seq: 1150687
  stamp: 
    secs: 1561683082
    nsecs: 404440572
  frame_id: "ti_mmwave"
point_id: 20
x: 1.208984375
y: 0.357421875
z: 0.146484375
range: 1.35088610649
velocity: 0.0
doppler_bin: 8
bearing: 16.4696884155
intensity: 19.1907806396
---
header: 
  seq: 1150688
  stamp: 
    secs: 1561683082
    nsecs: 405408118
  frame_id: "ti_mmwave"
point_id: 0
x: 0.01171875
y: -0.0390625
z: -0.0078125
range: 0.0435769706964
velocity: 0.0
doppler_bin: 8
bearing: -73.3007583618
intensity: 30.7371826172
---
header: 
  seq: 1150689
  stamp: 
    secs: 1561683082
    nsecs: 405457056
  frame_id: "ti_mmwave"
point_id: 1
x: 0.017578125
y: -0.080078125
z: -0.0078125
range: 0.0871539413929
velocity: 0.0
doppler_bin: 8
bearing: -77.6192398071
intensity: 31.9645252228
---
header: 
  seq: 1150690
  stamp: 
    secs: 1561683082
    nsecs: 405475403
  frame_id: "ti_mmwave"
point_id: 2
x: 0.041015625
y: -0.115234375
z: -0.0078125
range: 0.130730912089
velocity: 0.0
doppler_bin: 8
bearing: -70.4077224731
intensity: 30.2160263062
---
header: 
  seq: 1150691
  stamp: 
    secs: 1561683082
    nsecs: 405501326
  frame_id: "ti_mmwave"
point_id: 3
x: 0.056640625
y: -0.154296875
z: 0.005859375
range: 0.174307882786
velocity: 0.0
doppler_bin: 8
bearing: -69.8423843384
intensity: 25.4777469635
---
header: 
  seq: 1150692
  stamp: 
    secs: 1561683082
    nsecs: 405555618
  frame_id: "ti_mmwave"
point_id: 4
x: 0.365234375
y: -0.080078125
z: -1.2109375
range: 1.35088610649
velocity: 0.0
doppler_bin: 8
bearing: -12.3664970398
intensity: 22.0139713287
---
header: 
  seq: 1150693
  stamp: 
    secs: 1561683082
    nsecs: 405569640
  frame_id: "ti_mmwave"
point_id: 5
x: 0.29296875
y: -0.041015625
z: 1.275390625
range: 1.39446306229
velocity: 0.0
doppler_bin: 8
bearing: -7.96961069107
intensity: 23.3041381836
---
header: 
  seq: 1150694
  stamp: 
    secs: 1561683082
    nsecs: 405582611
  frame_id: "ti_mmwave"
point_id: 6
x: 0.443359375
y: -0.0
z: 1.275390625
range: 1.43804001808
velocity: 0.0
doppler_bin: 8
bearing: -0.0
intensity: 22.0139713287
---
header: 
  seq: 1150695
  stamp: 
    secs: 1561683082
    nsecs: 405600955
  frame_id: "ti_mmwave"
point_id: 7
x: 1.744140625
y: -0.109375
z: -0.1953125
range: 1.87380969524
velocity: 0.0
doppler_bin: 8
bearing: -3.58831763268
intensity: 28.4757270813
---
header: 
  seq: 1150696
  stamp: 
    secs: 1561683082
