header: 
  seq: 1072878
  stamp: 
    secs: 1561682946
    nsecs: 983930145
  frame_id: "ti_mmwave"
point_id: 0
x: 0.01171875
y: -0.0390625
z: -0.0078125
range: 0.0435769706964
velocity: 0.0
doppler_bin: 8
bearing: -73.3007583618
intensity: 30.7408466339
---
header: 
  seq: 1072879
  stamp: 
    secs: 1561682946
    nsecs: 984028230
  frame_id: "ti_mmwave"
point_id: 1
x: 0.017578125
y: -0.080078125
z: -0.0078125
range: 0.0871539413929
velocity: 0.0
doppler_bin: 8
bearing: -77.6192398071
intensity: 31.9645252228
---
header: 
  seq: 1072880
  stamp: 
    secs: 1561682946
    nsecs: 984047026
  frame_id: "ti_mmwave"
point_id: 2
x: 0.029296875
y: -0.119140625
z: -0.005859375
range: 0.130730912089
velocity: 0.0
doppler_bin: 8
bearing: -76.1849746704
intensity: 30.2160263062
---
header: 
  seq: 1072881
  stamp: 
    secs: 1561682946
    nsecs: 984061340
  frame_id: "ti_mmwave"
point_id: 3
x: 0.056640625
y: -0.154296875
z: 0.005859375
range: 0.174307882786
velocity: 0.0
doppler_bin: 8
bearing: -69.8423843384
intensity: 25.4777469635
---
header: 
  seq: 1072882
  stamp: 
    secs: 1561682946
    nsecs: 984078776
  frame_id: "ti_mmwave"
point_id: 4
x: 0.337890625
y: -0.080078125
z: -1.21875
range: 1.35088610649
velocity: 0.0
doppler_bin: 8
bearing: -13.332783699
intensity: 21.9589958191
---
header: 
  seq: 1072883
  stamp: 
    secs: 1561682946
    nsecs: 984095700
  frame_id: "ti_mmwave"
point_id: 5
x: 0.294921875
y: -0.041015625
z: 1.275390625
range: 1.39446306229
velocity: 0.0
doppler_bin: 8
bearing: -7.91750335693
intensity: 23.2428245544
---
header: 
  seq: 1072884
  stamp: 
    secs: 1561682946
    nsecs: 984109385
  frame_id: "ti_mmwave"
point_id: 6
x: 0.419921875
y: -0.0
z: 1.283203125
range: 1.43804001808
velocity: 0.0
doppler_bin: 8
bearing: -0.0
intensity: 21.9312458038
---
header: 
  seq: 1072885
  stamp: 
    secs: 1561682946
    nsecs: 984134279
  frame_id: "ti_mmwave"
point_id: 7
x: 1.787109375
y: -0.056640625
z: -0.20703125
range: 1.91738677025
velocity: 0.0
doppler_bin: 8
bearing: -1.81532406807
intensity: 29.4001808167
---
header: 
  seq: 1072886
  stamp: 
    secs: 1561682946
    nsecs: 984155462
  frame_id: "ti_mmwave"
point_id: 8
x: 1.970703125
y: 0.3125
z: 0.19921875
range: 2.13527154922
velocity: 0.0
doppler_bin: 8
bearing: 9.01052951813
intensity: 28.6746749878
---
header: 
  seq: 1072887
  stamp: 
    secs: 1561682946
    nsecs: 984169359
  frame_id: "ti_mmwave"
point_id: 9
x: 1.9921875
y: 0.3828125
z: 0.265625
range: 2.17884850502
velocity: 0.0
doppler_bin: 8
bearing: 10.8771934509
intensity: 28.8874092102
---
header: 
  seq: 1072888
  stamp: 
    secs: 1561682946
    nsecs: 984190574
  frame_id: "ti_mmwave"
point_id: 10
x: 2.564453125
y: -0.263671875
z: 1.150390625
range: 3.00681090355
velocity: 0.0
doppler_bin: 8
bearing: -5.87040758133
intensity: 29.5133743286
---
header: 
  seq: 1072889
  stamp: 
    secs: 1561682946
    nsecs: 984212355
  frame_id: "ti_mmwave"
point_id: 11
x: 2.615234375
y: -0.267578125
z: 1.134765625
range: 3.05038785934
velocity: 0.0
doppler_bin: 8
bearing: -5.84189844131
intensity: 32.7943878174
---
header: 
  seq: 1072890
  stamp: 
    secs: 1561682946
    nsecs: 984229471
  frame_id: "ti_mmwave"
point_id: 12
x: 2.669921875
y: -0.271484375
z: 1.111328125
range: 3.09396481514
velocity: 0.0
doppler_bin: 8
bearing: -5.80602359772
intensity: 32.0139694214
---
header: 
  seq: 1072891
  stamp: 
    secs: 1561682946
    nsecs: 984329367
  frame_id: "ti_mmwave"
point_id: 14
x: 0.041015625
y: -0.033203125
z: 0.0625
range: 0.0871539413929
velocity: 0.0
doppler_bin: 8
bearing: -38.9909973145
intensity: 30.1283721924
---
header: 
  seq: 1072892
  stamp: 
    secs: 1561682946
    nsecs: 984346525
  frame_id: "ti_mmwave"
point_id: 15
x: 0.044921875
y: -0.046875
z: 0.103515625
range: 0.130730912089
velocity: 0.0
doppler_bin: 8
bearing: -46.218875885
intensity: 28.9982051849
---
header: 
  seq: 1072893
  stamp: 
    secs: 1561682946
    nsecs: 984364208
  frame_id: "ti_mmwave"
point_id: 17
x: 1.20703125
y: 0.357421875
z: 0.16015625
range: 1.35088610649
velocity: 0.0
doppler_bin: 8
bearing: 16.4948921204
intensity: 19.1907806396
---
header: 
  seq: 1072894
  stamp: 
    secs: 1561682946
    nsecs: 984377825
  frame_id: "ti_mmwave"
point_id: 18
x: 0.775390625
y: -0.375
z: 1.810546875
range: 2.13527154922
velocity: 0.0
doppler_bin: 8
bearing: -25.8096733093
intensity: 26.1066017151
---
header: 
  seq: 1072895
  stamp: 
    secs: 1561682946
    nsecs: 985379522
  frame_id: "ti_mmwave"
point_id: 0
x: 0.01171875
y: -0.0390625
z: -0.0078125
range: 0.0435769706964
velocity: 0.0
doppler_bin: 8
bearing: -73.3007583618
intensity: 30.7445068359
---
header: 
  seq: 1072896
  stamp: 
    secs: 1561682946
    nsecs: 985423333
  frame_id: "ti_mmwave"
point_id: 1
x: 0.017578125
y: -0.080078125
z: -0.0078125
range: 0.0871539413929
velocity: 0.0
doppler_bin: 8
bearing: -77.6192398071
intensity: 31.9645252228
---
header: 
  seq: 1072897
  stamp: 
    secs: 1561682946
    nsecs: 985439159
  frame_id: "ti_mmwave"
point_id: 2
x: 0.041015625
y: -0.115234375
z: -0.0078125
range: 0.130730912089
velocity: 0.0
doppler_bin: 8
bearing: -70.4077224731
intensity: 30.2160263062
---
header: 
  seq: 1072898
  stamp: 
    secs: 1561682946
    nsecs: 985454933
  frame_id: "ti_mmwave"
point_id: 3
x: 0.056640625
y: -0.154296875
z: 0.005859375
range: 0.174307882786
velocity: 0.0
doppler_bin: 8
bearing: -69.8423843384
intensity: 25.4777469635
---
header: 
  seq: 1072899
  stamp: 
    secs: 1561682946
    nsecs: 985468360
  frame_id: "ti_mmwave"
point_id: 4
x: 0.34765625
y: -0.080078125
z: -1.216796875
range: 1.35088610649
velocity: 0.0
doppler_bin: 8
bearing: -12.9711065292
intensity: 21.9312458038
---
header: 
  seq: 1072900
  stamp: 
    secs: 1561682946
    nsecs: 985482048
  frame_id: "ti_mmwave"
point_id: 5
x: 0.30078125
y: -0.041015625
z: 1.2734375
range: 1.39446306229
velocity: 0.0
doppler_bin: 8
bearing: -7.76516628265
intensity: 23.2428245544
---
header: 
  seq: 1072901
  stamp: 
    secs: 1561682946
    nsecs: 985495485
  frame_id: "ti_mmwave"
point_id: 6
x: 0.443359375
y: -0.0
z: 1.275390625
range: 1.43804001808
velocity: 0.0
doppler_bin: 8
bearing: -0.0
intensity: 21.9033164978
---
header: 
  seq: 1072902
  stamp: 
    secs: 1561682946
    nsecs: 985508887
  frame_id: "ti_mmwave"
point_id: 7
x: 1.740234375
y: -0.1640625
z: -0.203125
range: 1.87380969524
velocity: 0.0
doppler_bin: 8
bearing: -5.38570404053
intensity: 28.864906311
---
header: 
  seq: 1072903
  stamp: 
    secs: 1561682946
    nsecs: 985524221
  frame_id: "ti_mmwave"
point_id: 8
x: 1.78515625
y: -0.11328125
z: -0.19921875
range: 1.91738677025
velocity: 0.0
doppler_bin: 8
bearing: -3.63096880913
intensity: 31.1527767181
---
header: 
  seq: 1072904
  stamp: 
    secs: 1561682946
    nsecs: 985537642
  frame_id: "ti_mmwave"
point_id: 9
x: 1.830078125
y: -0.115234375
z: -0.16796875
range: 1.96096372604
velocity: 0.0
doppler_bin: 8
bearing: -3.60298156738
intensity: 30.3181228638
---
header: 
  seq: 1072905
  stamp: 
    secs: 1561682946
    nsecs: 985551074
  frame_id: "ti_mmwave"
point_id: 10
x: 1.87109375
y: -0.17578125
z: -0.08203125
range: 2.00454068184
velocity: 0.0
doppler_bin: 8
bearing: -5.36694097519
intensity: 27.3239383698
---
header: 
  seq: 1072906
  stamp: 
    secs: 1561682946
    nsecs: 985567891
  frame_id: "ti_mmwave"
point_id: 11
x: 2.552734375
y: -0.263671875
z: 1.17578125
range: 3.00681090355
velocity: 0.0
doppler_bin: 8
bearing: -5.89716720581
intensity: 29.5856380463
---
header: 
  seq: 1072907
  stamp: 
    secs: 1561682946
    nsecs: 985581975
  frame_id: "ti_mmwave"
point_id: 12
x: 2.603515625
y: -0.267578125
z: 1.162109375
range: 3.05038785934
velocity: 0.0
doppler_bin: 8
bearing: -5.8680100441
intensity: 32.8148803711
---
header: 
  seq: 1072908
  stamp: 
    secs: 1561682946
    nsecs: 985596568
  frame_id: "ti_mmwave"
point_id: 13
x: 2.666015625
y: -0.181640625
z: 1.140625
range: 3.09396481514
velocity: 0.0
doppler_bin: 8
bearing: -3.89764523506
intensity: 32.0057678223
---
header: 
  seq: 1072909
  stamp: 
    secs: 1561682946
    nsecs: 985610604
  frame_id: "ti_mmwave"
point_id: 14
x: 4.412109375
y: -0.287109375
z: 1.19921875
range: 4.88062095642
velocity: 0.0
doppler_bin: 8
bearing: -3.72316122055
intensity: 30.9131507874
---
header: 
  seq: 1072910
  stamp: 
    secs: 1561682946
    nsecs: 985635803
  frame_id: "ti_mmwave"
point_id: 15
x: 4.478515625
y: -0.2890625
z: 1.10546875
range: 4.9241976738
velocity: 0.0
doppler_bin: 8
bearing: -3.69299149513
intensity: 30.6107540131
---
header: 
  seq: 1072911
  stamp: 
    secs: 1561682946
    nsecs: 985663517
  frame_id: "ti_mmwave"
point_id: 17
x: 0.041015625
y: -0.033203125
z: 0.0625
range: 0.0871539413929
velocity: 0.0
doppler_bin: 8
bearing: -38.9909973145
intensity: 30.1283721924
---
header: 
  seq: 1072912
  stamp: 
    secs: 1561682946
    nsecs: 985745317
  frame_id: "ti_mmwave"
point_id: 18
x: 0.044921875
y: -0.046875
z: 0.103515625
range: 0.130730912089
velocity: 0.0
doppler_bin: 8
bearing: -46.218875885
intensity: 29.0036716461
---
header: 
  seq: 1072913
  stamp: 
    secs: 1561682946
    nsecs: 985764791
  frame_id: "ti_mmwave"
point_id: 20
x: 1.208984375
y: 0.357421875
z: 0.13671875
range: 1.35088610649
velocity: 0.0
doppler_bin: 8
bearing: 16.4696884155
intensity: 19.2427921295
---
header: 
  seq: 1072914
  stamp: 
    secs: 1561682946
    nsecs: 985780039
  frame_id: "ti_mmwave"
point_id: 21
x: 2.89453125
y: -2.00390625
z: -2.931640625
range: 4.88062095642
velocity: 0.0
doppler_bin: 8
bearing: -34.6951560974
intensity: 27.9934062958
---
header: 
  seq: 1072915
  stamp: 
    secs: 1561682947
    nsecs:  43858809
  frame_id: "ti_mmwave"
point_id: 0
x: 0.01171875
y: -0.0390625
z: -0.0078125
range: 0.0435769706964
velocity: 0.0
doppler_bin: 8
bearing: -73.3007583618
intensity: 30.7408466339
---
header: 
  seq: 1072916
  stamp: 
    secs: 1561682947
    nsecs:  43917385
  frame_id: "ti_mmwave"
point_id: 1
x: 0.017578125
y: -0.080078125
z: -0.0078125
range: 0.0871539413929
velocity: 0.0
doppler_bin: 8
bearing: -77.6192398071
intensity: 31.9645252228
---
header: 
  seq: 1072917
  stamp: 
    secs: 1561682947
    nsecs:  43928255
  frame_id: "ti_mmwave"
point_id: 2
x: 0.029296875
y: -0.119140625
z: -0.005859375
range: 0.130730912089
velocity: 0.0
doppler_bin: 8
bearing: -76.1849746704
intensity: 30.2160263062
---
header: 
  seq: 1072918
  stamp: 
    secs: 1561682947
    nsecs:  43936946
  frame_id: "ti_mmwave"
point_id: 3
x: 0.056640625
y: -0.154296875
z: 0.005859375
range: 0.174307882786
velocity: 0.0
doppler_bin: 8
bearing: -69.8423843384
intensity: 25.4777469635
---
header: 
  seq: 1072919
  stamp: 
    secs: 1561682947
    nsecs:  43944771
  frame_id: "ti_mmwave"
point_id: 4
x: 0.3515625
y: -0.080078125
z: -1.21484375
range: 1.35088610649
velocity: 0.0
doppler_bin: 8
bearing: -12.83177948
intensity: 21.875207901
---
header: 
  seq: 1072920
  stamp: 
    secs: 1561682947
    nsecs:  43953194
  frame_id: "ti_mmwave"
point_id: 5
x: 0.259765625
y: -0.041015625
z: 1.283203125
range: 1.39446306229
velocity: 0.0
doppler_bin: 8
bearing: -8.9726266861
intensity: 23.2221927643
---
header: 
  seq: 1072921
  stamp: 
    secs: 1561682947
    nsecs:  43960975
  frame_id: "ti_mmwave"
point_id: 6
x: 0.400390625
y: -0.0
z: 1.2890625
range: 1.43804001808
velocity: 0.0
doppler_bin: 8
bearing: -0.0
intensity: 21.875207901
---
header: 
  seq: 1072922
  stamp: 
    secs: 1561682947
    nsecs:  43971439
  frame_id: "ti_mmwave"
point_id: 7
x: 1.875
y: -0.419921875
z: 0.080078125
range: 2.04811763763
velocity: 0.0
doppler_bin: 8
bearing: -12.6235637665
intensity: 27.2263393402
---
header: 
  seq: 1072923
  stamp: 
    secs: 1561682947
    nsecs:  43980760
  frame_id: "ti_mmwave"
point_id: 8
x: 2.556640625
y: -0.263671875
z: 1.1640625
range: 3.00681090355
velocity: 0.0
doppler_bin: 8
bearing: -5.88822031021
intensity: 29.5085144043
---
header: 
  seq: 1072924
  stamp: 
    secs: 1561682947
    nsecs:  43991262
  frame_id: "ti_mmwave"
point_id: 9
x: 2.611328125
y: -0.267578125
z: 1.14453125
range: 3.05038785934
velocity: 0.0
doppler_bin: 8
bearing: -5.85057687759
intensity: 32.8012275696
---
header: 
  seq: 1072925
  stamp: 
    secs: 1561682947
    nsecs:  44127267
  frame_id: "ti_mmwave"
point_id: 10
x: 2.671875
y: -0.271484375
z: 1.10546875
range: 3.09396481514
velocity: 0.0
doppler_bin: 8
bearing: -5.80180835724
intensity: 32.0248832703
---
header: 
  seq: 1072926
  stamp: 
    secs: 1561682947
    nsecs:  44145771
  frame_id: "ti_mmwave"
point_id: 11
x: 4.4140625
y: -0.287109375
z: 1.19140625
range: 4.88062095642
velocity: 0.0
doppler_bin: 8
bearing: -3.72151875496
intensity: 31.0414562225
---
header: 
  seq: 1072927
  stamp: 
    secs: 1561682947
    nsecs:  44154284
  frame_id: "ti_mmwave"
point_id: 12
x: 4.47265625
y: -0.2890625
z: 1.134765625
range: 4.9241976738
velocity: 0.0
doppler_bin: 8
bearing: -3.6978161335
intensity: 30.3059978485
---
header: 
  seq: 1072928
  stamp: 
    secs: 1561682947
    nsecs:  44162324
  frame_id: "ti_mmwave"
point_id: 13
x: 1.77734375
y: -0.11328125
z: -0.265625
range: 1.91738677025
velocity: 0.614668667316
doppler_bin: 9
bearing: -3.64688611031
intensity: 27.3798732758
---
header: 
  seq: 1072929
  stamp: 
    secs: 1561682947
    nsecs:  44169956
  frame_id: "ti_mmwave"
point_id: 14
x: 1.818359375
y: -0.056640625
z: -0.279296875
range: 1.96096372604
velocity: 0.614668667316
doppler_bin: 9
bearing: -1.78414654732
intensity: 26.1278381348
---
header: 
  seq: 1072930
  stamp: 
    secs: 1561682947
    nsecs:  44184939
  frame_id: "ti_mmwave"
point_id: 16
x: 0.041015625
y: -0.033203125
z: 0.0625
range: 0.0871539413929
velocity: 0.0
doppler_bin: 8
bearing: -38.9909973145
intensity: 30.1283721924
---
header: 
  seq: 1072931
  stamp: 
    secs: 1561682947
    nsecs:  44252338
  frame_id: "ti_mmwave"
point_id: 17
x: 0.0546875
y: -0.04296875
z: 0.1015625
range: 0.130730912089
velocity: 0.0
doppler_bin: 8
bearing: -38.1572265625
intensity: 29.0036716461
---
header: 
  seq: 1072932
  stamp: 
    secs: 1561682947
    nsecs:  44264032
  frame_id: "ti_mmwave"
point_id: 19
x: 1.20703125
y: 0.357421875
z: 0.15625
range: 1.35088610649
velocity: 0.0
doppler_bin: 8
bearing: 16.4948921204
intensity: 19.1907806396
---
header: 
  seq: 1072933
  stamp: 
    secs: 1561682947
    nsecs:  44272058
  frame_id: "ti_mmwave"
point_id: 20
x: 2.94921875
y: -2.021484375
z: -2.9296875
range: 4.9241976738
velocity: 0.0
doppler_bin: 8
bearing: -34.4279289246
intensity: 27.3078231812
---
header: 
  seq: 1072934
  stamp: 
    secs: 1561682947
    nsecs: 103954787
  frame_id: "ti_mmwave"
point_id: 0
x: 0.01171875
y: -0.0390625
z: -0.0078125
range: 0.0435769706964
velocity: 0.0
doppler_bin: 8
bearing: -73.3007583618
intensity: 30.7371826172
---
header: 
  seq: 1072935
  stamp: 
    secs: 1561682947
    nsecs: 104027704
  frame_id: "ti_mmwave"
point_id: 1
x: 0.017578125
y: -0.080078125
z: -0.0078125
range: 0.0871539413929
velocity: 0.0
doppler_bin: 8
bearing: -77.6192398071
intensity: 31.9672870636
---
header: 
  seq: 1072936
  stamp: 
    secs: 1561682947
    nsecs: 104040849
  frame_id: "ti_mmwave"
point_id: 2
x: 0.041015625
y: -0.115234375
z: -0.0078125
range: 0.130730912089
velocity: 0.0
doppler_bin: 8
bearing: -70.4077224731
intensity: 30.2201576233
---
header: 
  seq: 1072937
  stamp: 
    secs: 1561682947
    nsecs: 104049261
  frame_id: "ti_mmwave"
point_id: 3
x: 0.056640625
y: -0.154296875
z: 0.005859375
range: 0.174307882786
velocity: 0.0
doppler_bin: 8
bearing: -69.8423843384
intensity: 25.490032196
---
header: 
  seq: 1072938
  stamp: 
    secs: 1561682947
    nsecs: 104058980
  frame_id: "ti_mmwave"
point_id: 4
x: 0.349609375
y: -0.080078125
z: -1.216796875
range: 1.35088610649
velocity: 0.0
doppler_bin: 8
bearing: -12.9010734558
intensity: 21.875207901
---
header: 
  seq: 1072939
  stamp: 
    secs: 1561682947
    nsecs: 104067103
  frame_id: "ti_mmwave"
point_id: 5
x: 0.302734375
y: -0.041015625
z: 1.2734375
range: 1.39446306229
velocity: 0.0
doppler_bin: 8
bearing: -7.71567344666
intensity: 23.2014636993
---
header: 
  seq: 1072940
  stamp: 
    secs: 1561682947
    nsecs: 104074752
  frame_id: "ti_mmwave"
point_id: 6
x: 0.4140625
y: -0.0
z: 1.28515625
range: 1.43804001808
velocity: 0.0
doppler_bin: 8
bearing: -0.0
intensity: 21.875207901
---
header: 
  seq: 1072941
  stamp: 
    secs: 1561682947
    nsecs: 104082855
  frame_id: "ti_mmwave"
point_id: 7
x: 2.564453125
y: -0.263671875
z: 1.1484375
range: 3.00681090355
velocity: 0.0
doppler_bin: 8
bearing: -5.87040758133
intensity: 29.5327625275
---
header: 
  seq: 1072942
  stamp: 
    secs: 1561682947
    nsecs: 104090856
  frame_id: "ti_mmwave"
point_id: 8
x: 2.6171875
y: -0.267578125
z: 1.130859375
range: 3.05038785934
velocity: 0.0
doppler_bin: 8
bearing: -5.83756875992
intensity: 32.8307495117
---
header: 
  seq: 1072943
  stamp: 
    secs: 1561682947
    nsecs: 104100094
  frame_id: "ti_mmwave"
point_id: 9
x: 2.673828125
y: -0.271484375
z: 1.099609375
range: 3.09396481514
velocity: 0.0
doppler_bin: 8
bearing: -5.79759931564
intensity: 32.0655593872
---
header: 
  seq: 1072944
  stamp: 
    secs: 1561682947
    nsecs: 104108157
  frame_id: "ti_mmwave"
point_id: 10
x: 4.3984375
y: -0.287109375
z: 1.251953125
range: 4.88062095642
velocity: 0.0
doppler_bin: 8
bearing: -3.73470139503
intensity: 31.0002574921
---
header: 
  seq: 1072945
  stamp: 
    secs: 1561682947
    nsecs: 104116829
  frame_id: "ti_mmwave"
point_id: 11
x: 4.443359375
y: -0.2890625
z: 1.244140625
range: 4.9241976738
velocity: 0.0
doppler_bin: 8
bearing: -3.72212862968
intensity: 30.6669845581
---
header: 
  seq: 1072946
  stamp: 
    secs: 1561682947
    nsecs: 104127886
  frame_id: "ti_mmwave"
point_id: 13
x: 0.041015625
y: -0.033203125
z: 0.0625
range: 0.0871539413929
velocity: 0.0
doppler_bin: 8
bearing: -38.9909973145
intensity: 30.1241531372
---
header: 
  seq: 1072947
  stamp: 
    secs: 1561682947
    nsecs: 104136037
  frame_id: "ti_mmwave"
point_id: 14
x: 0.044921875
y: -0.046875
z: 0.103515625
range: 0.130730912089
velocity: 0.0
doppler_bin: 8
bearing: -46.218875885
intensity: 29.0036716461
---
header: 
  seq: 1072948
  stamp: 
    secs: 1561682947
    nsecs: 104145976
  frame_id: "ti_mmwave"
point_id: 16
x: 1.212890625
y: 0.357421875
z: 0.1015625
range: 1.35088610649
velocity: 0.0
doppler_bin: 8
bearing: 16.419506073
intensity: 19.1907806396
---
header: 
  seq: 1072949
  stamp: 
    secs: 1561682947
    nsecs: 105366467
  frame_id: "ti_mmwave"
point_id: 0
x: 0.01171875
y: -0.0390625
z: -0.0078125
range: 0.0435769706964
velocity: 0.0
doppler_bin: 8
bearing: -73.3007583618
intensity: 30.7371826172
---
header: 
  seq: 1072950
  stamp: 
    secs: 1561682947
    nsecs: 105400330
  frame_id: "ti_mmwave"
point_id: 1
x: 0.017578125
y: -0.080078125
z: -0.0078125
range: 0.0871539413929
velocity: 0.0
doppler_bin: 8
bearing: -77.6192398071
intensity: 31.9645252228
---
header: 
  seq: 1072951
  stamp: 
    secs: 1561682947
    nsecs: 105409390
  frame_id: "ti_mmwave"
point_id: 2
x: 0.029296875
y: -0.119140625
z: -0.005859375
range: 0.130730912089
velocity: 0.0
doppler_bin: 8
bearing: -76.1849746704
intensity: 30.2201576233
---
header: 
  seq: 1072952
  stamp: 
    secs: 1561682947
    nsecs: 105417545
  frame_id: "ti_mmwave"
point_id: 3
x: 0.056640625
y: -0.154296875
z: 0.005859375
range: 0.174307882786
velocity: 0.0
doppler_bin: 8
bearing: -69.8423843384
intensity: 25.490032196
---
header: 
  seq: 1072953
  stamp: 
    secs: 1561682947
    nsecs: 105425746
  frame_id: "ti_mmwave"
point_id: 4
x: 0.40234375
y: -0.080078125
z: -1.19921875
range: 1.35088610649
velocity: 0.0
doppler_bin: 8
bearing: -11.2564353943
intensity: 21.9312458038
---
header: 
  seq: 1072954
  stamp: 
    secs: 1561682947
    nsecs: 105435124
  frame_id: "ti_mmwave"
point_id: 5
x: 0.263671875
y: -0.041015625
z: 1.28125
range: 1.39446306229
velocity: 0.0
doppler_bin: 8
bearing: -8.84181499481
intensity: 23.2837963104
---
header: 
  seq: 1072955
  stamp: 
    secs: 1561682947
    nsecs: 105443154
  frame_id: "ti_mmwave"
point_id: 6
x: 0.396484375
y: -0.0
z: 1.291015625
range: 1.43804001808
velocity: 0.0
doppler_bin: 8
bearing: -0.0
intensity: 21.9865703583
---
header: 
  seq: 1072956
  stamp: 
    secs: 1561682947
    nsecs: 105451903
  frame_id: "ti_mmwave"
point_id: 7
x: 1.779296875
y: -0.16796875
z: -0.2109375
range: 1.91738677025
velocity: 0.0
doppler_bin: 8
bearing: -5.39284038544
intensity: 28.3442077637
---
header: 
  seq: 1072957
  stamp: 
    secs: 1561682947
    nsecs: 105459498
  frame_id: "ti_mmwave"
point_id: 8
x: 1.82421875
y: -0.115234375
z: -0.220703125
range: 1.96096372604
velocity: 0.0
doppler_bin: 8
bearing: -3.61452412605
intensity: 27.9239177704
---
header: 
  seq: 1072958
  stamp: 
    secs: 1561682947
    nsecs: 105467223
  frame_id: "ti_mmwave"
point_id: 9
x: 1.892578125
y: -0.240234375
z: 0.232421875
range: 2.04811763763
velocity: 0.0
doppler_bin: 8
bearing: -7.23415136337
intensity: 28.5672893524
---
header: 
  seq: 1072959
  stamp: 
    secs: 1561682947
    nsecs: 105475342
  frame_id: "ti_mmwave"
point_id: 10
x: 1.8984375
y: -0.24609375
z: 0.435546875
range: 2.09169459343
velocity: 0.0
doppler_bin: 8
bearing: -7.38604259491
intensity: 29.9738636017
---
header: 
  seq: 1072960
  stamp: 
    secs: 1561682947
    nsecs: 105483356
  frame_id: "ti_mmwave"
point_id: 11
x: 1.927734375
y: -0.25
z: 0.490234375
range: 2.13527154922
velocity: 0.0
doppler_bin: 8
bearing: -7.38921546936
intensity: 29.2788333893
---
header: 
  seq: 1072961
  stamp: 
    secs: 1561682947
    nsecs: 105491123
  frame_id: "ti_mmwave"
point_id: 12
x: 2.580078125
y: -0.263671875
z: 1.11328125
range: 3.00681090355
velocity: 0.0
doppler_bin: 8
bearing: -5.83510255814
intensity: 29.3550720215
---
header: 
  seq: 1072962
  stamp: 
    secs: 1561682947
    nsecs: 105500272
  frame_id: "ti_mmwave"
point_id: 13
x: 2.6171875
y: -0.267578125
z: 1.130859375
range: 3.05038785934
velocity: 0.0
doppler_bin: 8
bearing: -5.83756875992
intensity: 32.743888855
---
header: 
  seq: 1072963
  stamp: 
    secs: 1561682947
    nsecs: 105509865
  frame_id: "ti_mmwave"
point_id: 14
x: 2.666015625
y: -0.271484375
z: 1.1171875
range: 3.09396481514
velocity: 0.0
doppler_bin: 8
bearing: -5.81447267532
intensity: 31.9506893158
---
header: 
  seq: 1072964
  stamp: 
    secs: 1561682947
    nsecs: 105518653
  frame_id: "ti_mmwave"
point_id: 15
x: 4.421875
y: -0.287109375
z: 1.16796875
range: 4.88062095642
velocity: 0.0
doppler_bin: 8
bearing: -3.7149617672
intensity: 31.4829406738
---
header: 
  seq: 1072965
  stamp: 
    secs: 1561682947
    nsecs: 105526791
  frame_id: "ti_mmwave"
point_id: 16
x: 4.46875
y: -0.2890625
z: 1.142578125
range: 4.9241976738
velocity: 0.0
doppler_bin: 8
bearing: -3.70103907585
intensity: 31.0653076172
---
header: 
  seq: 1072966
  stamp: 
    secs: 1561682947
    nsecs: 105534898
  frame_id: "ti_mmwave"
point_id: 17
x: 4.8671875
y: -0.30859375
z: 0.841796875
range: 5.27281332016
velocity: 0.0
doppler_bin: 8
bearing: -3.62786221504
intensity: 29.8989448547
---
header: 
  seq: 1072967
  stamp: 
    secs: 1561682947
    nsecs: 105545231
  frame_id: "ti_mmwave"
point_id: 19
x: 0.041015625
y: -0.033203125
z: 0.0625
range: 0.0871539413929
velocity: 0.0
doppler_bin: 8
bearing: -38.9909973145
intensity: 30.1241531372
---
header: 
  seq: 1072968
  stamp: 
    secs: 1561682947
    nsecs: 105608884
  frame_id: "ti_mmwave"
point_id: 20
x: 0.052734375
y: -0.04296875
z: 0.1015625
range: 0.130730912089
velocity: 0.0
doppler_bin: 8
bearing: -39.1736602783
intensity: 28.9982051849
---
header: 
  seq: 1072969
  stamp: 
    secs: 1561682947
    nsecs: 105619320
  frame_id: "ti_mmwave"
point_id: 22
x: 1.11328125
y: -0.474609375
z: 0.376953125
range: 1.35088610649
velocity: 0.0
doppler_bin: 8
bearing: -23.0893154144
intensity: 19.0308990479
---
header: 
  seq: 1072970
  stamp: 
    secs: 1561682947
    nsecs: 105629199
  frame_id: "ti_mmwave"
point_id: 23
x: 1.8828125
y: -0.3671875
z: 0.421875
range: 2.09169459343
velocity: 0.0
doppler_bin: 8
bearing: -11.0353536606
intensity: 29.9475688934
---
header: 
  seq: 1072971
  stamp: 
    secs: 1561682947
    nsecs: 105636848
  frame_id: "ti_mmwave"
point_id: 24
x: 4.796875
y: -0.619140625
z: 1.0546875
range: 5.27281332016
velocity: 0.0
doppler_bin: 8
bearing: -7.3545999527
intensity: 29.8272342682
---
header: 
  seq: 1072972
  stamp: 
    secs: 1561682947
    nsecs: 163928330
  frame_id: "ti_mmwave"
point_id: 0
x: 0.01171875
y: -0.0390625
z: -0.0078125
range: 0.0435769706964
velocity: 0.0
doppler_bin: 8
bearing: -73.3007583618
intensity: 30.7408466339
---
header: 
  seq: 1072973
  stamp: 
    secs: 1561682947
    nsecs: 164023320
  frame_id: "ti_mmwave"
point_id: 1
x: 0.017578125
y: -0.080078125
z: -0.0078125
range: 0.0871539413929
velocity: 0.0
doppler_bin: 8
bearing: -77.6192398071
intensity: 31.9645252228
---
header: 
  seq: 1072974
  stamp: 
    secs: 1561682947
    nsecs: 164047076
  frame_id: "ti_mmwave"
point_id: 2
x: 0.041015625
y: -0.115234375
z: -0.0078125
range: 0.130730912089
velocity: 0.0
doppler_bin: 8
bearing: -70.4077224731
intensity: 30.2160263062
---
header: 
  seq: 1072975
  stamp: 
    secs: 1561682947
    nsecs: 164065168
  frame_id: "ti_mmwave"
point_id: 3
x: 0.056640625
y: -0.154296875
z: 0.005859375
range: 0.174307882786
velocity: 0.0
doppler_bin: 8
bearing: -69.8423843384
intensity: 25.5022830963
---
header: 
  seq: 1072976
  stamp: 
    secs: 1561682947
    nsecs: 164097825
  frame_id: "ti_mmwave"
point_id: 4
x: 0.357421875
y: -0.080078125
z: -1.21484375
range: 1.35088610649
velocity: 0.0
doppler_bin: 8
bearing: -12.6282215118
intensity: 21.9312458038
---
header: 
  seq: 1072977
  stamp: 
    secs: 1561682947
    nsecs: 164119508
  frame_id: "ti_mmwave"
point_id: 5
x: 0.302734375
y: -0.041015625
z: 1.2734375
range: 1.39446306229
velocity: 0.0
doppler_bin: 8
bearing: -7.71567344666
intensity: 23.2221927643
---
header: 
  seq: 1072978
  stamp: 
    secs: 1561682947
    nsecs: 164227743
  frame_id: "ti_mmwave"
point_id: 6
x: 0.416015625
y: -0.0
z: 1.28515625
range: 1.43804001808
velocity: 0.0
doppler_bin: 8
bearing: -0.0
intensity: 21.9033164978
---
header: 
  seq: 1072979
  stamp: 
    secs: 1561682947
    nsecs: 164247587
  frame_id: "ti_mmwave"
point_id: 7
x: 1.865234375
y: -0.419921875
z: 0.1953125
range: 2.04811763763
velocity: 0.0
doppler_bin: 8
bearing: -12.6875209808
intensity: 27.2181053162
---
header: 
  seq: 1072980
  stamp: 
    secs: 1561682947
    nsecs: 164261361
  frame_id: "ti_mmwave"
point_id: 8
x: 1.8828125
y: -0.4296875
z: 0.353515625
range: 2.09169459343
velocity: 0.0
doppler_bin: 8
bearing: -12.8556346893
intensity: 29.8091201782
---
header: 
  seq: 1072981
  stamp: 
    secs: 1561682947
    nsecs: 164273736
  frame_id: "ti_mmwave"
point_id: 9
x: 1.880859375
y: -0.4375
z: 0.53515625
range: 2.13527154922
velocity: 0.0
doppler_bin: 8
bearing: -13.0945186615
intensity: 28.8195495605
---
header: 
  seq: 1072982
  stamp: 
    secs: 1561682947
    nsecs: 164287975
  frame_id: "ti_mmwave"
point_id: 10
x: 2.5546875
y: -0.263671875
z: 1.171875
range: 3.00681090355
velocity: 0.0
doppler_bin: 8
bearing: -5.89269018173
intensity: 29.4743366241
---
header: 
  seq: 1072983
  stamp: 
    secs: 1561682947
    nsecs: 164300966
  frame_id: "ti_mmwave"
point_id: 11
x: 2.607421875
y: -0.267578125
z: 1.15234375
range: 3.05038785934
velocity: 0.0
doppler_bin: 8
bearing: -5.85928010941
intensity: 32.7783851624
---
header: 
  seq: 1072984
  stamp: 
    secs: 1561682947
    nsecs: 164312582
  frame_id: "ti_mmwave"
point_id: 12
x: 2.666015625
y: -0.271484375
z: 1.119140625
range: 3.09396481514
velocity: 0.0
doppler_bin: 8
bearing: -5.81447267532
intensity: 31.9893188477
---
header: 
  seq: 1072985
  stamp: 
    secs: 1561682947
    nsecs: 164323479
  frame_id: "ti_mmwave"
point_id: 13
x: 4.41015625
y: -0.287109375
z: 1.20703125
range: 4.88062095642
velocity: 0.0
doppler_bin: 8
bearing: -3.72480559349
intensity: 30.8206691742
---
header: 
  seq: 1072986
  stamp: 
    secs: 1561682947
    nsecs: 164336039
  frame_id: "ti_mmwave"
point_id: 14
x: 4.462890625
y: -0.2890625
z: 1.169921875
range: 4.9241976738
velocity: 0.0
doppler_bin: 8
bearing: -3.70588517189
intensity: 30.2407493591
---
header: 
  seq: 1072987
  stamp: 
    secs: 1561682947
    nsecs: 164350630
  frame_id: "ti_mmwave"
point_id: 16
x: 0.041015625
y: -0.033203125
z: 0.0625
range: 0.0871539413929
velocity: 0.0
doppler_bin: 8
bearing: -38.9909973145
intensity: 30.1241531372
---
header: 
  seq: 1072988
  stamp: 
    secs: 1561682947
    nsecs: 164362232
  frame_id: "ti_mmwave"
point_id: 17
x: 0.044921875
y: -0.046875
z: 0.103515625
range: 0.130730912089
velocity: 0.0
doppler_bin: 8
bearing: -46.218875885
intensity: 28.9982051849
---
header: 
  seq: 1072989
  stamp: 
    secs: 1561682947
    nsecs: 164374861
  frame_id: "ti_mmwave"
point_id: 19
x: 1.2109375
y: 0.357421875
z: 0.12109375
range: 1.35088610649
velocity: 0.0
doppler_bin: 8
bearing: 16.4445590973
intensity: 19.1381378174
---
header: 
  seq: 1072990
  stamp: 
    secs: 1561682947
    nsecs: 164400617
  frame_id: "ti_mmwave"
point_id: 20
x: 1.98828125
y: 0.125
z: -0.2265625
range: 2.13527154922
velocity: 0.0
doppler_bin: 8
bearing: 3.59735774994
intensity: 26.6651802063
---
header: 
  seq: 1072991
  stamp: 
    secs: 1561682947
    nsecs: 164422933
  frame_id: "ti_mmwave"
point_id: 21
x: 2.857421875
y: -2.00390625
z: -2.966796875
range: 4.88062095642
velocity: 0.0
doppler_bin: 8
bearing: -35.0419311523
intensity: 27.8247261047
---
header: 
  seq: 1072992
  stamp: 
    secs: 1561682947
    nsecs: 164446905
  frame_id: "ti_mmwave"
point_id: 22
x: 2.919921875
y: -2.021484375
z: -2.958984375
range: 4.9241976738
velocity: 0.0
doppler_bin: 8
bearing: -34.6951560974
intensity: 27.3639640808
---
header: 
  seq: 1072993
  stamp: 
    secs: 1561682947
    nsecs: 165366908
  frame_id: "ti_mmwave"
point_id: 0
x: 0.01171875
y: -0.0390625
z: -0.0078125
range: 0.0435769706964
velocity: 0.0
doppler_bin: 8
bearing: -73.3007583618
intensity: 30.7298469543
---
header: 
  seq: 1072994
  stamp: 
    secs: 1561682947
    nsecs: 165428752
  frame_id: "ti_mmwave"
point_id: 1
x: 0.017578125
y: -0.080078125
z: -0.0078125
range: 0.0871539413929
velocity: 0.0
doppler_bin: 8
bearing: -77.6192398071
intensity: 31.9589958191
---
header: 
  seq: 1072995
  stamp: 
    secs: 1561682947
    nsecs: 165446688
  frame_id: "ti_mmwave"
point_id: 2
x: 0.029296875
y: -0.119140625
z: -0.005859375
range: 0.130730912089
velocity: 0.0
doppler_bin: 8
bearing: -76.1849746704
intensity: 30.2160263062
---
header: 
  seq: 1072996
  stamp: 
    secs: 1561682947
    nsecs: 165460751
  frame_id: "ti_mmwave"
point_id: 3
x: 0.056640625
y: -0.154296875
z: 0.005859375
range: 0.174307882786
velocity: 0.0
doppler_bin: 8
bearing: -69.8423843384
intensity: 25.490032196
---
header: 
  seq: 1072997
  stamp: 
    secs: 1561682947
    nsecs: 165474374
  frame_id: "ti_mmwave"
point_id: 4
x: 0.359375
y: -0.080078125
z: -1.212890625
range: 1.35088610649
velocity: 0.0
doppler_bin: 8
bearing: -12.5617752075
intensity: 21.9033164978
---
header: 
  seq: 1072998
  stamp: 
    secs: 1561682947
    nsecs: 165487908
  frame_id: "ti_mmwave"
point_id: 5
x: 0.291015625
y: -0.041015625
z: 1.275390625
range: 1.39446306229
velocity: 0.0
doppler_bin: 8
bearing: -8.02240371704
intensity: 23.2221927643
---
header: 
  seq: 1072999
  stamp: 
    secs: 1561682947
    nsecs: 165502692
  frame_id: "ti_mmwave"
point_id: 6
x: 0.4140625
y: -0.0
z: 1.28515625
range: 1.43804001808
velocity: 0.0
doppler_bin: 8
bearing: -0.0
intensity: 21.9033164978
---
header: 
  seq: 1073000
  stamp: 
    secs: 1561682947
    nsecs: 165516289
  frame_id: "ti_mmwave"
point_id: 7
x: 1.791015625
y: -0.11328125
z: -0.146484375
range: 1.91738677025
velocity: 0.0
doppler_bin: 8
bearing: -3.61912178993
intensity: 28.1888542175
---
header: 
  seq: 1073001
  stamp: 
    secs: 1561682947
    nsecs: 165529588
  frame_id: "ti_mmwave"
point_id: 8
x: 1.8359375
y: -0.115234375
z: -0.087890625
range: 1.96096372604
velocity: 0.0
doppler_bin: 8
bearing: -3.59151291847
intensity: 28.3884906769
---
header: 
  seq: 1073002
  stamp: 
    secs: 1561682947
    nsecs: 165543943
  frame_id: "ti_mmwave"
point_id: 9
x: 1.84375
y: -0.552734375
z: 0.384765625
range: 2.09169459343
velocity: 0.0
doppler_bin: 8
bearing: -16.6881065369
intensity: 30.2407493591
---
header: 
  seq: 1073003
  stamp: 
    secs: 1561682947
    nsecs: 165557169
  frame_id: "ti_mmwave"
point_id: 10
x: 1.87890625
y: -0.564453125
z: 0.412109375
range: 2.13527154922
velocity: 0.0
doppler_bin: 8
bearing: -16.7210979462
intensity: 29.7543182373
---
header: 
  seq: 1073004
  stamp: 
    secs: 1561682947
    nsecs: 165570176
  frame_id: "ti_mmwave"
point_id: 11
x: 2.55078125
y: -0.263671875
z: 1.177734375
range: 3.00681090355
velocity: 0.0
doppler_bin: 8
bearing: -5.90165042877
intensity: 29.2788333893
---
header: 
  seq: 1073005
  stamp: 
    secs: 1561682947
    nsecs: 165583164
  frame_id: "ti_mmwave"
point_id: 12
x: 2.609375
y: -0.267578125
z: 1.1484375
range: 3.05038785934
velocity: 0.0
doppler_bin: 8
bearing: -5.85492515564
intensity: 32.7067871094
---
header: 
  seq: 1073006
  stamp: 
    secs: 1561682947
    nsecs: 165596397
  frame_id: "ti_mmwave"
point_id: 13
x: 2.666015625
y: -0.271484375
z: 1.1171875
range: 3.09396481514
velocity: 0.0
doppler_bin: 8
bearing: -5.81447267532
intensity: 31.9368095398
---
header: 
  seq: 1073007
  stamp: 
    secs: 1561682947
    nsecs: 165610576
  frame_id: "ti_mmwave"
point_id: 14
x: 4.42578125
y: -0.287109375
z: 1.150390625
range: 4.88062095642
velocity: 0.0
doppler_bin: 8
bearing: -3.7116920948
intensity: 30.8671569824
---
header: 
  seq: 1073008
  stamp: 
    secs: 1561682947
    nsecs: 165623774
  frame_id: "ti_mmwave"
point_id: 15
x: 4.455078125
y: -0.43359375
z: 1.15234375
range: 4.9241976738
velocity: 0.0
doppler_bin: 8
bearing: -5.55884647369
intensity: 30.0086765289
---
header: 
  seq: 1073009
  stamp: 
    secs: 1561682947
    nsecs: 165642218
  frame_id: "ti_mmwave"
point_id: 17
x: 0.041015625
y: -0.033203125
z: 0.0625
range: 0.0871539413929
velocity: 0.0
doppler_bin: 8
bearing: -38.9909973145
intensity: 30.1283721924
---
header: 
  seq: 1073010
  stamp: 
    secs: 1561682947
    nsecs: 165672767
  frame_id: "ti_mmwave"
point_id: 18
x: 0.044921875
y: -0.046875
z: 0.103515625
range: 0.130730912089
velocity: 0.0
doppler_bin: 8
bearing: -46.218875885
intensity: 29.0036716461
---
header: 
  seq: 1073011
  stamp: 
    secs: 1561682947
    nsecs: 165689142
  frame_id: "ti_mmwave"
point_id: 20
x: 1.208984375
y: 0.357421875
z: 0.140625
range: 1.35088610649
velocity: 0.0
doppler_bin: 8
bearing: 16.4696884155
intensity: 19.1907806396
---
header: 
  seq: 1073012
  stamp: 
    secs: 1561682947
    nsecs: 223864007
  frame_id: "ti_mmwave"
point_id: 0
x: 0.01171875
y: -0.0390625
z: -0.0078125
range: 0.0435769706964
velocity: 0.0
doppler_bin: 8
bearing: -73.3007583618
intensity: 30.7408466339
---
header: 
  seq: 1073013
  stamp: 
    secs: 1561682947
    nsecs: 223947944
  frame_id: "ti_mmwave"
point_id: 1
x: 0.017578125
y: -0.080078125
z: -0.0078125
range: 0.0871539413929
velocity: 0.0
doppler_bin: 8
bearing: -77.6192398071
intensity: 31.9645252228
---
header: 
  seq: 1073014
  stamp: 
    secs: 1561682947
    nsecs: 223965247
  frame_id: "ti_mmwave"
point_id: 2
x: 0.029296875
y: -0.119140625
z: -0.005859375
range: 0.130730912089
velocity: 0.0
doppler_bin: 8
bearing: -76.1849746704
intensity: 30.2201576233
---
header: 
  seq: 1073015
  stamp: 
    secs: 1561682947
    nsecs: 223986716
  frame_id: "ti_mmwave"
point_id: 3
x: 0.056640625
y: -0.154296875
z: 0.005859375
range: 0.174307882786
velocity: 0.0
doppler_bin: 8
bearing: -69.8423843384
intensity: 25.490032196
---
header: 
  seq: 1073016
  stamp: 
    secs: 1561682947
    nsecs: 224001050
  frame_id: "ti_mmwave"
point_id: 4
x: 0.3515625
y: -0.080078125
z: -1.216796875
range: 1.35088610649
velocity: 0.0
doppler_bin: 8
bearing: -12.83177948
intensity: 21.9589958191
---
header: 
  seq: 1073017
  stamp: 
    secs: 1561682947
    nsecs: 224014284
  frame_id: "ti_mmwave"
point_id: 5
x: 0.2890625
y: -0.041015625
z: 1.275390625
range: 1.39446306229
velocity: 0.0
doppler_bin: 8
bearing: -8.0758972168
intensity: 23.2633590698
---
header: 
  seq: 1073018
  stamp: 
    secs: 1561682947
    nsecs: 224029577
  frame_id: "ti_mmwave"
point_id: 6
x: 0.41796875
y: -0.0
z: 1.283203125
range: 1.43804001808
velocity: 0.0
doppler_bin: 8
bearing: -0.0
intensity: 21.9312458038
---
header: 
  seq: 1073019
  stamp: 
    secs: 1561682947
    nsecs: 224044335
  frame_id: "ti_mmwave"
point_id: 7
x: 1.822265625
y: -0.541015625
z: 0.291015625
range: 2.04811763763
velocity: 0.0
doppler_bin: 8
bearing: -16.5357208252
intensity: 27.9239177704
---
header: 
  seq: 1073020
  stamp: 
    secs: 1561682947
    nsecs: 224125577
  frame_id: "ti_mmwave"
point_id: 8
x: 1.841796875
y: -0.61328125
z: 0.29296875
range: 2.09169459343
velocity: 0.0
doppler_bin: 8
bearing: -18.4167194366
intensity: 31.319393158
---
header: 
  seq: 1073021
  stamp: 
    secs: 1561682947
    nsecs: 224142765
  frame_id: "ti_mmwave"
point_id: 9
x: 1.888671875
y: -0.626953125
z: 0.2421875
range: 2.13527154922
velocity: 0.0
doppler_bin: 8
bearing: -18.3638191223
intensity: 31.1991539001
---
header: 
  seq: 1073022
  stamp: 
    secs: 1561682947
    nsecs: 224158935
  frame_id: "ti_mmwave"
point_id: 10
x: 1.955078125
y: -0.576171875
z: 0.169921875
range: 2.17884850502
velocity: 0.0
doppler_bin: 8
bearing: -16.4205245972
intensity: 27.5966777802
---
header: 
  seq: 1073023
  stamp: 
    secs: 1561682947
    nsecs: 224174738
  frame_id: "ti_mmwave"
point_id: 11
x: 2.55859375
y: -0.263671875
z: 1.16015625
range: 3.00681090355
velocity: 0.0
doppler_bin: 8
bearing: -5.88375711441
intensity: 29.484128952
---
header: 
  seq: 1073024
  stamp: 
    secs: 1561682947
    nsecs: 224187951
  frame_id: "ti_mmwave"
point_id: 12
x: 2.6171875
y: -0.267578125
z: 1.12890625
range: 3.05038785934
velocity: 0.0
doppler_bin: 8
bearing: -5.83756875992
intensity: 32.8510704041
---
header: 
  seq: 1073025
  stamp: 
    secs: 1561682947
    nsecs: 224200977
  frame_id: "ti_mmwave"
point_id: 13
x: 2.677734375
y: -0.271484375
z: 1.09375
range: 3.09396481514
velocity: 0.0
doppler_bin: 8
bearing: -5.78919935226
intensity: 32.0248832703
---
header: 
  seq: 1073026
  stamp: 
    secs: 1561682947
    nsecs: 224218493
  frame_id: "ti_mmwave"
point_id: 14
x: 4.4140625
y: -0.287109375
z: 1.1953125
range: 4.88062095642
velocity: 0.0
doppler_bin: 8
bearing: -3.72151875496
intensity: 30.9829750061
---
header: 
  seq: 1073027
  stamp: 
    secs: 1561682947
    nsecs: 224263776
  frame_id: "ti_mmwave"
point_id: 15
x: 4.47265625
y: -0.2890625
z: 1.134765625
range: 4.9241976738
velocity: 0.0
doppler_bin: 8
bearing: -3.6978161335
intensity: 30.7954292297
---
header: 
  seq: 1073028
  stamp: 
    secs: 1561682947
    nsecs: 224289986
  frame_id: "ti_mmwave"
point_id: 19
x: 0.041015625
y: -0.033203125
z: 0.0625
range: 0.0871539413929
velocity: 0.0
doppler_bin: 8
bearing: -38.9909973145
intensity: 30.1283721924
---
header: 
  seq: 1073029
  stamp: 
    secs: 1561682947
    nsecs: 224306178
  frame_id: "ti_mmwave"
point_id: 20
x: 0.052734375
y: -0.04296875
z: 0.1015625
range: 0.130730912089
velocity: 0.0
doppler_bin: 8
bearing: -39.1736602783
intensity: 28.9982051849
---
header: 
  seq: 1073030
  stamp: 
    secs: 1561682947
    nsecs: 224323404
  frame_id: "ti_mmwave"
point_id: 22
x: 1.2109375
y: 0.357421875
z: 0.125
range: 1.35088610649
velocity: 0.0
doppler_bin: 8
bearing: 16.4445590973
intensity: 19.0848503113
---
header: 
  seq: 1073031
  stamp: 
    secs: 1561682947
    nsecs: 224373920
  frame_id: "ti_mmwave"
point_id: 23
x: 1.87109375
y: -0.060546875
z: -0.44140625
range: 2.04811763763
velocity: 0.0
doppler_bin: 8
bearing: -1.85339212418
intensity: 26.7942790985
---
header: 
  seq: 1073032
  stamp: 
    secs: 1561682947
    nsecs: 224389049
  frame_id: "ti_mmwave"
point_id: 24
x: 1.9921875
y: 0.19140625
z: -0.421875
range: 2.17884850502
velocity: 0.0
doppler_bin: 8
bearing: 5.48804330826
intensity: 24.8287353516
---
header: 
  seq: 1073033
  stamp: 
    secs: 1561682947
    nsecs: 224421685
  frame_id: "ti_mmwave"
point_id: 25
x: 0.97265625
y: -0.919921875
z: -2.056640625
range: 2.61461830139
velocity: -1.22933733463
doppler_bin: 6
bearing: -43.4039344788
intensity: 19.8677177429
---
header: 
  seq: 1073034
  stamp: 
    secs: 1561682947
    nsecs: 224482522
  frame_id: "ti_mmwave"
point_id: 26
x: 1.041015625
y: -0.935546875
z: -2.06640625
range: 2.65819525719
velocity: -1.22933733463
doppler_bin: 6
bearing: -41.9456138611
intensity: 20.3742656708
---
header: 
  seq: 1073035
  stamp: 
    secs: 1561682947
    nsecs: 225533068
  frame_id: "ti_mmwave"
point_id: 0
x: 0.01171875
y: -0.0390625
z: -0.0078125
range: 0.0435769706964
velocity: 0.0
doppler_bin: 8
bearing: -73.3007583618
intensity: 30.7298469543
---
header: 
  seq: 1073036
  stamp: 
    secs: 1561682947
    nsecs: 225615157
  frame_id: "ti_mmwave"
point_id: 1
x: 0.017578125
y: -0.080078125
z: -0.0078125
range: 0.0871539413929
velocity: 0.0
doppler_bin: 8
bearing: -77.6192398071
intensity: 31.9617614746
---
header: 
  seq: 1073037
  stamp: 
    secs: 1561682947
    nsecs: 225637577
  frame_id: "ti_mmwave"
point_id: 2
x: 0.041015625
y: -0.115234375
z: -0.0078125
range: 0.130730912089
velocity: 0.0
doppler_bin: 8
bearing: -70.4077224731
intensity: 30.2160263062
---
header: 
  seq: 1073038
  stamp: 
    secs: 1561682947
    nsecs: 225651681
  frame_id: "ti_mmwave"
point_id: 3
x: 0.056640625
y: -0.154296875
z: 0.005859375
range: 0.174307882786
velocity: 0.0
doppler_bin: 8
bearing: -69.8423843384
intensity: 25.4777469635
---
header: 
  seq: 1073039
  stamp: 
    secs: 1561682947
    nsecs: 225667909
  frame_id: "ti_mmwave"
point_id: 4
x: 0.330078125
y: -0.080078125
z: -1.22265625
range: 1.35088610649
velocity: 0.0
doppler_bin: 8
bearing: -13.6366977692
intensity: 21.9312458038
---
header: 
  seq: 1073040
  stamp: 
    secs: 1561682947
    nsecs: 225680284
  frame_id: "ti_mmwave"
point_id: 5
x: 0.294921875
y: -0.041015625
z: 1.275390625
range: 1.39446306229
velocity: 0.0
doppler_bin: 8
bearing: -7.91750335693
intensity: 23.2221927643
---
header: 
  seq: 1073041
  stamp: 
    secs: 1561682947
    nsecs: 225694523
  frame_id: "ti_mmwave"
point_id: 6
x: 0.4765625
y: -0.04296875
z: 1.26171875
range: 1.43804001808
velocity: 0.0
doppler_bin: 8
bearing: -5.15208148956
intensity: 21.9033164978
---
header: 
  seq: 1073042
  stamp: 
    secs: 1561682947
    nsecs: 225709128
  frame_id: "ti_mmwave"
point_id: 7
x: 1.75390625
y: -0.109375
z: -0.095703125
range: 1.87380969524
velocity: 0.0
doppler_bin: 8
bearing: -3.56838989258
intensity: 29.2168655396
---
header: 
  seq: 1073043
  stamp: 
    secs: 1561682947
    nsecs: 225779540
  frame_id: "ti_mmwave"
point_id: 8
x: 1.794921875
y: -0.11328125
z: -0.091796875
range: 1.91738677025
velocity: 0.0
doppler_bin: 8
bearing: -3.61126613617
intensity: 31.6256446838
---
header: 
  seq: 1073044
  stamp: 
    secs: 1561682947
    nsecs: 225794415
  frame_id: "ti_mmwave"
point_id: 9
x: 1.83203125
y: -0.115234375
z: -0.125
range: 1.96096372604
velocity: 0.0
doppler_bin: 8
bearing: -3.59915065765
intensity: 30.8707122803
---
header: 
  seq: 1073045
  stamp: 
    secs: 1561682947
    nsecs: 225804939
  frame_id: "ti_mmwave"
point_id: 10
x: 1.857421875
y: -0.17578125
z: -0.2421875
range: 2.00454068184
velocity: 0.0
doppler_bin: 8
bearing: -5.40621232986
intensity: 28.312297821
---
header: 
  seq: 1073046
  stamp: 
    secs: 1561682947
    nsecs: 225815973
  frame_id: "ti_mmwave"
point_id: 11
x: 1.8828125
y: -0.361328125
z: -0.140625
range: 2.04811763763
velocity: 0.0
doppler_bin: 8
bearing: -10.8634805679
intensity: 27.9795970917
---
header: 
  seq: 1073047
  stamp: 
    secs: 1561682947
    nsecs: 225830648
  frame_id: "ti_mmwave"
point_id: 12
x: 1.8984375
y: -0.490234375
z: 0.087890625
range: 2.09169459343
velocity: 0.0
doppler_bin: 8
bearing: -14.4792070389
intensity: 28.3947811127
---
header: 
  seq: 1073048
  stamp: 
    secs: 1561682947
    nsecs: 225843777
  frame_id: "ti_mmwave"
point_id: 13
x: 1.90234375
y: -0.626953125
z: 0.08984375
range: 2.13527154922
velocity: 0.0
doppler_bin: 8
bearing: -18.2406082153
intensity: 28.2085800171
---
header: 
  seq: 1073049
  stamp: 
    secs: 1561682947
    nsecs: 225859986
  frame_id: "ti_mmwave"
point_id: 14
x: 2.533203125
y: -0.263671875
z: 1.216796875
range: 3.00681090355
velocity: 0.0
doppler_bin: 8
bearing: -5.94231081009
intensity: 29.4001808167
---
header: 
  seq: 1073050
  stamp: 
    secs: 1561682947
    nsecs: 225874715
  frame_id: "ti_mmwave"
point_id: 15
x: 2.595703125
y: -0.267578125
z: 1.177734375
range: 3.05038785934
velocity: 0.0
doppler_bin: 8
bearing: -5.88554811478
intensity: 32.7623214722
---
header: 
  seq: 1073051
  stamp: 
    secs: 1561682947
    nsecs: 225887705
  frame_id: "ti_mmwave"
point_id: 16
x: 2.66015625
y: -0.271484375
z: 1.130859375
range: 3.09396481514
velocity: 0.0
doppler_bin: 8
bearing: -5.82719182968
intensity: 32.0276069641
---
header: 
  seq: 1073052
  stamp: 
    secs: 1561682947
    nsecs: 225959713
  frame_id: "ti_mmwave"
point_id: 18
x: 0.041015625
y: -0.033203125
z: 0.0625
range: 0.0871539413929
velocity: 0.0
doppler_bin: 8
bearing: -38.9909973145
intensity: 30.1241531372
---
header: 
  seq: 1073053
  stamp: 
    secs: 1561682947
    nsecs: 225975130
  frame_id: "ti_mmwave"
point_id: 19
x: 0.046875
y: -0.046875
z: 0.103515625
range: 0.130730912089
velocity: 0.0
doppler_bin: 8
bearing: -45.0
intensity: 28.9982051849
---
header: 
  seq: 1073054
  stamp: 
    secs: 1561682947
    nsecs: 225994007
  frame_id: "ti_mmwave"
point_id: 21
x: 1.212890625
y: 0.357421875
z: 0.095703125
range: 1.35088610649
velocity: 0.0
doppler_bin: 8
bearing: 16.419506073
intensity: 19.0848503113
---
header: 
  seq: 1073055
  stamp: 
    secs: 1561682947
    nsecs: 226011943
  frame_id: "ti_mmwave"
point_id: 22
x: 1.9453125
y: 0.3125
z: 0.373046875
range: 2.13527154922
velocity: 0.0
doppler_bin: 8
bearing: 9.12617111206
intensity: 26.7577838898
---
header: 
  seq: 1073056
  stamp: 
    secs: 1561682947
    nsecs: 283779927
  frame_id: "ti_mmwave"
point_id: 0
x: 0.01171875
y: -0.0390625
z: -0.0078125
range: 0.0435769706964
velocity: 0.0
doppler_bin: 8
bearing: -73.3007583618
intensity: 30.7335166931
---
header: 
  seq: 1073057
  stamp: 
    secs: 1561682947
    nsecs: 283863623
  frame_id: "ti_mmwave"
point_id: 1
x: 0.017578125
y: -0.080078125
z: -0.0078125
range: 0.0871539413929
velocity: 0.0
doppler_bin: 8
bearing: -77.6192398071
intensity: 31.9617614746
---
header: 
  seq: 1073058
  stamp: 
    secs: 1561682947
    nsecs: 283880763
  frame_id: "ti_mmwave"
point_id: 2
x: 0.029296875
y: -0.119140625
z: -0.005859375
range: 0.130730912089
velocity: 0.0
doppler_bin: 8
bearing: -76.1849746704
intensity: 30.2160263062
---
header: 
  seq: 1073059
  stamp: 
    secs: 1561682947
    nsecs: 283892116
  frame_id: "ti_mmwave"
point_id: 3
x: 0.056640625
y: -0.154296875
z: 0.005859375
range: 0.174307882786
velocity: 0.0
doppler_bin: 8
bearing: -69.8423843384
intensity: 25.4654273987
---
header: 
  seq: 1073060
  stamp: 
    secs: 1561682947
    nsecs: 283902934
  frame_id: "ti_mmwave"
point_id: 4
x: 0.353515625
y: -0.080078125
z: -1.21484375
range: 1.35088610649
velocity: 0.0
doppler_bin: 8
bearing: -12.7632131577
intensity: 21.875207901
---
header: 
  seq: 1073061
  stamp: 
    secs: 1561682947
    nsecs: 283913184
  frame_id: "ti_mmwave"
point_id: 5
x: 0.294921875
y: -0.041015625
z: 1.275390625
range: 1.39446306229
velocity: 0.0
doppler_bin: 8
bearing: -7.91750335693
intensity: 23.1806335449
---
header: 
  seq: 1073062
  stamp: 
    secs: 1561682947
    nsecs: 283926259
  frame_id: "ti_mmwave"
point_id: 6
x: 0.40234375
y: -0.0
z: 1.2890625
range: 1.43804001808
velocity: 0.0
doppler_bin: 8
bearing: -0.0
intensity: 21.8469142914
---
header: 
  seq: 1073063
  stamp: 
    secs: 1561682947
    nsecs: 283938241
  frame_id: "ti_mmwave"
point_id: 7
x: 1.759765625
y: -0.541015625
z: 0.5546875
range: 2.04811763763
velocity: 0.0
doppler_bin: 8
bearing: -17.0893211365
intensity: 27.1096305847
---
header: 
  seq: 1073064
  stamp: 
    secs: 1561682947
    nsecs: 283949479
  frame_id: "ti_mmwave"
point_id: 8
x: 1.82421875
y: -0.67578125
z: 0.267578125
range: 2.09169459343
velocity: 0.0
doppler_bin: 8
bearing: -20.3271331787
intensity: 29.1115760803
---
header: 
  seq: 1073065
  stamp: 
    secs: 1561682947
    nsecs: 283960416
  frame_id: "ti_mmwave"
point_id: 9
x: 1.849609375
y: -0.751953125
z: 0.181640625
range: 2.13527154922
velocity: 0.0
doppler_bin: 8
bearing: -22.1240520477
intensity: 28.7448177338
---
header: 
  seq: 1073066
  stamp: 
    secs: 1561682947
    nsecs: 283972492
  frame_id: "ti_mmwave"
point_id: 10
x: 2.54296875
y: -0.263671875
z: 1.197265625
range: 3.00681090355
velocity: 0.0
doppler_bin: 8
bearing: -5.91965341568
intensity: 29.670797348
---
header: 
  seq: 1073067
  stamp: 
    secs: 1561682947
    nsecs: 283984046
  frame_id: "ti_mmwave"
point_id: 11
x: 2.607421875
y: -0.267578125
z: 1.154296875
range: 3.05038785934
velocity: 0.0
doppler_bin: 8
bearing: -5.85928010941
intensity: 32.8555717468
---
header: 
  seq: 1073068
  stamp: 
    secs: 1561682947
    nsecs: 284069903
  frame_id: "ti_mmwave"
point_id: 12
x: 2.66796875
y: -0.271484375
z: 1.115234375
range: 3.09396481514
velocity: 0.0
doppler_bin: 8
bearing: -5.81024503708
intensity: 32.0276069641
---
header: 
  seq: 1073069
  stamp: 
    secs: 1561682947
    nsecs: 284089695
  frame_id: "ti_mmwave"
point_id: 14
x: 0.041015625
y: -0.033203125
z: 0.0625
range: 0.0871539413929
velocity: 0.0
doppler_bin: 8
bearing: -38.9909973145
intensity: 30.1283721924
---
header: 
  seq: 1073070
  stamp: 
    secs: 1561682947
    nsecs: 284100841
  frame_id: "ti_mmwave"
point_id: 15
x: 0.052734375
y: -0.04296875
z: 0.1015625
range: 0.130730912089
velocity: 0.0
doppler_bin: 8
bearing: -39.1736602783
intensity: 28.9982051849
---
header: 
  seq: 1073071
  stamp: 
    secs: 1561682947
    nsecs: 284114921
  frame_id: "ti_mmwave"
point_id: 17
x: 1.2109375
y: 0.357421875
z: 0.111328125
range: 1.35088610649
velocity: 0.0
doppler_bin: 8
bearing: 16.4445590973
intensity: 19.1907806396
---
header: 
  seq: 1073072
  stamp: 
    secs: 1561682947
    nsecs: 284125849
  frame_id: "ti_mmwave"
point_id: 18
x: 1.962890625
y: 0.375
z: 0.16015625
range: 2.13527154922
velocity: 0.0
doppler_bin: 8
bearing: 10.8157320023
intensity: 27.2916469574
---
header: 
  seq: 1073073
  stamp: 
    secs: 1561682947
    nsecs: 284881925
  frame_id: "ti_mmwave"
point_id: 0
x: 0.01171875
y: -0.0390625
z: -0.0078125
range: 0.0435769706964
velocity: 0.0
doppler_bin: 8
bearing: -73.3007583618
intensity: 30.7371826172
---
header: 
  seq: 1073074
  stamp: 
    secs: 1561682947
    nsecs: 284949670
  frame_id: "ti_mmwave"
point_id: 1
x: 0.017578125
y: -0.080078125
z: -0.0078125
range: 0.0871539413929
velocity: 0.0
doppler_bin: 8
bearing: -77.6192398071
intensity: 31.9617614746
---
header: 
  seq: 1073075
  stamp: 
    secs: 1561682947
    nsecs: 284969091
  frame_id: "ti_mmwave"
point_id: 2
x: 0.029296875
y: -0.119140625
z: -0.005859375
range: 0.130730912089
velocity: 0.0
doppler_bin: 8
bearing: -76.1849746704
intensity: 30.2160263062
---
header: 
  seq: 1073076
  stamp: 
    secs: 1561682947
    nsecs: 284978182
  frame_id: "ti_mmwave"
point_id: 3
x: 0.056640625
y: -0.154296875
z: 0.005859375
range: 0.174307882786
velocity: 0.0
doppler_bin: 8
bearing: -69.8423843384
intensity: 25.490032196
---
header: 
  seq: 1073077
  stamp: 
    secs: 1561682947
    nsecs: 284986432
  frame_id: "ti_mmwave"
point_id: 4
x: 0.357421875
y: -0.080078125
z: -1.21484375
range: 1.35088610649
velocity: 0.0
doppler_bin: 8
bearing: -12.6282215118
intensity: 21.9589958191
---
header: 
  seq: 1073078
  stamp: 
    secs: 1561682947
    nsecs: 284995000
  frame_id: "ti_mmwave"
point_id: 5
x: 0.30078125
y: -0.041015625
z: 1.2734375
range: 1.39446306229
velocity: 0.0
doppler_bin: 8
bearing: -7.76516628265
intensity: 23.2837963104
---
header: 
  seq: 1073079
  stamp: 
    secs: 1561682947
    nsecs: 285006559
  frame_id: "ti_mmwave"
point_id: 6
x: 0.478515625
y: -0.04296875
z: 1.26171875
range: 1.43804001808
velocity: 0.0
doppler_bin: 8
bearing: -5.13116502762
intensity: 21.9865703583
---
header: 
  seq: 1073080
  stamp: 
    secs: 1561682947
    nsecs: 285169480
  frame_id: "ti_mmwave"
point_id: 7
x: 1.794921875
y: -0.056640625
z: -0.134765625
range: 1.91738677025
velocity: 0.0
doppler_bin: 8
bearing: -1.80742812157
intensity: 27.9098854065
---
header: 
  seq: 1073081
  stamp: 
    secs: 1561682947
    nsecs: 285188920
  frame_id: "ti_mmwave"
point_id: 8
x: 2.552734375
y: -0.263671875
z: 1.173828125
range: 3.00681090355
velocity: 0.0
doppler_bin: 8
bearing: -5.89716720581
intensity: 29.5760726929
---
header: 
  seq: 1073082
  stamp: 
    secs: 1561682947
    nsecs: 285240813
  frame_id: "ti_mmwave"
point_id: 9
x: 2.603515625
y: -0.267578125
z: 1.16015625
range: 3.05038785934
velocity: 0.0
doppler_bin: 8
bearing: -5.8680100441
intensity: 32.8330116272
---
header: 
  seq: 1073083
  stamp: 
    secs: 1561682947
    nsecs: 285250457
  frame_id: "ti_mmwave"
point_id: 10
x: 2.66015625
y: -0.181640625
z: 1.154296875
range: 3.09396481514
velocity: 0.0
doppler_bin: 8
bearing: -3.90620398521
intensity: 31.9562301636
---
header: 
  seq: 1073084
  stamp: 
    secs: 1561682947
    nsecs: 285258837
  frame_id: "ti_mmwave"
point_id: 11
x: 1.794921875
y: -0.796875
z: 0.017578125
range: 2.09169459343
velocity: -0.614668667316
doppler_bin: 7
bearing: -23.9393444061
intensity: 27.032913208
---
header: 
  seq: 1073085
  stamp: 
    secs: 1561682947
    nsecs: 285267049
  frame_id: "ti_mmwave"
point_id: 12
x: 1.830078125
y: -0.814453125
z: 0.072265625
range: 2.13527154922
velocity: -0.614668667316
doppler_bin: 7
bearing: -23.990852356
intensity: 26.8304710388
---
header: 
  seq: 1073086
  stamp: 
    secs: 1561682947
    nsecs: 285329884
  frame_id: "ti_mmwave"
point_id: 14
x: 0.041015625
y: -0.033203125
z: 0.0625
range: 0.0871539413929
velocity: 0.0
doppler_bin: 8
bearing: -38.9909973145
intensity: 30.1325874329
---
header: 
  seq: 1073087
  stamp: 
    secs: 1561682947
    nsecs: 285341791
  frame_id: "ti_mmwave"
point_id: 15
x: 0.046875
y: -0.046875
z: 0.103515625
range: 0.130730912089
velocity: 0.0
doppler_bin: 8
bearing: -45.0
intensity: 29.0036716461
---
header: 
  seq: 1073088
  stamp: 
    secs: 1561682947
    nsecs: 285352136
  frame_id: "ti_mmwave"
point_id: 17
x: 1.2109375
y: 0.357421875
z: 0.115234375
range: 1.35088610649
velocity: 0.0
doppler_bin: 8
bearing: 16.4445590973
intensity: 19.0848503113
---
header: 
  seq: 1073089
  stamp: 
    secs: 1561682947
    nsecs: 285396475
  frame_id: "ti_mmwave"
point_id: 18
x: 1.896484375
y: 0.375
z: -0.52734375
range: 2.13527154922
velocity: -0.614668667316
doppler_bin: 7
bearing: 11.1850566864
intensity: 24.4870624542
---
header: 
  seq: 1073090
  stamp: 
    secs: 1561682947
    nsecs: 343889467
  frame_id: "ti_mmwave"
point_id: 0
x: 0.01171875
y: -0.0390625
z: -0.0078125
range: 0.0435769706964
velocity: 0.0
doppler_bin: 8
bearing: -73.3007583618
intensity: 30.7335166931
---
header: 
  seq: 1073091
  stamp: 
    secs: 1561682947
    nsecs: 343959122
  frame_id: "ti_mmwave"
point_id: 1
x: 0.017578125
y: -0.080078125
z: -0.0078125
range: 0.0871539413929
velocity: 0.0
doppler_bin: 8
bearing: -77.6192398071
intensity: 31.9645252228
---
header: 
  seq: 1073092
  stamp: 
    secs: 1561682947
    nsecs: 343970655
  frame_id: "ti_mmwave"
point_id: 2
x: 0.029296875
y: -0.119140625
z: -0.005859375
range: 0.130730912089
velocity: 0.0
doppler_bin: 8
bearing: -76.1849746704
intensity: 30.2160263062
---
header: 
  seq: 1073093
  stamp: 
    secs: 1561682947
    nsecs: 343979626
  frame_id: "ti_mmwave"
point_id: 3
x: 0.056640625
y: -0.154296875
z: 0.005859375
range: 0.174307882786
velocity: 0.0
doppler_bin: 8
bearing: -69.8423843384
intensity: 25.4777469635
---
header: 
  seq: 1073094
  stamp: 
    secs: 1561682947
    nsecs: 343987746
  frame_id: "ti_mmwave"
point_id: 4
x: 0.359375
y: -0.080078125
z: -1.212890625
range: 1.35088610649
velocity: 0.0
doppler_bin: 8
bearing: -12.5617752075
intensity: 21.9033164978
---
header: 
  seq: 1073095
  stamp: 
    secs: 1561682947
    nsecs: 344000016
  frame_id: "ti_mmwave"
point_id: 5
x: 0.310546875
y: -0.041015625
z: 1.271484375
range: 1.39446306229
velocity: 0.0
doppler_bin: 8
bearing: -7.52382040024
intensity: 23.1806335449
---
header: 
  seq: 1073096
  stamp: 
    secs: 1561682947
    nsecs: 344008222
  frame_id: "ti_mmwave"
point_id: 6
x: 0.42578125
y: -0.0
z: 1.28125
range: 1.43804001808
velocity: 0.0
doppler_bin: 8
bearing: -0.0
intensity: 21.875207901
---
header: 
  seq: 1073097
  stamp: 
    secs: 1561682947
    nsecs: 344016326
  frame_id: "ti_mmwave"
point_id: 7
x: 1.791015625
y: -0.16796875
z: 0.0234375
range: 1.91738677025
velocity: 0.0
doppler_bin: 8
bearing: -5.35776042938
intensity: 28.4695529938
---
header: 
  seq: 1073098
  stamp: 
    secs: 1561682947
    nsecs: 344024723
  frame_id: "ti_mmwave"
point_id: 8
x: 1.830078125
y: -0.171875
z: 0.08984375
range: 1.96096372604
velocity: 0.0
doppler_bin: 8
bearing: -5.36529636383
intensity: 28.762178421
---
header: 
  seq: 1073099
  stamp: 
    secs: 1561682947
    nsecs: 344032492
  frame_id: "ti_mmwave"
point_id: 9
x: 1.95703125
y: 0.375
z: 0.2109375
range: 2.13527154922
velocity: 0.0
doppler_bin: 8
bearing: 10.8473472595
intensity: 28.2347431183
---
header: 
  seq: 1073100
  stamp: 
    secs: 1561682947
    nsecs: 344231894
  frame_id: "ti_mmwave"
point_id: 10
x: 2.55859375
y: -0.263671875
z: 1.16015625
range: 3.00681090355
velocity: 0.0
doppler_bin: 8
bearing: -5.88375711441
intensity: 29.689496994
---
header: 
  seq: 1073101
  stamp: 
    secs: 1561682947
    nsecs: 344250246
  frame_id: "ti_mmwave"
point_id: 11
x: 2.607421875
y: -0.267578125
z: 1.154296875
range: 3.05038785934
velocity: 0.0
doppler_bin: 8
bearing: -5.85928010941
intensity: 32.8555717468
---
header: 
  seq: 1073102
  stamp: 
    secs: 1561682947
    nsecs: 344260800
  frame_id: "ti_mmwave"
point_id: 12
x: 2.662109375
y: -0.271484375
z: 1.130859375
range: 3.09396481514
velocity: 0.0
doppler_bin: 8
bearing: -5.82294607162
intensity: 31.9920654297
---
header: 
  seq: 1073103
  stamp: 
    secs: 1561682947
    nsecs: 344273539
  frame_id: "ti_mmwave"
point_id: 14
x: 0.041015625
y: -0.033203125
z: 0.0625
range: 0.0871539413929
velocity: 0.0
doppler_bin: 8
bearing: -38.9909973145
intensity: 30.1283721924
---
header: 
  seq: 1073104
  stamp: 
    secs: 1561682947
    nsecs: 344281775
  frame_id: "ti_mmwave"
point_id: 15
x: 0.052734375
y: -0.04296875
z: 0.1015625
range: 0.130730912089
velocity: 0.0
doppler_bin: 8
bearing: -39.1736602783
intensity: 29.0036716461
---
header: 
  seq: 1073105
  stamp: 
    secs: 1561682947
    nsecs: 344291842
  frame_id: "ti_mmwave"
point_id: 17
x: 1.208984375
y: 0.357421875
z: 0.13671875
range: 1.35088610649
velocity: 0.0
doppler_bin: 8
bearing: 16.4696884155
intensity: 19.0308990479
---
header: 
  seq: 1073106
  stamp: 
    secs: 1561682947
    nsecs: 403938378
  frame_id: "ti_mmwave"
point_id: 0
x: 0.01171875
y: -0.0390625
z: -0.0078125
range: 0.0435769706964
velocity: 0.0
doppler_bin: 8
bearing: -73.3007583618
intensity: 30.7371826172
---
header: 
  seq: 1073107
  stamp: 
    secs: 1561682947
    nsecs: 404015183
  frame_id: "ti_mmwave"
point_id: 1
x: 0.017578125
y: -0.080078125
z: -0.0078125
range: 0.0871539413929
velocity: 0.0
doppler_bin: 8
bearing: -77.6192398071
intensity: 31.9645252228
---
header: 
  seq: 1073108
  stamp: 
    secs: 1561682947
    nsecs: 404028540
  frame_id: "ti_mmwave"
point_id: 2
x: 0.029296875
y: -0.119140625
z: -0.005859375
range: 0.130730912089
velocity: 0.0
doppler_bin: 8
bearing: -76.1849746704
intensity: 30.2201576233
---
header: 
  seq: 1073109
  stamp: 
    secs: 1561682947
    nsecs: 404037755
  frame_id: "ti_mmwave"
point_id: 3
x: 0.056640625
y: -0.154296875
z: 0.005859375
range: 0.174307882786
