header: 
  seq: 3302207
  stamp: 
    secs: 1561686434
    nsecs: 543160946
  frame_id: "ti_mmwave"
point_id: 0
x: 0.01171875
y: -0.0390625
z: -0.0078125
range: 0.0435769706964
velocity: 0.0
doppler_bin: 8
bearing: -73.3007583618
intensity: 30.7371826172
---
header: 
  seq: 3302208
  stamp: 
    secs: 1561686434
    nsecs: 543250170
  frame_id: "ti_mmwave"
point_id: 1
x: 0.017578125
y: -0.080078125
z: -0.0078125
range: 0.0871539413929
velocity: 0.0
doppler_bin: 8
bearing: -77.6192398071
intensity: 31.9728050232
---
header: 
  seq: 3302209
  stamp: 
    secs: 1561686434
    nsecs: 543262326
  frame_id: "ti_mmwave"
point_id: 2
x: 0.029296875
y: -0.119140625
z: -0.00390625
range: 0.130730912089
velocity: 0.0
doppler_bin: 8
bearing: -76.1849746704
intensity: 30.1994667053
---
header: 
  seq: 3302210
  stamp: 
    secs: 1561686434
    nsecs: 543271109
  frame_id: "ti_mmwave"
point_id: 3
x: 0.056640625
y: -0.154296875
z: 0.005859375
range: 0.174307882786
velocity: 0.0
doppler_bin: 8
bearing: -69.8423843384
intensity: 25.5022830963
---
header: 
  seq: 3302211
  stamp: 
    secs: 1561686434
    nsecs: 543279404
  frame_id: "ti_mmwave"
point_id: 4
x: 0.345703125
y: -0.080078125
z: -1.216796875
range: 1.35088610649
velocity: 0.0
doppler_bin: 8
bearing: -13.0418901443
intensity: 22.0139713287
---
header: 
  seq: 3302212
  stamp: 
    secs: 1561686434
    nsecs: 543288159
  frame_id: "ti_mmwave"
point_id: 5
x: 0.3125
y: -0.041015625
z: 1.271484375
range: 1.39446306229
velocity: 0.0
doppler_bin: 8
bearing: -7.47732973099
intensity: 23.2428245544
---
header: 
  seq: 3302213
  stamp: 
    secs: 1561686434
    nsecs: 543299416
  frame_id: "ti_mmwave"
point_id: 6
x: 0.50390625
y: -0.04296875
z: 1.251953125
range: 1.43804001808
velocity: 0.0
doppler_bin: 8
bearing: -4.87389659882
intensity: 21.9865703583
---
header: 
  seq: 3302214
  stamp: 
    secs: 1561686434
    nsecs: 543311485
  frame_id: "ti_mmwave"
point_id: 7
x: 1.603515625
y: -0.0
z: -0.490234375
range: 1.78665578365
velocity: 0.0
doppler_bin: 8
bearing: -0.0
intensity: 27.4429302216
---
header: 
  seq: 3302215
  stamp: 
    secs: 1561686434
    nsecs: 543329097
  frame_id: "ti_mmwave"
point_id: 8
x: 1.607421875
y: 0.052734375
z: -0.6015625
range: 1.83023273945
velocity: 0.0
doppler_bin: 8
bearing: 1.87901747227
intensity: 30.1241531372
---
header: 
  seq: 3302216
  stamp: 
    secs: 1561686434
    nsecs: 543341782
  frame_id: "ti_mmwave"
point_id: 9
x: 1.609375
y: 0.0546875
z: -0.708984375
range: 1.87380969524
velocity: 0.0
doppler_bin: 8
bearing: 1.94619512558
intensity: 29.8587532043
---
header: 
  seq: 3302217
  stamp: 
    secs: 1561686434
    nsecs: 543353214
  frame_id: "ti_mmwave"
point_id: 10
x: 2.556640625
y: -0.263671875
z: 1.16796875
range: 3.00681090355
velocity: 0.0
doppler_bin: 8
bearing: -5.88822031021
intensity: 29.4645233154
---
header: 
  seq: 3302218
  stamp: 
    secs: 1561686434
    nsecs: 543416539
  frame_id: "ti_mmwave"
point_id: 11
x: 2.609375
y: -0.267578125
z: 1.1484375
range: 3.05038785934
velocity: 0.0
doppler_bin: 8
bearing: -5.85492515564
intensity: 32.8057823181
---
header: 
  seq: 3302219
  stamp: 
    secs: 1561686434
    nsecs: 543507224
  frame_id: "ti_mmwave"
point_id: 12
x: 2.666015625
y: -0.181640625
z: 1.13671875
range: 3.09396481514
velocity: 0.0
doppler_bin: 8
bearing: -3.89764523506
intensity: 32.0709571838
---
header: 
  seq: 3302220
  stamp: 
    secs: 1561686434
    nsecs: 543518765
  frame_id: "ti_mmwave"
point_id: 13
x: 1.7890625
y: 0.056640625
z: 0.181640625
range: 1.91738677025
velocity: -0.614668667316
doppler_bin: 7
bearing: 1.81334352493
intensity: 27.2916469574
---
header: 
  seq: 3302221
  stamp: 
    secs: 1561686434
    nsecs: 543528960
  frame_id: "ti_mmwave"
point_id: 15
x: 0.041015625
y: -0.033203125
z: 0.0625
range: 0.0871539413929
velocity: 0.0
doppler_bin: 8
bearing: -38.9909973145
intensity: 30.1494026184
---
header: 
  seq: 3302222
  stamp: 
    secs: 1561686434
    nsecs: 543539024
  frame_id: "ti_mmwave"
point_id: 16
x: 0.044921875
y: -0.046875
z: 0.103515625
range: 0.130730912089
velocity: 0.0
doppler_bin: 8
bearing: -46.218875885
intensity: 29.0525608063
---
header: 
  seq: 3302223
  stamp: 
    secs: 1561686434
    nsecs: 543550057
  frame_id: "ti_mmwave"
point_id: 18
x: 1.216796875
y: 0.357421875
z: 0.02734375
range: 1.35088610649
velocity: 0.0
doppler_bin: 8
bearing: 16.3696231842
intensity: 19.3449840546
---
header: 
  seq: 3302224
  stamp: 
    secs: 1561686434
    nsecs: 602221222
  frame_id: "ti_mmwave"
point_id: 0
x: 0.01171875
y: -0.0390625
z: -0.0078125
range: 0.0435769706964
velocity: 0.0
doppler_bin: 8
bearing: -73.3007583618
intensity: 30.7408466339
---
header: 
  seq: 3302225
  stamp: 
    secs: 1561686434
    nsecs: 602298920
  frame_id: "ti_mmwave"
point_id: 1
x: 0.017578125
y: -0.080078125
z: -0.0078125
range: 0.0871539413929
velocity: 0.0
doppler_bin: 8
bearing: -77.6192398071
intensity: 31.9755630493
---
header: 
  seq: 3302226
  stamp: 
    secs: 1561686434
    nsecs: 602310660
  frame_id: "ti_mmwave"
point_id: 2
x: 0.029296875
y: -0.119140625
z: -0.00390625
range: 0.130730912089
velocity: 0.0
doppler_bin: 8
bearing: -76.1849746704
intensity: 30.2036132812
---
header: 
  seq: 3302227
  stamp: 
    secs: 1561686434
    nsecs: 602319281
  frame_id: "ti_mmwave"
point_id: 3
x: 0.056640625
y: -0.154296875
z: 0.005859375
range: 0.174307882786
velocity: 0.0
doppler_bin: 8
bearing: -69.8423843384
intensity: 25.5022830963
---
header: 
  seq: 3302228
  stamp: 
    secs: 1561686434
    nsecs: 602330060
  frame_id: "ti_mmwave"
point_id: 4
x: 0.34765625
y: -0.080078125
z: -1.216796875
range: 1.35088610649
velocity: 0.0
doppler_bin: 8
bearing: -12.9711065292
intensity: 22.0139713287
---
header: 
  seq: 3302229
  stamp: 
    secs: 1561686434
    nsecs: 602338275
  frame_id: "ti_mmwave"
point_id: 5
x: 0.341796875
y: -0.041015625
z: 1.263671875
range: 1.39446306229
velocity: 0.0
doppler_bin: 8
bearing: -6.8427734375
intensity: 23.2837963104
---
header: 
  seq: 3302230
  stamp: 
    secs: 1561686434
    nsecs: 602347856
  frame_id: "ti_mmwave"
point_id: 6
x: 0.44140625
y: -0.0
z: 1.275390625
range: 1.43804001808
velocity: 0.0
doppler_bin: 8
bearing: -0.0
intensity: 21.9865703583
---
header: 
  seq: 3302231
  stamp: 
    secs: 1561686434
    nsecs: 602358248
  frame_id: "ti_mmwave"
point_id: 7
x: 1.66796875
y: -0.052734375
z: -0.162109375
range: 1.78665578365
velocity: 0.0
doppler_bin: 8
bearing: -1.81085586548
intensity: 28.0550079346
---
header: 
  seq: 3302232
  stamp: 
    secs: 1561686434
    nsecs: 602368990
  frame_id: "ti_mmwave"
point_id: 8
x: 1.701171875
y: -0.052734375
z: -0.23046875
range: 1.83023273945
velocity: 0.0
doppler_bin: 8
bearing: -1.77553474903
intensity: 30.157787323
---
header: 
  seq: 3302233
  stamp: 
    secs: 1561686434
    nsecs: 602377443
  frame_id: "ti_mmwave"
point_id: 9
x: 1.7109375
y: -0.0
z: -0.412109375
range: 1.87380969524
velocity: 0.0
doppler_bin: 8
bearing: -0.0
intensity: 29.0955600739
---
header: 
  seq: 3302234
  stamp: 
    secs: 1561686434
    nsecs: 602387226
  frame_id: "ti_mmwave"
point_id: 10
x: 2.560546875
y: -0.263671875
z: 1.16015625
range: 3.00681090355
velocity: 0.0
doppler_bin: 8
bearing: -5.87930107117
intensity: 29.5182304382
---
header: 
  seq: 3302235
  stamp: 
    secs: 1561686434
    nsecs: 602398026
  frame_id: "ti_mmwave"
point_id: 11
x: 2.62109375
y: -0.1796875
z: 1.138671875
range: 3.05038785934
velocity: 0.0
doppler_bin: 8
bearing: -3.9217414856
intensity: 32.8035087585
---
header: 
  seq: 3302236
  stamp: 
    secs: 1561686434
    nsecs: 602407243
  frame_id: "ti_mmwave"
point_id: 12
x: 2.666015625
y: -0.181640625
z: 1.13671875
range: 3.09396481514
velocity: 0.0
doppler_bin: 8
bearing: -3.89764523506
intensity: 32.0655593872
---
header: 
  seq: 3302237
  stamp: 
    secs: 1561686434
    nsecs: 602429288
  frame_id: "ti_mmwave"
point_id: 13
x: 1.77734375
y: -0.0
z: -0.28125
range: 1.91738677025
velocity: 0.614668667316
doppler_bin: 9
bearing: -0.0
intensity: 25.2891674042
---
header: 
  seq: 3302238
  stamp: 
    secs: 1561686434
    nsecs: 602442503
  frame_id: "ti_mmwave"
point_id: 14
x: 1.73046875
y: -0.056640625
z: 0.49609375
range: 1.91738677025
velocity: -0.614668667316
doppler_bin: 7
bearing: -1.87470042706
intensity: 25.7518787384
---
header: 
  seq: 3302239
  stamp: 
    secs: 1561686434
    nsecs: 602603657
  frame_id: "ti_mmwave"
point_id: 16
x: 0.041015625
y: -0.033203125
z: 0.0625
range: 0.0871539413929
velocity: 0.0
doppler_bin: 8
bearing: -38.9909973145
intensity: 30.1452045441
---
header: 
  seq: 3302240
  stamp: 
    secs: 1561686434
    nsecs: 602623047
  frame_id: "ti_mmwave"
point_id: 17
x: 0.044921875
y: -0.046875
z: 0.103515625
range: 0.130730912089
velocity: 0.0
doppler_bin: 8
bearing: -46.218875885
intensity: 29.0525608063
---
header: 
  seq: 3302241
  stamp: 
    secs: 1561686434
    nsecs: 602633574
  frame_id: "ti_mmwave"
point_id: 19
x: 1.21484375
y: 0.357421875
z: 0.060546875
range: 1.35088610649
velocity: 0.0
doppler_bin: 8
bearing: 16.3945274353
intensity: 19.2941894531
---
header: 
  seq: 3302242
  stamp: 
    secs: 1561686434
    nsecs: 603397876
  frame_id: "ti_mmwave"
point_id: 0
x: 0.01171875
y: -0.0390625
z: -0.0078125
range: 0.0435769706964
velocity: 0.0
doppler_bin: 8
bearing: -73.3007583618
intensity: 30.7371826172
---
header: 
  seq: 3302243
  stamp: 
    secs: 1561686434
    nsecs: 603465876
  frame_id: "ti_mmwave"
point_id: 1
x: 0.017578125
y: -0.080078125
z: -0.0078125
range: 0.0871539413929
velocity: 0.0
doppler_bin: 8
bearing: -77.6192398071
intensity: 31.9728050232
---
header: 
  seq: 3302244
  stamp: 
    secs: 1561686434
    nsecs: 603483181
  frame_id: "ti_mmwave"
point_id: 2
x: 0.029296875
y: -0.119140625
z: -0.00390625
range: 0.130730912089
velocity: 0.0
doppler_bin: 8
bearing: -76.1849746704
intensity: 30.1994667053
---
header: 
  seq: 3302245
  stamp: 
    secs: 1561686434
    nsecs: 603509040
  frame_id: "ti_mmwave"
point_id: 3
x: 0.056640625
y: -0.154296875
z: 0.005859375
range: 0.174307882786
velocity: 0.0
doppler_bin: 8
bearing: -69.8423843384
intensity: 25.490032196
---
header: 
  seq: 3302246
  stamp: 
    secs: 1561686434
    nsecs: 603534749
  frame_id: "ti_mmwave"
point_id: 4
x: 0.341796875
y: -0.080078125
z: -1.21875
range: 1.35088610649
velocity: 0.0
doppler_bin: 8
bearing: -13.1857614517
intensity: 21.9865703583
---
header: 
  seq: 3302247
  stamp: 
    secs: 1561686434
    nsecs: 603570756
  frame_id: "ti_mmwave"
point_id: 5
x: 0.310546875
y: -0.041015625
z: 1.271484375
range: 1.39446306229
velocity: 0.0
doppler_bin: 8
bearing: -7.52382040024
intensity: 23.2837963104
---
header: 
  seq: 3302248
  stamp: 
    secs: 1561686434
    nsecs: 603675422
  frame_id: "ti_mmwave"
point_id: 6
x: 0.435546875
y: -0.0
z: 1.27734375
range: 1.43804001808
velocity: 0.0
doppler_bin: 8
bearing: -0.0
intensity: 21.9865703583
---
header: 
  seq: 3302249
  stamp: 
    secs: 1561686434
    nsecs: 603696472
  frame_id: "ti_mmwave"
point_id: 7
x: 1.67578125
y: -0.052734375
z: -0.00390625
range: 1.78665578365
velocity: 0.0
doppler_bin: 8
bearing: -1.80241930485
intensity: 28.3632411957
---
header: 
  seq: 3302250
  stamp: 
    secs: 1561686434
    nsecs: 603709556
  frame_id: "ti_mmwave"
point_id: 8
x: 1.716796875
y: -0.052734375
z: -0.00390625
range: 1.83023273945
velocity: 0.0
doppler_bin: 8
bearing: -1.75938534737
intensity: 31.601682663
---
header: 
  seq: 3302251
  stamp: 
    secs: 1561686434
    nsecs: 603721874
  frame_id: "ti_mmwave"
point_id: 9
x: 1.7578125
y: -0.0546875
z: 0.0
range: 1.87380969524
velocity: 0.0
doppler_bin: 8
bearing: -1.78196060658
intensity: 31.5044937134
---
header: 
  seq: 3302252
  stamp: 
    secs: 1561686434
    nsecs: 603734942
  frame_id: "ti_mmwave"
point_id: 10
x: 1.80078125
y: -0.0
z: 0.0
range: 1.91738677025
velocity: 0.0
doppler_bin: 8
bearing: -0.0
intensity: 28.1224460602
---
header: 
  seq: 3302253
  stamp: 
    secs: 1561686434
    nsecs: 603747894
  frame_id: "ti_mmwave"
point_id: 11
x: 2.525390625
y: -0.263671875
z: 1.232421875
range: 3.00681090355
velocity: 0.0
doppler_bin: 8
bearing: -5.96056175232
intensity: 29.4987773895
---
header: 
  seq: 3302254
  stamp: 
    secs: 1561686434
    nsecs: 603756854
  frame_id: "ti_mmwave"
point_id: 12
x: 2.59375
y: -0.267578125
z: 1.18359375
range: 3.05038785934
velocity: 0.0
doppler_bin: 8
bearing: -5.88994932175
intensity: 32.7989501953
---
header: 
  seq: 3302255
  stamp: 
    secs: 1561686434
    nsecs: 603779222
  frame_id: "ti_mmwave"
point_id: 13
x: 2.662109375
y: -0.181640625
z: 1.1484375
range: 3.09396481514
velocity: 0.0
doppler_bin: 8
bearing: -3.90334677696
intensity: 32.0002937317
---
header: 
  seq: 3302256
  stamp: 
    secs: 1561686434
    nsecs: 603797001
  frame_id: "ti_mmwave"
point_id: 14
x: 4.357421875
y: -0.287109375
z: 1.384765625
range: 4.88062095642
velocity: 0.0
doppler_bin: 8
bearing: -3.76975464821
intensity: 28.9762706757
---
header: 
  seq: 3302257
  stamp: 
    secs: 1561686434
    nsecs: 603819332
  frame_id: "ti_mmwave"
point_id: 16
x: 0.041015625
y: -0.033203125
z: 0.0625
range: 0.0871539413929
velocity: 0.0
doppler_bin: 8
bearing: -38.9909973145
intensity: 30.1535968781
---
header: 
  seq: 3302258
  stamp: 
    secs: 1561686434
    nsecs: 603912650
  frame_id: "ti_mmwave"
point_id: 17
x: 0.044921875
y: -0.046875
z: 0.103515625
range: 0.130730912089
velocity: 0.0
doppler_bin: 8
bearing: -46.218875885
intensity: 29.0525608063
---
header: 
  seq: 3302259
  stamp: 
    secs: 1561686434
    nsecs: 603944597
  frame_id: "ti_mmwave"
point_id: 19
x: 1.216796875
y: 0.357421875
z: 0.0390625
range: 1.35088610649
velocity: 0.0
doppler_bin: 8
bearing: 16.3696231842
intensity: 19.2427921295
---
header: 
  seq: 3302260
  stamp: 
    secs: 1561686434
    nsecs: 603962465
  frame_id: "ti_mmwave"
point_id: 20
x: 3.541015625
y: -2.00390625
z: -2.10546875
range: 4.88062095642
velocity: 0.0
doppler_bin: 8
bearing: -29.5060787201
intensity: 26.0852603912
---
header: 
  seq: 3302261
  stamp: 
    secs: 1561686434
    nsecs: 662256245
  frame_id: "ti_mmwave"
point_id: 0
x: 0.01171875
y: -0.0390625
z: -0.0078125
range: 0.0435769706964
velocity: 0.0
doppler_bin: 8
bearing: -73.3007583618
intensity: 30.7445068359
---
header: 
  seq: 3302262
  stamp: 
    secs: 1561686434
    nsecs: 662345262
  frame_id: "ti_mmwave"
point_id: 1
x: 0.017578125
y: -0.080078125
z: -0.0078125
range: 0.0871539413929
velocity: 0.0
doppler_bin: 8
bearing: -77.6192398071
intensity: 31.9755630493
---
header: 
  seq: 3302263
  stamp: 
    secs: 1561686434
    nsecs: 662364257
  frame_id: "ti_mmwave"
point_id: 2
x: 0.029296875
y: -0.119140625
z: -0.00390625
range: 0.130730912089
velocity: 0.0
doppler_bin: 8
bearing: -76.1849746704
intensity: 30.2036132812
---
header: 
  seq: 3302264
  stamp: 
    secs: 1561686434
    nsecs: 662380395
  frame_id: "ti_mmwave"
point_id: 3
x: 0.056640625
y: -0.154296875
z: 0.005859375
range: 0.174307882786
velocity: 0.0
doppler_bin: 8
bearing: -69.8423843384
intensity: 25.490032196
---
header: 
  seq: 3302265
  stamp: 
    secs: 1561686434
    nsecs: 662391370
  frame_id: "ti_mmwave"
point_id: 4
x: 0.31640625
y: -0.080078125
z: -1.224609375
range: 1.35088610649
velocity: 0.0
doppler_bin: 8
bearing: -14.2025585175
intensity: 21.9589958191
---
header: 
  seq: 3302266
  stamp: 
    secs: 1561686434
    nsecs: 662419758
  frame_id: "ti_mmwave"
point_id: 5
x: 0.3203125
y: -0.041015625
z: 1.26953125
range: 1.39446306229
velocity: 0.0
doppler_bin: 8
bearing: -7.29694652557
intensity: 23.2221927643
---
header: 
  seq: 3302267
  stamp: 
    secs: 1561686434
    nsecs: 662440634
  frame_id: "ti_mmwave"
point_id: 6
x: 0.478515625
y: -0.04296875
z: 1.26171875
range: 1.43804001808
velocity: 0.0
doppler_bin: 8
bearing: -5.13116502762
intensity: 21.9033164978
---
header: 
  seq: 3302268
  stamp: 
    secs: 1561686434
    nsecs: 662526728
  frame_id: "ti_mmwave"
point_id: 7
x: 1.677734375
y: -0.0
z: -0.001953125
range: 1.78665578365
velocity: 0.0
doppler_bin: 8
bearing: -0.0
intensity: 29.7680835724
---
header: 
  seq: 3302269
  stamp: 
    secs: 1561686434
    nsecs: 662542016
  frame_id: "ti_mmwave"
point_id: 8
x: 1.716796875
y: -0.0
z: -0.037109375
range: 1.83023273945
velocity: 0.0
doppler_bin: 8
bearing: -0.0
intensity: 32.1537322998
---
header: 
  seq: 3302270
  stamp: 
    secs: 1561686434
    nsecs: 662552357
  frame_id: "ti_mmwave"
point_id: 9
x: 1.7578125
y: -0.0
z: -0.064453125
range: 1.87380969524
velocity: 0.0
doppler_bin: 8
bearing: -0.0
intensity: 31.5866394043
---
header: 
  seq: 3302271
  stamp: 
    secs: 1561686434
    nsecs: 662564887
  frame_id: "ti_mmwave"
point_id: 10
x: 1.794921875
y: -0.056640625
z: -0.130859375
range: 1.91738677025
velocity: 0.0
doppler_bin: 8
bearing: -1.80742812157
intensity: 28.182258606
---
header: 
  seq: 3302272
  stamp: 
    secs: 1561686434
    nsecs: 662575061
  frame_id: "ti_mmwave"
point_id: 11
x: 2.564453125
y: -0.263671875
z: 1.1484375
range: 3.00681090355
velocity: 0.0
doppler_bin: 8
bearing: -5.87040758133
intensity: 29.3701610565
---
header: 
  seq: 3302273
  stamp: 
    secs: 1561686434
    nsecs: 662585162
  frame_id: "ti_mmwave"
point_id: 12
x: 2.625
y: -0.1796875
z: 1.130859375
range: 3.05038785934
velocity: 0.0
doppler_bin: 8
bearing: -3.91592383385
intensity: 32.7091178894
---
header: 
  seq: 3302274
  stamp: 
    secs: 1561686434
    nsecs: 662595537
  frame_id: "ti_mmwave"
point_id: 13
x: 2.666015625
y: -0.181640625
z: 1.13671875
range: 3.09396481514
velocity: 0.0
doppler_bin: 8
bearing: -3.89764523506
intensity: 31.9783172607
---
header: 
  seq: 3302275
  stamp: 
    secs: 1561686434
    nsecs: 662608370
  frame_id: "ti_mmwave"
point_id: 14
x: 4.384765625
y: -0.287109375
z: 1.298828125
range: 4.88062095642
velocity: 0.0
doppler_bin: 8
bearing: -3.74631309509
intensity: 30.5269393921
---
header: 
  seq: 3302276
  stamp: 
    secs: 1561686434
    nsecs: 662620077
  frame_id: "ti_mmwave"
point_id: 15
x: 4.40234375
y: -0.2890625
z: 1.376953125
range: 4.9241976738
velocity: 0.0
doppler_bin: 8
bearing: -3.75670814514
intensity: 30.2201576233
---
header: 
  seq: 3302277
  stamp: 
    secs: 1561686434
    nsecs: 662633930
  frame_id: "ti_mmwave"
point_id: 17
x: 0.041015625
y: -0.033203125
z: 0.0625
range: 0.0871539413929
velocity: 0.0
doppler_bin: 8
bearing: -38.9909973145
intensity: 30.1452045441
---
header: 
  seq: 3302278
  stamp: 
    secs: 1561686434
    nsecs: 662647103
  frame_id: "ti_mmwave"
point_id: 18
x: 0.044921875
y: -0.046875
z: 0.103515625
range: 0.130730912089
velocity: 0.0
doppler_bin: 8
bearing: -46.218875885
intensity: 29.0471553802
---
header: 
  seq: 3302279
  stamp: 
    secs: 1561686434
    nsecs: 662664171
  frame_id: "ti_mmwave"
point_id: 20
x: 1.216796875
y: 0.357421875
z: 0.033203125
range: 1.35088610649
velocity: 0.0
doppler_bin: 8
bearing: 16.3696231842
intensity: 19.4448261261
---
header: 
  seq: 3302280
  stamp: 
    secs: 1561686434
    nsecs: 663182301
  frame_id: "ti_mmwave"
point_id: 0
x: 0.01171875
y: -0.0390625
z: -0.0078125
range: 0.0435769706964
velocity: 0.0
doppler_bin: 8
bearing: -73.3007583618
intensity: 30.7481651306
---
header: 
  seq: 3302281
  stamp: 
    secs: 1561686434
    nsecs: 663230364
  frame_id: "ti_mmwave"
point_id: 1
x: 0.017578125
y: -0.080078125
z: -0.0078125
range: 0.0871539413929
velocity: 0.0
doppler_bin: 8
bearing: -77.6192398071
intensity: 31.9783172607
---
header: 
  seq: 3302282
  stamp: 
    secs: 1561686434
    nsecs: 663248895
  frame_id: "ti_mmwave"
point_id: 2
x: 0.029296875
y: -0.119140625
z: -0.00390625
range: 0.130730912089
velocity: 0.0
doppler_bin: 8
bearing: -76.1849746704
intensity: 30.2077541351
---
header: 
  seq: 3302283
  stamp: 
    secs: 1561686434
    nsecs: 663262323
  frame_id: "ti_mmwave"
point_id: 3
x: 0.056640625
y: -0.154296875
z: 0.0078125
range: 0.174307882786
velocity: 0.0
doppler_bin: 8
bearing: -69.8423843384
intensity: 25.5022830963
---
header: 
  seq: 3302284
  stamp: 
    secs: 1561686434
    nsecs: 663274608
  frame_id: "ti_mmwave"
point_id: 4
x: 0.3515625
y: -0.080078125
z: -1.216796875
range: 1.35088610649
velocity: 0.0
doppler_bin: 8
bearing: -12.83177948
intensity: 21.9589958191
---
header: 
  seq: 3302285
  stamp: 
    secs: 1561686434
    nsecs: 663355432
  frame_id: "ti_mmwave"
point_id: 5
x: 0.3125
y: -0.041015625
z: 1.271484375
range: 1.39446306229
velocity: 0.0
doppler_bin: 8
bearing: -7.47732973099
intensity: 23.2633590698
---
header: 
  seq: 3302286
  stamp: 
    secs: 1561686434
    nsecs: 663423614
  frame_id: "ti_mmwave"
point_id: 6
x: 0.435546875
y: -0.0
z: 1.27734375
range: 1.43804001808
velocity: 0.0
doppler_bin: 8
bearing: -0.0
intensity: 21.9589958191
---
header: 
  seq: 3302287
  stamp: 
    secs: 1561686434
    nsecs: 663438958
  frame_id: "ti_mmwave"
point_id: 7
x: 2.556640625
y: -0.263671875
z: 1.16796875
range: 3.00681090355
velocity: 0.0
doppler_bin: 8
bearing: -5.88822031021
intensity: 29.4151134491
---
header: 
  seq: 3302288
  stamp: 
    secs: 1561686434
    nsecs: 663451782
  frame_id: "ti_mmwave"
point_id: 8
x: 2.60546875
y: -0.267578125
z: 1.158203125
range: 3.05038785934
velocity: 0.0
doppler_bin: 8
bearing: -5.86364221573
intensity: 32.7554168701
---
header: 
  seq: 3302289
  stamp: 
    secs: 1561686434
    nsecs: 663463261
  frame_id: "ti_mmwave"
point_id: 9
x: 2.6640625
y: -0.181640625
z: 1.140625
range: 3.09396481514
velocity: 0.0
doppler_bin: 8
bearing: -3.90049386024
intensity: 32.0139694214
---
header: 
  seq: 3302290
  stamp: 
    secs: 1561686434
    nsecs: 663474728
  frame_id: "ti_mmwave"
point_id: 10
x: 4.3984375
y: -0.287109375
z: 1.25
range: 4.88062095642
velocity: 0.0
doppler_bin: 8
bearing: -3.73470139503
intensity: 30.8457622528
---
header: 
  seq: 3302291
  stamp: 
    secs: 1561686434
    nsecs: 663489038
  frame_id: "ti_mmwave"
point_id: 11
x: 4.423828125
y: -0.2890625
z: 1.310546875
range: 4.9241976738
velocity: 0.0
doppler_bin: 8
bearing: -3.73851561546
intensity: 30.5346260071
---
header: 
  seq: 3302292
  stamp: 
    secs: 1561686434
    nsecs: 663577404
  frame_id: "ti_mmwave"
point_id: 13
x: 0.041015625
y: -0.033203125
z: 0.0625
range: 0.0871539413929
velocity: 0.0
doppler_bin: 8
bearing: -38.9909973145
intensity: 30.1494026184
---
header: 
  seq: 3302293
  stamp: 
    secs: 1561686434
    nsecs: 663589101
  frame_id: "ti_mmwave"
point_id: 14
x: 0.044921875
y: -0.046875
z: 0.103515625
range: 0.130730912089
velocity: 0.0
doppler_bin: 8
bearing: -46.218875885
intensity: 29.0525608063
---
header: 
  seq: 3302294
  stamp: 
    secs: 1561686434
    nsecs: 663598578
  frame_id: "ti_mmwave"
point_id: 16
x: 1.216796875
y: 0.357421875
z: 0.02734375
range: 1.35088610649
velocity: 0.0
doppler_bin: 8
bearing: 16.3696231842
intensity: 19.2941894531
---
header: 
  seq: 3302295
  stamp: 
    secs: 1561686434
    nsecs: 722230167
  frame_id: "ti_mmwave"
point_id: 0
x: 0.01171875
y: -0.0390625
z: -0.0078125
range: 0.0435769706964
velocity: 0.0
doppler_bin: 8
bearing: -73.3007583618
intensity: 30.7445068359
---
header: 
  seq: 3302296
  stamp: 
    secs: 1561686434
    nsecs: 722303609
  frame_id: "ti_mmwave"
point_id: 1
x: 0.017578125
y: -0.080078125
z: -0.0078125
range: 0.0871539413929
velocity: 0.0
doppler_bin: 8
bearing: -77.6192398071
intensity: 31.9783172607
---
header: 
  seq: 3302297
  stamp: 
    secs: 1561686434
    nsecs: 722314763
  frame_id: "ti_mmwave"
point_id: 2
x: 0.029296875
y: -0.119140625
z: -0.00390625
range: 0.130730912089
velocity: 0.0
doppler_bin: 8
bearing: -76.1849746704
intensity: 30.2036132812
---
header: 
  seq: 3302298
  stamp: 
    secs: 1561686434
    nsecs: 722323969
  frame_id: "ti_mmwave"
point_id: 3
x: 0.056640625
y: -0.154296875
z: 0.005859375
range: 0.174307882786
velocity: 0.0
doppler_bin: 8
bearing: -69.8423843384
intensity: 25.5022830963
---
header: 
  seq: 3302299
  stamp: 
    secs: 1561686434
    nsecs: 722332094
  frame_id: "ti_mmwave"
point_id: 4
x: 0.345703125
y: -0.080078125
z: -1.216796875
range: 1.35088610649
velocity: 0.0
doppler_bin: 8
bearing: -13.0418901443
intensity: 21.9865703583
---
header: 
  seq: 3302300
  stamp: 
    secs: 1561686434
    nsecs: 722340442
  frame_id: "ti_mmwave"
point_id: 5
x: 0.296875
y: -0.041015625
z: 1.2734375
range: 1.39446306229
velocity: 0.0
doppler_bin: 8
bearing: -7.86606836319
intensity: 23.2633590698
---
header: 
  seq: 3302301
  stamp: 
    secs: 1561686434
    nsecs: 722351258
  frame_id: "ti_mmwave"
point_id: 6
x: 0.48046875
y: -0.04296875
z: 1.259765625
range: 1.43804001808
velocity: 0.0
doppler_bin: 8
bearing: -5.11041736603
intensity: 21.9865703583
---
header: 
  seq: 3302302
  stamp: 
    secs: 1561686434
    nsecs: 722359496
  frame_id: "ti_mmwave"
point_id: 7
x: 1.716796875
y: -0.052734375
z: 0.001953125
range: 1.83023273945
velocity: 0.0
doppler_bin: 8
bearing: -1.75938534737
intensity: 26.8663635254
---
header: 
  seq: 3302303
  stamp: 
    secs: 1561686434
    nsecs: 722369288
  frame_id: "ti_mmwave"
point_id: 8
x: 1.7578125
y: -0.0546875
z: 0.0234375
range: 1.87380969524
velocity: 0.0
doppler_bin: 8
bearing: -1.78196060658
intensity: 26.0530509949
---
header: 
  seq: 3302304
  stamp: 
    secs: 1561686434
    nsecs: 722378484
  frame_id: "ti_mmwave"
point_id: 9
x: 2.5546875
y: -0.263671875
z: 1.171875
range: 3.00681090355
velocity: 0.0
doppler_bin: 8
bearing: -5.89269018173
intensity: 29.4890174866
---
header: 
  seq: 3302305
  stamp: 
    secs: 1561686434
    nsecs: 722386000
  frame_id: "ti_mmwave"
point_id: 10
x: 2.623046875
y: -0.1796875
z: 1.1328125
range: 3.05038785934
velocity: 0.0
doppler_bin: 8
bearing: -3.91883039474
intensity: 32.8012275696
---
header: 
  seq: 3302306
  stamp: 
    secs: 1561686434
    nsecs: 722568234
  frame_id: "ti_mmwave"
point_id: 11
x: 2.673828125
y: -0.181640625
z: 1.119140625
range: 3.09396481514
velocity: 0.0
doppler_bin: 8
bearing: -3.88629174232
intensity: 32.0763435364
---
header: 
  seq: 3302307
  stamp: 
    secs: 1561686434
    nsecs: 722590059
  frame_id: "ti_mmwave"
point_id: 12
x: 4.357421875
y: -0.287109375
z: 1.38671875
range: 4.88062095642
velocity: 0.0
doppler_bin: 8
bearing: -3.76975464821
intensity: 28.8930168152
---
header: 
  seq: 3302308
  stamp: 
    secs: 1561686434
    nsecs: 722607347
  frame_id: "ti_mmwave"
point_id: 14
x: 0.041015625
y: -0.033203125
z: 0.0625
range: 0.0871539413929
velocity: 0.0
doppler_bin: 8
bearing: -38.9909973145
intensity: 30.1535968781
---
header: 
  seq: 3302309
  stamp: 
    secs: 1561686434
    nsecs: 722618917
  frame_id: "ti_mmwave"
point_id: 15
x: 0.044921875
y: -0.046875
z: 0.103515625
range: 0.130730912089
velocity: 0.0
doppler_bin: 8
bearing: -46.218875885
intensity: 29.0579586029
---
header: 
  seq: 3302310
  stamp: 
    secs: 1561686434
    nsecs: 722631930
  frame_id: "ti_mmwave"
point_id: 17
x: 1.216796875
y: 0.357421875
z: 0.029296875
range: 1.35088610649
velocity: 0.0
doppler_bin: 8
bearing: 16.3696231842
intensity: 19.2427921295
---
header: 
  seq: 3302311
  stamp: 
    secs: 1561686434
    nsecs: 722646547
  frame_id: "ti_mmwave"
point_id: 18
x: 3.5234375
y: -2.00390625
z: -2.134765625
range: 4.88062095642
velocity: 0.0
doppler_bin: 8
bearing: -29.6284561157
intensity: 26.0959434509
---
header: 
  seq: 3302312
  stamp: 
    secs: 1561686434
    nsecs: 723616343
  frame_id: "ti_mmwave"
point_id: 0
x: 0.01171875
y: -0.0390625
z: -0.0078125
range: 0.0435769706964
velocity: 0.0
doppler_bin: 8
bearing: -73.3007583618
intensity: 30.7408466339
---
header: 
  seq: 3302313
  stamp: 
    secs: 1561686434
    nsecs: 723683656
  frame_id: "ti_mmwave"
point_id: 1
x: 0.017578125
y: -0.080078125
z: -0.0078125
range: 0.0871539413929
velocity: 0.0
doppler_bin: 8
bearing: -77.6192398071
intensity: 31.9755630493
---
header: 
  seq: 3302314
  stamp: 
    secs: 1561686434
    nsecs: 723708593
  frame_id: "ti_mmwave"
point_id: 2
x: 0.029296875
y: -0.119140625
z: -0.00390625
range: 0.130730912089
velocity: 0.0
doppler_bin: 8
bearing: -76.1849746704
intensity: 30.2036132812
---
header: 
  seq: 3302315
  stamp: 
    secs: 1561686434
    nsecs: 723727640
  frame_id: "ti_mmwave"
point_id: 3
x: 0.056640625
y: -0.154296875
z: 0.005859375
range: 0.174307882786
velocity: 0.0
doppler_bin: 8
bearing: -69.8423843384
intensity: 25.5022830963
---
header: 
  seq: 3302316
  stamp: 
    secs: 1561686434
    nsecs: 723802514
  frame_id: "ti_mmwave"
point_id: 4
x: 0.29296875
y: -0.080078125
z: -1.23046875
range: 1.35088610649
velocity: 0.0
doppler_bin: 8
bearing: -15.2874355316
intensity: 21.9865703583
---
header: 
  seq: 3302317
  stamp: 
    secs: 1561686434
    nsecs: 723823006
  frame_id: "ti_mmwave"
point_id: 5
x: 0.3515625
y: -0.041015625
z: 1.259765625
range: 1.39446306229
velocity: 0.0
doppler_bin: 8
bearing: -6.6544251442
intensity: 23.2428245544
---
header: 
  seq: 3302318
  stamp: 
    secs: 1561686434
    nsecs: 723837710
  frame_id: "ti_mmwave"
point_id: 6
x: 0.447265625
y: -0.0
z: 1.2734375
range: 1.43804001808
velocity: 0.0
doppler_bin: 8
bearing: -0.0
intensity: 21.9033164978
---
header: 
  seq: 3302319
  stamp: 
    secs: 1561686434
    nsecs: 723852245
  frame_id: "ti_mmwave"
point_id: 7
x: 1.66796875
y: -0.052734375
z: -0.166015625
range: 1.78665578365
velocity: 0.0
doppler_bin: 8
bearing: -1.81085586548
intensity: 31.6166744232
---
header: 
  seq: 3302320
  stamp: 
    secs: 1561686434
    nsecs: 723866914
  frame_id: "ti_mmwave"
point_id: 8
x: 1.7109375
y: -0.052734375
z: -0.14453125
range: 1.83023273945
velocity: 0.0
doppler_bin: 8
bearing: -1.765406847
intensity: 33.719909668
---
header: 
  seq: 3302321
  stamp: 
    secs: 1561686434
    nsecs: 723878751
  frame_id: "ti_mmwave"
point_id: 9
x: 1.75390625
y: -0.0546875
z: -0.107421875
range: 1.87380969524
velocity: 0.0
doppler_bin: 8
bearing: -1.78592669964
intensity: 32.4353408813
---
header: 
  seq: 3302322
  stamp: 
    secs: 1561686434
    nsecs: 723904959
  frame_id: "ti_mmwave"
point_id: 10
x: 1.798828125
y: -0.056640625
z: 0.0078125
range: 1.91738677025
velocity: 0.0
doppler_bin: 8
bearing: -1.8035056591
intensity: 28.1157493591
---
header: 
  seq: 3302323
  stamp: 
    secs: 1561686434
    nsecs: 723929002
  frame_id: "ti_mmwave"
point_id: 11
x: 2.541015625
y: -0.263671875
z: 1.201171875
range: 3.00681090355
velocity: 0.0
doppler_bin: 8
bearing: -5.92417097092
intensity: 29.3550720215
---
header: 
  seq: 3302324
  stamp: 
    secs: 1561686434
    nsecs: 723954355
  frame_id: "ti_mmwave"
point_id: 12
x: 2.609375
y: -0.267578125
z: 1.150390625
range: 3.05038785934
velocity: 0.0
doppler_bin: 8
bearing: -5.85492515564
intensity: 32.7207374573
---
header: 
  seq: 3302325
  stamp: 
    secs: 1561686434
    nsecs: 723982289
  frame_id: "ti_mmwave"
point_id: 13
x: 2.673828125
y: -0.181640625
z: 1.119140625
range: 3.09396481514
velocity: 0.0
doppler_bin: 8
bearing: -3.88629174232
intensity: 32.0167007446
---
header: 
  seq: 3302326
  stamp: 
    secs: 1561686434
    nsecs: 724086261
  frame_id: "ti_mmwave"
point_id: 15
x: 0.041015625
y: -0.033203125
z: 0.0625
range: 0.0871539413929
velocity: 0.0
doppler_bin: 8
bearing: -38.9909973145
intensity: 30.1452045441
---
header: 
  seq: 3302327
  stamp: 
    secs: 1561686434
    nsecs: 724104230
  frame_id: "ti_mmwave"
point_id: 16
x: 0.044921875
y: -0.046875
z: 0.103515625
range: 0.130730912089
velocity: 0.0
doppler_bin: 8
bearing: -46.218875885
intensity: 29.0525608063
---
header: 
  seq: 3302328
  stamp: 
    secs: 1561686434
    nsecs: 724115906
  frame_id: "ti_mmwave"
point_id: 18
x: 1.216796875
y: 0.357421875
z: 0.033203125
range: 1.35088610649
velocity: 0.0
doppler_bin: 8
bearing: 16.3696231842
intensity: 19.2941894531
---
header: 
  seq: 3302329
  stamp: 
    secs: 1561686434
    nsecs: 782197661
  frame_id: "ti_mmwave"
point_id: 0
x: 0.01171875
y: -0.0390625
z: -0.0078125
range: 0.0435769706964
velocity: 0.0
doppler_bin: 8
bearing: -73.3007583618
intensity: 30.7481651306
---
header: 
  seq: 3302330
  stamp: 
    secs: 1561686434
    nsecs: 782279031
  frame_id: "ti_mmwave"
point_id: 1
x: 0.017578125
y: -0.080078125
z: -0.0078125
range: 0.0871539413929
velocity: 0.0
doppler_bin: 8
bearing: -77.6192398071
intensity: 31.9783172607
---
header: 
  seq: 3302331
  stamp: 
    secs: 1561686434
    nsecs: 782295761
  frame_id: "ti_mmwave"
point_id: 2
x: 0.029296875
y: -0.119140625
z: -0.00390625
range: 0.130730912089
velocity: 0.0
doppler_bin: 8
bearing: -76.1849746704
intensity: 30.2077541351
---
header: 
  seq: 3302332
  stamp: 
    secs: 1561686434
    nsecs: 782311391
  frame_id: "ti_mmwave"
point_id: 3
x: 0.056640625
y: -0.154296875
z: 0.005859375
range: 0.174307882786
velocity: 0.0
doppler_bin: 8
bearing: -69.8423843384
intensity: 25.5266819
---
header: 
  seq: 3302333
  stamp: 
    secs: 1561686434
    nsecs: 782323744
  frame_id: "ti_mmwave"
point_id: 4
x: 0.31640625
y: -0.080078125
z: -1.224609375
range: 1.35088610649
velocity: 0.0
doppler_bin: 8
bearing: -14.2025585175
intensity: 21.9865703583
---
header: 
  seq: 3302334
  stamp: 
    secs: 1561686434
    nsecs: 782337933
  frame_id: "ti_mmwave"
point_id: 5
x: 0.322265625
y: -0.041015625
z: 1.267578125
range: 1.39446306229
velocity: 0.0
doppler_bin: 8
bearing: -7.25319480896
intensity: 23.2428245544
---
header: 
  seq: 3302335
  stamp: 
    secs: 1561686434
    nsecs: 782437345
  frame_id: "ti_mmwave"
point_id: 6
x: 0.501953125
y: -0.04296875
z: 1.251953125
range: 1.43804001808
velocity: 0.0
doppler_bin: 8
bearing: -4.89276885986
intensity: 21.9589958191
---
header: 
  seq: 3302336
  stamp: 
    secs: 1561686434
    nsecs: 782450432
  frame_id: "ti_mmwave"
point_id: 7
x: 1.654296875
y: 0.052734375
z: -0.271484375
range: 1.78665578365
velocity: 0.0
doppler_bin: 8
bearing: 1.82581138611
intensity: 27.2345561981
---
header: 
  seq: 3302337
  stamp: 
    secs: 1561686434
    nsecs: 782460641
  frame_id: "ti_mmwave"
point_id: 8
x: 1.6875
y: 0.107421875
z: -0.298828125
range: 1.83023273945
velocity: 0.0
doppler_bin: 8
bearing: 3.64238619804
intensity: 28.5186958313
---
header: 
  seq: 3302338
  stamp: 
    secs: 1561686434
    nsecs: 782470959
  frame_id: "ti_mmwave"
point_id: 9
x: 2.513671875
y: -0.263671875
z: 1.25390625
range: 3.00681090355
velocity: 0.0
doppler_bin: 8
bearing: -5.98814868927
intensity: 29.3901977539
---
header: 
  seq: 3302339
  stamp: 
    secs: 1561686434
    nsecs: 782482443
  frame_id: "ti_mmwave"
point_id: 10
x: 2.591796875
y: -0.267578125
z: 1.1875
range: 3.05038785934
velocity: 0.0
doppler_bin: 8
bearing: -5.89435625076
intensity: 32.73695755
---
header: 
  seq: 3302340
  stamp: 
    secs: 1561686434
    nsecs: 782492927
  frame_id: "ti_mmwave"
point_id: 11
x: 2.65625
y: -0.181640625
z: 1.16015625
range: 3.09396481514
velocity: 0.0
doppler_bin: 8
bearing: -3.91193032265
intensity: 32.0248832703
---
header: 
  seq: 3302341
  stamp: 
    secs: 1561686434
    nsecs: 782504252
  frame_id: "ti_mmwave"
point_id: 12
x: 1.755859375
y: 0.0546875
z: 0.095703125
range: 1.87380969524
velocity: 0.614668667316
doppler_bin: 9
bearing: 1.78394150734
intensity: 26.541765213
---
header: 
  seq: 3302342
  stamp: 
    secs: 1561686434
    nsecs: 782514339
  frame_id: "ti_mmwave"
point_id: 13
x: 1.787109375
y: -0.0
z: 0.212890625
range: 1.91738677025
velocity: 0.614668667316
doppler_bin: 9
bearing: -0.0
intensity: 25.965970993
---
header: 
  seq: 3302343
  stamp: 
    secs: 1561686434
    nsecs: 782526865
  frame_id: "ti_mmwave"
point_id: 14
x: 1.6875
y: 0.052734375
z: -0.318359375
range: 1.83023273945
velocity: -0.614668667316
doppler_bin: 7
bearing: 1.7899106741
intensity: 28.2347431183
---
header: 
  seq: 3302344
  stamp: 
    secs: 1561686434
    nsecs: 782539328
  frame_id: "ti_mmwave"
point_id: 16
x: 0.041015625
y: -0.033203125
z: 0.0625
range: 0.0871539413929
velocity: 0.0
doppler_bin: 8
bearing: -38.9909973145
intensity: 30.157787323
---
header: 
  seq: 3302345
  stamp: 
    secs: 1561686434
    nsecs: 782549558
  frame_id: "ti_mmwave"
point_id: 17
x: 0.044921875
y: -0.046875
z: 0.103515625
range: 0.130730912089
velocity: 0.0
doppler_bin: 8
bearing: -46.218875885
intensity: 29.0525608063
---
header: 
  seq: 3302346
  stamp: 
    secs: 1561686434
    nsecs: 782558902
  frame_id: "ti_mmwave"
point_id: 19
x: 1.21484375
y: 0.357421875
z: 0.056640625
range: 1.35088610649
velocity: 0.0
doppler_bin: 8
bearing: 16.3945274353
intensity: 19.2941894531
---
header: 
  seq: 3302347
  stamp: 
    secs: 1561686434
    nsecs: 783495573
  frame_id: "ti_mmwave"
point_id: 0
x: 0.01171875
y: -0.0390625
z: -0.0078125
range: 0.0435769706964
velocity: 0.0
doppler_bin: 8
bearing: -73.3007583618
intensity: 30.7408466339
---
header: 
  seq: 3302348
  stamp: 
    secs: 1561686434
    nsecs: 783548959
  frame_id: "ti_mmwave"
point_id: 1
x: 0.017578125
y: -0.080078125
z: -0.0078125
range: 0.0871539413929
velocity: 0.0
doppler_bin: 8
bearing: -77.6192398071
intensity: 31.9755630493
---
header: 
  seq: 3302349
  stamp: 
    secs: 1561686434
    nsecs: 783564793
  frame_id: "ti_mmwave"
point_id: 2
x: 0.029296875
y: -0.119140625
z: -0.00390625
range: 0.130730912089
velocity: 0.0
doppler_bin: 8
bearing: -76.1849746704
intensity: 30.2036132812
---
header: 
  seq: 3302350
  stamp: 
    secs: 1561686434
    nsecs: 783578725
  frame_id: "ti_mmwave"
point_id: 3
x: 0.056640625
y: -0.154296875
z: 0.005859375
range: 0.174307882786
velocity: 0.0
doppler_bin: 8
bearing: -69.8423843384
intensity: 25.5022830963
---
header: 
  seq: 3302351
  stamp: 
    secs: 1561686434
    nsecs: 783638661
  frame_id: "ti_mmwave"
point_id: 4
x: 0.349609375
y: -0.080078125
z: -1.216796875
range: 1.35088610649
velocity: 0.0
doppler_bin: 8
bearing: -12.9010734558
intensity: 21.9589958191
---
header: 
  seq: 3302352
  stamp: 
    secs: 1561686434
    nsecs: 783656328
  frame_id: "ti_mmwave"
point_id: 5
x: 0.287109375
y: -0.041015625
z: 1.27734375
range: 1.39446306229
velocity: 0.0
doppler_bin: 8
bearing: -8.13010311127
intensity: 23.2428245544
---
header: 
  seq: 3302353
  stamp: 
    secs: 1561686434
    nsecs: 783669229
  frame_id: "ti_mmwave"
point_id: 6
x: 0.4140625
y: -0.0
z: 1.28515625
range: 1.43804001808
velocity: 0.0
doppler_bin: 8
bearing: -0.0
intensity: 21.9312458038
---
header: 
  seq: 3302354
  stamp: 
    secs: 1561686434
    nsecs: 783683068
  frame_id: "ti_mmwave"
point_id: 7
x: 1.67578125
y: -0.0
z: 0.087890625
range: 1.78665578365
velocity: 0.0
doppler_bin: 8
bearing: -0.0
intensity: 29.4987773895
---
header: 
  seq: 3302355
  stamp: 
    secs: 1561686434
    nsecs: 783696698
  frame_id: "ti_mmwave"
point_id: 8
x: 1.716796875
y: -0.0
z: 0.033203125
range: 1.83023273945
velocity: 0.0
doppler_bin: 8
bearing: -0.0
intensity: 31.9033164978
---
header: 
  seq: 3302356
  stamp: 
    secs: 1561686434
    nsecs: 783710180
  frame_id: "ti_mmwave"
point_id: 9
x: 1.7578125
y: -0.0
z: -0.03125
range: 1.87380969524
velocity: 0.0
doppler_bin: 8
bearing: -0.0
intensity: 30.9412155151
---
header: 
  seq: 3302357
  stamp: 
    secs: 1561686434
    nsecs: 783722785
  frame_id: "ti_mmwave"
point_id: 10
x: 1.791015625
y: -0.056640625
z: -0.162109375
range: 1.91738677025
velocity: 0.0
doppler_bin: 8
bearing: -1.81136763096
intensity: 27.1516742706
---
header: 
  seq: 3302358
  stamp: 
    secs: 1561686434
    nsecs: 783817460
  frame_id: "ti_mmwave"
point_id: 11
x: 2.5703125
y: -0.263671875
z: 1.138671875
range: 3.00681090355
velocity: 0.0
doppler_bin: 8
bearing: -5.85711812973
intensity: 29.5182304382
---
header: 
  seq: 3302359
  stamp: 
    secs: 1561686434
    nsecs: 783845557
  frame_id: "ti_mmwave"
point_id: 12
x: 2.609375
y: -0.267578125
z: 1.150390625
range: 3.05038785934
velocity: 0.0
doppler_bin: 8
bearing: -5.85492515564
intensity: 32.8080596924
---
header: 
  seq: 3302360
  stamp: 
    secs: 1561686434
    nsecs: 783867788
  frame_id: "ti_mmwave"
point_id: 13
x: 2.66796875
y: -0.181640625
z: 1.1328125
range: 3.09396481514
velocity: 0.0
doppler_bin: 8
bearing: -3.89480042458
intensity: 32.0276069641
---
header: 
  seq: 3302361
  stamp: 
    secs: 1561686434
    nsecs: 783882648
  frame_id: "ti_mmwave"
point_id: 15
x: 0.041015625
y: -0.033203125
z: 0.0625
range: 0.0871539413929
velocity: 0.0
doppler_bin: 8
bearing: -38.9909973145
intensity: 30.1452045441
---
header: 
  seq: 3302362
  stamp: 
    secs: 1561686434
    nsecs: 783895020
  frame_id: "ti_mmwave"
point_id: 16
x: 0.044921875
y: -0.046875
z: 0.103515625
range: 0.130730912089
velocity: 0.0
doppler_bin: 8
bearing: -46.218875885
intensity: 29.0471553802
---
header: 
  seq: 3302363
  stamp: 
    secs: 1561686434
    nsecs: 783909126
  frame_id: "ti_mmwave"
point_id: 18
x: 1.21484375
y: 0.357421875
z: 0.068359375
range: 1.35088610649
velocity: 0.0
doppler_bin: 8
bearing: 16.3945274353
intensity: 19.2941894531
---
header: 
  seq: 3302364
  stamp: 
    secs: 1561686434
    nsecs: 843192266
  frame_id: "ti_mmwave"
point_id: 0
x: 0.01171875
y: -0.0390625
z: -0.0078125
range: 0.0435769706964
velocity: 0.0
doppler_bin: 8
bearing: -73.3007583618
intensity: 30.7371826172
---
header: 
  seq: 3302365
  stamp: 
    secs: 1561686434
    nsecs: 843267980
  frame_id: "ti_mmwave"
point_id: 1
x: 0.017578125
y: -0.080078125
z: -0.0078125
range: 0.0871539413929
velocity: 0.0
doppler_bin: 8
bearing: -77.6192398071
intensity: 31.9755630493
---
header: 
  seq: 3302366
  stamp: 
    secs: 1561686434
    nsecs: 843279537
  frame_id: "ti_mmwave"
point_id: 2
x: 0.04296875
y: -0.115234375
z: -0.0078125
range: 0.130730912089
velocity: 0.0
doppler_bin: 8
bearing: -69.550453186
intensity: 30.1994667053
---
header: 
  seq: 3302367
  stamp: 
    secs: 1561686434
    nsecs: 843292796
  frame_id: "ti_mmwave"
point_id: 3
x: 0.056640625
y: -0.154296875
z: 0.0078125
range: 0.174307882786
velocity: 0.0
doppler_bin: 8
bearing: -69.8423843384
intensity: 25.5022830963
---
header: 
  seq: 3302368
  stamp: 
    secs: 1561686434
    nsecs: 843303345
  frame_id: "ti_mmwave"
point_id: 4
x: 0.349609375
y: -0.080078125
z: -1.216796875
range: 1.35088610649
velocity: 0.0
doppler_bin: 8
bearing: -12.9010734558
intensity: 21.9589958191
---
header: 
  seq: 3302369
  stamp: 
    secs: 1561686434
    nsecs: 843311722
  frame_id: "ti_mmwave"
point_id: 5
x: 0.322265625
y: -0.041015625
z: 1.267578125
range: 1.39446306229
velocity: 0.0
doppler_bin: 8
bearing: -7.25319480896
intensity: 23.2221927643
---
header: 
  seq: 3302370
  stamp: 
    secs: 1561686434
    nsecs: 843320196
  frame_id: "ti_mmwave"
point_id: 6
x: 0.44140625
y: -0.0
z: 1.275390625
range: 1.43804001808
velocity: 0.0
doppler_bin: 8
bearing: -0.0
intensity: 21.9312458038
---
header: 
  seq: 3302371
  stamp: 
    secs: 1561686434
    nsecs: 843328387
  frame_id: "ti_mmwave"
point_id: 7
x: 1.701171875
y: -0.0
z: -0.234375
range: 1.83023273945
velocity: 0.0
doppler_bin: 8
bearing: -0.0
intensity: 26.4147415161
---
header: 
  seq: 3302372
  stamp: 
    secs: 1561686434
    nsecs: 843337090
  frame_id: "ti_mmwave"
point_id: 8
x: 1.755859375
y: -0.109375
z: -0.009765625
range: 1.87380969524
velocity: 0.0
doppler_bin: 8
bearing: -3.56443095207
intensity: 28.8024177551
---
header: 
  seq: 3302373
  stamp: 
    secs: 1561686434
    nsecs: 843344989
  frame_id: "ti_mmwave"
point_id: 9
x: 1.794921875
y: -0.11328125
z: -0.068359375
range: 1.91738677025
velocity: 0.0
doppler_bin: 8
bearing: -3.61126613617
intensity: 26.637008667
---
header: 
  seq: 3302374
  stamp: 
    secs: 1561686434
    nsecs: 843559662
  frame_id: "ti_mmwave"
point_id: 10
x: 2.55859375
y: -0.263671875
z: 1.162109375
range: 3.00681090355
velocity: 0.0
doppler_bin: 8
bearing: -5.88375711441
intensity: 29.5568771362
---
header: 
  seq: 3302375
  stamp: 
    secs: 1561686434
    nsecs: 843581230
  frame_id: "ti_mmwave"
point_id: 11
x: 2.60546875
y: -0.267578125
z: 1.15625
range: 3.05038785934
velocity: 0.0
doppler_bin: 8
bearing: -5.86364221573
intensity: 32.8465614319
---
header: 
  seq: 3302376
  stamp: 
    secs: 1561686434
    nsecs: 843589662
  frame_id: "ti_mmwave"
point_id: 12
x: 2.6640625
y: -0.181640625
z: 1.14453125
range: 3.09396481514
velocity: 0.0
doppler_bin: 8
bearing: -3.90049386024
intensity: 32.0139694214
---
header: 
  seq: 3302377
  stamp: 
    secs: 1561686434
    nsecs: 843597632
  frame_id: "ti_mmwave"
point_id: 13
x: 1.638671875
y: -0.0
z: -0.35546875
range: 1.78665578365
velocity: -0.614668667316
doppler_bin: 7
bearing: -0.0
intensity: 27.5050830841
---
header: 
  seq: 3302378
  stamp: 
    secs: 1561686434
    nsecs: 843608053
  frame_id: "ti_mmwave"
point_id: 15
x: 0.041015625
y: -0.033203125
z: 0.0625
range: 0.0871539413929
velocity: 0.0
doppler_bin: 8
bearing: -38.9909973145
intensity: 30.1452045441
---
header: 
  seq: 3302379
  stamp: 
    secs: 1561686434
    nsecs: 843615958
  frame_id: "ti_mmwave"
point_id: 16
x: 0.044921875
y: -0.046875
z: 0.103515625
range: 0.130730912089
velocity: 0.0
doppler_bin: 8
bearing: -46.218875885
intensity: 29.0525608063
---
header: 
  seq: 3302380
  stamp: 
    secs: 1561686434
    nsecs: 843625495
  frame_id: "ti_mmwave"
point_id: 18
x: 1.216796875
y: 0.357421875
z: 0.013671875
range: 1.35088610649
velocity: 0.0
doppler_bin: 8
bearing: 16.3696231842
intensity: 19.2941894531
---
header: 
  seq: 3302381
  stamp: 
    secs: 1561686434
    nsecs: 902451173
  frame_id: "ti_mmwave"
point_id: 0
x: 0.01171875
y: -0.0390625
z: -0.0078125
range: 0.0435769706964
velocity: 0.0
doppler_bin: 8
bearing: -73.3007583618
intensity: 30.7408466339
---
header: 
  seq: 3302382
  stamp: 
    secs: 1561686434
    nsecs: 902533189
  frame_id: "ti_mmwave"
point_id: 1
x: 0.017578125
y: -0.080078125
z: -0.0078125
range: 0.0871539413929
velocity: 0.0
doppler_bin: 8
bearing: -77.6192398071
intensity: 31.9755630493
---
header: 
  seq: 3302383
  stamp: 
    secs: 1561686434
    nsecs: 902548772
  frame_id: "ti_mmwave"
point_id: 2
x: 0.029296875
y: -0.119140625
z: -0.00390625
range: 0.130730912089
velocity: 0.0
doppler_bin: 8
bearing: -76.1849746704
intensity: 30.2036132812
---
header: 
  seq: 3302384
  stamp: 
    secs: 1561686434
    nsecs: 902558153
  frame_id: "ti_mmwave"
point_id: 3
x: 0.056640625
y: -0.154296875
z: 0.005859375
range: 0.174307882786
velocity: 0.0
doppler_bin: 8
bearing: -69.8423843384
intensity: 25.5022830963
---
header: 
  seq: 3302385
  stamp: 
    secs: 1561686434
    nsecs: 902566088
  frame_id: "ti_mmwave"
point_id: 4
x: 0.32421875
y: -0.080078125
z: -1.22265625
range: 1.35088610649
velocity: 0.0
doppler_bin: 8
bearing: -13.8737030029
intensity: 21.9865703583
---
header: 
  seq: 3302386
  stamp: 
    secs: 1561686434
    nsecs: 902574673
  frame_id: "ti_mmwave"
point_id: 5
x: 0.330078125
y: -0.041015625
z: 1.265625
range: 1.39446306229
velocity: 0.0
doppler_bin: 8
bearing: -7.0832862854
intensity: 23.2428245544
---
header: 
  seq: 3302387
  stamp: 
    secs: 1561686434
    nsecs: 902585168
  frame_id: "ti_mmwave"
point_id: 6
x: 0.435546875
y: -0.0
z: 1.27734375
range: 1.43804001808
velocity: 0.0
doppler_bin: 8
bearing: -0.0
intensity: 21.9312458038
---
header: 
  seq: 3302388
  stamp: 
    secs: 1561686434
    nsecs: 902593263
  frame_id: "ti_mmwave"
point_id: 7
x: 1.673828125
y: -0.0
z: -0.119140625
range: 1.78665578365
velocity: 0.0
doppler_bin: 8
bearing: -0.0
intensity: 28.4260921478
---
header: 
  seq: 3302389
  stamp: 
    secs: 1561686434
    nsecs: 902601256
  frame_id: "ti_mmwave"
point_id: 8
x: 1.6875
y: -0.052734375
z: -0.31640625
range: 1.83023273945
velocity: 0.0
doppler_bin: 8
bearing: -1.7899106741
intensity: 27.4741172791
---
header: 
  seq: 3302390
  stamp: 
    secs: 1561686434
    nsecs: 902609288
  frame_id: "ti_mmwave"
point_id: 9
x: 2.5234375
y: -0.263671875
z: 1.234375
range: 3.00681090355
velocity: 0.0
doppler_bin: 8
bearing: -5.96514177322
intensity: 28.9486961365
---
header: 
  seq: 3302391
  stamp: 
    secs: 1561686434
    nsecs: 902618255
  frame_id: "ti_mmwave"
point_id: 10
x: 2.60546875
y: -0.1796875
z: 1.173828125
range: 3.05038785934
velocity: 0.0
doppler_bin: 8
bearing: -3.94518637657
intensity: 32.3401069641
---
header: 
  seq: 3302392
  stamp: 
    secs: 1561686434
    nsecs: 902792910
  frame_id: "ti_mmwave"
point_id: 11
x: 2.650390625
y: -0.181640625
z: 1.171875
range: 3.09396481514
velocity: 0.0
doppler_bin: 8
bearing: -3.92055153847
intensity: 31.6076850891
---
header: 
  seq: 3302393
  stamp: 
    secs: 1561686434
    nsecs: 902812213
  frame_id: "ti_mmwave"
point_id: 12
x: 4.369140625
y: -0.287109375
z: 1.34765625
range: 4.88062095642
velocity: 0.0
doppler_bin: 8
bearing: -3.75967240334
intensity: 28.350561142
---
header: 
  seq: 3302394
  stamp: 
    secs: 1561686434
    nsecs: 902822838
  frame_id: "ti_mmwave"
point_id: 13
x: 1.720703125
y: -0.224609375
z: 0.48046875
range: 1.91738677025
velocity: 0.614668667316
doppler_bin: 9
bearing: -7.43696880341
intensity: 25.1054496765
---
header: 
  seq: 3302395
  stamp: 
    secs: 1561686434
    nsecs: 902830987
  frame_id: "ti_mmwave"
point_id: 14
x: 1.77734375
y: -0.287109375
z: 0.3828125
range: 1.96096372604
velocity: 0.614668667316
doppler_bin: 9
bearing: -9.17620372772
intensity: 26.2324924469
---
header: 
  seq: 3302396
  stamp: 
    secs: 1561686434
    nsecs: 902838793
  frame_id: "ti_mmwave"
point_id: 15
x: 1.826171875
y: -0.294921875
z: 0.34375
range: 2.00454068184
velocity: 0.614668667316
doppler_bin: 9
bearing: -9.17390632629
intensity: 25.2244415283
---
header: 
  seq: 3302397
  stamp: 
    secs: 1561686434
    nsecs: 902849131
  frame_id: "ti_mmwave"
point_id: 17
x: 0.041015625
y: -0.033203125
z: 0.0625
range: 0.0871539413929
velocity: 0.0
doppler_bin: 8
bearing: -38.9909973145
intensity: 30.141002655
---
header: 
  seq: 3302398
  stamp: 
    secs: 1561686434
    nsecs: 902857064
  frame_id: "ti_mmwave"
point_id: 18
x: 0.044921875
y: -0.046875
z: 0.103515625
range: 0.130730912089
velocity: 0.0
doppler_bin: 8
bearing: -46.218875885
intensity: 29.0525608063
---
header: 
  seq: 3302399
  stamp: 
    secs: 1561686434
    nsecs: 902868743
  frame_id: "ti_mmwave"
point_id: 20
x: 1.216796875
y: 0.357421875
z: 0.03125
range: 1.35088610649
velocity: 0.0
doppler_bin: 8
bearing: 16.3696231842
intensity: 19.3449840546
---
header: 
  seq: 3302400
  stamp: 
    secs: 1561686434
    nsecs: 902876987
  frame_id: "ti_mmwave"
point_id: 21
x: 3.490234375
y: -1.861328125
z: -2.310546875
range: 4.88062095642
velocity: 0.0
doppler_bin: 8
bearing: -28.0708236694
intensity: 26.1066017151
---
header: 
  seq: 3302401
  stamp: 
    secs: 1561686434
    nsecs: 902887090
  frame_id: "ti_mmwave"
point_id: 22
x: 1.74609375
y: 0.517578125
z: -0.26171875
range: 1.96096372604
velocity: 0.614668667316
doppler_bin: 9
bearing: 16.5109062195
intensity: 23.2633590698
---
header: 
  seq: 3302402
  stamp: 
    secs: 1561686434
    nsecs: 902917202
  frame_id: "ti_mmwave"
point_id: 23
x: 1.833984375
y: 0.412109375
z: -0.099609375
range: 2.00454068184
velocity: 0.614668667316
doppler_bin: 9
bearing: 12.6644115448
intensity: 24.0483379364
---
header: 
  seq: 3302403
  stamp: 
    secs: 1561686434
    nsecs: 903980460
  frame_id: "ti_mmwave"
point_id: 0
x: 0.01171875
y: -0.0390625
z: -0.0078125
range: 0.0435769706964
velocity: 0.0
doppler_bin: 8
bearing: -73.3007583618
intensity: 30.7445068359
---
header: 
  seq: 3302404
  stamp: 
    secs: 1561686434
    nsecs: 904032085
  frame_id: "ti_mmwave"
point_id: 1
x: 0.017578125
y: -0.080078125
z: -0.0078125
range: 0.0871539413929
velocity: 0.0
doppler_bin: 8
bearing: -77.6192398071
intensity: 31.9755630493
---
header: 
  seq: 3302405
  stamp: 
    secs: 1561686434
    nsecs: 904042960
  frame_id: "ti_mmwave"
point_id: 2
x: 0.029296875
y: -0.119140625
z: -0.00390625
range: 0.130730912089
velocity: 0.0
doppler_bin: 8
bearing: -76.1849746704
intensity: 30.2036132812
---
header: 
  seq: 3302406
  stamp: 
    secs: 1561686434
    nsecs: 904051731
  frame_id: "ti_mmwave"
point_id: 3
x: 0.056640625
y: -0.154296875
z: 0.005859375
range: 0.174307882786
velocity: 0.0
doppler_bin: 8
bearing: -69.8423843384
intensity: 25.5022830963
---
header: 
  seq: 3302407
  stamp: 
    secs: 1561686434
    nsecs: 904064494
  frame_id: "ti_mmwave"
point_id: 4
x: 0.322265625
y: -0.080078125
z: -1.224609375
range: 1.35088610649
velocity: 0.0
doppler_bin: 8
bearing: -13.9545097351
intensity: 21.9865703583
---
header: 
  seq: 3302408
  stamp: 
    secs: 1561686434
    nsecs: 904072862
  frame_id: "ti_mmwave"
point_id: 5
x: 0.322265625
y: -0.041015625
z: 1.267578125
range: 1.39446306229
velocity: 0.0
doppler_bin: 8
bearing: -7.25319480896
intensity: 23.2014636993
---
header: 
  seq: 3302409
  stamp: 
    secs: 1561686434
    nsecs: 904091505
  frame_id: "ti_mmwave"
point_id: 6
x: 0.421875
y: -0.0
z: 1.283203125
range: 1.43804001808
velocity: 0.0
doppler_bin: 8
bearing: -0.0
intensity: 21.8469142914
---
header: 
  seq: 3302410
  stamp: 
    secs: 1561686434
    nsecs: 904102030
  frame_id: "ti_mmwave"
point_id: 7
x: 1.626953125
y: -0.05078125
z: -0.1640625
range: 1.74307882786
velocity: 0.0
doppler_bin: 8
bearing: -1.78776311874
intensity: 27.6042251587
---
header: 
  seq: 3302411
  stamp: 
    secs: 1561686434
    nsecs: 904157915
  frame_id: "ti_mmwave"
point_id: 8
x: 1.66796875
y: -0.052734375
z: -0.169921875
range: 1.78665578365
velocity: 0.0
doppler_bin: 8
bearing: -1.81085586548
intensity: 29.9607372284
---
header: 
  seq: 3302412
  stamp: 
    secs: 1561686434
    nsecs: 904166393
  frame_id: "ti_mmwave"
point_id: 9
x: 1.716796875
y: -0.0
z: -0.064453125
range: 1.83023273945
velocity: 0.0
doppler_bin: 8
bearing: -0.0
intensity: 27.9657440186
---
header: 
  seq: 3302413
  stamp: 
    secs: 1561686434
    nsecs: 904176473
  frame_id: "ti_mmwave"
point_id: 10
x: 1.759765625
y: -0.0
z: 0.0234375
range: 1.87380969524
velocity: 0.0
doppler_bin: 8
bearing: -0.0
intensity: 29.1697998047
---
header: 
  seq: 3302414
  stamp: 
    secs: 1561686434
    nsecs: 904186381
  frame_id: "ti_mmwave"
point_id: 11
x: 1.798828125
y: 0.056640625
z: -0.01171875
range: 1.91738677025
velocity: 0.0
doppler_bin: 8
bearing: 1.8035056591
intensity: 28.1491317749
---
header: 
  seq: 3302415
  stamp: 
    secs: 1561686434
    nsecs: 904195611
  frame_id: "ti_mmwave"
point_id: 12
x: 2.53125
y: -0.263671875
z: 1.22265625
range: 3.00681090355
velocity: 0.0
doppler_bin: 8
bearing: -5.94686317444
intensity: 28.9042110443
---
header: 
  seq: 3302416
  stamp: 
    secs: 1561686434
    nsecs: 904203751
  frame_id: "ti_mmwave"
point_id: 13
x: 2.595703125
y: -0.267578125
z: 1.177734375
range: 3.05038785934
velocity: 0.0
doppler_bin: 8
bearing: -5.88554811478
intensity: 32.3829689026
---
header: 
  seq: 3302417
  stamp: 
    secs: 1561686434
    nsecs: 904211585
  frame_id: "ti_mmwave"
point_id: 14
x: 2.65625
y: -0.271484375
z: 1.142578125
range: 3.09396481514
velocity: 0.0
doppler_bin: 8
bearing: -5.83570146561
intensity: 31.6672611237
---
header: 
  seq: 3302418
  stamp: 
    secs: 1561686434
    nsecs: 904218840
  frame_id: "ti_mmwave"
point_id: 15
x: 4.388671875
y: -0.287109375
z: 1.283203125
range: 4.88062095642
velocity: 0.0
doppler_bin: 8
bearing: -3.74298858643
intensity: 28.4633712769
---
header: 
  seq: 3302419
  stamp: 
    secs: 1561686434
    nsecs: 904228202
  frame_id: "ti_mmwave"
point_id: 17
x: 0.041015625
y: -0.033203125
z: 0.0625
range: 0.0871539413929
velocity: 0.0
doppler_bin: 8
bearing: -38.9909973145
intensity: 30.1452045441
---
header: 
  seq: 3302420
  stamp: 
    secs: 1561686434
    nsecs: 904235768
  frame_id: "ti_mmwave"
point_id: 18
x: 0.044921875
y: -0.046875
z: 0.103515625
range: 0.130730912089
velocity: 0.0
doppler_bin: 8
bearing: -46.218875885
intensity: 29.0471553802
---
header: 
  seq: 3302421
  stamp: 
    secs: 1561686434
    nsecs: 904246452
  frame_id: "ti_mmwave"
point_id: 20
x: 1.216796875
y: 0.357421875
z: 0.02734375
range: 1.35088610649
velocity: 0.0
doppler_bin: 8
bearing: 16.3696231842
intensity: 19.2941894531
---
header: 
  seq: 3302422
  stamp: 
    secs: 1561686434
    nsecs: 904254397
  frame_id: "ti_mmwave"
point_id: 21
x: 3.326171875
y: -2.00390625
z: -2.4296875
range: 4.88062095642
velocity: 0.0
doppler_bin: 8
bearing: -31.0675449371
intensity: 26.0205993652
---
header: 
  seq: 3302423
  stamp: 
    secs: 1561686434
    nsecs: 962262950
  frame_id: "ti_mmwave"
point_id: 0
x: 0.01171875
y: -0.0390625
z: -0.0078125
range: 0.0435769706964
velocity: 0.0
doppler_bin: 8
bearing: -73.3007583618
intensity: 30.7371826172
---
header: 
  seq: 3302424
  stamp: 
    secs: 1561686434
    nsecs: 962331816
  frame_id: "ti_mmwave"
point_id: 1
x: 0.017578125
y: -0.080078125
z: -0.0078125
range: 0.0871539413929
velocity: 0.0
doppler_bin: 8
bearing: -77.6192398071
intensity: 31.9755630493
---
header: 
  seq: 3302425
  stamp: 
    secs: 1561686434
    nsecs: 962342437
  frame_id: "ti_mmwave"
point_id: 2
x: 0.029296875
y: -0.119140625
z: -0.00390625
range: 0.130730912089
velocity: 0.0
doppler_bin: 8
bearing: -76.1849746704
intensity: 30.2036132812
---
header: 
  seq: 3302426
  stamp: 
    secs: 1561686434
    nsecs: 962351132
  frame_id: "ti_mmwave"
point_id: 3
x: 0.056640625
y: -0.154296875
z: 0.005859375
range: 0.174307882786
velocity: 0.0
doppler_bin: 8
bearing: -69.8423843384
intensity: 25.5022830963
---
header: 
  seq: 3302427
  stamp: 
    secs: 1561686434
    nsecs: 962362887
  frame_id: "ti_mmwave"
point_id: 4
x: 0.3203125
y: -0.080078125
z: -1.224609375
range: 1.35088610649
velocity: 0.0
doppler_bin: 8
bearing: -14.0362434387
intensity: 22.0412006378
---
header: 
  seq: 3302428
  stamp: 
    secs: 1561686434
    nsecs: 962371453
  frame_id: "ti_mmwave"
point_id: 5
x: 0.341796875
y: -0.041015625
z: 1.263671875
range: 1.39446306229
velocity: 0.0
doppler_bin: 8
bearing: -6.8427734375
intensity: 23.2633590698
---
header: 
  seq: 3302429
  stamp: 
    secs: 1561686434
    nsecs: 962381165
  frame_id: "ti_mmwave"
point_id: 6
x: 0.5234375
y: -0.04296875
z: 1.244140625
range: 1.43804001808
velocity: 0.0
doppler_bin: 8
bearing: -4.69286251068
intensity: 21.9589958191
---
header: 
  seq: 3302430
  stamp: 
    secs: 1561686434
    nsecs: 962389395
  frame_id: "ti_mmwave"
point_id: 7
x: 1.658203125
y: -0.052734375
z: -0.24609375
range: 1.78665578365
velocity: 0.0
doppler_bin: 8
bearing: -1.82151353359
intensity: 29.9078273773
---
header: 
  seq: 3302431
  stamp: 
    secs: 1561686434
    nsecs: 962397408
  frame_id: "ti_mmwave"
point_id: 8
x: 1.666015625
y: -0.107421875
z: -0.404296875
range: 1.83023273945
velocity: 0.0
doppler_bin: 8
bearing: -3.6892285347
intensity: 29.670797348
---
header: 
  seq: 3302432
  stamp: 
    secs: 1561686434
    nsecs: 962404882
  frame_id: "ti_mmwave"
point_id: 9
x: 1.755859375
y: -0.0546875
z: -0.091796875
range: 1.87380969524
velocity: 0.0
doppler_bin: 8
bearing: -1.78394150734
intensity: 26.503074646
---
header: 
  seq: 3302433
  stamp: 
    secs: 1561686434
    nsecs: 962579361
  frame_id: "ti_mmwave"
point_id: 10
x: 1.76953125
y: 0.056640625
z: 0.32421875
range: 1.91738677025
velocity: 0.0
doppler_bin: 8
bearing: 1.83334481716
intensity: 28.2347431183
---
header: 
  seq: 3302434
  stamp: 
    secs: 1561686434
    nsecs: 962599428
  frame_id: "ti_mmwave"
point_id: 11
x: 1.818359375
y: 0.115234375
z: 0.26953125
range: 1.96096372604
velocity: 0.0
doppler_bin: 8
bearing: 3.62614011765
intensity: 27.058637619
---
header: 
  seq: 3302435
  stamp: 
    secs: 1561686434
    nsecs: 962607981
  frame_id: "ti_mmwave"
point_id: 12
x: 2.546875
y: -0.263671875
z: 1.1875
range: 3.00681090355
velocity: 0.0
doppler_bin: 8
bearing: -5.91063833237
intensity: 29.3651371002
---
header: 
  seq: 3302436
  stamp: 
    secs: 1561686434
    nsecs: 962615803
  frame_id: "ti_mmwave"
point_id: 13
x: 2.6171875
y: -0.1796875
z: 1.146484375
range: 3.05038785934
velocity: 0.0
doppler_bin: 8
bearing: -3.9275765419
intensity: 32.6197624207
---
header: 
  seq: 3302437
  stamp: 
    secs: 1561686434
    nsecs: 962625945
  frame_id: "ti_mmwave"
point_id: 14
x: 2.6640625
y: -0.181640625
z: 1.142578125
range: 3.09396481514
velocity: 0.0
doppler_bin: 8
bearing: -3.90049386024
intensity: 31.9228858948
---
header: 
  seq: 3302438
  stamp: 
    secs: 1561686434
    nsecs: 962633924
  frame_id: "ti_mmwave"
point_id: 15
x: 1.802734375
y: 0.470703125
z: 0.265625
range: 2.00454068184
velocity: 0.614668667316
doppler_bin: 9
bearing: 14.6335077286
intensity: 26.7577838898
---
header: 
  seq: 3302439
  stamp: 
    secs: 1561686434
