header: 
  seq: 1097535
  stamp: 
    secs: 1561682991
    nsecs: 383780764
  frame_id: "ti_mmwave"
point_id: 0
x: 0.01171875
y: -0.0390625
z: -0.0078125
range: 0.0435769706964
velocity: 0.0
doppler_bin: 8
bearing: -73.3007583618
intensity: 30.7371826172
---
header: 
  seq: 1097536
  stamp: 
    secs: 1561682991
    nsecs: 383852422
  frame_id: "ti_mmwave"
point_id: 1
x: 0.017578125
y: -0.080078125
z: -0.0078125
range: 0.0871539413929
velocity: 0.0
doppler_bin: 8
bearing: -77.6192398071
intensity: 31.9645252228
---
header: 
  seq: 1097537
  stamp: 
    secs: 1561682991
    nsecs: 383863476
  frame_id: "ti_mmwave"
point_id: 2
x: 0.041015625
y: -0.115234375
z: -0.0078125
range: 0.130730912089
velocity: 0.0
doppler_bin: 8
bearing: -70.4077224731
intensity: 30.2160263062
---
header: 
  seq: 1097538
  stamp: 
    secs: 1561682991
    nsecs: 383873250
  frame_id: "ti_mmwave"
point_id: 3
x: 0.056640625
y: -0.154296875
z: 0.005859375
range: 0.174307882786
velocity: 0.0
doppler_bin: 8
bearing: -69.8423843384
intensity: 25.4777469635
---
header: 
  seq: 1097539
  stamp: 
    secs: 1561682991
    nsecs: 383881875
  frame_id: "ti_mmwave"
point_id: 4
x: 0.353515625
y: -0.080078125
z: -1.21484375
range: 1.35088610649
velocity: 0.0
doppler_bin: 8
bearing: -12.7632131577
intensity: 21.9033164978
---
header: 
  seq: 1097540
  stamp: 
    secs: 1561682991
    nsecs: 383890131
  frame_id: "ti_mmwave"
point_id: 5
x: 0.28515625
y: -0.041015625
z: 1.27734375
range: 1.39446306229
velocity: 0.0
doppler_bin: 8
bearing: -8.18503570557
intensity: 23.2428245544
---
header: 
  seq: 1097541
  stamp: 
    secs: 1561682991
    nsecs: 383898072
  frame_id: "ti_mmwave"
point_id: 6
x: 0.39453125
y: -0.0
z: 1.291015625
range: 1.43804001808
velocity: 0.0
doppler_bin: 8
bearing: -0.0
intensity: 21.9312458038
---
header: 
  seq: 1097542
  stamp: 
    secs: 1561682991
    nsecs: 383909375
  frame_id: "ti_mmwave"
point_id: 7
x: 1.947265625
y: -0.060546875
z: -0.251953125
range: 2.09169459343
velocity: 0.0
doppler_bin: 8
bearing: -1.78094005585
intensity: 29.4398880005
---
header: 
  seq: 1097543
  stamp: 
    secs: 1561682991
    nsecs: 383920954
  frame_id: "ti_mmwave"
point_id: 8
x: 1.98828125
y: -0.0625
z: -0.25
range: 2.13527154922
velocity: 0.0
doppler_bin: 8
bearing: -1.80045318604
intensity: 31.6996822357
---
header: 
  seq: 1097544
  stamp: 
    secs: 1561682991
    nsecs: 383934996
  frame_id: "ti_mmwave"
point_id: 9
x: 2.029296875
y: -0.0
z: -0.25
range: 2.17884850502
velocity: 0.0
doppler_bin: 8
bearing: -0.0
intensity: 30.7591171265
---
header: 
  seq: 1097545
  stamp: 
    secs: 1561682991
    nsecs: 383960084
  frame_id: "ti_mmwave"
point_id: 10
x: 2.076171875
y: -0.064453125
z: -0.201171875
range: 2.22242546082
velocity: 0.0
doppler_bin: 8
bearing: -1.77813148499
intensity: 27.9098854065
---
header: 
  seq: 1097546
  stamp: 
    secs: 1561682991
    nsecs: 383977335
  frame_id: "ti_mmwave"
point_id: 11
x: 2.544921875
y: -0.263671875
z: 1.189453125
range: 3.00681090355
velocity: 0.0
doppler_bin: 8
bearing: -5.91514253616
intensity: 29.5424251556
---
header: 
  seq: 1097547
  stamp: 
    secs: 1561682991
    nsecs: 384066448
  frame_id: "ti_mmwave"
point_id: 12
x: 2.6015625
y: -0.267578125
z: 1.16796875
range: 3.05038785934
velocity: 0.0
doppler_bin: 8
bearing: -5.87238502502
intensity: 32.7989501953
---
header: 
  seq: 1097548
  stamp: 
    secs: 1561682991
    nsecs: 384081518
  frame_id: "ti_mmwave"
point_id: 13
x: 2.65625
y: -0.271484375
z: 1.140625
range: 3.09396481514
velocity: 0.0
doppler_bin: 8
bearing: -5.83570146561
intensity: 31.9589958191
---
header: 
  seq: 1097549
  stamp: 
    secs: 1561682991
    nsecs: 384092459
  frame_id: "ti_mmwave"
point_id: 14
x: 4.4140625
y: -0.287109375
z: 1.193359375
range: 4.88062095642
velocity: 0.0
doppler_bin: 8
bearing: -3.72151875496
intensity: 31.5472812653
---
header: 
  seq: 1097550
  stamp: 
    secs: 1561682991
    nsecs: 384104101
  frame_id: "ti_mmwave"
point_id: 15
x: 4.458984375
y: -0.2890625
z: 1.1796875
range: 4.9241976738
velocity: 0.0
doppler_bin: 8
bearing: -3.70912218094
intensity: 31.0346164703
---
header: 
  seq: 1097551
  stamp: 
    secs: 1561682991
    nsecs: 384113892
  frame_id: "ti_mmwave"
point_id: 16
x: 4.798828125
y: -0.4609375
z: 0.927734375
range: 5.22923660278
velocity: 0.0
doppler_bin: 8
bearing: -5.48654794693
intensity: 30.310043335
---
header: 
  seq: 1097552
  stamp: 
    secs: 1561682991
    nsecs: 384124224
  frame_id: "ti_mmwave"
point_id: 17
x: 4.869140625
y: -0.30859375
z: 0.83203125
range: 5.27281332016
velocity: 0.0
doppler_bin: 8
bearing: -3.62641048431
intensity: 31.8639125824
---
header: 
  seq: 1097553
  stamp: 
    secs: 1561682991
    nsecs: 384134913
  frame_id: "ti_mmwave"
point_id: 18
x: 4.876953125
y: -0.3125
z: 1.013671875
range: 5.31639051437
velocity: 0.0
doppler_bin: 8
bearing: -3.66632294655
intensity: 29.7954845428
---
header: 
  seq: 1097554
  stamp: 
    secs: 1561682991
    nsecs: 384150267
  frame_id: "ti_mmwave"
point_id: 20
x: 0.041015625
y: -0.033203125
z: 0.0625
range: 0.0871539413929
velocity: 0.0
doppler_bin: 8
bearing: -38.9909973145
intensity: 30.1283721924
---
header: 
  seq: 1097555
  stamp: 
    secs: 1561682991
    nsecs: 384161095
  frame_id: "ti_mmwave"
point_id: 21
x: 0.044921875
y: -0.046875
z: 0.103515625
range: 0.130730912089
velocity: 0.0
doppler_bin: 8
bearing: -46.218875885
intensity: 29.0091304779
---
header: 
  seq: 1097556
  stamp: 
    secs: 1561682991
    nsecs: 384173568
  frame_id: "ti_mmwave"
point_id: 23
x: 1.208984375
y: 0.357421875
z: 0.142578125
range: 1.35088610649
velocity: 0.0
doppler_bin: 8
bearing: 16.4696884155
intensity: 19.0848503113
---
header: 
  seq: 1097557
  stamp: 
    secs: 1561682991
    nsecs: 384186932
  frame_id: "ti_mmwave"
point_id: 24
x: 3.748046875
y: 1.71484375
z: 2.814453125
range: 5.31639051437
velocity: 0.0
doppler_bin: 8
bearing: 24.5855140686
intensity: 27.1600341797
---
header: 
  seq: 1097558
  stamp: 
    secs: 1561682991
    nsecs: 384789798
  frame_id: "ti_mmwave"
point_id: 0
x: 0.01171875
y: -0.0390625
z: -0.0078125
range: 0.0435769706964
velocity: 0.0
doppler_bin: 8
bearing: -73.3007583618
intensity: 30.7371826172
---
header: 
  seq: 1097559
  stamp: 
    secs: 1561682991
    nsecs: 384848538
  frame_id: "ti_mmwave"
point_id: 1
x: 0.017578125
y: -0.080078125
z: -0.0078125
range: 0.0871539413929
velocity: 0.0
doppler_bin: 8
bearing: -77.6192398071
intensity: 31.9645252228
---
header: 
  seq: 1097560
  stamp: 
    secs: 1561682991
    nsecs: 384863739
  frame_id: "ti_mmwave"
point_id: 2
x: 0.041015625
y: -0.115234375
z: -0.0078125
range: 0.130730912089
velocity: 0.0
doppler_bin: 8
bearing: -70.4077224731
intensity: 30.2160263062
---
header: 
  seq: 1097561
  stamp: 
    secs: 1561682991
    nsecs: 384876055
  frame_id: "ti_mmwave"
point_id: 3
x: 0.056640625
y: -0.154296875
z: 0.005859375
range: 0.174307882786
velocity: 0.0
doppler_bin: 8
bearing: -69.8423843384
intensity: 25.4777469635
---
header: 
  seq: 1097562
  stamp: 
    secs: 1561682991
    nsecs: 384889417
  frame_id: "ti_mmwave"
point_id: 4
x: 0.33203125
y: -0.080078125
z: -1.220703125
range: 1.35088610649
velocity: 0.0
doppler_bin: 8
bearing: -13.5594520569
intensity: 21.9589958191
---
header: 
  seq: 1097563
  stamp: 
    secs: 1561682991
    nsecs: 384901918
  frame_id: "ti_mmwave"
point_id: 5
x: 0.32421875
y: -0.041015625
z: 1.267578125
range: 1.39446306229
velocity: 0.0
doppler_bin: 8
bearing: -7.20996236801
intensity: 23.2428245544
---
header: 
  seq: 1097564
  stamp: 
    secs: 1561682991
    nsecs: 384913303
  frame_id: "ti_mmwave"
point_id: 6
x: 0.431640625
y: -0.0
z: 1.279296875
range: 1.43804001808
velocity: 0.0
doppler_bin: 8
bearing: -0.0
intensity: 21.9312458038
---
header: 
  seq: 1097565
  stamp: 
    secs: 1561682991
    nsecs: 384924410
  frame_id: "ti_mmwave"
point_id: 7
x: 2.544921875
y: -0.263671875
z: 1.19140625
range: 3.00681090355
velocity: 0.0
doppler_bin: 8
bearing: -5.91514253616
intensity: 29.4596061707
---
header: 
  seq: 1097566
  stamp: 
    secs: 1561682991
    nsecs: 384935555
  frame_id: "ti_mmwave"
point_id: 8
x: 2.603515625
y: -0.267578125
z: 1.16015625
range: 3.05038785934
velocity: 0.0
doppler_bin: 8
bearing: -5.8680100441
intensity: 32.7692108154
---
header: 
  seq: 1097567
  stamp: 
    secs: 1561682991
    nsecs: 384946830
  frame_id: "ti_mmwave"
point_id: 9
x: 2.658203125
y: -0.181640625
z: 1.158203125
range: 3.09396481514
velocity: 0.0
doppler_bin: 8
bearing: -3.90906453133
intensity: 31.9312458038
---
header: 
  seq: 1097568
  stamp: 
    secs: 1561682991
    nsecs: 384958693
  frame_id: "ti_mmwave"
point_id: 10
x: 4.423828125
y: -0.287109375
z: 1.158203125
range: 4.88062095642
velocity: 0.0
doppler_bin: 8
bearing: -3.71332621574
intensity: 31.0653076172
---
header: 
  seq: 1097569
  stamp: 
    secs: 1561682991
    nsecs: 384970706
  frame_id: "ti_mmwave"
point_id: 11
x: 4.474609375
y: -0.2890625
z: 1.125
range: 4.9241976738
velocity: 0.0
doppler_bin: 8
bearing: -3.69620633125
intensity: 30.4453983307
---
header: 
  seq: 1097570
  stamp: 
    secs: 1561682991
    nsecs: 384987855
  frame_id: "ti_mmwave"
point_id: 13
x: 0.041015625
y: -0.033203125
z: 0.0625
range: 0.0871539413929
velocity: 0.0
doppler_bin: 8
bearing: -38.9909973145
intensity: 30.1283721924
---
header: 
  seq: 1097571
  stamp: 
    secs: 1561682991
    nsecs: 384999776
  frame_id: "ti_mmwave"
point_id: 14
x: 0.044921875
y: -0.046875
z: 0.103515625
range: 0.130730912089
velocity: 0.0
doppler_bin: 8
bearing: -46.218875885
intensity: 29.0036716461
---
header: 
  seq: 1097572
  stamp: 
    secs: 1561682991
    nsecs: 385014072
  frame_id: "ti_mmwave"
point_id: 16
x: 1.208984375
y: 0.357421875
z: 0.13671875
range: 1.35088610649
velocity: 0.0
doppler_bin: 8
bearing: 16.4696884155
intensity: 19.0848503113
---
header: 
  seq: 1097573
  stamp: 
    secs: 1561682991
    nsecs: 443802881
  frame_id: "ti_mmwave"
point_id: 0
x: 0.01171875
y: -0.0390625
z: -0.0078125
range: 0.0435769706964
velocity: 0.0
doppler_bin: 8
bearing: -73.3007583618
intensity: 30.7371826172
---
header: 
  seq: 1097574
  stamp: 
    secs: 1561682991
    nsecs: 443874233
  frame_id: "ti_mmwave"
point_id: 1
x: 0.017578125
y: -0.080078125
z: -0.0078125
range: 0.0871539413929
velocity: 0.0
doppler_bin: 8
bearing: -77.6192398071
intensity: 31.9645252228
---
header: 
  seq: 1097575
  stamp: 
    secs: 1561682991
    nsecs: 443885244
  frame_id: "ti_mmwave"
point_id: 2
x: 0.041015625
y: -0.115234375
z: -0.0078125
range: 0.130730912089
velocity: 0.0
doppler_bin: 8
bearing: -70.4077224731
intensity: 30.2160263062
---
header: 
  seq: 1097576
  stamp: 
    secs: 1561682991
    nsecs: 443896414
  frame_id: "ti_mmwave"
point_id: 3
x: 0.056640625
y: -0.154296875
z: 0.005859375
range: 0.174307882786
velocity: 0.0
doppler_bin: 8
bearing: -69.8423843384
intensity: 25.490032196
---
header: 
  seq: 1097577
  stamp: 
    secs: 1561682991
    nsecs: 443904433
  frame_id: "ti_mmwave"
point_id: 4
x: 0.357421875
y: -0.080078125
z: -1.21484375
range: 1.35088610649
velocity: 0.0
doppler_bin: 8
bearing: -12.6282215118
intensity: 21.9312458038
---
header: 
  seq: 1097578
  stamp: 
    secs: 1561682991
    nsecs: 443913945
  frame_id: "ti_mmwave"
point_id: 5
x: 0.283203125
y: -0.041015625
z: 1.27734375
range: 1.39446306229
velocity: 0.0
doppler_bin: 8
bearing: -8.24071216583
intensity: 23.2221927643
---
header: 
  seq: 1097579
  stamp: 
    secs: 1561682991
    nsecs: 443921740
  frame_id: "ti_mmwave"
point_id: 6
x: 0.458984375
y: -0.04296875
z: 1.26953125
range: 1.43804001808
velocity: 0.0
doppler_bin: 8
bearing: -5.34827184677
intensity: 21.875207901
---
header: 
  seq: 1097580
  stamp: 
    secs: 1561682991
    nsecs: 443929626
  frame_id: "ti_mmwave"
point_id: 7
x: 1.990234375
y: -0.0625
z: -0.232421875
range: 2.13527154922
velocity: 0.0
doppler_bin: 8
bearing: -1.79868757725
intensity: 28.1491317749
---
header: 
  seq: 1097581
  stamp: 
    secs: 1561682991
    nsecs: 443937738
  frame_id: "ti_mmwave"
point_id: 8
x: 2.025390625
y: -0.126953125
z: -0.25
range: 2.17884850502
velocity: 0.0
doppler_bin: 8
bearing: -3.58665347099
intensity: 26.8930892944
---
header: 
  seq: 1097582
  stamp: 
    secs: 1561682991
    nsecs: 443945688
  frame_id: "ti_mmwave"
point_id: 9
x: 2.05078125
y: -0.54296875
z: 0.443359375
range: 2.30957937241
velocity: 0.0
doppler_bin: 8
bearing: -14.8294792175
intensity: 28.0277366638
---
header: 
  seq: 1097583
  stamp: 
    secs: 1561682991
    nsecs: 443955389
  frame_id: "ti_mmwave"
point_id: 10
x: 2.544921875
y: -0.263671875
z: 1.19140625
range: 3.00681090355
velocity: 0.0
doppler_bin: 8
bearing: -5.91514253616
intensity: 29.5999488831
---
header: 
  seq: 1097584
  stamp: 
    secs: 1561682991
    nsecs: 443963929
  frame_id: "ti_mmwave"
point_id: 11
x: 2.599609375
y: -0.267578125
z: 1.16796875
range: 3.05038785934
velocity: 0.0
doppler_bin: 8
bearing: -5.87676620483
intensity: 32.7898216248
---
header: 
  seq: 1097585
  stamp: 
    secs: 1561682991
    nsecs: 443972662
  frame_id: "ti_mmwave"
point_id: 12
x: 2.66015625
y: -0.271484375
z: 1.1328125
range: 3.09396481514
velocity: 0.0
doppler_bin: 8
bearing: -5.82719182968
intensity: 31.9340286255
---
header: 
  seq: 1097586
  stamp: 
    secs: 1561682991
    nsecs: 443981940
  frame_id: "ti_mmwave"
point_id: 13
x: 4.416015625
y: -0.287109375
z: 1.185546875
range: 4.88062095642
velocity: 0.0
doppler_bin: 8
bearing: -3.71987724304
intensity: 30.5499591827
---
header: 
  seq: 1097587
  stamp: 
    secs: 1561682991
    nsecs: 443989764
  frame_id: "ti_mmwave"
point_id: 14
x: 4.47265625
y: -0.2890625
z: 1.12890625
range: 4.9241976738
velocity: 0.0
doppler_bin: 8
bearing: -3.6978161335
intensity: 29.6941585541
---
header: 
  seq: 1097588
  stamp: 
    secs: 1561682991
    nsecs: 443997882
  frame_id: "ti_mmwave"
point_id: 15
x: 4.84375
y: -0.46484375
z: 0.904296875
range: 5.27281332016
velocity: 0.0
doppler_bin: 8
bearing: -5.48175907135
intensity: 30.6107540131
---
header: 
  seq: 1097589
  stamp: 
    secs: 1561682991
    nsecs: 444008392
  frame_id: "ti_mmwave"
point_id: 17
x: 0.041015625
y: -0.033203125
z: 0.0625
range: 0.0871539413929
velocity: 0.0
doppler_bin: 8
bearing: -38.9909973145
intensity: 30.1283721924
---
header: 
  seq: 1097590
  stamp: 
    secs: 1561682991
    nsecs: 444017957
  frame_id: "ti_mmwave"
point_id: 18
x: 0.044921875
y: -0.046875
z: 0.103515625
range: 0.130730912089
velocity: 0.0
doppler_bin: 8
bearing: -46.218875885
intensity: 29.0036716461
---
header: 
  seq: 1097591
  stamp: 
    secs: 1561682991
    nsecs: 444198605
  frame_id: "ti_mmwave"
point_id: 20
x: 1.2109375
y: 0.357421875
z: 0.12890625
range: 1.35088610649
velocity: 0.0
doppler_bin: 8
bearing: 16.4445590973
intensity: 19.1381378174
---
header: 
  seq: 1097592
  stamp: 
    secs: 1561682991
    nsecs: 444224923
  frame_id: "ti_mmwave"
point_id: 21
x: 2.9140625
y: -2.00390625
z: -2.912109375
range: 4.88062095642
velocity: 0.0
doppler_bin: 8
bearing: -34.5150413513
intensity: 27.7305469513
---
header: 
  seq: 1097593
  stamp: 
    secs: 1561682991
    nsecs: 444238959
  frame_id: "ti_mmwave"
point_id: 22
x: 2.97265625
y: -2.021484375
z: -2.904296875
range: 4.9241976738
velocity: 0.0
doppler_bin: 8
bearing: -34.2167358398
intensity: 27.058637619
---
header: 
  seq: 1097594
  stamp: 
    secs: 1561682991
    nsecs: 503943555
  frame_id: "ti_mmwave"
point_id: 0
x: 0.01171875
y: -0.0390625
z: -0.0078125
range: 0.0435769706964
velocity: 0.0
doppler_bin: 8
bearing: -73.3007583618
intensity: 30.7371826172
---
header: 
  seq: 1097595
  stamp: 
    secs: 1561682991
    nsecs: 504018895
  frame_id: "ti_mmwave"
point_id: 1
x: 0.017578125
y: -0.080078125
z: -0.0078125
range: 0.0871539413929
velocity: 0.0
doppler_bin: 8
bearing: -77.6192398071
intensity: 31.9617614746
---
header: 
  seq: 1097596
  stamp: 
    secs: 1561682991
    nsecs: 504032717
  frame_id: "ti_mmwave"
point_id: 2
x: 0.029296875
y: -0.119140625
z: -0.005859375
range: 0.130730912089
velocity: 0.0
doppler_bin: 8
bearing: -76.1849746704
intensity: 30.2160263062
---
header: 
  seq: 1097597
  stamp: 
    secs: 1561682991
    nsecs: 504040900
  frame_id: "ti_mmwave"
point_id: 3
x: 0.056640625
y: -0.154296875
z: 0.005859375
range: 0.174307882786
velocity: 0.0
doppler_bin: 8
bearing: -69.8423843384
intensity: 25.4777469635
---
header: 
  seq: 1097598
  stamp: 
    secs: 1561682991
    nsecs: 504049355
  frame_id: "ti_mmwave"
point_id: 4
x: 0.35546875
y: -0.080078125
z: -1.21484375
range: 1.35088610649
velocity: 0.0
doppler_bin: 8
bearing: -12.6953649521
intensity: 21.9312458038
---
header: 
  seq: 1097599
  stamp: 
    secs: 1561682991
    nsecs: 504059112
  frame_id: "ti_mmwave"
point_id: 5
x: 0.279296875
y: -0.041015625
z: 1.27734375
range: 1.39446306229
velocity: 0.0
doppler_bin: 8
bearing: -8.3543510437
intensity: 23.2014636993
---
header: 
  seq: 1097600
  stamp: 
    secs: 1561682991
    nsecs: 504066981
  frame_id: "ti_mmwave"
point_id: 6
x: 0.375
y: -0.0
z: 1.296875
range: 1.43804001808
velocity: 0.0
doppler_bin: 8
bearing: -0.0
intensity: 21.8469142914
---
header: 
  seq: 1097601
  stamp: 
    secs: 1561682991
    nsecs: 504076420
  frame_id: "ti_mmwave"
point_id: 7
x: 2.521484375
y: -0.263671875
z: 1.240234375
range: 3.00681090355
velocity: 0.0
doppler_bin: 8
bearing: -5.96972894669
intensity: 29.4250411987
---
header: 
  seq: 1097602
  stamp: 
    secs: 1561682991
    nsecs: 504087238
  frame_id: "ti_mmwave"
point_id: 8
x: 2.59765625
y: -0.267578125
z: 1.17578125
range: 3.05038785934
velocity: 0.0
doppler_bin: 8
bearing: -5.88115358353
intensity: 32.7554168701
---
header: 
  seq: 1097603
  stamp: 
    secs: 1561682991
    nsecs: 504109293
  frame_id: "ti_mmwave"
point_id: 9
x: 2.66015625
y: -0.181640625
z: 1.150390625
range: 3.09396481514
velocity: 0.0
doppler_bin: 8
bearing: -3.90620398521
intensity: 31.9312458038
---
header: 
  seq: 1097604
  stamp: 
    secs: 1561682991
    nsecs: 504117267
  frame_id: "ti_mmwave"
point_id: 10
x: 4.423828125
y: -0.287109375
z: 1.15625
range: 4.88062095642
velocity: 0.0
doppler_bin: 8
bearing: -3.71332621574
intensity: 30.8421859741
---
header: 
  seq: 1097605
  stamp: 
    secs: 1561682991
    nsecs: 504272077
  frame_id: "ti_mmwave"
point_id: 11
x: 4.482421875
y: -0.2890625
z: 1.087890625
range: 4.9241976738
velocity: 0.0
doppler_bin: 8
bearing: -3.6897816658
intensity: 30.3742656708
---
header: 
  seq: 1097606
  stamp: 
    secs: 1561682991
    nsecs: 504301797
  frame_id: "ti_mmwave"
point_id: 13
x: 0.041015625
y: -0.033203125
z: 0.0625
range: 0.0871539413929
velocity: 0.0
doppler_bin: 8
bearing: -38.9909973145
intensity: 30.1283721924
---
header: 
  seq: 1097607
  stamp: 
    secs: 1561682991
    nsecs: 504311267
  frame_id: "ti_mmwave"
point_id: 14
x: 0.044921875
y: -0.046875
z: 0.103515625
range: 0.130730912089
velocity: 0.0
doppler_bin: 8
bearing: -46.218875885
intensity: 29.0091304779
---
header: 
  seq: 1097608
  stamp: 
    secs: 1561682991
    nsecs: 504341395
  frame_id: "ti_mmwave"
point_id: 16
x: 1.2109375
y: 0.357421875
z: 0.125
range: 1.35088610649
velocity: 0.0
doppler_bin: 8
bearing: 16.4445590973
intensity: 19.1907806396
---
header: 
  seq: 1097609
  stamp: 
    secs: 1561682991
    nsecs: 504357845
  frame_id: "ti_mmwave"
point_id: 17
x: 2.66796875
y: -2.00390625
z: -3.140625
range: 4.88062095642
velocity: 0.0
doppler_bin: 8
bearing: -36.9101448059
intensity: 27.8390350342
---
header: 
  seq: 1097610
  stamp: 
    secs: 1561682991
    nsecs: 505125753
  frame_id: "ti_mmwave"
point_id: 0
x: 0.01171875
y: -0.0390625
z: -0.0078125
range: 0.0435769706964
velocity: 0.0
doppler_bin: 8
bearing: -73.3007583618
intensity: 30.7335166931
---
header: 
  seq: 1097611
  stamp: 
    secs: 1561682991
    nsecs: 505193151
  frame_id: "ti_mmwave"
point_id: 1
x: 0.017578125
y: -0.080078125
z: -0.0078125
range: 0.0871539413929
velocity: 0.0
doppler_bin: 8
bearing: -77.6192398071
intensity: 31.9645252228
---
header: 
  seq: 1097612
  stamp: 
    secs: 1561682991
    nsecs: 505207785
  frame_id: "ti_mmwave"
point_id: 2
x: 0.041015625
y: -0.115234375
z: -0.0078125
range: 0.130730912089
velocity: 0.0
doppler_bin: 8
bearing: -70.4077224731
intensity: 30.2160263062
---
header: 
  seq: 1097613
  stamp: 
    secs: 1561682991
    nsecs: 505221496
  frame_id: "ti_mmwave"
point_id: 3
x: 0.056640625
y: -0.154296875
z: 0.005859375
range: 0.174307882786
velocity: 0.0
doppler_bin: 8
bearing: -69.8423843384
intensity: 25.490032196
---
header: 
  seq: 1097614
  stamp: 
    secs: 1561682991
    nsecs: 505235588
  frame_id: "ti_mmwave"
point_id: 4
x: 0.337890625
y: -0.080078125
z: -1.21875
range: 1.35088610649
velocity: 0.0
doppler_bin: 8
bearing: -13.332783699
intensity: 21.875207901
---
header: 
  seq: 1097615
  stamp: 
    secs: 1561682991
    nsecs: 505248405
  frame_id: "ti_mmwave"
point_id: 5
x: 0.3125
y: -0.041015625
z: 1.271484375
range: 1.39446306229
velocity: 0.0
doppler_bin: 8
bearing: -7.47732973099
intensity: 23.1806335449
---
header: 
  seq: 1097616
  stamp: 
    secs: 1561682991
    nsecs: 505262904
  frame_id: "ti_mmwave"
point_id: 6
x: 0.42578125
y: -0.0
z: 1.28125
range: 1.43804001808
velocity: 0.0
doppler_bin: 8
bearing: -0.0
intensity: 21.875207901
---
header: 
  seq: 1097617
  stamp: 
    secs: 1561682991
    nsecs: 505277258
  frame_id: "ti_mmwave"
point_id: 7
x: 1.939453125
y: -0.123046875
z: -0.28515625
range: 2.09169459343
velocity: 0.0
doppler_bin: 8
bearing: -3.63021397591
intensity: 28.7852172852
---
header: 
  seq: 1097618
  stamp: 
    secs: 1561682991
    nsecs: 505309887
  frame_id: "ti_mmwave"
point_id: 8
x: 1.9453125
y: -0.0625
z: -0.4765625
range: 2.13527154922
velocity: 0.0
doppler_bin: 8
bearing: -1.84019505978
intensity: 27.8247261047
---
header: 
  seq: 1097619
  stamp: 
    secs: 1561682991
    nsecs: 505323056
  frame_id: "ti_mmwave"
point_id: 9
x: 2.54296875
y: -0.263671875
z: 1.1953125
range: 3.00681090355
velocity: 0.0
doppler_bin: 8
bearing: -5.91965341568
intensity: 29.5999488831
---
header: 
  seq: 1097620
  stamp: 
    secs: 1561682991
    nsecs: 505334716
  frame_id: "ti_mmwave"
point_id: 10
x: 2.603515625
y: -0.267578125
z: 1.1640625
range: 3.05038785934
velocity: 0.0
doppler_bin: 8
bearing: -5.8680100441
intensity: 32.8443069458
---
header: 
  seq: 1097621
  stamp: 
    secs: 1561682991
    nsecs: 505346651
  frame_id: "ti_mmwave"
point_id: 11
x: 2.66015625
y: -0.271484375
z: 1.134765625
range: 3.09396481514
velocity: 0.0
doppler_bin: 8
bearing: -5.82719182968
intensity: 31.9838218689
---
header: 
  seq: 1097622
  stamp: 
    secs: 1561682991
    nsecs: 505512988
  frame_id: "ti_mmwave"
point_id: 12
x: 4.427734375
y: -0.287109375
z: 1.138671875
range: 4.88062095642
velocity: 0.0
doppler_bin: 8
bearing: -3.71005964279
intensity: 30.9412155151
---
header: 
  seq: 1097623
  stamp: 
    secs: 1561682991
    nsecs: 505546376
  frame_id: "ti_mmwave"
point_id: 13
x: 4.482421875
y: -0.2890625
z: 1.08984375
range: 4.9241976738
velocity: 0.0
doppler_bin: 8
bearing: -3.6897816658
intensity: 30.2201576233
---
header: 
  seq: 1097624
  stamp: 
    secs: 1561682991
    nsecs: 505563906
  frame_id: "ti_mmwave"
point_id: 15
x: 0.041015625
y: -0.033203125
z: 0.0625
range: 0.0871539413929
velocity: 0.0
doppler_bin: 8
bearing: -38.9909973145
intensity: 30.1325874329
---
header: 
  seq: 1097625
  stamp: 
    secs: 1561682991
    nsecs: 505676855
  frame_id: "ti_mmwave"
point_id: 16
x: 0.044921875
y: -0.046875
z: 0.103515625
range: 0.130730912089
velocity: 0.0
doppler_bin: 8
bearing: -46.218875885
intensity: 29.0145835876
---
header: 
  seq: 1097626
  stamp: 
    secs: 1561682991
    nsecs: 505699459
  frame_id: "ti_mmwave"
point_id: 18
x: 1.2109375
y: 0.357421875
z: 0.130859375
range: 1.35088610649
velocity: 0.0
doppler_bin: 8
bearing: 16.4445590973
intensity: 19.0848503113
---
header: 
  seq: 1097627
  stamp: 
    secs: 1561682991
    nsecs: 505711746
  frame_id: "ti_mmwave"
point_id: 19
x: 2.646484375
y: -2.021484375
z: -3.205078125
range: 4.9241976738
velocity: 0.0
doppler_bin: 8
bearing: -37.3739509583
intensity: 27.2997436523
---
header: 
  seq: 1097628
  stamp: 
    secs: 1561682991
    nsecs: 563799499
  frame_id: "ti_mmwave"
point_id: 0
x: 0.01171875
y: -0.0390625
z: -0.0078125
range: 0.0435769706964
velocity: 0.0
doppler_bin: 8
bearing: -73.3007583618
intensity: 30.7261753082
---
header: 
  seq: 1097629
  stamp: 
    secs: 1561682991
    nsecs: 563875899
  frame_id: "ti_mmwave"
point_id: 1
x: 0.017578125
y: -0.080078125
z: -0.0078125
range: 0.0871539413929
velocity: 0.0
doppler_bin: 8
bearing: -77.6192398071
intensity: 31.9589958191
---
header: 
  seq: 1097630
  stamp: 
    secs: 1561682991
    nsecs: 563887168
  frame_id: "ti_mmwave"
point_id: 2
x: 0.029296875
y: -0.119140625
z: -0.005859375
range: 0.130730912089
velocity: 0.0
doppler_bin: 8
bearing: -76.1849746704
intensity: 30.2160263062
---
header: 
  seq: 1097631
  stamp: 
    secs: 1561682991
    nsecs: 563895664
  frame_id: "ti_mmwave"
point_id: 3
x: 0.056640625
y: -0.154296875
z: 0.005859375
range: 0.174307882786
velocity: 0.0
doppler_bin: 8
bearing: -69.8423843384
intensity: 25.4777469635
---
header: 
  seq: 1097632
  stamp: 
    secs: 1561682991
    nsecs: 563903903
  frame_id: "ti_mmwave"
point_id: 4
x: 0.33203125
y: -0.080078125
z: -1.220703125
range: 1.35088610649
velocity: 0.0
doppler_bin: 8
bearing: -13.5594520569
intensity: 21.9033164978
---
header: 
  seq: 1097633
  stamp: 
    secs: 1561682991
    nsecs: 563912326
  frame_id: "ti_mmwave"
point_id: 5
x: 0.306640625
y: -0.041015625
z: 1.271484375
range: 1.39446306229
velocity: 0.0
doppler_bin: 8
bearing: -7.6185464859
intensity: 23.2221927643
---
header: 
  seq: 1097634
  stamp: 
    secs: 1561682991
    nsecs: 563925323
  frame_id: "ti_mmwave"
point_id: 6
x: 0.3984375
y: -0.0
z: 1.2890625
range: 1.43804001808
velocity: 0.0
doppler_bin: 8
bearing: -0.0
intensity: 21.9033164978
---
header: 
  seq: 1097635
  stamp: 
    secs: 1561682991
    nsecs: 563937639
  frame_id: "ti_mmwave"
point_id: 7
x: 2.0
y: -0.125
z: -0.046875
range: 2.13527154922
velocity: 0.0
doppler_bin: 8
bearing: -3.57633447647
intensity: 28.6153450012
---
header: 
  seq: 1097636
  stamp: 
    secs: 1561682991
    nsecs: 563950189
  frame_id: "ti_mmwave"
point_id: 8
x: 2.0390625
y: -0.126953125
z: -0.09765625
range: 2.17884850502
velocity: 0.0
doppler_bin: 8
bearing: -3.56266713142
intensity: 27.5434837341
---
header: 
  seq: 1097637
  stamp: 
    secs: 1561682991
    nsecs: 563962388
  frame_id: "ti_mmwave"
point_id: 9
x: 2.568359375
y: -0.263671875
z: 1.142578125
range: 3.00681090355
velocity: 0.0
doppler_bin: 8
bearing: -5.86154127121
intensity: 29.5856380463
---
header: 
  seq: 1097638
  stamp: 
    secs: 1561682991
    nsecs: 563973680
  frame_id: "ti_mmwave"
point_id: 10
x: 2.607421875
y: -0.267578125
z: 1.154296875
range: 3.05038785934
velocity: 0.0
doppler_bin: 8
bearing: -5.85928010941
intensity: 32.8352737427
---
header: 
  seq: 1097639
  stamp: 
    secs: 1561682991
    nsecs: 563985653
  frame_id: "ti_mmwave"
point_id: 11
x: 2.66015625
y: -0.181640625
z: 1.1484375
range: 3.09396481514
velocity: 0.0
doppler_bin: 8
bearing: -3.90620398521
intensity: 31.9479179382
---
header: 
  seq: 1097640
  stamp: 
    secs: 1561682991
    nsecs: 564000639
  frame_id: "ti_mmwave"
point_id: 12
x: 4.408203125
y: -0.287109375
z: 1.212890625
range: 4.88062095642
velocity: 0.0
doppler_bin: 8
bearing: -3.72645139694
intensity: 30.7736797333
---
header: 
  seq: 1097641
  stamp: 
    secs: 1561682991
    nsecs: 564009899
  frame_id: "ti_mmwave"
point_id: 13
x: 4.451171875
y: -0.43359375
z: 1.169921875
range: 4.9241976738
velocity: 0.0
doppler_bin: 8
bearing: -5.56369400024
intensity: 30.2325248718
---
header: 
  seq: 1097642
  stamp: 
    secs: 1561682991
    nsecs: 564021721
  frame_id: "ti_mmwave"
point_id: 15
x: 0.041015625
y: -0.033203125
z: 0.0625
range: 0.0871539413929
velocity: 0.0
doppler_bin: 8
bearing: -38.9909973145
intensity: 30.1325874329
---
header: 
  seq: 1097643
  stamp: 
    secs: 1561682991
    nsecs: 564031982
  frame_id: "ti_mmwave"
point_id: 16
x: 0.044921875
y: -0.046875
z: 0.103515625
range: 0.130730912089
velocity: 0.0
doppler_bin: 8
bearing: -46.218875885
intensity: 29.0091304779
---
header: 
  seq: 1097644
  stamp: 
    secs: 1561682991
    nsecs: 564042763
  frame_id: "ti_mmwave"
point_id: 18
x: 1.1171875
y: -0.515625
z: 0.30859375
range: 1.35088610649
velocity: 0.0
doppler_bin: 8
bearing: -24.7751407623
intensity: 19.0308990479
---
header: 
  seq: 1097645
  stamp: 
    secs: 1561682991
    nsecs: 564859536
  frame_id: "ti_mmwave"
point_id: 0
x: 0.01171875
y: -0.0390625
z: -0.0078125
range: 0.0435769706964
velocity: 0.0
doppler_bin: 8
bearing: -73.3007583618
intensity: 30.7335166931
---
header: 
  seq: 1097646
  stamp: 
    secs: 1561682991
    nsecs: 564920519
  frame_id: "ti_mmwave"
point_id: 1
x: 0.017578125
y: -0.080078125
z: -0.0078125
range: 0.0871539413929
velocity: 0.0
doppler_bin: 8
bearing: -77.6192398071
intensity: 31.9617614746
---
header: 
  seq: 1097647
  stamp: 
    secs: 1561682991
    nsecs: 564933935
  frame_id: "ti_mmwave"
point_id: 2
x: 0.041015625
y: -0.115234375
z: -0.0078125
range: 0.130730912089
velocity: 0.0
doppler_bin: 8
bearing: -70.4077224731
intensity: 30.2160263062
---
header: 
  seq: 1097648
  stamp: 
    secs: 1561682991
    nsecs: 564942832
  frame_id: "ti_mmwave"
point_id: 3
x: 0.056640625
y: -0.154296875
z: 0.005859375
range: 0.174307882786
velocity: 0.0
doppler_bin: 8
bearing: -69.8423843384
intensity: 25.4777469635
---
header: 
  seq: 1097649
  stamp: 
    secs: 1561682991
    nsecs: 564953276
  frame_id: "ti_mmwave"
point_id: 4
x: 0.330078125
y: -0.080078125
z: -1.22265625
range: 1.35088610649
velocity: 0.0
doppler_bin: 8
bearing: -13.6366977692
intensity: 21.875207901
---
header: 
  seq: 1097650
  stamp: 
    secs: 1561682991
    nsecs: 564963109
  frame_id: "ti_mmwave"
point_id: 5
x: 0.318359375
y: -0.041015625
z: 1.26953125
range: 1.39446306229
velocity: 0.0
doppler_bin: 8
bearing: -7.34122562408
intensity: 23.1806335449
---
header: 
  seq: 1097651
  stamp: 
    secs: 1561682991
    nsecs: 564973592
  frame_id: "ti_mmwave"
point_id: 6
x: 0.494140625
y: -0.04296875
z: 1.255859375
range: 1.43804001808
velocity: 0.0
doppler_bin: 8
bearing: -4.96974086761
intensity: 21.875207901
---
header: 
  seq: 1097652
  stamp: 
    secs: 1561682991
    nsecs: 565143364
  frame_id: "ti_mmwave"
point_id: 7
x: 1.95703125
y: -0.060546875
z: -0.13671875
range: 2.09169459343
velocity: 0.0
doppler_bin: 8
bearing: -1.77205872536
intensity: 29.2220630646
---
header: 
  seq: 1097653
  stamp: 
    secs: 1561682991
    nsecs: 565182464
  frame_id: "ti_mmwave"
point_id: 8
x: 2.001953125
y: -0.0625
z: -0.068359375
range: 2.13527154922
velocity: 0.0
doppler_bin: 8
bearing: -1.7881654501
intensity: 29.637878418
---
header: 
  seq: 1097654
  stamp: 
    secs: 1561682991
    nsecs: 565210857
  frame_id: "ti_mmwave"
point_id: 9
x: 2.044921875
y: -0.064453125
z: 0.0078125
range: 2.17884850502
velocity: 0.0
doppler_bin: 8
bearing: -1.80528640747
intensity: 28.1690387726
---
header: 
  seq: 1097655
  stamp: 
    secs: 1561682991
    nsecs: 565225127
  frame_id: "ti_mmwave"
point_id: 10
x: 2.5703125
y: -0.263671875
z: 1.134765625
range: 3.00681090355
velocity: 0.0
doppler_bin: 8
bearing: -5.85711812973
intensity: 29.5760726929
---
header: 
  seq: 1097656
  stamp: 
    secs: 1561682991
    nsecs: 565239514
  frame_id: "ti_mmwave"
point_id: 11
x: 2.615234375
y: -0.267578125
z: 1.134765625
range: 3.05038785934
velocity: 0.0
doppler_bin: 8
bearing: -5.84189844131
intensity: 32.8262214661
---
header: 
  seq: 1097657
  stamp: 
    secs: 1561682991
    nsecs: 565250816
  frame_id: "ti_mmwave"
point_id: 12
x: 2.66796875
y: -0.271484375
z: 1.115234375
range: 3.09396481514
velocity: 0.0
doppler_bin: 8
bearing: -5.81024503708
intensity: 31.9617614746
---
header: 
  seq: 1097658
  stamp: 
    secs: 1561682991
    nsecs: 565311993
  frame_id: "ti_mmwave"
point_id: 13
x: 4.40234375
y: -0.287109375
z: 1.236328125
range: 4.88062095642
velocity: 0.0
doppler_bin: 8
bearing: -3.73139691353
intensity: 30.9551811218
---
header: 
  seq: 1097659
  stamp: 
    secs: 1561682991
    nsecs: 565326853
  frame_id: "ti_mmwave"
point_id: 14
x: 4.4609375
y: -0.2890625
z: 1.1796875
range: 4.9241976738
velocity: 0.0
doppler_bin: 8
bearing: -3.70750308037
intensity: 30.6744289398
---
header: 
  seq: 1097660
  stamp: 
    secs: 1561682991
    nsecs: 565343597
  frame_id: "ti_mmwave"
point_id: 16
x: 0.041015625
y: -0.033203125
z: 0.0625
range: 0.0871539413929
velocity: 0.0
doppler_bin: 8
bearing: -38.9909973145
intensity: 30.1241531372
---
header: 
  seq: 1097661
  stamp: 
    secs: 1561682991
    nsecs: 565356035
  frame_id: "ti_mmwave"
point_id: 17
x: 0.052734375
y: -0.04296875
z: 0.1015625
range: 0.130730912089
velocity: 0.0
doppler_bin: 8
bearing: -39.1736602783
intensity: 28.9982051849
---
header: 
  seq: 1097662
  stamp: 
    secs: 1561682991
    nsecs: 565370679
  frame_id: "ti_mmwave"
point_id: 19
x: 1.20703125
y: 0.357421875
z: 0.154296875
range: 1.35088610649
velocity: 0.0
doppler_bin: 8
bearing: 16.4948921204
intensity: 19.0848503113
---
header: 
  seq: 1097663
  stamp: 
    secs: 1561682991
    nsecs: 623808608
  frame_id: "ti_mmwave"
point_id: 0
x: 0.01171875
y: -0.0390625
z: -0.0078125
range: 0.0435769706964
velocity: 0.0
doppler_bin: 8
bearing: -73.3007583618
intensity: 30.7371826172
---
header: 
  seq: 1097664
  stamp: 
    secs: 1561682991
    nsecs: 623874358
  frame_id: "ti_mmwave"
point_id: 1
x: 0.017578125
y: -0.080078125
z: -0.0078125
range: 0.0871539413929
velocity: 0.0
doppler_bin: 8
bearing: -77.6192398071
intensity: 31.9645252228
---
header: 
  seq: 1097665
  stamp: 
    secs: 1561682991
    nsecs: 623885278
  frame_id: "ti_mmwave"
point_id: 2
x: 0.029296875
y: -0.119140625
z: -0.005859375
range: 0.130730912089
velocity: 0.0
doppler_bin: 8
bearing: -76.1849746704
intensity: 30.2160263062
---
header: 
  seq: 1097666
  stamp: 
    secs: 1561682991
    nsecs: 623895607
  frame_id: "ti_mmwave"
point_id: 3
x: 0.056640625
y: -0.154296875
z: 0.005859375
range: 0.174307882786
velocity: 0.0
doppler_bin: 8
bearing: -69.8423843384
intensity: 25.4777469635
---
header: 
  seq: 1097667
  stamp: 
    secs: 1561682991
    nsecs: 623904191
  frame_id: "ti_mmwave"
point_id: 4
x: 0.33984375
y: -0.080078125
z: -1.21875
range: 1.35088610649
velocity: 0.0
doppler_bin: 8
bearing: -13.2588720322
intensity: 21.9589958191
---
header: 
  seq: 1097668
  stamp: 
    secs: 1561682991
    nsecs: 623912477
  frame_id: "ti_mmwave"
point_id: 5
x: 0.30859375
y: -0.041015625
z: 1.271484375
range: 1.39446306229
velocity: 0.0
doppler_bin: 8
bearing: -7.57088899612
intensity: 23.2221927643
---
header: 
  seq: 1097669
  stamp: 
    secs: 1561682991
    nsecs: 623922380
  frame_id: "ti_mmwave"
point_id: 6
x: 0.39453125
y: -0.0
z: 1.291015625
range: 1.43804001808
velocity: 0.0
doppler_bin: 8
bearing: -0.0
intensity: 21.9033164978
---
header: 
  seq: 1097670
  stamp: 
    secs: 1561682991
    nsecs: 623930773
  frame_id: "ti_mmwave"
point_id: 7
x: 1.90234375
y: -0.12109375
z: -0.25390625
range: 2.04811763763
velocity: 0.0
doppler_bin: 8
bearing: -3.64225053787
intensity: 28.2347431183
---
header: 
  seq: 1097671
  stamp: 
    secs: 1561682991
    nsecs: 623938596
  frame_id: "ti_mmwave"
point_id: 8
x: 1.951171875
y: -0.060546875
z: -0.203125
range: 2.09169459343
velocity: 0.0
doppler_bin: 8
bearing: -1.77737677097
intensity: 31.6226558685
---
header: 
  seq: 1097672
  stamp: 
    secs: 1561682991
    nsecs: 624120409
  frame_id: "ti_mmwave"
point_id: 9
x: 1.994140625
y: -0.125
z: -0.16796875
range: 2.13527154922
velocity: 0.0
doppler_bin: 8
bearing: -3.58681535721
intensity: 31.5167617798
---
header: 
  seq: 1097673
  stamp: 
    secs: 1561682991
    nsecs: 624148503
  frame_id: "ti_mmwave"
point_id: 10
x: 2.04296875
y: -0.064453125
z: -0.09375
range: 2.17884850502
velocity: 0.0
doppler_bin: 8
bearing: -1.80701124668
intensity: 27.9169063568
---
header: 
  seq: 1097674
  stamp: 
    secs: 1561682991
    nsecs: 624160751
  frame_id: "ti_mmwave"
point_id: 11
x: 2.546875
y: -0.263671875
z: 1.189453125
range: 3.00681090355
velocity: 0.0
doppler_bin: 8
bearing: -5.91063833237
intensity: 29.5472488403
---
header: 
  seq: 1097675
  stamp: 
    secs: 1561682991
    nsecs: 624194632
  frame_id: "ti_mmwave"
point_id: 12
x: 2.6015625
y: -0.267578125
z: 1.16796875
range: 3.05038785934
velocity: 0.0
doppler_bin: 8
bearing: -5.87238502502
intensity: 32.8080596924
---
header: 
  seq: 1097676
  stamp: 
    secs: 1561682991
    nsecs: 624222591
  frame_id: "ti_mmwave"
point_id: 13
x: 2.65625
y: -0.181640625
z: 1.158203125
range: 3.09396481514
velocity: 0.0
doppler_bin: 8
bearing: -3.91193032265
intensity: 31.9589958191
---
header: 
  seq: 1097677
  stamp: 
    secs: 1561682991
    nsecs: 624306691
  frame_id: "ti_mmwave"
point_id: 14
x: 4.40234375
y: -0.287109375
z: 1.23828125
range: 4.88062095642
velocity: 0.0
doppler_bin: 8
bearing: -3.73139691353
intensity: 31.0346164703
---
header: 
  seq: 1097678
  stamp: 
    secs: 1561682991
    nsecs: 624324034
  frame_id: "ti_mmwave"
point_id: 15
x: 4.458984375
y: -0.2890625
z: 1.18359375
range: 4.9241976738
velocity: 0.0
doppler_bin: 8
bearing: -3.70912218094
intensity: 30.7918128967
---
header: 
  seq: 1097679
  stamp: 
    secs: 1561682991
    nsecs: 624338770
  frame_id: "ti_mmwave"
point_id: 17
x: 0.041015625
y: -0.033203125
z: 0.0625
range: 0.0871539413929
velocity: 0.0
doppler_bin: 8
bearing: -38.9909973145
intensity: 30.1283721924
---
header: 
  seq: 1097680
  stamp: 
    secs: 1561682991
    nsecs: 624351424
  frame_id: "ti_mmwave"
point_id: 18
x: 0.052734375
y: -0.04296875
z: 0.1015625
range: 0.130730912089
velocity: 0.0
doppler_bin: 8
bearing: -39.1736602783
intensity: 29.0036716461
---
header: 
  seq: 1097681
  stamp: 
    secs: 1561682991
    nsecs: 624367005
  frame_id: "ti_mmwave"
point_id: 20
x: 1.11328125
y: -0.515625
z: 0.318359375
range: 1.35088610649
velocity: 0.0
doppler_bin: 8
bearing: -24.8515853882
intensity: 19.1381378174
---
header: 
  seq: 1097682
  stamp: 
    secs: 1561682991
    nsecs: 625015414
  frame_id: "ti_mmwave"
point_id: 0
x: 0.01171875
y: -0.0390625
z: -0.0078125
range: 0.0435769706964
velocity: 0.0
doppler_bin: 8
bearing: -73.3007583618
intensity: 30.7408466339
---
header: 
  seq: 1097683
  stamp: 
    secs: 1561682991
    nsecs: 625048662
  frame_id: "ti_mmwave"
point_id: 1
x: 0.017578125
y: -0.080078125
z: -0.0078125
range: 0.0871539413929
velocity: 0.0
doppler_bin: 8
bearing: -77.6192398071
intensity: 31.9672870636
---
header: 
  seq: 1097684
  stamp: 
    secs: 1561682991
    nsecs: 625058453
  frame_id: "ti_mmwave"
point_id: 2
x: 0.041015625
y: -0.115234375
z: -0.0078125
range: 0.130730912089
velocity: 0.0
doppler_bin: 8
bearing: -70.4077224731
intensity: 30.2160263062
---
header: 
  seq: 1097685
  stamp: 
    secs: 1561682991
    nsecs: 625067409
  frame_id: "ti_mmwave"
point_id: 3
x: 0.056640625
y: -0.154296875
z: 0.005859375
range: 0.174307882786
velocity: 0.0
doppler_bin: 8
bearing: -69.8423843384
intensity: 25.4777469635
---
header: 
  seq: 1097686
  stamp: 
    secs: 1561682991
    nsecs: 625075793
  frame_id: "ti_mmwave"
point_id: 4
x: 0.373046875
y: -0.080078125
z: -1.208984375
range: 1.35088610649
velocity: 0.0
doppler_bin: 8
bearing: -12.1152420044
intensity: 21.9033164978
---
header: 
  seq: 1097687
  stamp: 
    secs: 1561682991
    nsecs: 625084108
  frame_id: "ti_mmwave"
point_id: 5
x: 0.267578125
y: -0.041015625
z: 1.28125
range: 1.39446306229
velocity: 0.0
doppler_bin: 8
bearing: -8.71473312378
intensity: 23.2221927643
---
header: 
  seq: 1097688
  stamp: 
    secs: 1561682991
    nsecs: 625092375
  frame_id: "ti_mmwave"
point_id: 6
x: 0.388671875
y: -0.0
z: 1.29296875
range: 1.43804001808
velocity: 0.0
doppler_bin: 8
bearing: -0.0
intensity: 21.9312458038
---
header: 
  seq: 1097689
  stamp: 
    secs: 1561682991
    nsecs: 625144524
  frame_id: "ti_mmwave"
point_id: 7
x: 1.94921875
y: -0.060546875
z: -0.232421875
range: 2.09169459343
velocity: 0.0
doppler_bin: 8
bearing: -1.77915656567
intensity: 28.7157287598
---
header: 
  seq: 1097690
  stamp: 
    secs: 1561682991
    nsecs: 625154357
  frame_id: "ti_mmwave"
point_id: 8
x: 1.98828125
y: -0.125
z: -0.21484375
range: 2.13527154922
velocity: 0.0
doppler_bin: 8
bearing: -3.59735774994
intensity: 29.127532959
---
header: 
  seq: 1097691
  stamp: 
    secs: 1561682991
    nsecs: 625162228
  frame_id: "ti_mmwave"
point_id: 9
x: 2.529296875
y: -0.263671875
z: 1.224609375
range: 3.00681090355
velocity: 0.0
doppler_bin: 8
bearing: -5.95142221451
intensity: 29.3951931
---
header: 
  seq: 1097692
  stamp: 
    secs: 1561682991
    nsecs: 625169679
  frame_id: "ti_mmwave"
point_id: 10
x: 2.599609375
y: -0.267578125
z: 1.169921875
range: 3.05038785934
velocity: 0.0
doppler_bin: 8
bearing: -5.87676620483
intensity: 32.7737998962
---
header: 
  seq: 1097693
  stamp: 
    secs: 1561682991
    nsecs: 625176953
  frame_id: "ti_mmwave"
point_id: 11
x: 2.66015625
y: -0.271484375
z: 1.1328125
range: 3.09396481514
velocity: 0.0
doppler_bin: 8
bearing: -5.82719182968
intensity: 31.9865703583
---
header: 
  seq: 1097694
  stamp: 
    secs: 1561682991
    nsecs: 625185655
  frame_id: "ti_mmwave"
point_id: 12
x: 4.412109375
y: -0.287109375
z: 1.203125
range: 4.88062095642
velocity: 0.0
doppler_bin: 8
bearing: -3.72316122055
intensity: 30.8955192566
---
header: 
  seq: 1097695
  stamp: 
    secs: 1561682991
    nsecs: 625196526
  frame_id: "ti_mmwave"
point_id: 13
x: 4.46484375
y: -0.2890625
z: 1.16015625
range: 4.9241976738
velocity: 0.0
doppler_bin: 8
bearing: -3.70426845551
intensity: 30.4257545471
---
header: 
  seq: 1097696
  stamp: 
    secs: 1561682991
    nsecs: 625214713
  frame_id: "ti_mmwave"
point_id: 15
x: 0.041015625
y: -0.033203125
z: 0.0625
range: 0.0871539413929
velocity: 0.0
doppler_bin: 8
bearing: -38.9909973145
intensity: 30.1283721924
---
header: 
  seq: 1097697
  stamp: 
    secs: 1561682991
    nsecs: 625226654
  frame_id: "ti_mmwave"
point_id: 16
x: 0.052734375
y: -0.04296875
z: 0.1015625
range: 0.130730912089
velocity: 0.0
doppler_bin: 8
bearing: -39.1736602783
intensity: 29.0036716461
---
header: 
  seq: 1097698
  stamp: 
    secs: 1561682991
    nsecs: 625243320
  frame_id: "ti_mmwave"
point_id: 18
x: 1.20703125
y: 0.357421875
z: 0.1484375
range: 1.35088610649
velocity: 0.0
doppler_bin: 8
bearing: 16.4948921204
intensity: 19.0848503113
---
header: 
  seq: 1097699
  stamp: 
    secs: 1561682991
    nsecs: 625299178
  frame_id: "ti_mmwave"
point_id: 19
x: 2.880859375
y: -2.021484375
z: -2.99609375
range: 4.9241976738
velocity: 0.0
doppler_bin: 8
bearing: -35.057144165
intensity: 27.5815467834
---
header: 
  seq: 1097700
  stamp: 
    secs: 1561682991
    nsecs: 683836733
  frame_id: "ti_mmwave"
point_id: 0
x: 0.01171875
y: -0.0390625
z: -0.0078125
range: 0.0435769706964
velocity: 0.0
doppler_bin: 8
bearing: -73.3007583618
intensity: 30.7408466339
---
header: 
  seq: 1097701
  stamp: 
    secs: 1561682991
    nsecs: 683912378
  frame_id: "ti_mmwave"
point_id: 1
x: 0.017578125
y: -0.080078125
z: -0.0078125
range: 0.0871539413929
velocity: 0.0
doppler_bin: 8
bearing: -77.6192398071
intensity: 31.9645252228
---
header: 
  seq: 1097702
  stamp: 
    secs: 1561682991
    nsecs: 683925706
  frame_id: "ti_mmwave"
point_id: 2
x: 0.041015625
y: -0.115234375
z: -0.0078125
range: 0.130730912089
velocity: 0.0
doppler_bin: 8
bearing: -70.4077224731
intensity: 30.2160263062
---
header: 
  seq: 1097703
  stamp: 
    secs: 1561682991
    nsecs: 683934289
  frame_id: "ti_mmwave"
point_id: 3
x: 0.056640625
y: -0.154296875
z: 0.005859375
range: 0.174307882786
velocity: 0.0
doppler_bin: 8
bearing: -69.8423843384
intensity: 25.4777469635
---
header: 
  seq: 1097704
  stamp: 
    secs: 1561682991
    nsecs: 683942860
  frame_id: "ti_mmwave"
point_id: 4
x: 0.3359375
y: -0.080078125
z: -1.220703125
range: 1.35088610649
velocity: 0.0
doppler_bin: 8
bearing: -13.4075088501
intensity: 21.9033164978
---
header: 
  seq: 1097705
  stamp: 
    secs: 1561682991
    nsecs: 683951077
  frame_id: "ti_mmwave"
point_id: 5
x: 0.30859375
y: -0.041015625
z: 1.271484375
range: 1.39446306229
velocity: 0.0
doppler_bin: 8
bearing: -7.57088899612
intensity: 23.2221927643
---
header: 
  seq: 1097706
  stamp: 
    secs: 1561682991
    nsecs: 683961011
  frame_id: "ti_mmwave"
point_id: 6
x: 0.4375
y: -0.0
z: 1.27734375
range: 1.43804001808
velocity: 0.0
doppler_bin: 8
bearing: -0.0
intensity: 21.9033164978
---
header: 
  seq: 1097707
  stamp: 
    secs: 1561682991
    nsecs: 683969494
  frame_id: "ti_mmwave"
point_id: 7
x: 2.58984375
y: -0.263671875
z: 1.09375
range: 3.00681090355
velocity: 0.0
doppler_bin: 8
bearing: -5.81325101852
intensity: 29.4743366241
---
header: 
  seq: 1097708
  stamp: 
    secs: 1561682991
    nsecs: 683977555
  frame_id: "ti_mmwave"
point_id: 8
x: 2.61328125
y: -0.267578125
z: 1.13671875
range: 3.05038785934
velocity: 0.0
doppler_bin: 8
bearing: -5.84623432159
intensity: 32.8012275696
---
header: 
  seq: 1097709
  stamp: 
    secs: 1561682991
    nsecs: 683986572
  frame_id: "ti_mmwave"
point_id: 9
x: 2.662109375
y: -0.271484375
z: 1.130859375
range: 3.09396481514
velocity: 0.0
doppler_bin: 8
bearing: -5.82294607162
intensity: 31.9783172607
---
header: 
  seq: 1097710
  stamp: 
    secs: 1561682991
    nsecs: 684009634
  frame_id: "ti_mmwave"
point_id: 10
x: 4.41015625
y: -0.287109375
z: 1.208984375
range: 4.88062095642
velocity: 0.0
doppler_bin: 8
bearing: -3.72480559349
intensity: 30.8849048615
---
header: 
  seq: 1097711
  stamp: 
    secs: 1561682991
    nsecs: 684027222
  frame_id: "ti_mmwave"
point_id: 11
x: 4.46484375
y: -0.2890625
z: 1.1640625
range: 4.9241976738
velocity: 0.0
doppler_bin: 8
bearing: -3.70426845551
intensity: 30.248960495
---
header: 
  seq: 1097712
  stamp: 
    secs: 1561682991
    nsecs: 684047298
  frame_id: "ti_mmwave"
point_id: 13
x: 0.041015625
y: -0.033203125
z: 0.0625
range: 0.0871539413929
velocity: 0.0
doppler_bin: 8
bearing: -38.9909973145
intensity: 30.1325874329
---
header: 
  seq: 1097713
  stamp: 
    secs: 1561682991
    nsecs: 684063645
  frame_id: "ti_mmwave"
point_id: 14
x: 0.044921875
y: -0.046875
z: 0.103515625
range: 0.130730912089
velocity: 0.0
doppler_bin: 8
bearing: -46.218875885
intensity: 29.0091304779
---
header: 
  seq: 1097714
  stamp: 
    secs: 1561682991
    nsecs: 684081787
  frame_id: "ti_mmwave"
point_id: 16
x: 1.2109375
y: 0.357421875
z: 0.115234375
range: 1.35088610649
velocity: 0.0
doppler_bin: 8
bearing: 16.4445590973
intensity: 19.0848503113
---
header: 
  seq: 1097715
  stamp: 
    secs: 1561682991
    nsecs: 684096239
  frame_id: "ti_mmwave"
point_id: 17
x: 2.98828125
y: -2.00390625
z: -2.8359375
range: 4.88062095642
velocity: 0.0
doppler_bin: 8
bearing: -33.8453445435
intensity: 27.9448795319
---
header: 
  seq: 1097716
  stamp: 
    secs: 1561682991
    nsecs: 684111097
  frame_id: "ti_mmwave"
point_id: 18
x: 3.00390625
y: -2.021484375
z: -2.873046875
range: 4.9241976738
velocity: 0.0
doppler_bin: 8
bearing: -33.9386558533
intensity: 27.4741172791
---
header: 
  seq: 1097717
  stamp: 
    secs: 1561682991
    nsecs: 685142035
  frame_id: "ti_mmwave"
point_id: 0
x: 0.01171875
y: -0.0390625
z: -0.0078125
range: 0.0435769706964
velocity: 0.0
doppler_bin: 8
bearing: -73.3007583618
intensity: 30.7335166931
---
header: 
  seq: 1097718
  stamp: 
    secs: 1561682991
    nsecs: 685201229
  frame_id: "ti_mmwave"
point_id: 1
x: 0.017578125
y: -0.080078125
z: -0.0078125
range: 0.0871539413929
velocity: 0.0
doppler_bin: 8
bearing: -77.6192398071
intensity: 31.9645252228
---
header: 
  seq: 1097719
  stamp: 
    secs: 1561682991
    nsecs: 685216664
  frame_id: "ti_mmwave"
point_id: 2
x: 0.041015625
y: -0.115234375
z: -0.0078125
range: 0.130730912089
velocity: 0.0
doppler_bin: 8
bearing: -70.4077224731
intensity: 30.2201576233
---
header: 
  seq: 1097720
  stamp: 
    secs: 1561682991
    nsecs: 685228279
  frame_id: "ti_mmwave"
point_id: 3
x: 0.056640625
y: -0.154296875
z: 0.005859375
range: 0.174307882786
velocity: 0.0
doppler_bin: 8
bearing: -69.8423843384
intensity: 25.490032196
---
header: 
  seq: 1097721
  stamp: 
    secs: 1561682991
    nsecs: 685238897
  frame_id: "ti_mmwave"
point_id: 4
x: 0.359375
y: -0.080078125
z: -1.212890625
range: 1.35088610649
velocity: 0.0
doppler_bin: 8
bearing: -12.5617752075
intensity: 21.8469142914
---
header: 
  seq: 1097722
  stamp: 
    secs: 1561682991
    nsecs: 685254104
  frame_id: "ti_mmwave"
point_id: 5
x: 0.267578125
y: -0.041015625
z: 1.28125
range: 1.39446306229
velocity: 0.0
doppler_bin: 8
bearing: -8.71473312378
intensity: 23.2014636993
---
header: 
  seq: 1097723
  stamp: 
    secs: 1561682991
    nsecs: 685265692
  frame_id: "ti_mmwave"
point_id: 6
x: 0.373046875
y: -0.0
z: 1.296875
range: 1.43804001808
velocity: 0.0
doppler_bin: 8
bearing: -0.0
intensity: 21.9033164978
---
header: 
  seq: 1097724
  stamp: 
    secs: 1561682991
    nsecs: 685277939
  frame_id: "ti_mmwave"
point_id: 7
x: 1.9375
y: -0.18359375
z: -0.263671875
range: 2.09169459343
velocity: 0.0
doppler_bin: 8
bearing: -5.41307449341
intensity: 28.5064620972
---
header: 
  seq: 1097725
  stamp: 
    secs: 1561682991
    nsecs: 685289483
  frame_id: "ti_mmwave"
point_id: 8
x: 1.982421875
y: -0.1875
z: -0.22265625
range: 2.13527154922
velocity: 0.0
doppler_bin: 8
bearing: -5.40303564072
intensity: 28.4880466461
---
header: 
  seq: 1097726
  stamp: 
    secs: 1561682991
    nsecs: 685305696
  frame_id: "ti_mmwave"
point_id: 9
x: 2.5390625
y: -0.263671875
z: 1.203125
range: 3.00681090355
velocity: 0.0
doppler_bin: 8
bearing: -5.92869567871
intensity: 29.6142101288
---
header: 
  seq: 1097727
  stamp: 
    secs: 1561682991
    nsecs: 685406175
  frame_id: "ti_mmwave"
point_id: 10
x: 2.603515625
y: -0.267578125
z: 1.162109375
range: 3.05038785934
velocity: 0.0
doppler_bin: 8
bearing: -5.8680100441
intensity: 32.8239555359
---
header: 
  seq: 1097728
  stamp: 
    secs: 1561682991
    nsecs: 685416915
  frame_id: "ti_mmwave"
point_id: 11
x: 2.662109375
y: -0.181640625
z: 1.146484375
range: 3.09396481514
velocity: 0.0
doppler_bin: 8
bearing: -3.90334677696
intensity: 31.9810695648
---
header: 
  seq: 1097729
  stamp: 
    secs: 1561682991
    nsecs: 685426547
  frame_id: "ti_mmwave"
point_id: 12
x: 4.416015625
y: -0.287109375
z: 1.189453125
range: 4.88062095642
velocity: 0.0
doppler_bin: 8
bearing: -3.71987724304
intensity: 30.9025802612
---
header: 
  seq: 1097730
  stamp: 
    secs: 1561682991
    nsecs: 685437026
  frame_id: "ti_mmwave"
point_id: 13
x: 4.466796875
y: -0.2890625
z: 1.15234375
range: 4.9241976738
velocity: 0.0
doppler_bin: 8
bearing: -3.70265316963
intensity: 30.2284069061
---
header: 
  seq: 1097731
  stamp: 
    secs: 1561682991
    nsecs: 685447030
  frame_id: "ti_mmwave"
point_id: 15
x: 0.041015625
y: -0.033203125
z: 0.0625
range: 0.0871539413929
velocity: 0.0
doppler_bin: 8
bearing: -38.9909973145
intensity: 30.1325874329
---
header: 
  seq: 1097732
  stamp: 
    secs: 1561682991
    nsecs: 685454826
  frame_id: "ti_mmwave"
point_id: 16
x: 0.044921875
y: -0.046875
z: 0.103515625
range: 0.130730912089
velocity: 0.0
doppler_bin: 8
bearing: -46.218875885
intensity: 29.0091304779
---
header: 
  seq: 1097733
  stamp: 
    secs: 1561682991
    nsecs: 685464289
  frame_id: "ti_mmwave"
point_id: 18
x: 1.2109375
y: 0.357421875
z: 0.1171875
range: 1.35088610649
velocity: 0.0
doppler_bin: 8
bearing: 16.4445590973
intensity: 19.1381378174
---
header: 
  seq: 1097734
  stamp: 
    secs: 1561682991
    nsecs: 685471709
  frame_id: "ti_mmwave"
point_id: 19
x: 2.83984375
y: -2.021484375
z: -3.03515625
range: 4.9241976738
velocity: 0.0
doppler_bin: 8
bearing: -35.4443778992
intensity: 27.3078231812
---
header: 
  seq: 1097735
  stamp: 
    secs: 1561682991
    nsecs: 743922460
  frame_id: "ti_mmwave"
point_id: 0
x: 0.01171875
y: -0.0390625
z: -0.0078125
range: 0.0435769706964
velocity: 0.0
doppler_bin: 8
bearing: -73.3007583618
intensity: 30.7335166931
---
header: 
  seq: 1097736
  stamp: 
    secs: 1561682991
    nsecs: 744024191
  frame_id: "ti_mmwave"
point_id: 1
x: 0.017578125
y: -0.080078125
z: -0.0078125
range: 0.0871539413929
velocity: 0.0
doppler_bin: 8
bearing: -77.6192398071
intensity: 31.9617614746
---
header: 
  seq: 1097737
  stamp: 
    secs: 1561682991
    nsecs: 744042014
  frame_id: "ti_mmwave"
point_id: 2
x: 0.041015625
y: -0.115234375
z: -0.0078125
range: 0.130730912089
velocity: 0.0
doppler_bin: 8
bearing: -70.4077224731
intensity: 30.2160263062
---
header: 
  seq: 1097738
  stamp: 
    secs: 1561682991
    nsecs: 744058102
  frame_id: "ti_mmwave"
point_id: 3
x: 0.056640625
y: -0.154296875
z: 0.005859375
range: 0.174307882786
velocity: 0.0
doppler_bin: 8
bearing: -69.8423843384
intensity: 25.4777469635
---
header: 
  seq: 1097739
  stamp: 
    secs: 1561682991
    nsecs: 744072019
  frame_id: "ti_mmwave"
point_id: 4
x: 0.31640625
y: -0.080078125
z: -1.224609375
range: 1.35088610649
velocity: 0.0
doppler_bin: 8
bearing: -14.2025585175
intensity: 21.875207901
---
header: 
  seq: 1097740
  stamp: 
    secs: 1561682991
    nsecs: 744086998
  frame_id: "ti_mmwave"
point_id: 5
x: 0.318359375
y: -0.041015625
z: 1.26953125
range: 1.39446306229
velocity: 0.0
doppler_bin: 8
bearing: -7.34122562408
intensity: 23.2221927643
---
header: 
  seq: 1097741
  stamp: 
    secs: 1561682991
    nsecs: 744183405
  frame_id: "ti_mmwave"
point_id: 6
x: 0.439453125
y: -0.0
z: 1.275390625
range: 1.43804001808
velocity: 0.0
doppler_bin: 8
bearing: -0.0
intensity: 21.9033164978
---
header: 
  seq: 1097742
  stamp: 
    secs: 1561682991
    nsecs: 744203090
  frame_id: "ti_mmwave"
point_id: 7
x: 2.544921875
y: -0.263671875
z: 1.19140625
range: 3.00681090355
velocity: 0.0
doppler_bin: 8
bearing: -5.91514253616
intensity: 29.4546852112
---
header: 
  seq: 1097743
  stamp: 
    secs: 1561682991
    nsecs: 744216389
  frame_id: "ti_mmwave"
point_id: 8
x: 2.609375
y: -0.267578125
z: 1.150390625
range: 3.05038785934
velocity: 0.0
doppler_bin: 8
bearing: -5.85492515564
intensity: 32.7898216248
---
header: 
  seq: 1097744
  stamp: 
    secs: 1561682991
    nsecs: 744230470
  frame_id: "ti_mmwave"
point_id: 9
x: 2.666015625
y: -0.271484375
z: 1.119140625
range: 3.09396481514
velocity: 0.0
doppler_bin: 8
bearing: -5.81447267532
intensity: 31.9920654297
---
header: 
  seq: 1097745
  stamp: 
    secs: 1561682991
    nsecs: 744243401
  frame_id: "ti_mmwave"
point_id: 10
x: 4.427734375
y: -0.287109375
z: 1.140625
range: 4.88062095642
velocity: 0.0
doppler_bin: 8
bearing: -3.71005964279
intensity: 30.99335289
---
header: 
  seq: 1097746
  stamp: 
    secs: 1561682991
    nsecs: 744259048
  frame_id: "ti_mmwave"
point_id: 11
x: 4.462890625
y: -0.43359375
z: 1.123046875
range: 4.9241976738
velocity: 0.0
doppler_bin: 8
bearing: -5.54917621613
intensity: 30.3622951508
---
header: 
  seq: 1097747
  stamp: 
    secs: 1561682991
    nsecs: 744272640
  frame_id: "ti_mmwave"
point_id: 12
x: 4.87890625
y: -0.30859375
z: 0.7734375
range: 5.27281332016
velocity: 0.0
doppler_bin: 8
bearing: -3.61917114258
intensity: 30.1870040894
---
header: 
  seq: 1097748
  stamp: 
    secs: 1561682991
    nsecs: 744289454
  frame_id: "ti_mmwave"
point_id: 14
x: 0.041015625
y: -0.033203125
z: 0.0625
range: 0.0871539413929
velocity: 0.0
doppler_bin: 8
bearing: -38.9909973145
intensity: 30.1283721924
---
header: 
  seq: 1097749
  stamp: 
    secs: 1561682991
    nsecs: 744322925
  frame_id: "ti_mmwave"
point_id: 15
x: 0.044921875
y: -0.046875
z: 0.103515625
range: 0.130730912089
velocity: 0.0
doppler_bin: 8
bearing: -46.218875885
intensity: 29.0036716461
---
header: 
  seq: 1097750
  stamp: 
    secs: 1561682991
    nsecs: 744388227
  frame_id: "ti_mmwave"
point_id: 17
x: 1.20703125
y: 0.357421875
z: 0.162109375
range: 1.35088610649
velocity: 0.0
doppler_bin: 8
bearing: 16.4948921204
intensity: 19.2427921295
---
header: 
  seq: 1097751
  stamp: 
    secs: 1561682991
    nsecs: 744404494
  frame_id: "ti_mmwave"
point_id: 18
x: 2.69140625
y: -2.021484375
z: -3.16796875
range: 4.9241976738
velocity: 0.0
doppler_bin: 8
bearing: -36.9097976685
intensity: 27.466342926
---
header: 
  seq: 1097752
  stamp: 
    secs: 1561682991
    nsecs: 803888905
  frame_id: "ti_mmwave"
point_id: 0
x: 0.01171875
y: -0.0390625
z: -0.0078125
range: 0.0435769706964
velocity: 0.0
doppler_bin: 8
bearing: -73.3007583618
intensity: 30.7335166931
---
header: 
  seq: 1097753
  stamp: 
    secs: 1561682991
    nsecs: 803975804
  frame_id: "ti_mmwave"
point_id: 1
x: 0.017578125
y: -0.080078125
z: -0.0078125
range: 0.0871539413929
velocity: 0.0
doppler_bin: 8
bearing: -77.6192398071
intensity: 31.9617614746
---
header: 
  seq: 1097754
  stamp: 
    secs: 1561682991
    nsecs: 804004358
  frame_id: "ti_mmwave"
point_id: 2
x: 0.041015625
y: -0.115234375
z: -0.0078125
range: 0.130730912089
velocity: 0.0
doppler_bin: 8
bearing: -70.4077224731
intensity: 30.2160263062
---
header: 
  seq: 1097755
  stamp: 
    secs: 1561682991
    nsecs: 804021012
  frame_id: "ti_mmwave"
point_id: 3
x: 0.056640625
y: -0.154296875
z: 0.005859375
range: 0.174307882786
velocity: 0.0
doppler_bin: 8
bearing: -69.8423843384
intensity: 25.4777469635
---
header: 
  seq: 1097756
  stamp: 
    secs: 1561682991
    nsecs: 804125343
  frame_id: "ti_mmwave"
point_id: 4
x: 0.36328125
y: -0.080078125
z: -1.212890625
range: 1.35088610649
velocity: 0.0
doppler_bin: 8
bearing: -12.4309225082
intensity: 21.9312458038
---
header: 
  seq: 1097757
  stamp: 
    secs: 1561682991
    nsecs: 804144316
  frame_id: "ti_mmwave"
point_id: 5
x: 0.27734375
y: -0.041015625
z: 1.279296875
range: 1.39446306229
velocity: 0.0
doppler_bin: 8
bearing: -8.41234493256
intensity: 23.2428245544
---
header: 
  seq: 1097758
  stamp: 
    secs: 1561682991
    nsecs: 804156801
  frame_id: "ti_mmwave"
point_id: 6
x: 0.39453125
y: -0.0
z: 1.291015625
range: 1.43804001808
velocity: 0.0
doppler_bin: 8
bearing: -0.0
intensity: 21.9312458038
---
header: 
  seq: 1097759
  stamp: 
    secs: 1561682991
    nsecs: 804168939
  frame_id: "ti_mmwave"
point_id: 7
x: 1.984375
y: -0.0625
z: -0.26953125
range: 2.13527154922
velocity: 0.0
doppler_bin: 8
bearing: -1.80399513245
intensity: 28.2282161713
---
header: 
  seq: 1097760
  stamp: 
    secs: 1561682991
    nsecs: 804180437
  frame_id: "ti_mmwave"
point_id: 8
x: 2.544921875
y: -0.263671875
z: 1.189453125
range: 3.00681090355
velocity: 0.0
doppler_bin: 8
bearing: -5.91514253616
intensity: 29.5133743286
---
header: 
  seq: 1097761
  stamp: 
    secs: 1561682991
    nsecs: 804192059
  frame_id: "ti_mmwave"
point_id: 9
x: 2.6015625
y: -0.267578125
z: 1.1640625
range: 3.05038785934
velocity: 0.0
doppler_bin: 8
bearing: -5.87238502502
intensity: 32.7898216248
---
header: 
  seq: 1097762
  stamp: 
    secs: 1561682991
    nsecs: 804207869
  frame_id: "ti_mmwave"
point_id: 10
x: 2.662109375
y: -0.271484375
z: 1.12890625
range: 3.09396481514
velocity: 0.0
doppler_bin: 8
bearing: -5.82294607162
intensity: 31.9506893158
---
header: 
  seq: 1097763
  stamp: 
    secs: 1561682991
    nsecs: 804219634
  frame_id: "ti_mmwave"
point_id: 11
x: 4.416015625
y: -0.287109375
z: 1.18359375
range: 4.88062095642
velocity: 0.0
doppler_bin: 8
bearing: -3.71987724304
intensity: 30.7809410095
---
header: 
  seq: 1097764
  stamp: 
    secs: 1561682991
    nsecs: 804230823
  frame_id: "ti_mmwave"
point_id: 12
x: 4.466796875
y: -0.2890625
z: 1.15234375
range: 4.9241976738
velocity: 0.0
doppler_bin: 8
bearing: -3.70265316963
intensity: 30.1157035828
---
header: 
  seq: 1097765
  stamp: 
    secs: 1561682991
    nsecs: 804241802
  frame_id: "ti_mmwave"
point_id: 14
x: 0.041015625
y: -0.033203125
z: 0.0625
range: 0.0871539413929
velocity: 0.0
doppler_bin: 8
bearing: -38.9909973145
intensity: 30.1283721924
---
header: 
  seq: 1097766
  stamp: 
    secs: 1561682991
    nsecs: 804316097
  frame_id: "ti_mmwave"
point_id: 15
x: 0.044921875
y: -0.046875
z: 0.103515625
range: 0.130730912089
velocity: 0.0
doppler_bin: 8
bearing: -46.218875885
intensity: 29.0091304779
---
header: 
  seq: 1097767
  stamp: 
    secs: 1561682991
