header: 
  seq: 1110392
  stamp: 
    secs: 1561683014
    nsecs: 243857046
  frame_id: "ti_mmwave"
point_id: 0
x: 0.01171875
y: -0.0390625
z: -0.0078125
range: 0.0435769706964
velocity: 0.0
doppler_bin: 8
bearing: -73.3007583618
intensity: 30.7371826172
---
header: 
  seq: 1110393
  stamp: 
    secs: 1561683014
    nsecs: 243951508
  frame_id: "ti_mmwave"
point_id: 1
x: 0.017578125
y: -0.080078125
z: -0.0078125
range: 0.0871539413929
velocity: 0.0
doppler_bin: 8
bearing: -77.6192398071
intensity: 31.9645252228
---
header: 
  seq: 1110394
  stamp: 
    secs: 1561683014
    nsecs: 243972149
  frame_id: "ti_mmwave"
point_id: 2
x: 0.041015625
y: -0.115234375
z: -0.0078125
range: 0.130730912089
velocity: 0.0
doppler_bin: 8
bearing: -70.4077224731
intensity: 30.2201576233
---
header: 
  seq: 1110395
  stamp: 
    secs: 1561683014
    nsecs: 243987068
  frame_id: "ti_mmwave"
point_id: 3
x: 0.056640625
y: -0.154296875
z: 0.005859375
range: 0.174307882786
velocity: 0.0
doppler_bin: 8
bearing: -69.8423843384
intensity: 25.490032196
---
header: 
  seq: 1110396
  stamp: 
    secs: 1561683014
    nsecs: 244001402
  frame_id: "ti_mmwave"
point_id: 4
x: 0.361328125
y: -0.080078125
z: -1.212890625
range: 1.35088610649
velocity: 0.0
doppler_bin: 8
bearing: -12.4960107803
intensity: 21.9312458038
---
header: 
  seq: 1110397
  stamp: 
    secs: 1561683014
    nsecs: 244015316
  frame_id: "ti_mmwave"
point_id: 5
x: 0.2734375
y: -0.041015625
z: 1.279296875
range: 1.39446306229
velocity: 0.0
doppler_bin: 8
bearing: -8.53076648712
intensity: 23.2633590698
---
header: 
  seq: 1110398
  stamp: 
    secs: 1561683014
    nsecs: 244092316
  frame_id: "ti_mmwave"
point_id: 6
x: 0.373046875
y: -0.0
z: 1.296875
range: 1.43804001808
velocity: 0.0
doppler_bin: 8
bearing: -0.0
intensity: 21.9589958191
---
header: 
  seq: 1110399
  stamp: 
    secs: 1561683014
    nsecs: 244142860
  frame_id: "ti_mmwave"
point_id: 7
x: 2.14453125
y: -0.068359375
z: -0.3125
range: 2.30957937241
velocity: 0.0
doppler_bin: 8
bearing: -1.82575011253
intensity: 26.5224628448
---
header: 
  seq: 1110400
  stamp: 
    secs: 1561683014
    nsecs: 244156357
  frame_id: "ti_mmwave"
point_id: 8
x: 2.18359375
y: -0.068359375
z: -0.3203125
range: 2.3531563282
velocity: 0.0
doppler_bin: 8
bearing: -1.79311037064
intensity: 29.7173957825
---
header: 
  seq: 1110401
  stamp: 
    secs: 1561683014
    nsecs: 244171425
  frame_id: "ti_mmwave"
point_id: 9
x: 2.2265625
y: -0.0703125
z: -0.310546875
range: 2.396733284
velocity: 0.0
doppler_bin: 8
bearing: -1.80873930454
intensity: 29.4101428986
---
header: 
  seq: 1110402
  stamp: 
    secs: 1561683014
    nsecs: 244184091
  frame_id: "ti_mmwave"
point_id: 10
x: 2.283203125
y: -0.072265625
z: -0.17578125
range: 2.44031047821
velocity: 0.0
doppler_bin: 8
bearing: -1.81286263466
intensity: 26.1595001221
---
header: 
  seq: 1110403
  stamp: 
    secs: 1561683014
    nsecs: 244196608
  frame_id: "ti_mmwave"
point_id: 11
x: 2.5546875
y: -0.263671875
z: 1.169921875
range: 3.00681090355
velocity: 0.0
doppler_bin: 8
bearing: -5.89269018173
intensity: 29.484128952
---
header: 
  seq: 1110404
  stamp: 
    secs: 1561683014
    nsecs: 244209505
  frame_id: "ti_mmwave"
point_id: 12
x: 2.611328125
y: -0.267578125
z: 1.14453125
range: 3.05038785934
velocity: 0.0
doppler_bin: 8
bearing: -5.85057687759
intensity: 32.7875366211
---
header: 
  seq: 1110405
  stamp: 
    secs: 1561683014
    nsecs: 244222750
  frame_id: "ti_mmwave"
point_id: 13
x: 2.669921875
y: -0.181640625
z: 1.126953125
range: 3.09396481514
velocity: 0.0
doppler_bin: 8
bearing: -3.89196038246
intensity: 31.9340286255
---
header: 
  seq: 1110406
  stamp: 
    secs: 1561683014
    nsecs: 244238989
  frame_id: "ti_mmwave"
point_id: 14
x: 4.41796875
y: -0.287109375
z: 1.181640625
range: 4.88062095642
velocity: 0.0
doppler_bin: 8
bearing: -3.71823716164
intensity: 30.8457622528
---
header: 
  seq: 1110407
  stamp: 
    secs: 1561683014
    nsecs: 244257219
  frame_id: "ti_mmwave"
point_id: 15
x: 4.47265625
y: -0.2890625
z: 1.130859375
range: 4.9241976738
velocity: 0.0
doppler_bin: 8
bearing: -3.6978161335
intensity: 30.1994667053
---
header: 
  seq: 1110408
  stamp: 
    secs: 1561683014
    nsecs: 244304065
  frame_id: "ti_mmwave"
point_id: 16
x: 4.88671875
y: -0.30859375
z: 0.7265625
range: 5.27281332016
velocity: 0.0
doppler_bin: 8
bearing: -3.61340069771
intensity: 30.1241531372
---
header: 
  seq: 1110409
  stamp: 
    secs: 1561683014
    nsecs: 244323940
  frame_id: "ti_mmwave"
point_id: 18
x: 0.041015625
y: -0.033203125
z: 0.0625
range: 0.0871539413929
velocity: 0.0
doppler_bin: 8
bearing: -38.9909973145
intensity: 30.1241531372
---
header: 
  seq: 1110410
  stamp: 
    secs: 1561683014
    nsecs: 244337582
  frame_id: "ti_mmwave"
point_id: 19
x: 0.052734375
y: -0.04296875
z: 0.1015625
range: 0.130730912089
velocity: 0.0
doppler_bin: 8
bearing: -39.1736602783
intensity: 28.9982051849
---
header: 
  seq: 1110411
  stamp: 
    secs: 1561683014
    nsecs: 244354337
  frame_id: "ti_mmwave"
point_id: 21
x: 1.20703125
y: 0.357421875
z: 0.146484375
range: 1.35088610649
velocity: 0.0
doppler_bin: 8
bearing: 16.4948921204
intensity: 19.1381378174
---
header: 
  seq: 1110412
  stamp: 
    secs: 1561683014
    nsecs: 244368061
  frame_id: "ti_mmwave"
point_id: 22
x: 2.814453125
y: -2.00390625
z: -3.009765625
range: 4.88062095642
velocity: 0.0
doppler_bin: 8
bearing: -35.4510803223
intensity: 27.8532981873
---
header: 
  seq: 1110413
  stamp: 
    secs: 1561683014
    nsecs: 244381483
  frame_id: "ti_mmwave"
point_id: 23
x: 2.845703125
y: -2.021484375
z: -3.029296875
range: 4.9241976738
velocity: 0.0
doppler_bin: 8
bearing: -35.3886032104
intensity: 27.3239383698
---
header: 
  seq: 1110414
  stamp: 
    secs: 1561683014
    nsecs: 303891984
  frame_id: "ti_mmwave"
point_id: 0
x: 0.01171875
y: -0.0390625
z: -0.0078125
range: 0.0435769706964
velocity: 0.0
doppler_bin: 8
bearing: -73.3007583618
intensity: 30.7335166931
---
header: 
  seq: 1110415
  stamp: 
    secs: 1561683014
    nsecs: 303985074
  frame_id: "ti_mmwave"
point_id: 1
x: 0.017578125
y: -0.080078125
z: -0.0078125
range: 0.0871539413929
velocity: 0.0
doppler_bin: 8
bearing: -77.6192398071
intensity: 31.9617614746
---
header: 
  seq: 1110416
  stamp: 
    secs: 1561683014
    nsecs: 304003100
  frame_id: "ti_mmwave"
point_id: 2
x: 0.041015625
y: -0.115234375
z: -0.0078125
range: 0.130730912089
velocity: 0.0
doppler_bin: 8
bearing: -70.4077224731
intensity: 30.2118930817
---
header: 
  seq: 1110417
  stamp: 
    secs: 1561683014
    nsecs: 304017161
  frame_id: "ti_mmwave"
point_id: 3
x: 0.056640625
y: -0.154296875
z: 0.005859375
range: 0.174307882786
velocity: 0.0
doppler_bin: 8
bearing: -69.8423843384
intensity: 25.490032196
---
header: 
  seq: 1110418
  stamp: 
    secs: 1561683014
    nsecs: 304032339
  frame_id: "ti_mmwave"
point_id: 4
x: 0.29296875
y: -0.080078125
z: -1.23046875
range: 1.35088610649
velocity: 0.0
doppler_bin: 8
bearing: -15.2874355316
intensity: 21.9312458038
---
header: 
  seq: 1110419
  stamp: 
    secs: 1561683014
    nsecs: 304046696
  frame_id: "ti_mmwave"
point_id: 5
x: 0.31640625
y: -0.041015625
z: 1.26953125
range: 1.39446306229
velocity: 0.0
doppler_bin: 8
bearing: -7.38604259491
intensity: 23.2633590698
---
header: 
  seq: 1110420
  stamp: 
    secs: 1561683014
    nsecs: 304133317
  frame_id: "ti_mmwave"
point_id: 6
x: 0.421875
y: -0.0
z: 1.28125
range: 1.43804001808
velocity: 0.0
doppler_bin: 8
bearing: -0.0
intensity: 21.9589958191
---
header: 
  seq: 1110421
  stamp: 
    secs: 1561683014
    nsecs: 304151038
  frame_id: "ti_mmwave"
point_id: 7
x: 2.5625
y: -0.263671875
z: 1.15234375
range: 3.00681090355
velocity: 0.0
doppler_bin: 8
bearing: -5.87485074997
intensity: 29.4987773895
---
header: 
  seq: 1110422
  stamp: 
    secs: 1561683014
    nsecs: 304165995
  frame_id: "ti_mmwave"
point_id: 8
x: 2.609375
y: -0.267578125
z: 1.1484375
range: 3.05038785934
velocity: 0.0
doppler_bin: 8
bearing: -5.85492515564
intensity: 32.7737998962
---
header: 
  seq: 1110423
  stamp: 
    secs: 1561683014
    nsecs: 304180258
  frame_id: "ti_mmwave"
point_id: 9
x: 2.67578125
y: -0.181640625
z: 1.115234375
range: 3.09396481514
velocity: 0.0
doppler_bin: 8
bearing: -3.88346338272
intensity: 31.9617614746
---
header: 
  seq: 1110424
  stamp: 
    secs: 1561683014
    nsecs: 304193551
  frame_id: "ti_mmwave"
point_id: 10
x: 4.4140625
y: -0.287109375
z: 1.19140625
range: 4.88062095642
velocity: 0.0
doppler_bin: 8
bearing: -3.72151875496
intensity: 30.8386077881
---
header: 
  seq: 1110425
  stamp: 
    secs: 1561683014
    nsecs: 304206709
  frame_id: "ti_mmwave"
point_id: 11
x: 4.46484375
y: -0.2890625
z: 1.1640625
range: 4.9241976738
velocity: 0.0
doppler_bin: 8
bearing: -3.70426845551
intensity: 30.2077541351
---
header: 
  seq: 1110426
  stamp: 
    secs: 1561683014
    nsecs: 304219745
  frame_id: "ti_mmwave"
point_id: 12
x: 4.83984375
y: -0.46484375
z: 0.931640625
range: 5.27281332016
velocity: 0.0
doppler_bin: 8
bearing: -5.48615646362
intensity: 30.4727478027
---
header: 
  seq: 1110427
  stamp: 
    secs: 1561683014
    nsecs: 304236491
  frame_id: "ti_mmwave"
point_id: 14
x: 0.041015625
y: -0.033203125
z: 0.0625
range: 0.0871539413929
velocity: 0.0
doppler_bin: 8
bearing: -38.9909973145
intensity: 30.1283721924
---
header: 
  seq: 1110428
  stamp: 
    secs: 1561683014
    nsecs: 304253218
  frame_id: "ti_mmwave"
point_id: 15
x: 0.044921875
y: -0.046875
z: 0.103515625
range: 0.130730912089
velocity: 0.0
doppler_bin: 8
bearing: -46.218875885
intensity: 29.0036716461
---
header: 
  seq: 1110429
  stamp: 
    secs: 1561683014
    nsecs: 304323422
  frame_id: "ti_mmwave"
point_id: 17
x: 1.20703125
y: 0.357421875
z: 0.15625
range: 1.35088610649
velocity: 0.0
doppler_bin: 8
bearing: 16.4948921204
intensity: 19.0308990479
---
header: 
  seq: 1110430
  stamp: 
    secs: 1561683014
    nsecs: 304340947
  frame_id: "ti_mmwave"
point_id: 18
x: 2.814453125
y: -2.00390625
z: -3.0078125
range: 4.88062095642
velocity: 0.0
doppler_bin: 8
bearing: -35.4510803223
intensity: 27.8532981873
---
header: 
  seq: 1110431
  stamp: 
    secs: 1561683014
    nsecs: 304354881
  frame_id: "ti_mmwave"
point_id: 19
x: 2.845703125
y: -2.021484375
z: -3.029296875
range: 4.9241976738
velocity: 0.0
doppler_bin: 8
bearing: -35.3886032104
intensity: 27.3399925232
---
header: 
  seq: 1110432
  stamp: 
    secs: 1561683014
    nsecs: 305307688
  frame_id: "ti_mmwave"
point_id: 0
x: 0.01171875
y: -0.0390625
z: -0.0078125
range: 0.0435769706964
velocity: 0.0
doppler_bin: 8
bearing: -73.3007583618
intensity: 30.7335166931
---
header: 
  seq: 1110433
  stamp: 
    secs: 1561683014
    nsecs: 305370079
  frame_id: "ti_mmwave"
point_id: 1
x: 0.017578125
y: -0.080078125
z: -0.0078125
range: 0.0871539413929
velocity: 0.0
doppler_bin: 8
bearing: -77.6192398071
intensity: 31.9645252228
---
header: 
  seq: 1110434
  stamp: 
    secs: 1561683014
    nsecs: 305395775
  frame_id: "ti_mmwave"
point_id: 2
x: 0.041015625
y: -0.115234375
z: -0.0078125
range: 0.130730912089
velocity: 0.0
doppler_bin: 8
bearing: -70.4077224731
intensity: 30.2160263062
---
header: 
  seq: 1110435
  stamp: 
    secs: 1561683014
    nsecs: 305420182
  frame_id: "ti_mmwave"
point_id: 3
x: 0.056640625
y: -0.154296875
z: 0.005859375
range: 0.174307882786
velocity: 0.0
doppler_bin: 8
bearing: -69.8423843384
intensity: 25.490032196
---
header: 
  seq: 1110436
  stamp: 
    secs: 1561683014
    nsecs: 305447000
  frame_id: "ti_mmwave"
point_id: 4
x: 0.365234375
y: -0.080078125
z: -1.2109375
range: 1.35088610649
velocity: 0.0
doppler_bin: 8
bearing: -12.3664970398
intensity: 21.8469142914
---
header: 
  seq: 1110437
  stamp: 
    secs: 1561683014
    nsecs: 305467888
  frame_id: "ti_mmwave"
point_id: 5
x: 0.259765625
y: -0.041015625
z: 1.283203125
range: 1.39446306229
velocity: 0.0
doppler_bin: 8
bearing: -8.9726266861
intensity: 23.2221927643
---
header: 
  seq: 1110438
  stamp: 
    secs: 1561683014
    nsecs: 305490779
  frame_id: "ti_mmwave"
point_id: 6
x: 0.396484375
y: -0.0
z: 1.291015625
range: 1.43804001808
velocity: 0.0
doppler_bin: 8
bearing: -0.0
intensity: 21.875207901
---
header: 
  seq: 1110439
  stamp: 
    secs: 1561683014
    nsecs: 305514002
  frame_id: "ti_mmwave"
point_id: 7
x: 2.23046875
y: -0.0
z: -0.302734375
range: 2.396733284
velocity: 0.0
doppler_bin: 8
bearing: -0.0
intensity: 27.5511226654
---
header: 
  seq: 1110440
  stamp: 
    secs: 1561683014
    nsecs: 305599876
  frame_id: "ti_mmwave"
point_id: 8
x: 2.265625
y: -0.0
z: -0.33984375
range: 2.44031047821
velocity: 0.0
doppler_bin: 8
bearing: -0.0
intensity: 27.3559894562
---
header: 
  seq: 1110441
  stamp: 
    secs: 1561683014
    nsecs: 305615359
  frame_id: "ti_mmwave"
point_id: 9
x: 2.5546875
y: -0.263671875
z: 1.169921875
range: 3.00681090355
velocity: 0.0
doppler_bin: 8
bearing: -5.89269018173
intensity: 29.4890174866
---
header: 
  seq: 1110442
  stamp: 
    secs: 1561683014
    nsecs: 305623760
  frame_id: "ti_mmwave"
point_id: 10
x: 2.60546875
y: -0.267578125
z: 1.158203125
range: 3.05038785934
velocity: 0.0
doppler_bin: 8
bearing: -5.86364221573
intensity: 32.7875366211
---
header: 
  seq: 1110443
  stamp: 
    secs: 1561683014
    nsecs: 305631714
  frame_id: "ti_mmwave"
point_id: 11
x: 2.6640625
y: -0.181640625
z: 1.142578125
range: 3.09396481514
velocity: 0.0
doppler_bin: 8
bearing: -3.90049386024
intensity: 31.9479179382
---
header: 
  seq: 1110444
  stamp: 
    secs: 1561683014
    nsecs: 305639663
  frame_id: "ti_mmwave"
point_id: 12
x: 4.419921875
y: -0.287109375
z: 1.171875
range: 4.88062095642
velocity: 0.0
doppler_bin: 8
bearing: -3.71659874916
intensity: 30.8206691742
---
header: 
  seq: 1110445
  stamp: 
    secs: 1561683014
    nsecs: 305647547
  frame_id: "ti_mmwave"
point_id: 13
x: 4.4765625
y: -0.2890625
z: 1.11328125
range: 4.9241976738
velocity: 0.0
doppler_bin: 8
bearing: -3.69459795952
intensity: 30.1452045441
---
header: 
  seq: 1110446
  stamp: 
    secs: 1561683014
    nsecs: 305657018
  frame_id: "ti_mmwave"
point_id: 14
x: 4.88671875
y: -0.30859375
z: 0.71875
range: 5.27281332016
velocity: 0.0
doppler_bin: 8
bearing: -3.61340069771
intensity: 30.5037975311
---
header: 
  seq: 1110447
  stamp: 
    secs: 1561683014
    nsecs: 305666989
  frame_id: "ti_mmwave"
point_id: 16
x: 0.041015625
y: -0.033203125
z: 0.0625
range: 0.0871539413929
velocity: 0.0
doppler_bin: 8
bearing: -38.9909973145
intensity: 30.1325874329
---
header: 
  seq: 1110448
  stamp: 
    secs: 1561683014
    nsecs: 305676510
  frame_id: "ti_mmwave"
point_id: 17
x: 0.044921875
y: -0.046875
z: 0.103515625
range: 0.130730912089
velocity: 0.0
doppler_bin: 8
bearing: -46.218875885
intensity: 29.0091304779
---
header: 
  seq: 1110449
  stamp: 
    secs: 1561683014
    nsecs: 305686127
  frame_id: "ti_mmwave"
point_id: 19
x: 1.1171875
y: -0.515625
z: 0.310546875
range: 1.35088610649
velocity: 0.0
doppler_bin: 8
bearing: -24.7751407623
intensity: 19.0848503113
---
header: 
  seq: 1110450
  stamp: 
    secs: 1561683014
    nsecs: 305694245
  frame_id: "ti_mmwave"
point_id: 20
x: 2.798828125
y: -2.021484375
z: -3.07421875
range: 4.9241976738
velocity: 0.0
doppler_bin: 8
bearing: -35.8391113281
intensity: 27.2754135132
---
header: 
  seq: 1110451
  stamp: 
    secs: 1561683014
    nsecs: 363768590
  frame_id: "ti_mmwave"
point_id: 0
x: 0.01171875
y: -0.0390625
z: -0.0078125
range: 0.0435769706964
velocity: 0.0
doppler_bin: 8
bearing: -73.3007583618
intensity: 30.7408466339
---
header: 
  seq: 1110452
  stamp: 
    secs: 1561683014
    nsecs: 363854661
  frame_id: "ti_mmwave"
point_id: 1
x: 0.017578125
y: -0.080078125
z: -0.0078125
range: 0.0871539413929
velocity: 0.0
doppler_bin: 8
bearing: -77.6192398071
intensity: 31.9645252228
---
header: 
  seq: 1110453
  stamp: 
    secs: 1561683014
    nsecs: 363874455
  frame_id: "ti_mmwave"
point_id: 2
x: 0.041015625
y: -0.115234375
z: -0.0078125
range: 0.130730912089
velocity: 0.0
doppler_bin: 8
bearing: -70.4077224731
intensity: 30.2160263062
---
header: 
  seq: 1110454
  stamp: 
    secs: 1561683014
    nsecs: 363891933
  frame_id: "ti_mmwave"
point_id: 3
x: 0.056640625
y: -0.154296875
z: 0.005859375
range: 0.174307882786
velocity: 0.0
doppler_bin: 8
bearing: -69.8423843384
intensity: 25.490032196
---
header: 
  seq: 1110455
  stamp: 
    secs: 1561683014
    nsecs: 363905017
  frame_id: "ti_mmwave"
point_id: 4
x: 0.388671875
y: -0.080078125
z: -1.205078125
range: 1.35088610649
velocity: 0.0
doppler_bin: 8
bearing: -11.6417570114
intensity: 21.9589958191
---
header: 
  seq: 1110456
  stamp: 
    secs: 1561683014
    nsecs: 363929547
  frame_id: "ti_mmwave"
point_id: 5
x: 0.25390625
y: -0.041015625
z: 1.283203125
range: 1.39446306229
velocity: 0.0
doppler_bin: 8
bearing: -9.17620372772
intensity: 23.2633590698
---
header: 
  seq: 1110457
  stamp: 
    secs: 1561683014
    nsecs: 364031160
  frame_id: "ti_mmwave"
point_id: 6
x: 0.40234375
y: -0.0
z: 1.2890625
range: 1.43804001808
velocity: 0.0
doppler_bin: 8
bearing: -0.0
intensity: 21.9312458038
---
header: 
  seq: 1110458
  stamp: 
    secs: 1561683014
    nsecs: 364049024
  frame_id: "ti_mmwave"
point_id: 7
x: 2.248046875
y: -0.0
z: 0.087890625
range: 2.396733284
velocity: 0.0
doppler_bin: 8
bearing: -0.0
intensity: 28.3947811127
---
header: 
  seq: 1110459
  stamp: 
    secs: 1561683014
    nsecs: 364061498
  frame_id: "ti_mmwave"
point_id: 8
x: 2.28515625
y: -0.072265625
z: 0.134765625
range: 2.44031047821
velocity: 0.0
doppler_bin: 8
bearing: -1.81131434441
intensity: 29.2272548676
---
header: 
  seq: 1110460
  stamp: 
    secs: 1561683014
    nsecs: 364072320
  frame_id: "ti_mmwave"
point_id: 9
x: 2.322265625
y: -0.072265625
z: 0.205078125
range: 2.48388743401
velocity: 0.0
doppler_bin: 8
bearing: -1.78238844872
intensity: 27.9448795319
---
header: 
  seq: 1110461
  stamp: 
    secs: 1561683014
    nsecs: 364086557
  frame_id: "ti_mmwave"
point_id: 10
x: 2.537109375
y: -0.263671875
z: 1.20703125
range: 3.00681090355
velocity: 0.0
doppler_bin: 8
bearing: -5.93322753906
intensity: 29.2890777588
---
header: 
  seq: 1110462
  stamp: 
    secs: 1561683014
    nsecs: 364100202
  frame_id: "ti_mmwave"
point_id: 11
x: 2.60546875
y: -0.267578125
z: 1.158203125
range: 3.05038785934
velocity: 0.0
doppler_bin: 8
bearing: -5.86364221573
intensity: 32.7300109863
---
header: 
  seq: 1110463
  stamp: 
    secs: 1561683014
    nsecs: 364112089
  frame_id: "ti_mmwave"
point_id: 12
x: 2.666015625
y: -0.181640625
z: 1.13671875
range: 3.09396481514
velocity: 0.0
doppler_bin: 8
bearing: -3.89764523506
intensity: 31.8298492432
---
header: 
  seq: 1110464
  stamp: 
    secs: 1561683014
    nsecs: 364120172
  frame_id: "ti_mmwave"
point_id: 13
x: 4.412109375
y: -0.287109375
z: 1.201171875
range: 4.88062095642
velocity: 0.0
doppler_bin: 8
bearing: -3.72316122055
intensity: 30.9377174377
---
header: 
  seq: 1110465
  stamp: 
    secs: 1561683014
    nsecs: 364143251
  frame_id: "ti_mmwave"
point_id: 14
x: 4.4609375
y: -0.2890625
z: 1.171875
range: 4.9241976738
velocity: 0.0
doppler_bin: 8
bearing: -3.70750308037
intensity: 30.3542976379
---
header: 
  seq: 1110466
  stamp: 
    secs: 1561683014
    nsecs: 364167118
  frame_id: "ti_mmwave"
point_id: 15
x: 4.8515625
y: -0.46484375
z: 0.8671875
range: 5.27281332016
velocity: 0.0
doppler_bin: 8
bearing: -5.47298574448
intensity: 30.6744289398
---
header: 
  seq: 1110467
  stamp: 
    secs: 1561683014
    nsecs: 364188582
  frame_id: "ti_mmwave"
point_id: 16
x: 4.869140625
y: -1.091796875
z: 0.076171875
range: 5.31639051437
velocity: 0.0
doppler_bin: 8
bearing: -12.6382665634
intensity: 29.6473083496
---
header: 
  seq: 1110468
  stamp: 
    secs: 1561683014
    nsecs: 364260935
  frame_id: "ti_mmwave"
point_id: 17
x: 4.775390625
y: -1.572265625
z: -0.2109375
range: 5.35996723175
velocity: 0.0
doppler_bin: 8
bearing: -18.2237873077
intensity: 29.5472488403
---
header: 
  seq: 1110469
  stamp: 
    secs: 1561683014
    nsecs: 364281856
  frame_id: "ti_mmwave"
point_id: 19
x: 0.041015625
y: -0.033203125
z: 0.0625
range: 0.0871539413929
velocity: 0.0
doppler_bin: 8
bearing: -38.9909973145
intensity: 30.1325874329
---
header: 
  seq: 1110470
  stamp: 
    secs: 1561683014
    nsecs: 364297299
  frame_id: "ti_mmwave"
point_id: 20
x: 0.044921875
y: -0.046875
z: 0.103515625
range: 0.130730912089
velocity: 0.0
doppler_bin: 8
bearing: -46.218875885
intensity: 29.0091304779
---
header: 
  seq: 1110471
  stamp: 
    secs: 1561683014
    nsecs: 364312443
  frame_id: "ti_mmwave"
point_id: 22
x: 1.20703125
y: 0.357421875
z: 0.158203125
range: 1.35088610649
velocity: 0.0
doppler_bin: 8
bearing: 16.4948921204
intensity: 19.1381378174
---
header: 
  seq: 1110472
  stamp: 
    secs: 1561683014
    nsecs: 364324823
  frame_id: "ti_mmwave"
point_id: 23
x: 2.818359375
y: -2.021484375
z: -3.0546875
range: 4.9241976738
velocity: 0.0
doppler_bin: 8
bearing: -35.6501998901
intensity: 27.4973640442
---
header: 
  seq: 1110473
  stamp: 
    secs: 1561683014
    nsecs: 365118766
  frame_id: "ti_mmwave"
point_id: 0
x: 0.01171875
y: -0.0390625
z: -0.0078125
range: 0.0435769706964
velocity: 0.0
doppler_bin: 8
bearing: -73.3007583618
intensity: 30.7298469543
---
header: 
  seq: 1110474
  stamp: 
    secs: 1561683014
    nsecs: 365164430
  frame_id: "ti_mmwave"
point_id: 1
x: 0.017578125
y: -0.080078125
z: -0.0078125
range: 0.0871539413929
velocity: 0.0
doppler_bin: 8
bearing: -77.6192398071
intensity: 31.9617614746
---
header: 
  seq: 1110475
  stamp: 
    secs: 1561683014
    nsecs: 365179035
  frame_id: "ti_mmwave"
point_id: 2
x: 0.041015625
y: -0.115234375
z: -0.0078125
range: 0.130730912089
velocity: 0.0
doppler_bin: 8
bearing: -70.4077224731
intensity: 30.2118930817
---
header: 
  seq: 1110476
  stamp: 
    secs: 1561683014
    nsecs: 365190519
  frame_id: "ti_mmwave"
point_id: 3
x: 0.056640625
y: -0.154296875
z: 0.005859375
range: 0.174307882786
velocity: 0.0
doppler_bin: 8
bearing: -69.8423843384
intensity: 25.4777469635
---
header: 
  seq: 1110477
  stamp: 
    secs: 1561683014
    nsecs: 365202131
  frame_id: "ti_mmwave"
point_id: 4
x: 0.365234375
y: -0.080078125
z: -1.2109375
range: 1.35088610649
velocity: 0.0
doppler_bin: 8
bearing: -12.3664970398
intensity: 21.9589958191
---
header: 
  seq: 1110478
  stamp: 
    secs: 1561683014
    nsecs: 365214619
  frame_id: "ti_mmwave"
point_id: 5
x: 0.28515625
y: -0.041015625
z: 1.27734375
range: 1.39446306229
velocity: 0.0
doppler_bin: 8
bearing: -8.18503570557
intensity: 23.3041381836
---
header: 
  seq: 1110479
  stamp: 
    secs: 1561683014
    nsecs: 365226636
  frame_id: "ti_mmwave"
point_id: 6
x: 0.462890625
y: -0.04296875
z: 1.267578125
range: 1.43804001808
velocity: 0.0
doppler_bin: 8
bearing: -5.30339765549
intensity: 21.9865703583
---
header: 
  seq: 1110480
  stamp: 
    secs: 1561683014
    nsecs: 365237702
  frame_id: "ti_mmwave"
point_id: 7
x: 2.173828125
y: -0.068359375
z: -0.3828125
range: 2.3531563282
velocity: 0.0
doppler_bin: 8
bearing: -1.80116057396
intensity: 26.7486114502
---
header: 
  seq: 1110481
  stamp: 
    secs: 1561683014
    nsecs: 365250698
  frame_id: "ti_mmwave"
point_id: 8
x: 2.2265625
y: -0.140625
z: -0.287109375
range: 2.396733284
velocity: 0.0
doppler_bin: 8
bearing: -3.61388087273
intensity: 27.1011734009
---
header: 
  seq: 1110482
  stamp: 
    secs: 1561683014
    nsecs: 365262910
  frame_id: "ti_mmwave"
point_id: 9
x: 2.556640625
y: -0.263671875
z: 1.166015625
range: 3.00681090355
velocity: 0.0
doppler_bin: 8
bearing: -5.88822031021
intensity: 29.4250411987
---
header: 
  seq: 1110483
  stamp: 
    secs: 1561683014
    nsecs: 365275008
  frame_id: "ti_mmwave"
point_id: 10
x: 2.61328125
y: -0.267578125
z: 1.140625
range: 3.05038785934
velocity: 0.0
doppler_bin: 8
bearing: -5.84623432159
intensity: 32.8239555359
---
header: 
  seq: 1110484
  stamp: 
    secs: 1561683014
    nsecs: 365286525
  frame_id: "ti_mmwave"
point_id: 11
x: 2.685546875
y: -0.181640625
z: 1.08984375
range: 3.09396481514
velocity: 0.0
doppler_bin: 8
bearing: -3.86938500404
intensity: 32.1616592407
---
header: 
  seq: 1110485
  stamp: 
    secs: 1561683014
    nsecs: 365298180
  frame_id: "ti_mmwave"
point_id: 12
x: 4.4140625
y: -0.287109375
z: 1.1953125
range: 4.88062095642
velocity: 0.0
doppler_bin: 8
bearing: -3.72151875496
intensity: 30.9447116852
---
header: 
  seq: 1110486
  stamp: 
    secs: 1561683014
    nsecs: 365311036
  frame_id: "ti_mmwave"
point_id: 13
x: 4.462890625
y: -0.2890625
z: 1.169921875
range: 4.9241976738
velocity: 0.0
doppler_bin: 8
bearing: -3.70588517189
intensity: 30.3702793121
---
header: 
  seq: 1110487
  stamp: 
    secs: 1561683014
    nsecs: 365325406
  frame_id: "ti_mmwave"
point_id: 15
x: 0.041015625
y: -0.033203125
z: 0.0625
range: 0.0871539413929
velocity: 0.0
doppler_bin: 8
bearing: -38.9909973145
intensity: 30.1325874329
---
header: 
  seq: 1110488
  stamp: 
    secs: 1561683014
    nsecs: 365337705
  frame_id: "ti_mmwave"
point_id: 16
x: 0.044921875
y: -0.046875
z: 0.103515625
range: 0.130730912089
velocity: 0.0
doppler_bin: 8
bearing: -46.218875885
intensity: 29.0036716461
---
header: 
  seq: 1110489
  stamp: 
    secs: 1561683014
    nsecs: 365351090
  frame_id: "ti_mmwave"
point_id: 18
x: 1.205078125
y: 0.357421875
z: 0.173828125
range: 1.35088610649
velocity: 0.0
doppler_bin: 8
bearing: 16.5201683044
intensity: 19.1381378174
---
header: 
  seq: 1110490
  stamp: 
    secs: 1561683014
    nsecs: 365362536
  frame_id: "ti_mmwave"
point_id: 19
x: 2.869140625
y: -2.021484375
z: -3.0078125
range: 4.9241976738
velocity: 0.0
doppler_bin: 8
bearing: -35.1670303345
intensity: 27.481880188
---
header: 
  seq: 1110491
  stamp: 
    secs: 1561683014
    nsecs: 423746191
  frame_id: "ti_mmwave"
point_id: 0
x: 0.01171875
y: -0.0390625
z: -0.0078125
range: 0.0435769706964
velocity: 0.0
doppler_bin: 8
bearing: -73.3007583618
intensity: 30.7371826172
---
header: 
  seq: 1110492
  stamp: 
    secs: 1561683014
    nsecs: 423817387
  frame_id: "ti_mmwave"
point_id: 1
x: 0.017578125
y: -0.080078125
z: -0.0078125
range: 0.0871539413929
velocity: 0.0
doppler_bin: 8
bearing: -77.6192398071
intensity: 31.9645252228
---
header: 
  seq: 1110493
  stamp: 
    secs: 1561683014
    nsecs: 423828120
  frame_id: "ti_mmwave"
point_id: 2
x: 0.041015625
y: -0.115234375
z: -0.0078125
range: 0.130730912089
velocity: 0.0
doppler_bin: 8
bearing: -70.4077224731
intensity: 30.2201576233
---
header: 
  seq: 1110494
  stamp: 
    secs: 1561683014
    nsecs: 423841507
  frame_id: "ti_mmwave"
point_id: 3
x: 0.056640625
y: -0.154296875
z: 0.005859375
range: 0.174307882786
velocity: 0.0
doppler_bin: 8
bearing: -69.8423843384
intensity: 25.5022830963
---
header: 
  seq: 1110495
  stamp: 
    secs: 1561683014
    nsecs: 423849314
  frame_id: "ti_mmwave"
point_id: 4
x: 0.365234375
y: -0.080078125
z: -1.212890625
range: 1.35088610649
velocity: 0.0
doppler_bin: 8
bearing: -12.3664970398
intensity: 21.9589958191
---
header: 
  seq: 1110496
  stamp: 
    secs: 1561683014
    nsecs: 423856709
  frame_id: "ti_mmwave"
point_id: 5
x: 0.28515625
y: -0.041015625
z: 1.27734375
range: 1.39446306229
velocity: 0.0
doppler_bin: 8
bearing: -8.18503570557
intensity: 23.2633590698
---
header: 
  seq: 1110497
  stamp: 
    secs: 1561683014
    nsecs: 423864563
  frame_id: "ti_mmwave"
point_id: 6
x: 0.46875
y: -0.04296875
z: 1.265625
range: 1.43804001808
velocity: 0.0
doppler_bin: 8
bearing: -5.23747634888
intensity: 21.9865703583
---
header: 
  seq: 1110498
  stamp: 
    secs: 1561683014
    nsecs: 423873095
  frame_id: "ti_mmwave"
point_id: 7
x: 2.197265625
y: -0.0
z: -0.228515625
range: 2.3531563282
velocity: 0.0
doppler_bin: 8
bearing: -0.0
intensity: 27.3399925232
---
header: 
  seq: 1110499
  stamp: 
    secs: 1561683014
    nsecs: 423880811
  frame_id: "ti_mmwave"
point_id: 8
x: 2.24609375
y: -0.0703125
z: -0.125
range: 2.396733284
velocity: 0.0
doppler_bin: 8
bearing: -1.79302155972
intensity: 27.2263393402
---
header: 
  seq: 1110500
  stamp: 
    secs: 1561683014
    nsecs: 423889173
  frame_id: "ti_mmwave"
point_id: 9
x: 2.375
y: 0.2265625
z: 0.36328125
range: 2.5710413456
velocity: 0.0
doppler_bin: 8
bearing: 5.44922590256
intensity: 27.1432971954
---
header: 
  seq: 1110501
  stamp: 
    secs: 1561683014
    nsecs: 423898745
  frame_id: "ti_mmwave"
point_id: 10
x: 2.544921875
y: -0.263671875
z: 1.19140625
range: 3.00681090355
velocity: 0.0
doppler_bin: 8
bearing: -5.91514253616
intensity: 29.5616836548
---
header: 
  seq: 1110502
  stamp: 
    secs: 1561683014
    nsecs: 423912650
  frame_id: "ti_mmwave"
point_id: 11
x: 2.611328125
y: -0.267578125
z: 1.146484375
range: 3.05038785934
velocity: 0.0
doppler_bin: 8
bearing: -5.85057687759
intensity: 32.817150116
---
header: 
  seq: 1110503
  stamp: 
    secs: 1561683014
    nsecs: 424008292
  frame_id: "ti_mmwave"
point_id: 12
x: 2.669921875
y: -0.181640625
z: 1.126953125
range: 3.09396481514
velocity: 0.0
doppler_bin: 8
bearing: -3.89196038246
intensity: 32.0384864807
---
header: 
  seq: 1110504
  stamp: 
    secs: 1561683014
    nsecs: 424025215
  frame_id: "ti_mmwave"
point_id: 13
x: 4.412109375
y: -0.287109375
z: 1.197265625
range: 4.88062095642
velocity: 0.0
doppler_bin: 8
bearing: -3.72316122055
intensity: 30.7990455627
---
header: 
  seq: 1110505
  stamp: 
    secs: 1561683014
    nsecs: 424036314
  frame_id: "ti_mmwave"
point_id: 14
x: 4.46875
y: -0.2890625
z: 1.142578125
range: 4.9241976738
velocity: 0.0
doppler_bin: 8
bearing: -3.70103907585
intensity: 30.1452045441
---
header: 
  seq: 1110506
  stamp: 
    secs: 1561683014
    nsecs: 424046476
  frame_id: "ti_mmwave"
point_id: 15
x: 4.88671875
y: -0.30859375
z: 0.71875
range: 5.27281332016
velocity: 0.0
doppler_bin: 8
bearing: -3.61340069771
intensity: 30.5153846741
---
header: 
  seq: 1110507
  stamp: 
    secs: 1561683014
    nsecs: 424057142
  frame_id: "ti_mmwave"
point_id: 16
x: 2.2578125
y: -0.58203125
z: 0.044921875
range: 2.48388743401
velocity: 0.614668667316
doppler_bin: 9
bearing: -14.4553031921
intensity: 26.0314445496
---
header: 
  seq: 1110508
  stamp: 
    secs: 1561683014
    nsecs: 424069631
  frame_id: "ti_mmwave"
point_id: 17
x: 2.294921875
y: -0.59375
z: -0.083984375
range: 2.5274643898
velocity: 0.614668667316
doppler_bin: 9
bearing: -14.5056829453
intensity: 27.3559894562
---
header: 
  seq: 1110509
  stamp: 
    secs: 1561683014
    nsecs: 424083752
  frame_id: "ti_mmwave"
point_id: 19
x: 0.041015625
y: -0.033203125
z: 0.0625
range: 0.0871539413929
velocity: 0.0
doppler_bin: 8
bearing: -38.9909973145
intensity: 30.1283721924
---
header: 
  seq: 1110510
  stamp: 
    secs: 1561683014
    nsecs: 424096875
  frame_id: "ti_mmwave"
point_id: 20
x: 0.052734375
y: -0.04296875
z: 0.1015625
range: 0.130730912089
velocity: 0.0
doppler_bin: 8
bearing: -39.1736602783
intensity: 29.0036716461
---
header: 
  seq: 1110511
  stamp: 
    secs: 1561683014
    nsecs: 424109500
  frame_id: "ti_mmwave"
point_id: 22
x: 1.203125
y: 0.357421875
z: 0.1796875
range: 1.35088610649
velocity: 0.0
doppler_bin: 8
bearing: 16.5455226898
intensity: 19.0848503113
---
header: 
  seq: 1110512
  stamp: 
    secs: 1561683014
    nsecs: 424119424
  frame_id: "ti_mmwave"
point_id: 23
x: 2.8359375
y: -2.00390625
z: -2.98828125
range: 4.88062095642
velocity: 0.0
doppler_bin: 8
bearing: -35.2454681396
intensity: 27.8746051788
---
header: 
  seq: 1110513
  stamp: 
    secs: 1561683014
    nsecs: 424129605
  frame_id: "ti_mmwave"
point_id: 24
x: 2.8125
y: -2.021484375
z: -3.060546875
range: 4.9241976738
velocity: 0.0
doppler_bin: 8
bearing: -35.7066917419
intensity: 27.3479976654
---
header: 
  seq: 1110514
  stamp: 
    secs: 1561683014
    nsecs: 425257767
  frame_id: "ti_mmwave"
point_id: 0
x: 0.01171875
y: -0.0390625
z: -0.0078125
range: 0.0435769706964
velocity: 0.0
doppler_bin: 8
bearing: -73.3007583618
intensity: 30.7408466339
---
header: 
  seq: 1110515
  stamp: 
    secs: 1561683014
    nsecs: 425354730
  frame_id: "ti_mmwave"
point_id: 1
x: 0.017578125
y: -0.080078125
z: -0.0078125
range: 0.0871539413929
velocity: 0.0
doppler_bin: 8
bearing: -77.6192398071
intensity: 31.9672870636
---
header: 
  seq: 1110516
  stamp: 
    secs: 1561683014
    nsecs: 425375958
  frame_id: "ti_mmwave"
point_id: 2
x: 0.041015625
y: -0.115234375
z: -0.0078125
range: 0.130730912089
velocity: 0.0
doppler_bin: 8
bearing: -70.4077224731
intensity: 30.2201576233
---
header: 
  seq: 1110517
  stamp: 
    secs: 1561683014
    nsecs: 425388787
  frame_id: "ti_mmwave"
point_id: 3
x: 0.056640625
y: -0.154296875
z: 0.005859375
range: 0.174307882786
velocity: 0.0
doppler_bin: 8
bearing: -69.8423843384
intensity: 25.4777469635
---
header: 
  seq: 1110518
  stamp: 
    secs: 1561683014
    nsecs: 425403855
  frame_id: "ti_mmwave"
point_id: 4
x: 0.341796875
y: -0.080078125
z: -1.21875
range: 1.35088610649
velocity: 0.0
doppler_bin: 8
bearing: -13.1857614517
intensity: 21.9312458038
---
header: 
  seq: 1110519
  stamp: 
    secs: 1561683014
    nsecs: 425416391
  frame_id: "ti_mmwave"
point_id: 5
x: 0.267578125
y: -0.041015625
z: 1.28125
range: 1.39446306229
velocity: 0.0
doppler_bin: 8
bearing: -8.71473312378
intensity: 23.2428245544
---
header: 
  seq: 1110520
  stamp: 
    secs: 1561683014
    nsecs: 425428322
  frame_id: "ti_mmwave"
point_id: 6
x: 0.38671875
y: -0.0
z: 1.29296875
range: 1.43804001808
velocity: 0.0
doppler_bin: 8
bearing: -0.0
intensity: 21.9033164978
---
header: 
  seq: 1110521
  stamp: 
    secs: 1561683014
    nsecs: 425479846
  frame_id: "ti_mmwave"
point_id: 7
x: 2.236328125
y: -0.0703125
z: 0.23046875
range: 2.396733284
velocity: 0.0
doppler_bin: 8
bearing: -1.80084621906
intensity: 26.3447723389
---
header: 
  seq: 1110522
  stamp: 
    secs: 1561683014
    nsecs: 425491225
  frame_id: "ti_mmwave"
point_id: 8
x: 2.34375
y: -0.37109375
z: 0.0390625
range: 2.5274643898
velocity: 0.0
doppler_bin: 8
bearing: -8.99714374542
intensity: 26.2531242371
---
header: 
  seq: 1110523
  stamp: 
    secs: 1561683014
    nsecs: 425502829
  frame_id: "ti_mmwave"
point_id: 9
x: 2.55078125
y: -0.263671875
z: 1.177734375
range: 3.00681090355
velocity: 0.0
doppler_bin: 8
bearing: -5.90165042877
intensity: 29.4596061707
---
header: 
  seq: 1110524
  stamp: 
    secs: 1561683014
    nsecs: 425513905
  frame_id: "ti_mmwave"
point_id: 10
x: 2.61328125
y: -0.267578125
z: 1.138671875
range: 3.05038785934
velocity: 0.0
doppler_bin: 8
bearing: -5.84623432159
intensity: 32.7760925293
---
header: 
  seq: 1110525
  stamp: 
    secs: 1561683014
    nsecs: 425526153
  frame_id: "ti_mmwave"
point_id: 11
x: 2.673828125
y: -0.271484375
z: 1.103515625
range: 3.09396481514
velocity: 0.0
doppler_bin: 8
bearing: -5.79759931564
intensity: 31.9617614746
---
header: 
  seq: 1110526
  stamp: 
    secs: 1561683014
    nsecs: 425538704
  frame_id: "ti_mmwave"
point_id: 12
x: 4.412109375
y: -0.287109375
z: 1.203125
range: 4.88062095642
velocity: 0.0
doppler_bin: 8
bearing: -3.72316122055
intensity: 30.7918128967
---
header: 
  seq: 1110527
  stamp: 
    secs: 1561683014
    nsecs: 425549258
  frame_id: "ti_mmwave"
point_id: 13
x: 4.46484375
y: -0.2890625
z: 1.158203125
range: 4.9241976738
velocity: 0.0
doppler_bin: 8
bearing: -3.70426845551
intensity: 30.1367969513
---
header: 
  seq: 1110528
  stamp: 
    secs: 1561683014
    nsecs: 425562647
  frame_id: "ti_mmwave"
point_id: 14
x: 4.841796875
y: -0.46484375
z: 0.9140625
range: 5.27281332016
velocity: 0.0
doppler_bin: 8
bearing: -5.48395681381
intensity: 30.4766426086
---
header: 
  seq: 1110529
  stamp: 
    secs: 1561683014
    nsecs: 425576987
  frame_id: "ti_mmwave"
point_id: 16
x: 0.041015625
y: -0.033203125
z: 0.0625
range: 0.0871539413929
velocity: 0.0
doppler_bin: 8
bearing: -38.9909973145
intensity: 30.1325874329
---
header: 
  seq: 1110530
  stamp: 
    secs: 1561683014
    nsecs: 425588995
  frame_id: "ti_mmwave"
point_id: 17
x: 0.044921875
y: -0.046875
z: 0.103515625
range: 0.130730912089
velocity: 0.0
doppler_bin: 8
bearing: -46.218875885
intensity: 29.0036716461
---
header: 
  seq: 1110531
  stamp: 
    secs: 1561683014
    nsecs: 425604958
  frame_id: "ti_mmwave"
point_id: 19
x: 1.208984375
y: 0.357421875
z: 0.140625
range: 1.35088610649
velocity: 0.0
doppler_bin: 8
bearing: 16.4696884155
intensity: 19.1381378174
---
header: 
  seq: 1110532
  stamp: 
    secs: 1561683014
    nsecs: 425616756
  frame_id: "ti_mmwave"
point_id: 20
x: 2.833984375
y: -2.00390625
z: -2.990234375
range: 4.88062095642
velocity: 0.0
doppler_bin: 8
bearing: -35.2640762329
intensity: 27.8103694916
---
header: 
  seq: 1110533
  stamp: 
    secs: 1561683014
    nsecs: 425627791
  frame_id: "ti_mmwave"
point_id: 21
x: 2.8515625
y: -2.021484375
z: -3.0234375
range: 4.9241976738
velocity: 0.0
doppler_bin: 8
bearing: -35.3329849243
intensity: 27.3158874512
---
header: 
  seq: 1110534
  stamp: 
    secs: 1561683014
    nsecs: 483835477
  frame_id: "ti_mmwave"
point_id: 0
x: 0.01171875
y: -0.0390625
z: -0.0078125
range: 0.0435769706964
velocity: 0.0
doppler_bin: 8
bearing: -73.3007583618
intensity: 30.7335166931
---
header: 
  seq: 1110535
  stamp: 
    secs: 1561683014
    nsecs: 483913497
  frame_id: "ti_mmwave"
point_id: 1
x: 0.017578125
y: -0.080078125
z: -0.0078125
range: 0.0871539413929
velocity: 0.0
doppler_bin: 8
bearing: -77.6192398071
intensity: 31.9645252228
---
header: 
  seq: 1110536
  stamp: 
    secs: 1561683014
    nsecs: 483925839
  frame_id: "ti_mmwave"
point_id: 2
x: 0.029296875
y: -0.119140625
z: -0.005859375
range: 0.130730912089
velocity: 0.0
doppler_bin: 8
bearing: -76.1849746704
intensity: 30.2160263062
---
header: 
  seq: 1110537
  stamp: 
    secs: 1561683014
    nsecs: 483934481
  frame_id: "ti_mmwave"
point_id: 3
x: 0.056640625
y: -0.154296875
z: 0.005859375
range: 0.174307882786
velocity: 0.0
doppler_bin: 8
bearing: -69.8423843384
intensity: 25.4654273987
---
header: 
  seq: 1110538
  stamp: 
    secs: 1561683014
    nsecs: 483942492
  frame_id: "ti_mmwave"
point_id: 4
x: 0.3515625
y: -0.080078125
z: -1.21484375
range: 1.35088610649
velocity: 0.0
doppler_bin: 8
bearing: -12.83177948
intensity: 21.9033164978
---
header: 
  seq: 1110539
  stamp: 
    secs: 1561683014
    nsecs: 483950550
  frame_id: "ti_mmwave"
point_id: 5
x: 0.294921875
y: -0.041015625
z: 1.275390625
range: 1.39446306229
velocity: 0.0
doppler_bin: 8
bearing: -7.91750335693
intensity: 23.2221927643
---
header: 
  seq: 1110540
  stamp: 
    secs: 1561683014
    nsecs: 483961689
  frame_id: "ti_mmwave"
point_id: 6
x: 0.396484375
y: -0.0
z: 1.291015625
range: 1.43804001808
velocity: 0.0
doppler_bin: 8
bearing: -0.0
intensity: 21.9033164978
---
header: 
  seq: 1110541
  stamp: 
    secs: 1561683014
    nsecs: 483970061
  frame_id: "ti_mmwave"
point_id: 7
x: 2.193359375
y: -0.068359375
z: -0.25390625
range: 2.3531563282
velocity: 0.0
doppler_bin: 8
bearing: -1.78513205051
intensity: 28.7332057953
---
header: 
  seq: 1110542
  stamp: 
    secs: 1561683014
    nsecs: 483978069
  frame_id: "ti_mmwave"
point_id: 8
x: 2.240234375
y: -0.0
z: -0.208984375
range: 2.396733284
velocity: 0.0
doppler_bin: 8
bearing: -0.0
intensity: 29.9343624115
---
header: 
  seq: 1110543
  stamp: 
    secs: 1561683014
    nsecs: 483985847
  frame_id: "ti_mmwave"
point_id: 9
x: 2.2890625
y: -0.0
z: -0.09375
range: 2.44031047821
velocity: 0.0
doppler_bin: 8
bearing: -0.0
intensity: 27.466342926
---
header: 
  seq: 1110544
  stamp: 
    secs: 1561683014
    nsecs: 483993925
  frame_id: "ti_mmwave"
point_id: 10
x: 2.365234375
y: -0.0
z: -0.193359375
range: 2.5274643898
velocity: 0.0
doppler_bin: 8
bearing: -0.0
intensity: 26.6558094025
---
header: 
  seq: 1110545
  stamp: 
    secs: 1561683014
    nsecs: 484003694
  frame_id: "ti_mmwave"
point_id: 11
x: 2.40234375
y: 0.076171875
z: -0.220703125
range: 2.5710413456
velocity: 0.0
doppler_bin: 8
bearing: 1.81608688831
intensity: 26.7117290497
---
header: 
  seq: 1110546
  stamp: 
    secs: 1561683014
    nsecs: 484014834
  frame_id: "ti_mmwave"
point_id: 12
x: 2.544921875
y: -0.263671875
z: 1.189453125
range: 3.00681090355
velocity: 0.0
doppler_bin: 8
bearing: -5.91514253616
intensity: 29.4250411987
---
header: 
  seq: 1110547
  stamp: 
    secs: 1561683014
    nsecs: 484027643
  frame_id: "ti_mmwave"
point_id: 13
x: 2.611328125
y: -0.267578125
z: 1.142578125
range: 3.05038785934
velocity: 0.0
doppler_bin: 8
bearing: -5.85057687759
intensity: 32.7600212097
---
header: 
  seq: 1110548
  stamp: 
    secs: 1561683014
    nsecs: 484039251
  frame_id: "ti_mmwave"
point_id: 14
x: 2.68359375
y: -0.181640625
z: 1.095703125
range: 3.09396481514
velocity: 0.0
doppler_bin: 8
bearing: -3.87219262123
intensity: 31.9975509644
---
header: 
  seq: 1110549
  stamp: 
    secs: 1561683014
    nsecs: 484047820
  frame_id: "ti_mmwave"
point_id: 15
x: 4.41015625
y: -0.287109375
z: 1.208984375
range: 4.88062095642
velocity: 0.0
doppler_bin: 8
bearing: -3.72480559349
intensity: 30.7918128967
---
header: 
  seq: 1110550
  stamp: 
    secs: 1561683014
    nsecs: 484058368
  frame_id: "ti_mmwave"
point_id: 16
x: 4.455078125
y: -0.2890625
z: 1.197265625
range: 4.9241976738
velocity: 0.0
doppler_bin: 8
bearing: -3.71236538887
intensity: 30.1199302673
---
header: 
  seq: 1110551
  stamp: 
    secs: 1561683014
    nsecs: 484071326
  frame_id: "ti_mmwave"
point_id: 17
x: 4.875
y: -0.30859375
z: 0.798828125
range: 5.27281332016
velocity: 0.0
doppler_bin: 8
bearing: -3.62206339836
intensity: 30.6220588684
---
header: 
  seq: 1110552
  stamp: 
    secs: 1561683014
    nsecs: 484097277
  frame_id: "ti_mmwave"
point_id: 19
x: 0.041015625
y: -0.033203125
z: 0.0625
range: 0.0871539413929
velocity: 0.0
doppler_bin: 8
bearing: -38.9909973145
intensity: 30.1325874329
---
header: 
  seq: 1110553
  stamp: 
    secs: 1561683014
    nsecs: 484116001
  frame_id: "ti_mmwave"
point_id: 20
x: 0.044921875
y: -0.046875
z: 0.103515625
range: 0.130730912089
velocity: 0.0
doppler_bin: 8
bearing: -46.218875885
intensity: 29.0036716461
---
header: 
  seq: 1110554
  stamp: 
    secs: 1561683014
    nsecs: 484213181
  frame_id: "ti_mmwave"
point_id: 22
x: 1.208984375
y: 0.357421875
z: 0.1328125
range: 1.35088610649
velocity: 0.0
doppler_bin: 8
bearing: 16.4696884155
intensity: 19.1381378174
---
header: 
  seq: 1110555
  stamp: 
    secs: 1561683014
    nsecs: 484227314
  frame_id: "ti_mmwave"
point_id: 23
x: 2.1328125
y: -0.6796875
z: 0.904296875
range: 2.5710413456
velocity: 0.0
doppler_bin: 8
bearing: -17.676109314
intensity: 24.871383667
---
header: 
  seq: 1110556
  stamp: 
    secs: 1561683014
    nsecs: 484238804
  frame_id: "ti_mmwave"
point_id: 24
x: 2.92578125
y: -2.021484375
z: -2.951171875
range: 4.9241976738
velocity: 0.0
doppler_bin: 8
bearing: -34.641418457
intensity: 27.2181053162
---
header: 
  seq: 1110557
  stamp: 
    secs: 1561683014
    nsecs: 485488285
  frame_id: "ti_mmwave"
point_id: 0
x: 0.01171875
y: -0.0390625
z: -0.0078125
range: 0.0435769706964
velocity: 0.0
doppler_bin: 8
bearing: -73.3007583618
intensity: 30.7335166931
---
header: 
  seq: 1110558
  stamp: 
    secs: 1561683014
    nsecs: 485543543
  frame_id: "ti_mmwave"
point_id: 1
x: 0.017578125
y: -0.080078125
z: -0.0078125
range: 0.0871539413929
velocity: 0.0
doppler_bin: 8
bearing: -77.6192398071
intensity: 31.9617614746
---
header: 
  seq: 1110559
  stamp: 
    secs: 1561683014
    nsecs: 485555459
  frame_id: "ti_mmwave"
point_id: 2
x: 0.029296875
y: -0.119140625
z: -0.005859375
range: 0.130730912089
velocity: 0.0
doppler_bin: 8
bearing: -76.1849746704
intensity: 30.2160263062
---
header: 
  seq: 1110560
  stamp: 
    secs: 1561683014
    nsecs: 485566411
  frame_id: "ti_mmwave"
point_id: 3
x: 0.056640625
y: -0.154296875
z: 0.005859375
range: 0.174307882786
velocity: 0.0
doppler_bin: 8
bearing: -69.8423843384
intensity: 25.490032196
---
header: 
  seq: 1110561
  stamp: 
    secs: 1561683014
    nsecs: 485575048
  frame_id: "ti_mmwave"
point_id: 4
x: 0.365234375
y: -0.080078125
z: -1.2109375
range: 1.35088610649
velocity: 0.0
doppler_bin: 8
bearing: -12.3664970398
intensity: 21.9589958191
---
header: 
  seq: 1110562
  stamp: 
    secs: 1561683014
    nsecs: 485584185
  frame_id: "ti_mmwave"
point_id: 5
x: 0.29296875
y: -0.041015625
z: 1.275390625
range: 1.39446306229
velocity: 0.0
doppler_bin: 8
bearing: -7.96961069107
intensity: 23.2633590698
---
header: 
  seq: 1110563
  stamp: 
    secs: 1561683014
    nsecs: 485597131
  frame_id: "ti_mmwave"
point_id: 6
x: 0.48046875
y: -0.04296875
z: 1.26171875
range: 1.43804001808
velocity: 0.0
doppler_bin: 8
bearing: -5.11041736603
intensity: 21.9589958191
---
header: 
  seq: 1110564
  stamp: 
    secs: 1561683014
    nsecs: 485876876
  frame_id: "ti_mmwave"
point_id: 7
x: 2.21484375
y: -0.0
z: -0.3984375
range: 2.396733284
velocity: 0.0
doppler_bin: 8
bearing: -0.0
intensity: 27.5739593506
---
header: 
  seq: 1110565
  stamp: 
    secs: 1561683014
    nsecs: 485965202
  frame_id: "ti_mmwave"
point_id: 8
x: 2.23046875
y: -0.0
z: -0.525390625
range: 2.44031047821
velocity: 0.0
doppler_bin: 8
bearing: -0.0
intensity: 25.9988307953
---
header: 
  seq: 1110566
  stamp: 
    secs: 1561683014
    nsecs: 486014465
  frame_id: "ti_mmwave"
point_id: 9
x: 2.314453125
y: -0.4453125
z: 0.26953125
range: 2.5274643898
velocity: 0.0
doppler_bin: 8
bearing: -10.8909063339
intensity: 26.9460525513
---
header: 
  seq: 1110567
  stamp: 
    secs: 1561683014
    nsecs: 486038315
  frame_id: "ti_mmwave"
point_id: 10
x: 2.54296875
y: -0.263671875
z: 1.1953125
range: 3.00681090355
velocity: 0.0
doppler_bin: 8
bearing: -5.91965341568
intensity: 29.4497585297
---
header: 
  seq: 1110568
  stamp: 
    secs: 1561683014
    nsecs: 486084626
  frame_id: "ti_mmwave"
point_id: 11
x: 2.607421875
y: -0.267578125
z: 1.150390625
range: 3.05038785934
velocity: 0.0
doppler_bin: 8
bearing: -5.85928010941
intensity: 32.8284873962
---
header: 
  seq: 1110569
  stamp: 
    secs: 1561683014
    nsecs: 486101612
  frame_id: "ti_mmwave"
point_id: 12
x: 2.673828125
y: -0.181640625
z: 1.119140625
range: 3.09396481514
velocity: 0.0
doppler_bin: 8
bearing: -3.88629174232
intensity: 32.0330505371
---
header: 
  seq: 1110570
  stamp: 
    secs: 1561683014
    nsecs: 486116710
  frame_id: "ti_mmwave"
point_id: 13
x: 4.421875
y: -0.287109375
z: 1.16796875
range: 4.88062095642
velocity: 0.0
doppler_bin: 8
bearing: -3.7149617672
intensity: 30.8671569824
---
header: 
  seq: 1110571
  stamp: 
    secs: 1561683014
    nsecs: 486129589
  frame_id: "ti_mmwave"
point_id: 14
x: 4.478515625
y: -0.2890625
z: 1.10546875
range: 4.9241976738
velocity: 0.0
doppler_bin: 8
bearing: -3.69299149513
intensity: 30.2897777557
---
header: 
  seq: 1110572
  stamp: 
    secs: 1561683014
    nsecs: 486141089
  frame_id: "ti_mmwave"
point_id: 15
x: 4.845703125
y: -0.46484375
z: 0.892578125
range: 5.27281332016
velocity: 0.0
doppler_bin: 8
bearing: -5.47956323624
intensity: 30.6483230591
---
header: 
  seq: 1110573
  stamp: 
    secs: 1561683014
    nsecs: 486150465
  frame_id: "ti_mmwave"
point_id: 16
x: 2.390625
y: 0.30078125
z: 0.138671875
range: 2.5710413456
velocity: -0.614668667316
doppler_bin: 7
bearing: 7.17110204697
intensity: 27.5434837341
---
header: 
  seq: 1110574
  stamp: 
    secs: 1561683014
    nsecs: 486216737
  frame_id: "ti_mmwave"
point_id: 17
x: 2.4140625
y: 0.3828125
z: 0.228515625
range: 2.61461830139
velocity: -0.614668667316
doppler_bin: 7
bearing: 9.01070976257
intensity: 27.9379043579
---
header: 
  seq: 1110575
  stamp: 
    secs: 1561683014
    nsecs: 486238951
  frame_id: "ti_mmwave"
point_id: 19
x: 0.041015625
y: -0.033203125
z: 0.0625
range: 0.0871539413929
velocity: 0.0
doppler_bin: 8
bearing: -38.9909973145
intensity: 30.1325874329
---
header: 
  seq: 1110576
  stamp: 
    secs: 1561683014
    nsecs: 486253357
  frame_id: "ti_mmwave"
point_id: 20
x: 0.052734375
y: -0.04296875
z: 0.1015625
range: 0.130730912089
velocity: 0.0
doppler_bin: 8
bearing: -39.1736602783
intensity: 29.0091304779
---
header: 
  seq: 1110577
  stamp: 
    secs: 1561683014
    nsecs: 486270268
  frame_id: "ti_mmwave"
point_id: 22
x: 1.20703125
y: 0.357421875
z: 0.158203125
range: 1.35088610649
velocity: 0.0
doppler_bin: 8
bearing: 16.4948921204
intensity: 19.1381378174
---
header: 
  seq: 1110578
  stamp: 
    secs: 1561683014
    nsecs: 486287573
  frame_id: "ti_mmwave"
point_id: 23
x: 2.015625
y: 0.37109375
z: -1.1953125
range: 2.5274643898
velocity: 0.0
doppler_bin: 8
bearing: 10.4318227768
intensity: 24.3136367798
---
header: 
  seq: 1110579
  stamp: 
    secs: 1561683014
    nsecs: 486372172
  frame_id: "ti_mmwave"
point_id: 24
x: 2.77734375
y: -2.021484375
z: -3.091796875
range: 4.9241976738
velocity: 0.0
doppler_bin: 8
bearing: -36.0489273071
intensity: 27.3798732758
---
header: 
  seq: 1110580
  stamp: 
    secs: 1561683014
    nsecs: 486409413
  frame_id: "ti_mmwave"
point_id: 25
x: 1.689453125
y: -0.52734375
z: 1.640625
range: 2.5710413456
velocity: -0.614668667316
doppler_bin: 7
bearing: -17.3351650238
intensity: 24.800069809
---
header: 
  seq: 1110581
  stamp: 
    secs: 1561683014
    nsecs: 543836518
  frame_id: "ti_mmwave"
point_id: 0
x: 0.01171875
y: -0.0390625
z: -0.0078125
range: 0.0435769706964
velocity: 0.0
doppler_bin: 8
bearing: -73.3007583618
intensity: 30.7335166931
---
header: 
  seq: 1110582
  stamp: 
    secs: 1561683014
    nsecs: 543933012
  frame_id: "ti_mmwave"
point_id: 1
x: 0.017578125
y: -0.080078125
z: -0.0078125
range: 0.0871539413929
velocity: 0.0
doppler_bin: 8
bearing: -77.6192398071
intensity: 31.9617614746
---
header: 
  seq: 1110583
  stamp: 
    secs: 1561683014
    nsecs: 543949886
  frame_id: "ti_mmwave"
point_id: 2
x: 0.041015625
y: -0.115234375
z: -0.0078125
range: 0.130730912089
velocity: 0.0
doppler_bin: 8
bearing: -70.4077224731
intensity: 30.2118930817
---
header: 
  seq: 1110584
  stamp: 
    secs: 1561683014
    nsecs: 543966661
  frame_id: "ti_mmwave"
point_id: 3
x: 0.056640625
y: -0.154296875
z: 0.005859375
range: 0.174307882786
velocity: 0.0
doppler_bin: 8
bearing: -69.8423843384
intensity: 25.4777469635
---
header: 
  seq: 1110585
  stamp: 
    secs: 1561683014
    nsecs: 543980548
  frame_id: "ti_mmwave"
point_id: 4
x: 0.36328125
y: -0.080078125
z: -1.212890625
range: 1.35088610649
velocity: 0.0
doppler_bin: 8
bearing: -12.4309225082
intensity: 21.9312458038
---
header: 
  seq: 1110586
  stamp: 
    secs: 1561683014
    nsecs: 543994241
  frame_id: "ti_mmwave"
point_id: 5
x: 0.275390625
y: -0.041015625
z: 1.279296875
range: 1.39446306229
velocity: 0.0
doppler_bin: 8
bearing: -8.47114467621
intensity: 23.2428245544
---
header: 
  seq: 1110587
  stamp: 
    secs: 1561683014
    nsecs: 544010644
  frame_id: "ti_mmwave"
point_id: 6
x: 0.47265625
y: -0.04296875
z: 1.263671875
range: 1.43804001808
velocity: 0.0
doppler_bin: 8
bearing: -5.19442892075
intensity: 21.9033164978
---
header: 
  seq: 1110588
  stamp: 
    secs: 1561683014
    nsecs: 544024726
  frame_id: "ti_mmwave"
point_id: 7
x: 2.171875
y: -0.0
z: -0.400390625
range: 2.3531563282
velocity: 0.0
doppler_bin: 8
bearing: -0.0
intensity: 26.9019603729
---
header: 
  seq: 1110589
  stamp: 
    secs: 1561683014
    nsecs: 544039270
  frame_id: "ti_mmwave"
point_id: 8
x: 2.21484375
y: -0.0703125
z: -0.388671875
range: 2.396733284
velocity: 0.0
doppler_bin: 8
bearing: -1.81830310822
intensity: 28.2412586212
---
header: 
  seq: 1110590
  stamp: 
    secs: 1561683014
    nsecs: 544059111
  frame_id: "ti_mmwave"
point_id: 9
x: 2.26953125
y: -0.0
z: -0.306640625
range: 2.44031047821
velocity: 0.0
doppler_bin: 8
bearing: -0.0
intensity: 26.6181259155
---
header: 
  seq: 1110591
  stamp: 
    secs: 1561683014
    nsecs: 544137102
  frame_id: "ti_mmwave"
point_id: 10
x: 2.537109375
y: -0.263671875
z: 1.20703125
range: 3.00681090355
velocity: 0.0
doppler_bin: 8
bearing: -5.93322753906
intensity: 29.5424251556
---
header: 
  seq: 1110592
  stamp: 
    secs: 1561683014
    nsecs: 544156628
  frame_id: "ti_mmwave"
point_id: 11
x: 2.58984375
y: -0.267578125
z: 1.189453125
range: 3.05038785934
velocity: 0.0
doppler_bin: 8
bearing: -5.8987698555
intensity: 32.8307495117
---
header: 
  seq: 1110593
  stamp: 
    secs: 1561683014
    nsecs: 544171529
  frame_id: "ti_mmwave"
point_id: 12
x: 2.62890625
y: -0.271484375
z: 1.203125
range: 3.09396481514
velocity: 0.0
doppler_bin: 8
bearing: -5.89597463608
intensity: 32.0547485352
---
header: 
  seq: 1110594
  stamp: 
    secs: 1561683014
    nsecs: 544186830
  frame_id: "ti_mmwave"
point_id: 13
x: 4.41796875
y: -0.287109375
z: 1.177734375
range: 4.88062095642
velocity: 0.0
doppler_bin: 8
bearing: -3.71823716164
intensity: 30.8098697662
---
header: 
  seq: 1110595
  stamp: 
    secs: 1561683014
    nsecs: 544199916
  frame_id: "ti_mmwave"
point_id: 14
x: 4.4765625
y: -0.2890625
z: 1.11328125
range: 4.9241976738
velocity: 0.0
doppler_bin: 8
bearing: -3.69459795952
intensity: 30.1535968781
---
header: 
  seq: 1110596
  stamp: 
    secs: 1561683014
    nsecs: 544213374
  frame_id: "ti_mmwave"
point_id: 15
x: 4.84765625
y: -0.46484375
z: 0.88671875
range: 5.27281332016
velocity: 0.0
doppler_bin: 8
bearing: -5.47736883163
intensity: 30.934217453
---
header: 
  seq: 1110597
  stamp: 
    secs: 1561683014
    nsecs: 544227705
  frame_id: "ti_mmwave"
point_id: 16
x: 2.373046875
y: 0.30078125
z: 0.3125
range: 2.5710413456
velocity: -0.614668667316
doppler_bin: 7
bearing: 7.22366189957
intensity: 27.6566848755
---
header: 
  seq: 1110598
  stamp: 
    secs: 1561683014
    nsecs: 544241976
  frame_id: "ti_mmwave"
point_id: 17
x: 2.419921875
y: 0.306640625
z: 0.2734375
range: 2.61461830139
velocity: -0.614668667316
doppler_bin: 7
bearing: 7.22175216675
intensity: 27.1600341797
---
header: 
  seq: 1110599
  stamp: 
    secs: 1561683014
    nsecs: 544274362
  frame_id: "ti_mmwave"
point_id: 19
x: 0.041015625
y: -0.033203125
z: 0.0625
range: 0.0871539413929
velocity: 0.0
doppler_bin: 8
bearing: -38.9909973145
intensity: 30.1283721924
---
header: 
  seq: 1110600
  stamp: 
    secs: 1561683014
    nsecs: 544332882
  frame_id: "ti_mmwave"
point_id: 20
x: 0.044921875
y: -0.046875
z: 0.103515625
range: 0.130730912089
velocity: 0.0
doppler_bin: 8
bearing: -46.218875885
intensity: 29.0036716461
---
header: 
  seq: 1110601
  stamp: 
    secs: 1561683014
    nsecs: 544352768
  frame_id: "ti_mmwave"
point_id: 22
x: 1.205078125
y: 0.357421875
z: 0.169921875
range: 1.35088610649
velocity: 0.0
doppler_bin: 8
bearing: 16.5201683044
intensity: 19.0848503113
---
header: 
  seq: 1110602
  stamp: 
    secs: 1561683014
    nsecs: 544367441
  frame_id: "ti_mmwave"
point_id: 23
x: 2.806640625
y: -2.00390625
z: -3.015625
range: 4.88062095642
velocity: 0.0
doppler_bin: 8
bearing: -35.5263633728
intensity: 27.8604125977
---
header: 
  seq: 1110603
  stamp: 
    secs: 1561683014
    nsecs: 544380437
  frame_id: "ti_mmwave"
point_id: 24
x: 2.818359375
y: -2.021484375
z: -3.0546875
range: 4.9241976738
velocity: 0.0
doppler_bin: 8
bearing: -35.6501998901
intensity: 27.3158874512
---
header: 
  seq: 1110604
  stamp: 
    secs: 1561683014
    nsecs: 603888421
  frame_id: "ti_mmwave"
point_id: 0
x: 0.01171875
y: -0.0390625
z: -0.0078125
range: 0.0435769706964
velocity: 0.0
doppler_bin: 8
bearing: -73.3007583618
intensity: 30.7371826172
---
header: 
  seq: 1110605
  stamp: 
    secs: 1561683014
    nsecs: 603981650
  frame_id: "ti_mmwave"
point_id: 1
x: 0.017578125
y: -0.080078125
z: -0.0078125
range: 0.0871539413929
velocity: 0.0
doppler_bin: 8
bearing: -77.6192398071
intensity: 31.9645252228
---
header: 
  seq: 1110606
  stamp: 
    secs: 1561683014
    nsecs: 603998858
  frame_id: "ti_mmwave"
point_id: 2
x: 0.041015625
y: -0.115234375
z: -0.0078125
range: 0.130730912089
velocity: 0.0
doppler_bin: 8
bearing: -70.4077224731
intensity: 30.2160263062
---
header: 
  seq: 1110607
  stamp: 
    secs: 1561683014
    nsecs: 604015850
  frame_id: "ti_mmwave"
point_id: 3
x: 0.056640625
y: -0.154296875
z: 0.005859375
range: 0.174307882786
velocity: 0.0
doppler_bin: 8
bearing: -69.8423843384
intensity: 25.490032196
---
header: 
  seq: 1110608
  stamp: 
    secs: 1561683014
    nsecs: 604031258
  frame_id: "ti_mmwave"
point_id: 4
x: 0.349609375
y: -0.080078125
z: -1.216796875
range: 1.35088610649
velocity: 0.0
doppler_bin: 8
bearing: -12.9010734558
intensity: 21.8469142914
---
header: 
  seq: 1110609
  stamp: 
    secs: 1561683014
    nsecs: 604045109
  frame_id: "ti_mmwave"
point_id: 5
x: 0.294921875
y: -0.041015625
z: 1.275390625
range: 1.39446306229
velocity: 0.0
doppler_bin: 8
bearing: -7.91750335693
intensity: 23.2014636993
---
header: 
  seq: 1110610
  stamp: 
    secs: 1561683014
    nsecs: 604060233
  frame_id: "ti_mmwave"
point_id: 6
x: 0.404296875
y: -0.0
z: 1.287109375
range: 1.43804001808
velocity: 0.0
doppler_bin: 8
bearing: -0.0
intensity: 21.875207901
---
header: 
  seq: 1110611
  stamp: 
    secs: 1561683014
    nsecs: 604077142
  frame_id: "ti_mmwave"
point_id: 7
x: 2.154296875
y: -0.068359375
z: -0.484375
range: 2.3531563282
velocity: 0.0
doppler_bin: 8
bearing: -1.81747937202
intensity: 27.1933135986
---
header: 
  seq: 1110612
  stamp: 
    secs: 1561683014
    nsecs: 604177150
  frame_id: "ti_mmwave"
point_id: 8
x: 2.19921875
y: -0.0
z: -0.474609375
range: 2.396733284
velocity: 0.0
doppler_bin: 8
bearing: -0.0
intensity: 28.2672252655
---
header: 
  seq: 1110613
  stamp: 
    secs: 1561683014
    nsecs: 604192513
  frame_id: "ti_mmwave"
point_id: 9
x: 2.212890625
y: -0.072265625
z: -0.58984375
range: 2.44031047821
velocity: 0.0
doppler_bin: 8
bearing: -1.87042427063
intensity: 26.5801143646
---
header: 
  seq: 1110614
  stamp: 
    secs: 1561683014
    nsecs: 604208184
  frame_id: "ti_mmwave"
point_id: 10
x: 2.39453125
y: -0.30078125
z: 0.021484375
range: 2.5710413456
velocity: 0.0
doppler_bin: 8
bearing: -7.15952539444
intensity: 27.2098579407
---
header: 
  seq: 1110615
  stamp: 
    secs: 1561683014
    nsecs: 604221370
  frame_id: "ti_mmwave"
point_id: 11
x: 2.54296875
y: -0.263671875
z: 1.197265625
range: 3.00681090355
velocity: 0.0
doppler_bin: 8
bearing: -5.91965341568
intensity: 29.4151134491
---
header: 
  seq: 1110616
  stamp: 
    secs: 1561683014
    nsecs: 604235797
  frame_id: "ti_mmwave"
point_id: 12
x: 2.599609375
y: -0.267578125
z: 1.169921875
range: 3.05038785934
velocity: 0.0
doppler_bin: 8
bearing: -5.87676620483
intensity: 32.7875366211
---
header: 
  seq: 1110617
  stamp: 
    secs: 1561683014
    nsecs: 604248792
  frame_id: "ti_mmwave"
point_id: 13
x: 2.671875
y: -0.181640625
z: 1.125
range: 3.09396481514
velocity: 0.0
doppler_bin: 8
bearing: -3.88912391663
intensity: 32.030330658
---
header: 
  seq: 1110618
  stamp: 
    secs: 1561683014
    nsecs: 604262206
  frame_id: "ti_mmwave"
point_id: 14
x: 4.416015625
y: -0.287109375
z: 1.185546875
range: 4.88062095642
velocity: 0.0
doppler_bin: 8
bearing: -3.71987724304
intensity: 30.9096298218
---
header: 
  seq: 1110619
  stamp: 
    secs: 1561683014
    nsecs: 604280035
  frame_id: "ti_mmwave"
point_id: 15
x: 4.47265625
y: -0.2890625
z: 1.134765625
range: 4.9241976738
velocity: 0.0
doppler_bin: 8
bearing: -3.6978161335
intensity: 30.2407493591
---
header: 
  seq: 1110620
  stamp: 
    secs: 1561683014
    nsecs: 604334946
  frame_id: "ti_mmwave"
point_id: 16
x: 4.87890625
y: -0.30859375
z: 0.779296875
range: 5.27281332016
velocity: 0.0
doppler_bin: 8
bearing: -3.61917114258
intensity: 30.2530593872
---
header: 
  seq: 1110621
  stamp: 
    secs: 1561683014
    nsecs: 604355612
  frame_id: "ti_mmwave"
point_id: 18
x: 0.041015625
y: -0.033203125
z: 0.0625
range: 0.0871539413929
velocity: 0.0
doppler_bin: 8
bearing: -38.9909973145
intensity: 30.1283721924
---
header: 
  seq: 1110622
  stamp: 
    secs: 1561683014
    nsecs: 604369088
  frame_id: "ti_mmwave"
point_id: 19
x: 0.044921875
y: -0.046875
z: 0.103515625
range: 0.130730912089
velocity: 0.0
doppler_bin: 8
bearing: -46.218875885
intensity: 29.0036716461
---
header: 
  seq: 1110623
  stamp: 
    secs: 1561683014
    nsecs: 604385035
  frame_id: "ti_mmwave"
point_id: 21
x: 1.115234375
y: -0.515625
z: 0.3125
range: 1.35088610649
velocity: 0.0
doppler_bin: 8
bearing: -24.8133087158
intensity: 19.0848503113
---
header: 
  seq: 1110624
  stamp: 
    secs: 1561683014
    nsecs: 604416584
  frame_id: "ti_mmwave"
