header: 
  seq: 1084858
  stamp: 
    secs: 1561682968
    nsecs: 703933704
  frame_id: "ti_mmwave"
point_id: 0
x: 0.01171875
y: -0.0390625
z: -0.0078125
range: 0.0435769706964
velocity: 0.0
doppler_bin: 8
bearing: -73.3007583618
intensity: 30.7371826172
---
header: 
  seq: 1084859
  stamp: 
    secs: 1561682968
    nsecs: 704013512
  frame_id: "ti_mmwave"
point_id: 1
x: 0.017578125
y: -0.080078125
z: -0.0078125
range: 0.0871539413929
velocity: 0.0
doppler_bin: 8
bearing: -77.6192398071
intensity: 31.9617614746
---
header: 
  seq: 1084860
  stamp: 
    secs: 1561682968
    nsecs: 704025061
  frame_id: "ti_mmwave"
point_id: 2
x: 0.041015625
y: -0.115234375
z: -0.0078125
range: 0.130730912089
velocity: 0.0
doppler_bin: 8
bearing: -70.4077224731
intensity: 30.2160263062
---
header: 
  seq: 1084861
  stamp: 
    secs: 1561682968
    nsecs: 704033779
  frame_id: "ti_mmwave"
point_id: 3
x: 0.056640625
y: -0.154296875
z: 0.005859375
range: 0.174307882786
velocity: 0.0
doppler_bin: 8
bearing: -69.8423843384
intensity: 25.4777469635
---
header: 
  seq: 1084862
  stamp: 
    secs: 1561682968
    nsecs: 704041853
  frame_id: "ti_mmwave"
point_id: 4
x: 0.349609375
y: -0.080078125
z: -1.216796875
range: 1.35088610649
velocity: 0.0
doppler_bin: 8
bearing: -12.9010734558
intensity: 21.9033164978
---
header: 
  seq: 1084863
  stamp: 
    secs: 1561682968
    nsecs: 704050107
  frame_id: "ti_mmwave"
point_id: 5
x: 0.314453125
y: -0.041015625
z: 1.26953125
range: 1.39446306229
velocity: 0.0
doppler_bin: 8
bearing: -7.43140792847
intensity: 23.2221927643
---
header: 
  seq: 1084864
  stamp: 
    secs: 1561682968
    nsecs: 704058150
  frame_id: "ti_mmwave"
point_id: 6
x: 0.45703125
y: -0.0
z: 1.26953125
range: 1.43804001808
velocity: 0.0
doppler_bin: 8
bearing: -0.0
intensity: 21.875207901
---
header: 
  seq: 1084865
  stamp: 
    secs: 1561682968
    nsecs: 704065941
  frame_id: "ti_mmwave"
point_id: 7
x: 1.828125
y: -0.171875
z: -0.115234375
range: 1.96096372604
velocity: 0.0
doppler_bin: 8
bearing: -5.37099504471
intensity: 28.9486961365
---
header: 
  seq: 1084866
  stamp: 
    secs: 1561682968
    nsecs: 704076034
  frame_id: "ti_mmwave"
point_id: 8
x: 1.869140625
y: -0.17578125
z: -0.12109375
range: 2.00454068184
velocity: 0.0
doppler_bin: 8
bearing: -5.37251615524
intensity: 28.5853729248
---
header: 
  seq: 1084867
  stamp: 
    secs: 1561682968
    nsecs: 704086447
  frame_id: "ti_mmwave"
point_id: 9
x: 2.552734375
y: -0.263671875
z: 1.17578125
range: 3.00681090355
velocity: 0.0
doppler_bin: 8
bearing: -5.89716720581
intensity: 29.4939002991
---
header: 
  seq: 1084868
  stamp: 
    secs: 1561682968
    nsecs: 704095508
  frame_id: "ti_mmwave"
point_id: 10
x: 2.60546875
y: -0.267578125
z: 1.15625
range: 3.05038785934
velocity: 0.0
doppler_bin: 8
bearing: -5.86364221573
intensity: 32.8239555359
---
header: 
  seq: 1084869
  stamp: 
    secs: 1561682968
    nsecs: 704103339
  frame_id: "ti_mmwave"
point_id: 11
x: 2.666015625
y: -0.271484375
z: 1.12109375
range: 3.09396481514
velocity: 0.0
doppler_bin: 8
bearing: -5.81447267532
intensity: 32.0030326843
---
header: 
  seq: 1084870
  stamp: 
    secs: 1561682968
    nsecs: 704111455
  frame_id: "ti_mmwave"
point_id: 12
x: 4.419921875
y: -0.287109375
z: 1.169921875
range: 4.88062095642
velocity: 0.0
doppler_bin: 8
bearing: -3.71659874916
intensity: 31.5106334686
---
header: 
  seq: 1084871
  stamp: 
    secs: 1561682968
    nsecs: 704123409
  frame_id: "ti_mmwave"
point_id: 13
x: 4.4765625
y: -0.2890625
z: 1.115234375
range: 4.9241976738
velocity: 0.0
doppler_bin: 8
bearing: -3.69459795952
intensity: 31.05169487
---
header: 
  seq: 1084872
  stamp: 
    secs: 1561682968
    nsecs: 704277900
  frame_id: "ti_mmwave"
point_id: 14
x: 4.8203125
y: -0.46484375
z: 1.01953125
range: 5.27281332016
velocity: 0.0
doppler_bin: 8
bearing: -5.50824928284
intensity: 30.2857131958
---
header: 
  seq: 1084873
  stamp: 
    secs: 1561682968
    nsecs: 704306296
  frame_id: "ti_mmwave"
point_id: 15
x: 1.849609375
y: -0.48046875
z: 0.20703125
range: 2.04811763763
velocity: -0.614668667316
doppler_bin: 7
bearing: -14.5617485046
intensity: 26.4443855286
---
header: 
  seq: 1084874
  stamp: 
    secs: 1561682968
    nsecs: 704318758
  frame_id: "ti_mmwave"
point_id: 16
x: 1.875
y: -0.552734375
z: 0.185546875
range: 2.09169459343
velocity: -0.614668667316
doppler_bin: 7
bearing: -16.4250793457
intensity: 27.0757026672
---
header: 
  seq: 1084875
  stamp: 
    secs: 1561682968
    nsecs: 704334805
  frame_id: "ti_mmwave"
point_id: 18
x: 0.041015625
y: -0.033203125
z: 0.0625
range: 0.0871539413929
velocity: 0.0
doppler_bin: 8
bearing: -38.9909973145
intensity: 30.1283721924
---
header: 
  seq: 1084876
  stamp: 
    secs: 1561682968
    nsecs: 704346758
  frame_id: "ti_mmwave"
point_id: 19
x: 0.044921875
y: -0.046875
z: 0.103515625
range: 0.130730912089
velocity: 0.0
doppler_bin: 8
bearing: -46.218875885
intensity: 29.0036716461
---
header: 
  seq: 1084877
  stamp: 
    secs: 1561682968
    nsecs: 704361270
  frame_id: "ti_mmwave"
point_id: 21
x: 1.21484375
y: 0.357421875
z: 0.076171875
range: 1.35088610649
velocity: 0.0
doppler_bin: 8
bearing: 16.3945274353
intensity: 19.0848503113
---
header: 
  seq: 1084878
  stamp: 
    secs: 1561682968
    nsecs: 705469414
  frame_id: "ti_mmwave"
point_id: 0
x: 0.01171875
y: -0.0390625
z: -0.0078125
range: 0.0435769706964
velocity: 0.0
doppler_bin: 8
bearing: -73.3007583618
intensity: 30.7371826172
---
header: 
  seq: 1084879
  stamp: 
    secs: 1561682968
    nsecs: 705524269
  frame_id: "ti_mmwave"
point_id: 1
x: 0.017578125
y: -0.080078125
z: -0.0078125
range: 0.0871539413929
velocity: 0.0
doppler_bin: 8
bearing: -77.6192398071
intensity: 31.9617614746
---
header: 
  seq: 1084880
  stamp: 
    secs: 1561682968
    nsecs: 705540784
  frame_id: "ti_mmwave"
point_id: 2
x: 0.029296875
y: -0.119140625
z: -0.005859375
range: 0.130730912089
velocity: 0.0
doppler_bin: 8
bearing: -76.1849746704
intensity: 30.2201576233
---
header: 
  seq: 1084881
  stamp: 
    secs: 1561682968
    nsecs: 705553417
  frame_id: "ti_mmwave"
point_id: 3
x: 0.056640625
y: -0.154296875
z: 0.005859375
range: 0.174307882786
velocity: 0.0
doppler_bin: 8
bearing: -69.8423843384
intensity: 25.5022830963
---
header: 
  seq: 1084882
  stamp: 
    secs: 1561682968
    nsecs: 705565909
  frame_id: "ti_mmwave"
point_id: 4
x: 0.37890625
y: -0.080078125
z: -1.20703125
range: 1.35088610649
velocity: 0.0
doppler_bin: 8
bearing: -11.933303833
intensity: 21.9312458038
---
header: 
  seq: 1084883
  stamp: 
    secs: 1561682968
    nsecs: 705579807
  frame_id: "ti_mmwave"
point_id: 5
x: 0.275390625
y: -0.041015625
z: 1.279296875
range: 1.39446306229
velocity: 0.0
doppler_bin: 8
bearing: -8.47114467621
intensity: 23.2221927643
---
header: 
  seq: 1084884
  stamp: 
    secs: 1561682968
    nsecs: 705591316
  frame_id: "ti_mmwave"
point_id: 6
x: 0.390625
y: -0.0
z: 1.291015625
range: 1.43804001808
velocity: 0.0
doppler_bin: 8
bearing: -0.0
intensity: 21.9033164978
---
header: 
  seq: 1084885
  stamp: 
    secs: 1561682968
    nsecs: 705606946
  frame_id: "ti_mmwave"
point_id: 7
x: 1.822265625
y: -0.115234375
z: -0.240234375
range: 1.96096372604
velocity: 0.0
doppler_bin: 8
bearing: -3.61838746071
intensity: 29.6142101288
---
header: 
  seq: 1084886
  stamp: 
    secs: 1561682968
    nsecs: 705620072
  frame_id: "ti_mmwave"
point_id: 8
x: 1.86328125
y: -0.17578125
z: -0.197265625
range: 2.00454068184
velocity: 0.0
doppler_bin: 8
bearing: -5.38931179047
intensity: 29.5951843262
---
header: 
  seq: 1084887
  stamp: 
    secs: 1561682968
    nsecs: 705743535
  frame_id: "ti_mmwave"
point_id: 9
x: 1.869140625
y: -0.419921875
z: 0.15234375
range: 2.04811763763
velocity: 0.0
doppler_bin: 8
bearing: -12.6618614197
intensity: 29.5712814331
---
header: 
  seq: 1084888
  stamp: 
    secs: 1561682968
    nsecs: 705760317
  frame_id: "ti_mmwave"
point_id: 10
x: 1.87890625
y: -0.4296875
z: 0.37109375
range: 2.09169459343
velocity: 0.0
doppler_bin: 8
bearing: -12.8814697266
intensity: 27.8887519836
---
header: 
  seq: 1084889
  stamp: 
    secs: 1561682968
    nsecs: 705899109
  frame_id: "ti_mmwave"
point_id: 11
x: 2.5703125
y: -0.263671875
z: 1.134765625
range: 3.00681090355
velocity: 0.0
doppler_bin: 8
bearing: -5.85711812973
intensity: 29.6520175934
---
header: 
  seq: 1084890
  stamp: 
    secs: 1561682968
    nsecs: 705919817
  frame_id: "ti_mmwave"
point_id: 12
x: 2.6171875
y: -0.267578125
z: 1.1328125
range: 3.05038785934
velocity: 0.0
doppler_bin: 8
bearing: -5.83756875992
intensity: 32.8802566528
---
header: 
  seq: 1084891
  stamp: 
    secs: 1561682968
    nsecs: 706014626
  frame_id: "ti_mmwave"
point_id: 13
x: 2.671875
y: -0.271484375
z: 1.10546875
range: 3.09396481514
velocity: 0.0
doppler_bin: 8
bearing: -5.80180835724
intensity: 32.0844154358
---
header: 
  seq: 1084892
  stamp: 
    secs: 1561682968
    nsecs: 706034160
  frame_id: "ti_mmwave"
point_id: 14
x: 4.41796875
y: -0.287109375
z: 1.1796875
range: 4.88062095642
velocity: 0.0
doppler_bin: 8
bearing: -3.71823716164
intensity: 30.696680069
---
header: 
  seq: 1084893
  stamp: 
    secs: 1561682968
    nsecs: 706110562
  frame_id: "ti_mmwave"
point_id: 15
x: 4.453125
y: -0.43359375
z: 1.162109375
range: 4.9241976738
velocity: 0.0
doppler_bin: 8
bearing: -5.56126880646
intensity: 30.0173377991
---
header: 
  seq: 1084894
  stamp: 
    secs: 1561682968
    nsecs: 706131513
  frame_id: "ti_mmwave"
point_id: 17
x: 0.041015625
y: -0.033203125
z: 0.0625
range: 0.0871539413929
velocity: 0.0
doppler_bin: 8
bearing: -38.9909973145
intensity: 30.1241531372
---
header: 
  seq: 1084895
  stamp: 
    secs: 1561682968
    nsecs: 706146109
  frame_id: "ti_mmwave"
point_id: 18
x: 0.052734375
y: -0.04296875
z: 0.1015625
range: 0.130730912089
velocity: 0.0
doppler_bin: 8
bearing: -39.1736602783
intensity: 28.9982051849
---
header: 
  seq: 1084896
  stamp: 
    secs: 1561682968
    nsecs: 706198603
  frame_id: "ti_mmwave"
point_id: 20
x: 1.208984375
y: 0.357421875
z: 0.134765625
range: 1.35088610649
velocity: 0.0
doppler_bin: 8
bearing: 16.4696884155
intensity: 19.1381378174
---
header: 
  seq: 1084897
  stamp: 
    secs: 1561682968
    nsecs: 763796477
  frame_id: "ti_mmwave"
point_id: 0
x: 0.01171875
y: -0.0390625
z: -0.0078125
range: 0.0435769706964
velocity: 0.0
doppler_bin: 8
bearing: -73.3007583618
intensity: 30.7371826172
---
header: 
  seq: 1084898
  stamp: 
    secs: 1561682968
    nsecs: 763873768
  frame_id: "ti_mmwave"
point_id: 1
x: 0.017578125
y: -0.080078125
z: -0.0078125
range: 0.0871539413929
velocity: 0.0
doppler_bin: 8
bearing: -77.6192398071
intensity: 31.9617614746
---
header: 
  seq: 1084899
  stamp: 
    secs: 1561682968
    nsecs: 763894608
  frame_id: "ti_mmwave"
point_id: 2
x: 0.041015625
y: -0.115234375
z: -0.0078125
range: 0.130730912089
velocity: 0.0
doppler_bin: 8
bearing: -70.4077224731
intensity: 30.2118930817
---
header: 
  seq: 1084900
  stamp: 
    secs: 1561682968
    nsecs: 763908208
  frame_id: "ti_mmwave"
point_id: 3
x: 0.056640625
y: -0.154296875
z: 0.005859375
range: 0.174307882786
velocity: 0.0
doppler_bin: 8
bearing: -69.8423843384
intensity: 25.4654273987
---
header: 
  seq: 1084901
  stamp: 
    secs: 1561682968
    nsecs: 763935113
  frame_id: "ti_mmwave"
point_id: 4
x: 0.359375
y: -0.080078125
z: -1.212890625
range: 1.35088610649
velocity: 0.0
doppler_bin: 8
bearing: -12.5617752075
intensity: 21.9865703583
---
header: 
  seq: 1084902
  stamp: 
    secs: 1561682968
    nsecs: 763953489
  frame_id: "ti_mmwave"
point_id: 5
x: 0.302734375
y: -0.041015625
z: 1.2734375
range: 1.39446306229
velocity: 0.0
doppler_bin: 8
bearing: -7.71567344666
intensity: 23.2837963104
---
header: 
  seq: 1084903
  stamp: 
    secs: 1561682968
    nsecs: 764037858
  frame_id: "ti_mmwave"
point_id: 6
x: 0.486328125
y: -0.04296875
z: 1.2578125
range: 1.43804001808
velocity: 0.0
doppler_bin: 8
bearing: -5.04916620255
intensity: 21.9865703583
---
header: 
  seq: 1084904
  stamp: 
    secs: 1561682968
    nsecs: 764053168
  frame_id: "ti_mmwave"
point_id: 7
x: 1.818359375
y: -0.056640625
z: -0.275390625
range: 1.96096372604
velocity: 0.0
doppler_bin: 8
bearing: -1.78414654732
intensity: 27.7670116425
---
header: 
  seq: 1084905
  stamp: 
    secs: 1561682968
    nsecs: 764063906
  frame_id: "ti_mmwave"
point_id: 8
x: 1.853515625
y: -0.1171875
z: -0.30078125
range: 2.00454068184
velocity: 0.0
doppler_bin: 8
bearing: -3.61767888069
intensity: 28.1624126434
---
header: 
  seq: 1084906
  stamp: 
    secs: 1561682968
    nsecs: 764076126
  frame_id: "ti_mmwave"
point_id: 9
x: 2.564453125
y: -0.263671875
z: 1.1484375
range: 3.00681090355
velocity: 0.0
doppler_bin: 8
bearing: -5.87040758133
intensity: 29.6047077179
---
header: 
  seq: 1084907
  stamp: 
    secs: 1561682968
    nsecs: 764087277
  frame_id: "ti_mmwave"
point_id: 10
x: 2.61328125
y: -0.267578125
z: 1.13671875
range: 3.05038785934
velocity: 0.0
doppler_bin: 8
bearing: -5.84623432159
intensity: 32.8510704041
---
header: 
  seq: 1084908
  stamp: 
    secs: 1561682968
    nsecs: 764098252
  frame_id: "ti_mmwave"
point_id: 11
x: 2.671875
y: -0.271484375
z: 1.107421875
range: 3.09396481514
velocity: 0.0
doppler_bin: 8
bearing: -5.80180835724
intensity: 32.0357666016
---
header: 
  seq: 1084909
  stamp: 
    secs: 1561682968
    nsecs: 764109461
  frame_id: "ti_mmwave"
point_id: 12
x: 4.421875
y: -0.287109375
z: 1.162109375
range: 4.88062095642
velocity: 0.0
doppler_bin: 8
bearing: -3.7149617672
intensity: 30.8421859741
---
header: 
  seq: 1084910
  stamp: 
    secs: 1561682968
    nsecs: 764120722
  frame_id: "ti_mmwave"
point_id: 13
x: 4.4765625
y: -0.2890625
z: 1.119140625
range: 4.9241976738
velocity: 0.0
doppler_bin: 8
bearing: -3.69459795952
intensity: 30.1994667053
---
header: 
  seq: 1084911
  stamp: 
    secs: 1561682968
    nsecs: 764132211
  frame_id: "ti_mmwave"
point_id: 14
x: 1.994140625
y: 0.0625
z: 0.203125
range: 2.13527154922
velocity: 0.614668667316
doppler_bin: 9
bearing: 1.79516649246
intensity: 27.3639640808
---
header: 
  seq: 1084912
  stamp: 
    secs: 1561682968
    nsecs: 764147893
  frame_id: "ti_mmwave"
point_id: 16
x: 0.041015625
y: -0.033203125
z: 0.0625
range: 0.0871539413929
velocity: 0.0
doppler_bin: 8
bearing: -38.9909973145
intensity: 30.1283721924
---
header: 
  seq: 1084913
  stamp: 
    secs: 1561682968
    nsecs: 764161865
  frame_id: "ti_mmwave"
point_id: 17
x: 0.052734375
y: -0.04296875
z: 0.1015625
range: 0.130730912089
velocity: 0.0
doppler_bin: 8
bearing: -39.1736602783
intensity: 28.9982051849
---
header: 
  seq: 1084914
  stamp: 
    secs: 1561682968
    nsecs: 764177160
  frame_id: "ti_mmwave"
point_id: 19
x: 1.2109375
y: 0.357421875
z: 0.126953125
range: 1.35088610649
velocity: 0.0
doppler_bin: 8
bearing: 16.4445590973
intensity: 19.0848503113
---
header: 
  seq: 1084915
  stamp: 
    secs: 1561682968
    nsecs: 764231135
  frame_id: "ti_mmwave"
point_id: 20
x: 2.951171875
y: -2.021484375
z: -2.92578125
range: 4.9241976738
velocity: 0.0
doppler_bin: 8
bearing: -34.4102401733
intensity: 27.2509460449
---
header: 
  seq: 1084916
  stamp: 
    secs: 1561682968
    nsecs: 765145139
  frame_id: "ti_mmwave"
point_id: 0
x: 0.01171875
y: -0.0390625
z: -0.0078125
range: 0.0435769706964
velocity: 0.0
doppler_bin: 8
bearing: -73.3007583618
intensity: 30.7408466339
---
header: 
  seq: 1084917
  stamp: 
    secs: 1561682968
    nsecs: 765192781
  frame_id: "ti_mmwave"
point_id: 1
x: 0.017578125
y: -0.080078125
z: -0.0078125
range: 0.0871539413929
velocity: 0.0
doppler_bin: 8
bearing: -77.6192398071
intensity: 31.9645252228
---
header: 
  seq: 1084918
  stamp: 
    secs: 1561682968
    nsecs: 765208406
  frame_id: "ti_mmwave"
point_id: 2
x: 0.029296875
y: -0.119140625
z: -0.005859375
range: 0.130730912089
velocity: 0.0
doppler_bin: 8
bearing: -76.1849746704
intensity: 30.2160263062
---
header: 
  seq: 1084919
  stamp: 
    secs: 1561682968
    nsecs: 765226874
  frame_id: "ti_mmwave"
point_id: 3
x: 0.056640625
y: -0.154296875
z: 0.005859375
range: 0.174307882786
velocity: 0.0
doppler_bin: 8
bearing: -69.8423843384
intensity: 25.4777469635
---
header: 
  seq: 1084920
  stamp: 
    secs: 1561682968
    nsecs: 765282498
  frame_id: "ti_mmwave"
point_id: 4
x: 0.3515625
y: -0.080078125
z: -1.216796875
range: 1.35088610649
velocity: 0.0
doppler_bin: 8
bearing: -12.83177948
intensity: 21.9033164978
---
header: 
  seq: 1084921
  stamp: 
    secs: 1561682968
    nsecs: 765295832
  frame_id: "ti_mmwave"
point_id: 5
x: 0.306640625
y: -0.041015625
z: 1.271484375
range: 1.39446306229
velocity: 0.0
doppler_bin: 8
bearing: -7.6185464859
intensity: 23.2014636993
---
header: 
  seq: 1084922
  stamp: 
    secs: 1561682968
    nsecs: 765307791
  frame_id: "ti_mmwave"
point_id: 6
x: 0.423828125
y: -0.0
z: 1.28125
range: 1.43804001808
velocity: 0.0
doppler_bin: 8
bearing: -0.0
intensity: 21.875207901
---
header: 
  seq: 1084923
  stamp: 
    secs: 1561682968
    nsecs: 765320710
  frame_id: "ti_mmwave"
point_id: 7
x: 1.77734375
y: -0.16796875
z: -0.232421875
range: 1.91738677025
velocity: 0.0
doppler_bin: 8
bearing: -5.39873170853
intensity: 29.3449840546
---
header: 
  seq: 1084924
  stamp: 
    secs: 1561682968
    nsecs: 765332707
  frame_id: "ti_mmwave"
point_id: 8
x: 1.8203125
y: -0.171875
z: -0.212890625
range: 1.96096372604
velocity: 0.0
doppler_bin: 8
bearing: -5.39391040802
intensity: 31.6613388062
---
header: 
  seq: 1084925
  stamp: 
    secs: 1561682968
    nsecs: 765344006
  frame_id: "ti_mmwave"
point_id: 9
x: 1.861328125
y: -0.17578125
z: -0.21875
range: 2.00454068184
velocity: 0.0
doppler_bin: 8
bearing: -5.39493322372
intensity: 30.6333332062
---
header: 
  seq: 1084926
  stamp: 
    secs: 1561682968
    nsecs: 765358131
  frame_id: "ti_mmwave"
point_id: 10
x: 1.875
y: -0.30078125
z: -0.302734375
range: 2.04811763763
velocity: 0.0
doppler_bin: 8
bearing: -9.11355209351
intensity: 28.1424751282
---
header: 
  seq: 1084927
  stamp: 
    secs: 1561682968
    nsecs: 765370836
  frame_id: "ti_mmwave"
point_id: 11
x: 2.533203125
y: -0.263671875
z: 1.21875
range: 3.00681090355
velocity: 0.0
doppler_bin: 8
bearing: -5.94231081009
intensity: 29.5036487579
---
header: 
  seq: 1084928
  stamp: 
    secs: 1561682968
    nsecs: 765415060
  frame_id: "ti_mmwave"
point_id: 12
x: 2.58203125
y: -0.267578125
z: 1.20703125
range: 3.05038785934
velocity: 0.0
doppler_bin: 8
bearing: -5.91649150848
intensity: 32.7207374573
---
header: 
  seq: 1084929
  stamp: 
    secs: 1561682968
    nsecs: 765431313
  frame_id: "ti_mmwave"
point_id: 13
x: 2.64453125
y: -0.181640625
z: 1.1875
range: 3.09396481514
velocity: 0.0
doppler_bin: 8
bearing: -3.92921113968
intensity: 31.8892841339
---
header: 
  seq: 1084930
  stamp: 
    secs: 1561682968
    nsecs: 765444735
  frame_id: "ti_mmwave"
point_id: 14
x: 4.408203125
y: -0.287109375
z: 1.21875
range: 4.88062095642
velocity: 0.0
doppler_bin: 8
bearing: -3.72645139694
intensity: 30.546131134
---
header: 
  seq: 1084931
  stamp: 
    secs: 1561682968
    nsecs: 765456854
  frame_id: "ti_mmwave"
point_id: 15
x: 4.47265625
y: -0.2890625
z: 1.126953125
range: 4.9241976738
velocity: 0.0
doppler_bin: 8
bearing: -3.6978161335
intensity: 30.2612457275
---
header: 
  seq: 1084932
  stamp: 
    secs: 1561682968
    nsecs: 765473764
  frame_id: "ti_mmwave"
point_id: 17
x: 0.041015625
y: -0.033203125
z: 0.0625
range: 0.0871539413929
velocity: 0.0
doppler_bin: 8
bearing: -38.9909973145
intensity: 30.1241531372
---
header: 
  seq: 1084933
  stamp: 
    secs: 1561682968
    nsecs: 765489298
  frame_id: "ti_mmwave"
point_id: 18
x: 0.052734375
y: -0.04296875
z: 0.1015625
range: 0.130730912089
velocity: 0.0
doppler_bin: 8
bearing: -39.1736602783
intensity: 28.9982051849
---
header: 
  seq: 1084934
  stamp: 
    secs: 1561682968
    nsecs: 765504983
  frame_id: "ti_mmwave"
point_id: 20
x: 1.2109375
y: 0.357421875
z: 0.1171875
range: 1.35088610649
velocity: 0.0
doppler_bin: 8
bearing: 16.4445590973
intensity: 19.0308990479
---
header: 
  seq: 1084935
  stamp: 
    secs: 1561682968
    nsecs: 823787275
  frame_id: "ti_mmwave"
point_id: 0
x: 0.01171875
y: -0.0390625
z: -0.0078125
range: 0.0435769706964
velocity: 0.0
doppler_bin: 8
bearing: -73.3007583618
intensity: 30.7371826172
---
header: 
  seq: 1084936
  stamp: 
    secs: 1561682968
    nsecs: 823878281
  frame_id: "ti_mmwave"
point_id: 1
x: 0.017578125
y: -0.080078125
z: -0.0078125
range: 0.0871539413929
velocity: 0.0
doppler_bin: 8
bearing: -77.6192398071
intensity: 31.9645252228
---
header: 
  seq: 1084937
  stamp: 
    secs: 1561682968
    nsecs: 823890787
  frame_id: "ti_mmwave"
point_id: 2
x: 0.041015625
y: -0.115234375
z: -0.0078125
range: 0.130730912089
velocity: 0.0
doppler_bin: 8
bearing: -70.4077224731
intensity: 30.2160263062
---
header: 
  seq: 1084938
  stamp: 
    secs: 1561682968
    nsecs: 823899625
  frame_id: "ti_mmwave"
point_id: 3
x: 0.056640625
y: -0.154296875
z: 0.005859375
range: 0.174307882786
velocity: 0.0
doppler_bin: 8
bearing: -69.8423843384
intensity: 25.4777469635
---
header: 
  seq: 1084939
  stamp: 
    secs: 1561682968
    nsecs: 823911616
  frame_id: "ti_mmwave"
point_id: 4
x: 0.353515625
y: -0.080078125
z: -1.21484375
range: 1.35088610649
velocity: 0.0
doppler_bin: 8
bearing: -12.7632131577
intensity: 21.9033164978
---
header: 
  seq: 1084940
  stamp: 
    secs: 1561682968
    nsecs: 823920833
  frame_id: "ti_mmwave"
point_id: 5
x: 0.2890625
y: -0.041015625
z: 1.275390625
range: 1.39446306229
velocity: 0.0
doppler_bin: 8
bearing: -8.0758972168
intensity: 23.2633590698
---
header: 
  seq: 1084941
  stamp: 
    secs: 1561682968
    nsecs: 823928728
  frame_id: "ti_mmwave"
point_id: 6
x: 0.466796875
y: -0.04296875
z: 1.265625
range: 1.43804001808
velocity: 0.0
doppler_bin: 8
bearing: -5.25926733017
intensity: 22.0139713287
---
header: 
  seq: 1084942
  stamp: 
    secs: 1561682968
    nsecs: 823936073
  frame_id: "ti_mmwave"
point_id: 7
x: 1.77734375
y: -0.16796875
z: -0.224609375
range: 1.91738677025
velocity: 0.0
doppler_bin: 8
bearing: -5.39873170853
intensity: 30.4296913147
---
header: 
  seq: 1084943
  stamp: 
    secs: 1561682968
    nsecs: 823944316
  frame_id: "ti_mmwave"
point_id: 8
x: 1.8203125
y: -0.171875
z: -0.21484375
range: 1.96096372604
velocity: 0.0
doppler_bin: 8
bearing: -5.39391040802
intensity: 32.1748390198
---
header: 
  seq: 1084944
  stamp: 
    secs: 1561682968
    nsecs: 823954870
  frame_id: "ti_mmwave"
point_id: 9
x: 1.875
y: -0.1171875
z: -0.1171875
range: 2.00454068184
velocity: 0.0
doppler_bin: 8
bearing: -3.57633447647
intensity: 30.6032009125
---
header: 
  seq: 1084945
  stamp: 
    secs: 1561682968
    nsecs: 823967966
  frame_id: "ti_mmwave"
point_id: 10
x: 1.908203125
y: -0.12109375
z: 0.19921875
range: 2.04811763763
velocity: 0.0
doppler_bin: 8
bearing: -3.63109636307
intensity: 27.7597427368
---
header: 
  seq: 1084946
  stamp: 
    secs: 1561682968
    nsecs: 823982902
  frame_id: "ti_mmwave"
point_id: 11
x: 2.529296875
y: -0.263671875
z: 1.22265625
range: 3.00681090355
velocity: 0.0
doppler_bin: 8
bearing: -5.95142221451
intensity: 29.2839584351
---
header: 
  seq: 1084947
  stamp: 
    secs: 1561682968
    nsecs: 824145049
  frame_id: "ti_mmwave"
point_id: 12
x: 2.6015625
y: -0.267578125
z: 1.166015625
range: 3.05038785934
velocity: 0.0
doppler_bin: 8
bearing: -5.87238502502
intensity: 32.7300109863
---
header: 
  seq: 1084948
  stamp: 
    secs: 1561682968
    nsecs: 824172823
  frame_id: "ti_mmwave"
point_id: 13
x: 2.662109375
y: -0.271484375
z: 1.130859375
range: 3.09396481514
velocity: 0.0
doppler_bin: 8
bearing: -5.82294607162
intensity: 31.9645252228
---
header: 
  seq: 1084949
  stamp: 
    secs: 1561682968
    nsecs: 824189460
  frame_id: "ti_mmwave"
point_id: 15
x: 0.041015625
y: -0.033203125
z: 0.0625
range: 0.0871539413929
velocity: 0.0
doppler_bin: 8
bearing: -38.9909973145
intensity: 30.1241531372
---
header: 
  seq: 1084950
  stamp: 
    secs: 1561682968
    nsecs: 824235333
  frame_id: "ti_mmwave"
point_id: 16
x: 0.052734375
y: -0.04296875
z: 0.1015625
range: 0.130730912089
velocity: 0.0
doppler_bin: 8
bearing: -39.1736602783
intensity: 28.9982051849
---
header: 
  seq: 1084951
  stamp: 
    secs: 1561682968
    nsecs: 824252186
  frame_id: "ti_mmwave"
point_id: 18
x: 1.208984375
y: 0.357421875
z: 0.134765625
range: 1.35088610649
velocity: 0.0
doppler_bin: 8
bearing: 16.4696884155
intensity: 19.1381378174
---
header: 
  seq: 1084952
  stamp: 
    secs: 1561682968
    nsecs: 825277614
  frame_id: "ti_mmwave"
point_id: 0
x: 0.01171875
y: -0.0390625
z: -0.0078125
range: 0.0435769706964
velocity: 0.0
doppler_bin: 8
bearing: -73.3007583618
intensity: 30.7408466339
---
header: 
  seq: 1084953
  stamp: 
    secs: 1561682968
    nsecs: 825383654
  frame_id: "ti_mmwave"
point_id: 1
x: 0.017578125
y: -0.080078125
z: -0.0078125
range: 0.0871539413929
velocity: 0.0
doppler_bin: 8
bearing: -77.6192398071
intensity: 31.9617614746
---
header: 
  seq: 1084954
  stamp: 
    secs: 1561682968
    nsecs: 825404674
  frame_id: "ti_mmwave"
point_id: 2
x: 0.029296875
y: -0.119140625
z: -0.005859375
range: 0.130730912089
velocity: 0.0
doppler_bin: 8
bearing: -76.1849746704
intensity: 30.2160263062
---
header: 
  seq: 1084955
  stamp: 
    secs: 1561682968
    nsecs: 825428811
  frame_id: "ti_mmwave"
point_id: 3
x: 0.056640625
y: -0.154296875
z: 0.005859375
range: 0.174307882786
velocity: 0.0
doppler_bin: 8
bearing: -69.8423843384
intensity: 25.4654273987
---
header: 
  seq: 1084956
  stamp: 
    secs: 1561682968
    nsecs: 825442749
  frame_id: "ti_mmwave"
point_id: 4
x: 0.35546875
y: -0.080078125
z: -1.21484375
range: 1.35088610649
velocity: 0.0
doppler_bin: 8
bearing: -12.6953649521
intensity: 21.9312458038
---
header: 
  seq: 1084957
  stamp: 
    secs: 1561682968
    nsecs: 825558476
  frame_id: "ti_mmwave"
point_id: 5
x: 0.30078125
y: -0.041015625
z: 1.2734375
range: 1.39446306229
velocity: 0.0
doppler_bin: 8
bearing: -7.76516628265
intensity: 23.2428245544
---
header: 
  seq: 1084958
  stamp: 
    secs: 1561682968
    nsecs: 825575955
  frame_id: "ti_mmwave"
point_id: 6
x: 0.501953125
y: -0.04296875
z: 1.251953125
range: 1.43804001808
velocity: 0.0
doppler_bin: 8
bearing: -4.89276885986
intensity: 21.9865703583
---
header: 
  seq: 1084959
  stamp: 
    secs: 1561682968
    nsecs: 825589186
  frame_id: "ti_mmwave"
point_id: 7
x: 1.787109375
y: -0.16796875
z: -0.123046875
range: 1.91738677025
velocity: 0.0
doppler_bin: 8
bearing: -5.36940336227
intensity: 30.7845687866
---
header: 
  seq: 1084960
  stamp: 
    secs: 1561682968
    nsecs: 825600679
  frame_id: "ti_mmwave"
point_id: 8
x: 1.828125
y: -0.171875
z: -0.138671875
range: 1.96096372604
velocity: 0.0
doppler_bin: 8
bearing: -5.37099504471
intensity: 32.9644584656
---
header: 
  seq: 1084961
  stamp: 
    secs: 1561682968
    nsecs: 825612279
  frame_id: "ti_mmwave"
point_id: 9
x: 1.859375
y: -0.17578125
z: -0.22265625
range: 2.00454068184
velocity: 0.0
doppler_bin: 8
bearing: -5.40056705475
intensity: 31.9061183929
---
header: 
  seq: 1084962
  stamp: 
    secs: 1561682968
    nsecs: 825623703
  frame_id: "ti_mmwave"
point_id: 10
x: 1.859375
y: -0.12109375
z: -0.4765625
range: 2.04811763763
velocity: 0.0
doppler_bin: 8
bearing: -3.72618579865
intensity: 28.2347431183
---
header: 
  seq: 1084963
  stamp: 
    secs: 1561682968
    nsecs: 825649953
  frame_id: "ti_mmwave"
point_id: 11
x: 2.01171875
y: 0.3203125
z: 0.193359375
range: 2.17884850502
velocity: 0.0
doppler_bin: 8
bearing: 9.04688072205
intensity: 27.6042251587
---
header: 
  seq: 1084964
  stamp: 
    secs: 1561682968
    nsecs: 825672203
  frame_id: "ti_mmwave"
point_id: 12
x: 2.041015625
y: 0.390625
z: 0.19140625
range: 2.22242546082
velocity: 0.0
doppler_bin: 8
bearing: 10.8346786499
intensity: 28.1224460602
---
header: 
  seq: 1084965
  stamp: 
    secs: 1561682968
    nsecs: 825735079
  frame_id: "ti_mmwave"
point_id: 13
x: 2.552734375
y: -0.263671875
z: 1.173828125
range: 3.00681090355
velocity: 0.0
doppler_bin: 8
bearing: -5.89716720581
intensity: 29.3701610565
---
header: 
  seq: 1084966
  stamp: 
    secs: 1561682968
    nsecs: 825752228
  frame_id: "ti_mmwave"
point_id: 14
x: 2.607421875
y: -0.267578125
z: 1.15234375
range: 3.05038785934
velocity: 0.0
doppler_bin: 8
bearing: -5.85928010941
intensity: 32.7554168701
---
header: 
  seq: 1084967
  stamp: 
    secs: 1561682968
    nsecs: 825765297
  frame_id: "ti_mmwave"
point_id: 15
x: 2.671875
y: -0.271484375
z: 1.10546875
range: 3.09396481514
velocity: 0.0
doppler_bin: 8
bearing: -5.80180835724
intensity: 32.0112380981
---
header: 
  seq: 1084968
  stamp: 
    secs: 1561682968
    nsecs: 825781632
  frame_id: "ti_mmwave"
point_id: 17
x: 0.041015625
y: -0.033203125
z: 0.0625
range: 0.0871539413929
velocity: 0.0
doppler_bin: 8
bearing: -38.9909973145
intensity: 30.1283721924
---
header: 
  seq: 1084969
  stamp: 
    secs: 1561682968
    nsecs: 825793330
  frame_id: "ti_mmwave"
point_id: 18
x: 0.044921875
y: -0.046875
z: 0.103515625
range: 0.130730912089
velocity: 0.0
doppler_bin: 8
bearing: -46.218875885
intensity: 28.9982051849
---
header: 
  seq: 1084970
  stamp: 
    secs: 1561682968
    nsecs: 825808334
  frame_id: "ti_mmwave"
point_id: 20
x: 1.2109375
y: 0.357421875
z: 0.119140625
range: 1.35088610649
velocity: 0.0
doppler_bin: 8
bearing: 16.4445590973
intensity: 19.0848503113
---
header: 
  seq: 1084971
  stamp: 
    secs: 1561682968
    nsecs: 883744400
  frame_id: "ti_mmwave"
point_id: 0
x: 0.01171875
y: -0.0390625
z: -0.0078125
range: 0.0435769706964
velocity: 0.0
doppler_bin: 8
bearing: -73.3007583618
intensity: 30.7371826172
---
header: 
  seq: 1084972
  stamp: 
    secs: 1561682968
    nsecs: 883823938
  frame_id: "ti_mmwave"
point_id: 1
x: 0.017578125
y: -0.080078125
z: -0.0078125
range: 0.0871539413929
velocity: 0.0
doppler_bin: 8
bearing: -77.6192398071
intensity: 31.9645252228
---
header: 
  seq: 1084973
  stamp: 
    secs: 1561682968
    nsecs: 883838296
  frame_id: "ti_mmwave"
point_id: 2
x: 0.041015625
y: -0.115234375
z: -0.0078125
range: 0.130730912089
velocity: 0.0
doppler_bin: 8
bearing: -70.4077224731
intensity: 30.2160263062
---
header: 
  seq: 1084974
  stamp: 
    secs: 1561682968
    nsecs: 883847412
  frame_id: "ti_mmwave"
point_id: 3
x: 0.056640625
y: -0.154296875
z: 0.005859375
range: 0.174307882786
velocity: 0.0
doppler_bin: 8
bearing: -69.8423843384
intensity: 25.4777469635
---
header: 
  seq: 1084975
  stamp: 
    secs: 1561682968
    nsecs: 883855630
  frame_id: "ti_mmwave"
point_id: 4
x: 0.38671875
y: -0.080078125
z: -1.205078125
range: 1.35088610649
velocity: 0.0
doppler_bin: 8
bearing: -11.6989374161
intensity: 21.9312458038
---
header: 
  seq: 1084976
  stamp: 
    secs: 1561682968
    nsecs: 883864142
  frame_id: "ti_mmwave"
point_id: 5
x: 0.2734375
y: -0.041015625
z: 1.279296875
range: 1.39446306229
velocity: 0.0
doppler_bin: 8
bearing: -8.53076648712
intensity: 23.2428245544
---
header: 
  seq: 1084977
  stamp: 
    secs: 1561682968
    nsecs: 883871469
  frame_id: "ti_mmwave"
point_id: 6
x: 0.376953125
y: -0.0
z: 1.296875
range: 1.43804001808
velocity: 0.0
doppler_bin: 8
bearing: -0.0
intensity: 21.9589958191
---
header: 
  seq: 1084978
  stamp: 
    secs: 1561682968
    nsecs: 883881537
  frame_id: "ti_mmwave"
point_id: 7
x: 1.7890625
y: -0.16796875
z: -0.083984375
range: 1.91738677025
velocity: 0.0
doppler_bin: 8
bearing: -5.36357545853
intensity: 29.2890777588
---
header: 
  seq: 1084979
  stamp: 
    secs: 1561682968
    nsecs: 883891942
  frame_id: "ti_mmwave"
point_id: 8
x: 1.830078125
y: -0.171875
z: -0.095703125
range: 1.96096372604
velocity: 0.0
doppler_bin: 8
bearing: -5.36529636383
intensity: 31.5533599854
---
header: 
  seq: 1084980
  stamp: 
    secs: 1561682968
    nsecs: 883900359
  frame_id: "ti_mmwave"
point_id: 9
x: 1.87109375
y: -0.17578125
z: -0.083984375
range: 2.00454068184
velocity: 0.0
doppler_bin: 8
bearing: -5.36694097519
intensity: 30.2653331757
---
header: 
  seq: 1084981
  stamp: 
    secs: 1561682968
    nsecs: 883908442
  frame_id: "ti_mmwave"
point_id: 10
x: 2.00390625
y: 0.3828125
z: 0.150390625
range: 2.17884850502
velocity: 0.0
doppler_bin: 8
bearing: 10.8150882721
intensity: 28.3947811127
---
header: 
  seq: 1084982
  stamp: 
    secs: 1561682968
    nsecs: 883916459
  frame_id: "ti_mmwave"
point_id: 11
x: 2.046875
y: 0.390625
z: 0.11328125
range: 2.22242546082
velocity: 0.0
doppler_bin: 8
bearing: 10.804394722
intensity: 30.0475120544
---
header: 
  seq: 1084983
  stamp: 
    secs: 1561682968
    nsecs: 883937661
  frame_id: "ti_mmwave"
point_id: 12
x: 2.0703125
y: 0.46484375
z: 0.138671875
range: 2.26600241661
velocity: 0.0
doppler_bin: 8
bearing: 12.6546573639
intensity: 28.1491317749
---
header: 
  seq: 1084984
  stamp: 
    secs: 1561682968
    nsecs: 883955241
  frame_id: "ti_mmwave"
point_id: 13
x: 2.54296875
y: -0.263671875
z: 1.197265625
range: 3.00681090355
velocity: 0.0
doppler_bin: 8
bearing: -5.91965341568
intensity: 29.3851966858
---
header: 
  seq: 1084985
  stamp: 
    secs: 1561682968
    nsecs: 883968829
  frame_id: "ti_mmwave"
point_id: 14
x: 2.603515625
y: -0.267578125
z: 1.162109375
range: 3.05038785934
velocity: 0.0
doppler_bin: 8
bearing: -5.8680100441
intensity: 32.753112793
---
header: 
  seq: 1084986
  stamp: 
    secs: 1561682968
    nsecs: 883983750
  frame_id: "ti_mmwave"
point_id: 15
x: 2.6640625
y: -0.271484375
z: 1.126953125
range: 3.09396481514
velocity: 0.0
doppler_bin: 8
bearing: -5.81870603561
intensity: 31.9838218689
---
header: 
  seq: 1084987
  stamp: 
    secs: 1561682968
    nsecs: 883996341
  frame_id: "ti_mmwave"
point_id: 17
x: 0.041015625
y: -0.033203125
z: 0.0625
range: 0.0871539413929
velocity: 0.0
doppler_bin: 8
bearing: -38.9909973145
intensity: 30.1283721924
---
header: 
  seq: 1084988
  stamp: 
    secs: 1561682968
    nsecs: 884006997
  frame_id: "ti_mmwave"
point_id: 18
x: 0.044921875
y: -0.046875
z: 0.103515625
range: 0.130730912089
velocity: 0.0
doppler_bin: 8
bearing: -46.218875885
intensity: 28.9982051849
---
header: 
  seq: 1084989
  stamp: 
    secs: 1561682968
    nsecs: 884031725
  frame_id: "ti_mmwave"
point_id: 20
x: 1.208984375
y: 0.357421875
z: 0.13671875
range: 1.35088610649
velocity: 0.0
doppler_bin: 8
bearing: 16.4696884155
intensity: 19.1907806396
---
header: 
  seq: 1084990
  stamp: 
    secs: 1561682968
    nsecs: 884968501
  frame_id: "ti_mmwave"
point_id: 0
x: 0.01171875
y: -0.0390625
z: -0.0078125
range: 0.0435769706964
velocity: 0.0
doppler_bin: 8
bearing: -73.3007583618
intensity: 30.7371826172
---
header: 
  seq: 1084991
  stamp: 
    secs: 1561682968
    nsecs: 885014905
  frame_id: "ti_mmwave"
point_id: 1
x: 0.017578125
y: -0.080078125
z: -0.0078125
range: 0.0871539413929
velocity: 0.0
doppler_bin: 8
bearing: -77.6192398071
intensity: 31.9589958191
---
header: 
  seq: 1084992
  stamp: 
    secs: 1561682968
    nsecs: 885026739
  frame_id: "ti_mmwave"
point_id: 2
x: 0.041015625
y: -0.115234375
z: -0.0078125
range: 0.130730912089
velocity: 0.0
doppler_bin: 8
bearing: -70.4077224731
intensity: 30.2118930817
---
header: 
  seq: 1084993
  stamp: 
    secs: 1561682968
    nsecs: 885035703
  frame_id: "ti_mmwave"
point_id: 3
x: 0.056640625
y: -0.154296875
z: 0.005859375
range: 0.174307882786
velocity: 0.0
doppler_bin: 8
bearing: -69.8423843384
intensity: 25.4777469635
---
header: 
  seq: 1084994
  stamp: 
    secs: 1561682968
    nsecs: 885043839
  frame_id: "ti_mmwave"
point_id: 4
x: 0.35546875
y: -0.080078125
z: -1.21484375
range: 1.35088610649
velocity: 0.0
doppler_bin: 8
bearing: -12.6953649521
intensity: 21.9312458038
---
header: 
  seq: 1084995
  stamp: 
    secs: 1561682968
    nsecs: 885053067
  frame_id: "ti_mmwave"
point_id: 5
x: 0.26953125
y: -0.041015625
z: 1.279296875
range: 1.39446306229
velocity: 0.0
doppler_bin: 8
bearing: -8.65254211426
intensity: 23.2428245544
---
header: 
  seq: 1084996
  stamp: 
    secs: 1561682968
    nsecs: 885061347
  frame_id: "ti_mmwave"
point_id: 6
x: 0.38671875
y: -0.0
z: 1.29296875
range: 1.43804001808
velocity: 0.0
doppler_bin: 8
bearing: -0.0
intensity: 21.9589958191
---
header: 
  seq: 1084997
  stamp: 
    secs: 1561682968
    nsecs: 885069511
  frame_id: "ti_mmwave"
point_id: 7
x: 1.822265625
y: -0.115234375
z: -0.23046875
range: 1.96096372604
velocity: 0.0
doppler_bin: 8
bearing: -3.61838746071
intensity: 28.9153747559
---
header: 
  seq: 1084998
  stamp: 
    secs: 1561682968
    nsecs: 885115598
  frame_id: "ti_mmwave"
point_id: 8
x: 2.009765625
y: 0.3828125
z: 0.013671875
range: 2.17884850502
velocity: 0.0
doppler_bin: 8
bearing: 10.7842979431
intensity: 27.6117572784
---
header: 
  seq: 1084999
  stamp: 
    secs: 1561682968
    nsecs: 885125219
  frame_id: "ti_mmwave"
point_id: 9
x: 2.048828125
y: 0.390625
z: 0.0625
range: 2.22242546082
velocity: 0.0
doppler_bin: 8
bearing: 10.7943372726
intensity: 29.5133743286
---
header: 
  seq: 1085000
  stamp: 
    secs: 1561682968
    nsecs: 885133037
  frame_id: "ti_mmwave"
point_id: 10
x: 2.0859375
y: 0.3984375
z: 0.119140625
range: 2.26600241661
velocity: 0.0
doppler_bin: 8
bearing: 10.8138771057
intensity: 28.0140361786
---
header: 
  seq: 1085001
  stamp: 
    secs: 1561682968
    nsecs: 885140995
  frame_id: "ti_mmwave"
point_id: 11
x: 2.5703125
y: -0.263671875
z: 1.134765625
range: 3.00681090355
velocity: 0.0
doppler_bin: 8
bearing: -5.85711812973
intensity: 29.3043956757
---
header: 
  seq: 1085002
  stamp: 
    secs: 1561682968
    nsecs: 885149061
  frame_id: "ti_mmwave"
point_id: 12
x: 2.61328125
y: -0.267578125
z: 1.138671875
range: 3.05038785934
velocity: 0.0
doppler_bin: 8
bearing: -5.84623432159
intensity: 32.681098938
---
header: 
  seq: 1085003
  stamp: 
    secs: 1561682968
    nsecs: 885157947
  frame_id: "ti_mmwave"
point_id: 13
x: 2.669921875
y: -0.271484375
z: 1.109375
range: 3.09396481514
velocity: 0.0
doppler_bin: 8
bearing: -5.80602359772
intensity: 31.9061183929
---
header: 
  seq: 1085004
  stamp: 
    secs: 1561682968
    nsecs: 885167776
  frame_id: "ti_mmwave"
point_id: 15
x: 0.041015625
y: -0.033203125
z: 0.0625
range: 0.0871539413929
velocity: 0.0
doppler_bin: 8
bearing: -38.9909973145
intensity: 30.1241531372
---
header: 
  seq: 1085005
  stamp: 
    secs: 1561682968
    nsecs: 885175763
  frame_id: "ti_mmwave"
point_id: 16
x: 0.052734375
y: -0.04296875
z: 0.1015625
range: 0.130730912089
velocity: 0.0
doppler_bin: 8
bearing: -39.1736602783
intensity: 28.9982051849
---
header: 
  seq: 1085006
  stamp: 
    secs: 1561682968
    nsecs: 885186776
  frame_id: "ti_mmwave"
point_id: 18
x: 1.1171875
y: -0.515625
z: 0.30859375
range: 1.35088610649
velocity: 0.0
doppler_bin: 8
bearing: -24.7751407623
intensity: 19.0308990479
---
header: 
  seq: 1085007
  stamp: 
    secs: 1561682968
    nsecs: 944053535
  frame_id: "ti_mmwave"
point_id: 0
x: 0.01171875
y: -0.0390625
z: -0.0078125
range: 0.0435769706964
velocity: 0.0
doppler_bin: 8
bearing: -73.3007583618
intensity: 30.7298469543
---
header: 
  seq: 1085008
  stamp: 
    secs: 1561682968
    nsecs: 944127600
  frame_id: "ti_mmwave"
point_id: 1
x: 0.017578125
y: -0.080078125
z: -0.0078125
range: 0.0871539413929
velocity: 0.0
doppler_bin: 8
bearing: -77.6192398071
intensity: 31.9589958191
---
header: 
  seq: 1085009
  stamp: 
    secs: 1561682968
    nsecs: 944139198
  frame_id: "ti_mmwave"
point_id: 2
x: 0.041015625
y: -0.115234375
z: -0.0078125
range: 0.130730912089
velocity: 0.0
doppler_bin: 8
bearing: -70.4077224731
intensity: 30.2118930817
---
header: 
  seq: 1085010
  stamp: 
    secs: 1561682968
    nsecs: 944148058
  frame_id: "ti_mmwave"
point_id: 3
x: 0.056640625
y: -0.154296875
z: 0.005859375
range: 0.174307882786
velocity: 0.0
doppler_bin: 8
bearing: -69.8423843384
intensity: 25.4777469635
---
header: 
  seq: 1085011
  stamp: 
    secs: 1561682968
    nsecs: 944158340
  frame_id: "ti_mmwave"
point_id: 4
x: 0.3515625
y: -0.080078125
z: -1.21484375
range: 1.35088610649
velocity: 0.0
doppler_bin: 8
bearing: -12.83177948
intensity: 21.9033164978
---
header: 
  seq: 1085012
  stamp: 
    secs: 1561682968
    nsecs: 944168660
  frame_id: "ti_mmwave"
point_id: 5
x: 0.283203125
y: -0.041015625
z: 1.27734375
range: 1.39446306229
velocity: 0.0
doppler_bin: 8
bearing: -8.24071216583
intensity: 23.2428245544
---
header: 
  seq: 1085013
  stamp: 
    secs: 1561682968
    nsecs: 944176607
  frame_id: "ti_mmwave"
point_id: 6
x: 0.380859375
y: -0.0
z: 1.294921875
range: 1.43804001808
velocity: 0.0
doppler_bin: 8
bearing: -0.0
intensity: 21.9312458038
---
header: 
  seq: 1085014
  stamp: 
    secs: 1561682968
    nsecs: 944185057
  frame_id: "ti_mmwave"
point_id: 7
x: 1.814453125
y: -0.171875
z: -0.255859375
range: 1.96096372604
velocity: 0.0
doppler_bin: 8
bearing: -5.41122579575
intensity: 29.8497714996
---
header: 
  seq: 1085015
  stamp: 
    secs: 1561682968
    nsecs: 944193568
  frame_id: "ti_mmwave"
point_id: 8
x: 2.544921875
y: -0.263671875
z: 1.189453125
range: 3.00681090355
velocity: 0.0
doppler_bin: 8
bearing: -5.91514253616
intensity: 29.5424251556
---
header: 
  seq: 1085016
  stamp: 
    secs: 1561682968
    nsecs: 944202167
  frame_id: "ti_mmwave"
point_id: 9
x: 2.599609375
y: -0.267578125
z: 1.169921875
range: 3.05038785934
velocity: 0.0
doppler_bin: 8
bearing: -5.87676620483
intensity: 32.7943878174
---
header: 
  seq: 1085017
  stamp: 
    secs: 1561682968
    nsecs: 944210195
  frame_id: "ti_mmwave"
point_id: 10
x: 2.658203125
y: -0.271484375
z: 1.138671875
range: 3.09396481514
velocity: 0.0
doppler_bin: 8
bearing: -5.83144378662
intensity: 31.9645252228
---
header: 
  seq: 1085018
  stamp: 
    secs: 1561682968
    nsecs: 944218365
  frame_id: "ti_mmwave"
point_id: 11
x: 4.33203125
y: -0.287109375
z: 1.466796875
range: 4.88062095642
velocity: 0.0
doppler_bin: 8
bearing: -3.79178547859
intensity: 28.5612449646
---
header: 
  seq: 1085019
  stamp: 
    secs: 1561682968
    nsecs: 944231198
  frame_id: "ti_mmwave"
point_id: 13
x: 0.041015625
y: -0.033203125
z: 0.0625
range: 0.0871539413929
velocity: 0.0
doppler_bin: 8
bearing: -38.9909973145
intensity: 30.1283721924
---
header: 
  seq: 1085020
  stamp: 
    secs: 1561682968
    nsecs: 944252232
  frame_id: "ti_mmwave"
point_id: 14
x: 0.052734375
y: -0.04296875
z: 0.1015625
range: 0.130730912089
velocity: 0.0
doppler_bin: 8
bearing: -39.1736602783
intensity: 29.0036716461
---
header: 
  seq: 1085021
  stamp: 
    secs: 1561682968
    nsecs: 944268399
  frame_id: "ti_mmwave"
point_id: 16
x: 1.208984375
y: 0.357421875
z: 0.134765625
range: 1.35088610649
velocity: 0.0
doppler_bin: 8
bearing: 16.4696884155
intensity: 19.1381378174
---
header: 
  seq: 1085022
  stamp: 
    secs: 1561682968
    nsecs: 944426391
  frame_id: "ti_mmwave"
point_id: 17
x: 3.736328125
y: -1.861328125
z: -1.888671875
range: 4.88062095642
velocity: 0.0
doppler_bin: 8
bearing: -26.4811267853
intensity: 26.532125473
---
header: 
  seq: 1085023
  stamp: 
    secs: 1561682969
    nsecs:   3840537
  frame_id: "ti_mmwave"
point_id: 0
x: 0.01171875
y: -0.0390625
z: -0.0078125
range: 0.0435769706964
velocity: 0.0
doppler_bin: 8
bearing: -73.3007583618
intensity: 30.7408466339
---
header: 
  seq: 1085024
  stamp: 
    secs: 1561682969
    nsecs:   3911749
  frame_id: "ti_mmwave"
point_id: 1
x: 0.017578125
y: -0.080078125
z: -0.0078125
range: 0.0871539413929
velocity: 0.0
doppler_bin: 8
bearing: -77.6192398071
intensity: 31.9672870636
---
header: 
  seq: 1085025
  stamp: 
    secs: 1561682969
    nsecs:   3925364
  frame_id: "ti_mmwave"
point_id: 2
x: 0.029296875
y: -0.119140625
z: -0.005859375
range: 0.130730912089
velocity: 0.0
doppler_bin: 8
bearing: -76.1849746704
intensity: 30.2242832184
---
header: 
  seq: 1085026
  stamp: 
    secs: 1561682969
    nsecs:   3934037
  frame_id: "ti_mmwave"
point_id: 3
x: 0.056640625
y: -0.154296875
z: 0.005859375
range: 0.174307882786
velocity: 0.0
doppler_bin: 8
bearing: -69.8423843384
intensity: 25.490032196
---
header: 
  seq: 1085027
  stamp: 
    secs: 1561682969
    nsecs:   3958709
  frame_id: "ti_mmwave"
point_id: 4
x: 0.326171875
y: -0.080078125
z: -1.22265625
range: 1.35088610649
velocity: 0.0
doppler_bin: 8
bearing: -13.7938089371
intensity: 21.9033164978
---
header: 
  seq: 1085028
  stamp: 
    secs: 1561682969
    nsecs:   3968083
  frame_id: "ti_mmwave"
point_id: 5
x: 0.298828125
y: -0.041015625
z: 1.2734375
range: 1.39446306229
velocity: 0.0
doppler_bin: 8
bearing: -7.81529378891
intensity: 23.2221927643
---
header: 
  seq: 1085029
  stamp: 
    secs: 1561682969
    nsecs:   3979387
  frame_id: "ti_mmwave"
point_id: 6
x: 0.4765625
y: -0.04296875
z: 1.26171875
range: 1.43804001808
velocity: 0.0
doppler_bin: 8
bearing: -5.15208148956
intensity: 21.9033164978
---
header: 
  seq: 1085030
  stamp: 
    secs: 1561682969
    nsecs:   3993287
  frame_id: "ti_mmwave"
point_id: 7
x: 1.87109375
y: -0.17578125
z: 0.072265625
range: 2.00454068184
velocity: 0.0
doppler_bin: 8
bearing: -5.36694097519
intensity: 26.6086540222
---
header: 
  seq: 1085031
  stamp: 
    secs: 1561682969
    nsecs:   4005424
  frame_id: "ti_mmwave"
point_id: 8
x: 1.916015625
y: -0.12109375
z: -0.1171875
range: 2.04811763763
velocity: 0.0
doppler_bin: 8
bearing: -3.61633038521
intensity: 26.6181259155
---
header: 
  seq: 1085032
  stamp: 
    secs: 1561682969
    nsecs:   4019649
  frame_id: "ti_mmwave"
point_id: 9
x: 2.552734375
y: -0.263671875
z: 1.173828125
range: 3.00681090355
velocity: 0.0
doppler_bin: 8
bearing: -5.89716720581
intensity: 29.4694328308
---
header: 
  seq: 1085033
  stamp: 
    secs: 1561682969
    nsecs:   4097667
  frame_id: "ti_mmwave"
point_id: 10
x: 2.60546875
y: -0.267578125
z: 1.15625
range: 3.05038785934
velocity: 0.0
doppler_bin: 8
bearing: -5.86364221573
intensity: 32.7921066284
---
header: 
  seq: 1085034
  stamp: 
    secs: 1561682969
    nsecs:   4112625
  frame_id: "ti_mmwave"
point_id: 11
x: 2.65625
y: -0.271484375
z: 1.142578125
range: 3.09396481514
velocity: 0.0
doppler_bin: 8
bearing: -5.83570146561
intensity: 31.9534606934
---
header: 
  seq: 1085035
  stamp: 
    secs: 1561682969
    nsecs:   4122966
  frame_id: "ti_mmwave"
point_id: 12
x: 4.404296875
y: -0.287109375
z: 1.232421875
range: 4.88062095642
velocity: 0.0
doppler_bin: 8
bearing: -3.72974681854
intensity: 30.9025802612
---
header: 
  seq: 1085036
  stamp: 
    secs: 1561682969
    nsecs:   4131377
  frame_id: "ti_mmwave"
point_id: 13
x: 4.458984375
y: -0.2890625
z: 1.18359375
range: 4.9241976738
velocity: 0.0
doppler_bin: 8
bearing: -3.70912218094
intensity: 30.5690479279
---
header: 
  seq: 1085037
  stamp: 
    secs: 1561682969
    nsecs:   4145314
  frame_id: "ti_mmwave"
point_id: 15
x: 0.041015625
y: -0.033203125
z: 0.0625
range: 0.0871539413929
velocity: 0.0
doppler_bin: 8
bearing: -38.9909973145
intensity: 30.1199302673
---
header: 
  seq: 1085038
  stamp: 
    secs: 1561682969
    nsecs:   4156912
  frame_id: "ti_mmwave"
point_id: 16
x: 0.052734375
y: -0.04296875
z: 0.1015625
range: 0.130730912089
velocity: 0.0
doppler_bin: 8
bearing: -39.1736602783
intensity: 28.9927310944
---
header: 
  seq: 1085039
  stamp: 
    secs: 1561682969
    nsecs:   4174374
  frame_id: "ti_mmwave"
point_id: 18
x: 1.208984375
y: 0.357421875
z: 0.138671875
range: 1.35088610649
velocity: 0.0
doppler_bin: 8
bearing: 16.4696884155
intensity: 19.1381378174
---
header: 
  seq: 1085040
  stamp: 
    secs: 1561682969
    nsecs:   4958333
  frame_id: "ti_mmwave"
point_id: 0
x: 0.01171875
y: -0.0390625
z: -0.0078125
range: 0.0435769706964
velocity: 0.0
doppler_bin: 8
bearing: -73.3007583618
intensity: 30.7371826172
---
header: 
  seq: 1085041
  stamp: 
    secs: 1561682969
    nsecs:   4989338
  frame_id: "ti_mmwave"
point_id: 1
x: 0.017578125
y: -0.080078125
z: -0.0078125
range: 0.0871539413929
velocity: 0.0
doppler_bin: 8
bearing: -77.6192398071
intensity: 31.9617614746
---
header: 
  seq: 1085042
  stamp: 
    secs: 1561682969
    nsecs:   4998726
  frame_id: "ti_mmwave"
point_id: 2
x: 0.041015625
y: -0.115234375
z: -0.0078125
range: 0.130730912089
velocity: 0.0
doppler_bin: 8
bearing: -70.4077224731
intensity: 30.2118930817
---
header: 
  seq: 1085043
  stamp: 
    secs: 1561682969
    nsecs:   5009881
  frame_id: "ti_mmwave"
point_id: 3
x: 0.056640625
y: -0.154296875
z: 0.005859375
range: 0.174307882786
velocity: 0.0
doppler_bin: 8
bearing: -69.8423843384
intensity: 25.4654273987
---
header: 
  seq: 1085044
  stamp: 
    secs: 1561682969
    nsecs:   5020991
  frame_id: "ti_mmwave"
point_id: 4
x: 0.376953125
y: -0.080078125
z: -1.208984375
range: 1.35088610649
velocity: 0.0
doppler_bin: 8
bearing: -11.9933481216
intensity: 21.9865703583
---
header: 
  seq: 1085045
  stamp: 
    secs: 1561682969
    nsecs:   5059995
  frame_id: "ti_mmwave"
point_id: 5
x: 0.29296875
y: -0.041015625
z: 1.275390625
range: 1.39446306229
velocity: 0.0
doppler_bin: 8
bearing: -7.96961069107
intensity: 23.2837963104
---
header: 
  seq: 1085046
  stamp: 
    secs: 1561682969
    nsecs:   5068356
  frame_id: "ti_mmwave"
point_id: 6
x: 0.4140625
y: -0.0
z: 1.28515625
range: 1.43804001808
velocity: 0.0
doppler_bin: 8
bearing: -0.0
intensity: 21.9865703583
---
header: 
  seq: 1085047
  stamp: 
    secs: 1561682969
    nsecs:   5075875
  frame_id: "ti_mmwave"
point_id: 7
x: 2.5546875
y: -0.263671875
z: 1.169921875
range: 3.00681090355
velocity: 0.0
doppler_bin: 8
bearing: -5.89269018173
intensity: 29.484128952
---
header: 
  seq: 1085048
  stamp: 
    secs: 1561682969
    nsecs:   5087096
  frame_id: "ti_mmwave"
point_id: 8
x: 2.611328125
y: -0.267578125
z: 1.14453125
range: 3.05038785934
velocity: 0.0
doppler_bin: 8
bearing: -5.85057687759
intensity: 32.8057823181
---
header: 
  seq: 1085049
  stamp: 
    secs: 1561682969
    nsecs:   5099084
  frame_id: "ti_mmwave"
point_id: 9
x: 2.669921875
y: -0.181640625
z: 1.12890625
range: 3.09396481514
velocity: 0.0
doppler_bin: 8
bearing: -3.89196038246
intensity: 31.9728050232
---
header: 
  seq: 1085050
  stamp: 
    secs: 1561682969
    nsecs:   5123796
  frame_id: "ti_mmwave"
point_id: 10
x: 4.412109375
y: -0.287109375
z: 1.19921875
range: 4.88062095642
velocity: 0.0
doppler_bin: 8
bearing: -3.72316122055
intensity: 31.0619087219
---
header: 
  seq: 1085051
  stamp: 
    secs: 1561682969
    nsecs:   5172291
  frame_id: "ti_mmwave"
point_id: 11
x: 4.466796875
y: -0.2890625
z: 1.15234375
range: 4.9241976738
velocity: 0.0
doppler_bin: 8
bearing: -3.70265316963
intensity: 30.3742656708
---
header: 
  seq: 1085052
  stamp: 
    secs: 1561682969
    nsecs:   5193287
  frame_id: "ti_mmwave"
point_id: 13
x: 0.041015625
y: -0.033203125
z: 0.0625
range: 0.0871539413929
velocity: 0.0
doppler_bin: 8
bearing: -38.9909973145
intensity: 30.1241531372
---
header: 
  seq: 1085053
  stamp: 
    secs: 1561682969
    nsecs:   5206975
  frame_id: "ti_mmwave"
point_id: 14
x: 0.044921875
y: -0.046875
z: 0.103515625
range: 0.130730912089
velocity: 0.0
doppler_bin: 8
bearing: -46.218875885
intensity: 29.0036716461
---
header: 
  seq: 1085054
  stamp: 
    secs: 1561682969
    nsecs:   5221535
  frame_id: "ti_mmwave"
point_id: 16
x: 1.212890625
y: 0.357421875
z: 0.109375
range: 1.35088610649
velocity: 0.0
doppler_bin: 8
bearing: 16.419506073
intensity: 19.1907806396
---
header: 
  seq: 1085055
  stamp: 
    secs: 1561682969
    nsecs:   5231689
  frame_id: "ti_mmwave"
point_id: 17
x: 2.94140625
y: -2.021484375
z: -2.9375
range: 4.9241976738
velocity: 0.0
doppler_bin: 8
bearing: -34.4988365173
intensity: 27.4507484436
---
header: 
  seq: 1085056
  stamp: 
    secs: 1561682969
    nsecs:  63879883
  frame_id: "ti_mmwave"
point_id: 0
x: 0.01171875
y: -0.0390625
z: -0.0078125
range: 0.0435769706964
velocity: 0.0
doppler_bin: 8
bearing: -73.3007583618
intensity: 30.7371826172
---
header: 
  seq: 1085057
  stamp: 
    secs: 1561682969
    nsecs:  63951699
  frame_id: "ti_mmwave"
point_id: 1
x: 0.017578125
y: -0.080078125
z: -0.0078125
range: 0.0871539413929
velocity: 0.0
doppler_bin: 8
bearing: -77.6192398071
intensity: 31.9617614746
---
header: 
  seq: 1085058
  stamp: 
    secs: 1561682969
    nsecs:  63968528
  frame_id: "ti_mmwave"
point_id: 2
x: 0.041015625
y: -0.115234375
z: -0.0078125
range: 0.130730912089
velocity: 0.0
doppler_bin: 8
bearing: -70.4077224731
intensity: 30.2118930817
---
header: 
  seq: 1085059
  stamp: 
    secs: 1561682969
    nsecs:  63983936
  frame_id: "ti_mmwave"
point_id: 3
x: 0.056640625
y: -0.154296875
z: 0.005859375
range: 0.174307882786
velocity: 0.0
doppler_bin: 8
bearing: -69.8423843384
intensity: 25.4777469635
---
header: 
  seq: 1085060
  stamp: 
    secs: 1561682969
    nsecs:  63996293
  frame_id: "ti_mmwave"
point_id: 4
x: 0.369140625
y: -0.080078125
z: -1.2109375
range: 1.35088610649
velocity: 0.0
doppler_bin: 8
bearing: -12.2396001816
intensity: 21.9589958191
---
header: 
  seq: 1085061
  stamp: 
    secs: 1561682969
    nsecs:  64008137
  frame_id: "ti_mmwave"
point_id: 5
x: 0.2734375
y: -0.041015625
z: 1.279296875
range: 1.39446306229
velocity: 0.0
doppler_bin: 8
bearing: -8.53076648712
intensity: 23.2633590698
---
header: 
  seq: 1085062
  stamp: 
    secs: 1561682969
    nsecs:  64016851
  frame_id: "ti_mmwave"
point_id: 6
x: 0.412109375
y: -0.0
z: 1.28515625
range: 1.43804001808
velocity: 0.0
doppler_bin: 8
bearing: -0.0
intensity: 21.9312458038
---
header: 
  seq: 1085063
  stamp: 
    secs: 1561682969
    nsecs:  64025493
  frame_id: "ti_mmwave"
point_id: 7
x: 2.55078125
y: -0.263671875
z: 1.177734375
range: 3.00681090355
velocity: 0.0
doppler_bin: 8
bearing: -5.90165042877
intensity: 29.4546852112
---
header: 
  seq: 1085064
  stamp: 
    secs: 1561682969
    nsecs:  64033195
  frame_id: "ti_mmwave"
point_id: 8
x: 2.60546875
y: -0.267578125
z: 1.158203125
range: 3.05038785934
velocity: 0.0
doppler_bin: 8
bearing: -5.86364221573
intensity: 32.8012275696
---
header: 
  seq: 1085065
  stamp: 
    secs: 1561682969
    nsecs:  64042810
  frame_id: "ti_mmwave"
point_id: 9
x: 2.662109375
y: -0.271484375
z: 1.126953125
range: 3.09396481514
velocity: 0.0
doppler_bin: 8
bearing: -5.82294607162
intensity: 32.0002937317
---
header: 
  seq: 1085066
  stamp: 
    secs: 1561682969
    nsecs:  64051351
  frame_id: "ti_mmwave"
point_id: 10
x: 4.416015625
y: -0.287109375
z: 1.185546875
range: 4.88062095642
velocity: 0.0
doppler_bin: 8
bearing: -3.71987724304
intensity: 30.5842609406
---
header: 
  seq: 1085067
  stamp: 
    secs: 1561682969
    nsecs:  64061088
  frame_id: "ti_mmwave"
point_id: 11
x: 4.470703125
y: -0.2890625
z: 1.142578125
range: 4.9241976738
velocity: 0.0
doppler_bin: 8
bearing: -3.69942688942
intensity: 29.9782314301
---
header: 
  seq: 1085068
  stamp: 
    secs: 1561682969
    nsecs:  64071716
  frame_id: "ti_mmwave"
point_id: 13
x: 0.041015625
y: -0.033203125
z: 0.0625
range: 0.0871539413929
velocity: 0.0
doppler_bin: 8
bearing: -38.9909973145
intensity: 30.1325874329
---
header: 
  seq: 1085069
  stamp: 
    secs: 1561682969
    nsecs:  64079898
  frame_id: "ti_mmwave"
point_id: 14
x: 0.052734375
y: -0.04296875
z: 0.1015625
range: 0.130730912089
velocity: 0.0
doppler_bin: 8
bearing: -39.1736602783
intensity: 29.0091304779
---
header: 
  seq: 1085070
  stamp: 
    secs: 1561682969
    nsecs:  64102400
  frame_id: "ti_mmwave"
point_id: 16
x: 1.2109375
y: 0.357421875
z: 0.126953125
range: 1.35088610649
velocity: 0.0
doppler_bin: 8
bearing: 16.4445590973
intensity: 19.1381378174
---
header: 
  seq: 1085071
  stamp: 
    secs: 1561682969
    nsecs:  64120505
  frame_id: "ti_mmwave"
point_id: 17
x: 2.84765625
y: -2.00390625
z: -2.9765625
range: 4.88062095642
velocity: 0.0
doppler_bin: 8
bearing: -35.1341934204
intensity: 27.6417617798
---
header: 
  seq: 1085072
  stamp: 
    secs: 1561682969
    nsecs:  64289239
  frame_id: "ti_mmwave"
point_id: 18
x: 2.93359375
y: -2.021484375
z: -2.943359375
range: 4.9241976738
velocity: 0.0
doppler_bin: 8
bearing: -34.5699996948
intensity: 27.1683769226
---
header: 
  seq: 1085073
  stamp: 
    secs: 1561682969
    nsecs:  65277918
  frame_id: "ti_mmwave"
point_id: 0
x: 0.01171875
y: -0.0390625
z: -0.0078125
range: 0.0435769706964
velocity: 0.0
doppler_bin: 8
bearing: -73.3007583618
intensity: 30.7298469543
---
header: 
  seq: 1085074
  stamp: 
    secs: 1561682969
    nsecs:  65334027
  frame_id: "ti_mmwave"
point_id: 1
x: 0.017578125
y: -0.080078125
z: -0.0078125
range: 0.0871539413929
velocity: 0.0
doppler_bin: 8
bearing: -77.6192398071
intensity: 31.9589958191
---
header: 
  seq: 1085075
  stamp: 
    secs: 1561682969
    nsecs:  65353195
  frame_id: "ti_mmwave"
point_id: 2
x: 0.029296875
y: -0.119140625
z: -0.005859375
range: 0.130730912089
velocity: 0.0
doppler_bin: 8
bearing: -76.1849746704
intensity: 30.2160263062
---
header: 
  seq: 1085076
  stamp: 
    secs: 1561682969
    nsecs:  65366381
  frame_id: "ti_mmwave"
point_id: 3
x: 0.056640625
y: -0.154296875
z: 0.005859375
range: 0.174307882786
velocity: 0.0
doppler_bin: 8
bearing: -69.8423843384
intensity: 25.490032196
---
header: 
  seq: 1085077
  stamp: 
    secs: 1561682969
    nsecs:  65435293
  frame_id: "ti_mmwave"
point_id: 4
x: 0.345703125
y: -0.080078125
z: -1.216796875
range: 1.35088610649
velocity: 0.0
doppler_bin: 8
bearing: -13.0418901443
intensity: 21.8469142914
---
header: 
  seq: 1085078
  stamp: 
    secs: 1561682969
    nsecs:  65452335
  frame_id: "ti_mmwave"
point_id: 5
x: 0.302734375
y: -0.041015625
z: 1.2734375
range: 1.39446306229
velocity: 0.0
doppler_bin: 8
bearing: -7.71567344666
intensity: 23.2014636993
---
header: 
  seq: 1085079
  stamp: 
    secs: 1561682969
    nsecs:  65464331
  frame_id: "ti_mmwave"
point_id: 6
x: 0.400390625
y: -0.0
z: 1.2890625
range: 1.43804001808
velocity: 0.0
doppler_bin: 8
bearing: -0.0
intensity: 21.9033164978
---
header: 
  seq: 1085080
  stamp: 
    secs: 1561682969
    nsecs:  65480445
  frame_id: "ti_mmwave"
point_id: 7
x: 1.95703125
y: 0.19140625
z: -0.5625
range: 2.17884850502
velocity: 0.0
doppler_bin: 8
bearing: 5.58601236343
intensity: 27.3479976654
---
header: 
  seq: 1085081
  stamp: 
    secs: 1561682969
    nsecs:  65520972
  frame_id: "ti_mmwave"
point_id: 8
x: 2.013671875
y: 0.1953125
z: -0.5078125
range: 2.22242546082
velocity: 0.0
doppler_bin: 8
bearing: 5.53997182846
intensity: 27.6863803864
---
header: 
  seq: 1085082
  stamp: 
    secs: 1561682969
    nsecs:  65534064
  frame_id: "ti_mmwave"
point_id: 9
x: 2.556640625
y: -0.263671875
z: 1.166015625
range: 3.00681090355
velocity: 0.0
doppler_bin: 8
bearing: -5.88822031021
intensity: 29.3851966858
---
header: 
  seq: 1085083
  stamp: 
    secs: 1561682969
    nsecs:  65549022
  frame_id: "ti_mmwave"
point_id: 10
x: 2.609375
y: -0.267578125
z: 1.150390625
range: 3.05038785934
velocity: 0.0
doppler_bin: 8
bearing: -5.85492515564
intensity: 32.7646179199
---
header: 
  seq: 1085084
  stamp: 
    secs: 1561682969
    nsecs:  65560245
  frame_id: "ti_mmwave"
point_id: 11
x: 2.662109375
y: -0.271484375
z: 1.12890625
range: 3.09396481514
velocity: 0.0
doppler_bin: 8
bearing: -5.82294607162
intensity: 31.9368095398
---
header: 
  seq: 1085085
  stamp: 
    secs: 1561682969
    nsecs:  65568008
  frame_id: "ti_mmwave"
point_id: 12
x: 4.416015625
y: -0.287109375
z: 1.185546875
range: 4.88062095642
velocity: 0.0
doppler_bin: 8
bearing: -3.71987724304
intensity: 30.934217453
---
header: 
  seq: 1085086
  stamp: 
    secs: 1561682969
    nsecs:  65593317
  frame_id: "ti_mmwave"
point_id: 13
x: 4.4765625
y: -0.2890625
z: 1.1171875
range: 4.9241976738
velocity: 0.0
doppler_bin: 8
bearing: -3.69459795952
intensity: 30.3422718048
---
header: 
  seq: 1085087
  stamp: 
    secs: 1561682969
    nsecs:  65612133
  frame_id: "ti_mmwave"
point_id: 14
x: 4.841796875
y: -0.46484375
z: 0.912109375
range: 5.27281332016
velocity: 0.0
doppler_bin: 8
bearing: -5.48395681381
intensity: 30.2160263062
---
header: 
  seq: 1085088
  stamp: 
    secs: 1561682969
    nsecs:  65981155
  frame_id: "ti_mmwave"
point_id: 16
x: 0.041015625
y: -0.033203125
z: 0.0625
range: 0.0871539413929
velocity: 0.0
doppler_bin: 8
bearing: -38.9909973145
intensity: 30.1283721924
---
header: 
  seq: 1085089
  stamp: 
    secs: 1561682969
    nsecs:  66041758
  frame_id: "ti_mmwave"
point_id: 17
x: 0.046875
y: -0.046875
z: 0.103515625
range: 0.130730912089
velocity: 0.0
