header: 
  seq: 3278986
  stamp: 
    secs: 1561686388
    nsecs: 762439649
  frame_id: "ti_mmwave"
point_id: 0
x: 0.01171875
y: -0.0390625
z: -0.0078125
range: 0.0435769706964
velocity: 0.0
doppler_bin: 8
bearing: -73.3007583618
intensity: 30.7371826172
---
header: 
  seq: 3278987
  stamp: 
    secs: 1561686388
    nsecs: 762525807
  frame_id: "ti_mmwave"
point_id: 1
x: 0.017578125
y: -0.080078125
z: -0.0078125
range: 0.0871539413929
velocity: 0.0
doppler_bin: 8
bearing: -77.6192398071
intensity: 31.9728050232
---
header: 
  seq: 3278988
  stamp: 
    secs: 1561686388
    nsecs: 762542353
  frame_id: "ti_mmwave"
point_id: 2
x: 0.029296875
y: -0.119140625
z: -0.00390625
range: 0.130730912089
velocity: 0.0
doppler_bin: 8
bearing: -76.1849746704
intensity: 30.1994667053
---
header: 
  seq: 3278989
  stamp: 
    secs: 1561686388
    nsecs: 762551328
  frame_id: "ti_mmwave"
point_id: 3
x: 0.056640625
y: -0.154296875
z: 0.0078125
range: 0.174307882786
velocity: 0.0
doppler_bin: 8
bearing: -69.8423843384
intensity: 25.5022830963
---
header: 
  seq: 3278990
  stamp: 
    secs: 1561686388
    nsecs: 762560604
  frame_id: "ti_mmwave"
point_id: 4
x: 0.34765625
y: -0.080078125
z: -1.216796875
range: 1.35088610649
velocity: 0.0
doppler_bin: 8
bearing: -12.9711065292
intensity: 21.9312458038
---
header: 
  seq: 3278991
  stamp: 
    secs: 1561686388
    nsecs: 762569126
  frame_id: "ti_mmwave"
point_id: 5
x: 0.33984375
y: -0.041015625
z: 1.263671875
range: 1.39446306229
velocity: 0.0
doppler_bin: 8
bearing: -6.88172340393
intensity: 23.2221927643
---
header: 
  seq: 3278992
  stamp: 
    secs: 1561686388
    nsecs: 762579057
  frame_id: "ti_mmwave"
point_id: 6
x: 0.537109375
y: -0.04296875
z: 1.23828125
range: 1.43804001808
velocity: 0.0
doppler_bin: 8
bearing: -4.57392120361
intensity: 21.875207901
---
header: 
  seq: 3278993
  stamp: 
    secs: 1561686388
    nsecs: 762589015
  frame_id: "ti_mmwave"
point_id: 7
x: 1.873046875
y: -0.05859375
z: -0.16015625
range: 2.00454068184
velocity: 0.0
doppler_bin: 8
bearing: -1.79177570343
intensity: 27.8247261047
---
header: 
  seq: 3278994
  stamp: 
    secs: 1561686388
    nsecs: 762599496
  frame_id: "ti_mmwave"
point_id: 8
x: 1.912109375
y: -0.12109375
z: -0.16015625
range: 2.04811763763
velocity: 0.0
doppler_bin: 8
bearing: -3.62369847298
intensity: 27.5815467834
---
header: 
  seq: 3278995
  stamp: 
    secs: 1561686388
    nsecs: 762609121
  frame_id: "ti_mmwave"
point_id: 9
x: 2.54296875
y: -0.263671875
z: 1.197265625
range: 3.00681090355
velocity: 0.0
doppler_bin: 8
bearing: -5.91965341568
intensity: 29.3601074219
---
header: 
  seq: 3278996
  stamp: 
    secs: 1561686388
    nsecs: 762618503
  frame_id: "ti_mmwave"
point_id: 10
x: 2.599609375
y: -0.267578125
z: 1.171875
range: 3.05038785934
velocity: 0.0
doppler_bin: 8
bearing: -5.87676620483
intensity: 32.7207374573
---
header: 
  seq: 3278997
  stamp: 
    secs: 1561686388
    nsecs: 762627272
  frame_id: "ti_mmwave"
point_id: 11
x: 2.650390625
y: -0.181640625
z: 1.171875
range: 3.09396481514
velocity: 0.0
doppler_bin: 8
bearing: -3.92055153847
intensity: 31.9061183929
---
header: 
  seq: 3278998
  stamp: 
    secs: 1561686388
    nsecs: 762639329
  frame_id: "ti_mmwave"
point_id: 13
x: 0.041015625
y: -0.033203125
z: 0.0625
range: 0.0871539413929
velocity: 0.0
doppler_bin: 8
bearing: -38.9909973145
intensity: 30.141002655
---
header: 
  seq: 3278999
  stamp: 
    secs: 1561686388
    nsecs: 762652568
  frame_id: "ti_mmwave"
point_id: 14
x: 0.044921875
y: -0.046875
z: 0.103515625
range: 0.130730912089
velocity: 0.0
doppler_bin: 8
bearing: -46.218875885
intensity: 29.0471553802
---
header: 
  seq: 3279000
  stamp: 
    secs: 1561686388
    nsecs: 762830361
  frame_id: "ti_mmwave"
point_id: 16
x: 1.21484375
y: 0.357421875
z: 0.080078125
range: 1.35088610649
velocity: 0.0
doppler_bin: 8
bearing: 16.3945274353
intensity: 19.1381378174
---
header: 
  seq: 3279001
  stamp: 
    secs: 1561686388
    nsecs: 763647536
  frame_id: "ti_mmwave"
point_id: 0
x: 0.01171875
y: -0.0390625
z: -0.0078125
range: 0.0435769706964
velocity: 0.0
doppler_bin: 8
bearing: -73.3007583618
intensity: 30.7408466339
---
header: 
  seq: 3279002
  stamp: 
    secs: 1561686388
    nsecs: 763719074
  frame_id: "ti_mmwave"
point_id: 1
x: 0.017578125
y: -0.080078125
z: -0.0078125
range: 0.0871539413929
velocity: 0.0
doppler_bin: 8
bearing: -77.6192398071
intensity: 31.9728050232
---
header: 
  seq: 3279003
  stamp: 
    secs: 1561686388
    nsecs: 763741407
  frame_id: "ti_mmwave"
point_id: 2
x: 0.029296875
y: -0.119140625
z: -0.00390625
range: 0.130730912089
velocity: 0.0
doppler_bin: 8
bearing: -76.1849746704
intensity: 30.2036132812
---
header: 
  seq: 3279004
  stamp: 
    secs: 1561686388
    nsecs: 763755371
  frame_id: "ti_mmwave"
point_id: 3
x: 0.056640625
y: -0.154296875
z: 0.005859375
range: 0.174307882786
velocity: 0.0
doppler_bin: 8
bearing: -69.8423843384
intensity: 25.5022830963
---
header: 
  seq: 3279005
  stamp: 
    secs: 1561686388
    nsecs: 763879890
  frame_id: "ti_mmwave"
point_id: 4
x: 0.34765625
y: -0.080078125
z: -1.216796875
range: 1.35088610649
velocity: 0.0
doppler_bin: 8
bearing: -12.9711065292
intensity: 21.9589958191
---
header: 
  seq: 3279006
  stamp: 
    secs: 1561686388
    nsecs: 763909633
  frame_id: "ti_mmwave"
point_id: 5
x: 0.302734375
y: -0.041015625
z: 1.2734375
range: 1.39446306229
velocity: 0.0
doppler_bin: 8
bearing: -7.71567344666
intensity: 23.2428245544
---
header: 
  seq: 3279007
  stamp: 
    secs: 1561686388
    nsecs: 763923397
  frame_id: "ti_mmwave"
point_id: 6
x: 0.482421875
y: -0.04296875
z: 1.259765625
range: 1.43804001808
velocity: 0.0
doppler_bin: 8
bearing: -5.08983659744
intensity: 21.9312458038
---
header: 
  seq: 3279008
  stamp: 
    secs: 1561686388
    nsecs: 763981861
  frame_id: "ti_mmwave"
point_id: 7
x: 1.86328125
y: -0.05859375
z: -0.251953125
range: 2.00454068184
velocity: 0.0
doppler_bin: 8
bearing: -1.80116057396
intensity: 27.7305469513
---
header: 
  seq: 3279009
  stamp: 
    secs: 1561686388
    nsecs: 763996721
  frame_id: "ti_mmwave"
point_id: 8
x: 1.912109375
y: -0.0
z: -0.193359375
range: 2.04811763763
velocity: 0.0
doppler_bin: 8
bearing: -0.0
intensity: 27.5966777802
---
header: 
  seq: 3279010
  stamp: 
    secs: 1561686388
    nsecs: 764015610
  frame_id: "ti_mmwave"
point_id: 9
x: 2.54296875
y: -0.263671875
z: 1.193359375
range: 3.00681090355
velocity: 0.0
doppler_bin: 8
bearing: -5.91965341568
intensity: 29.4349460602
---
header: 
  seq: 3279011
  stamp: 
    secs: 1561686388
    nsecs: 764024216
  frame_id: "ti_mmwave"
point_id: 10
x: 2.619140625
y: -0.1796875
z: 1.14453125
range: 3.05038785934
velocity: 0.0
doppler_bin: 8
bearing: -3.9246571064
intensity: 32.7692108154
---
header: 
  seq: 3279012
  stamp: 
    secs: 1561686388
    nsecs: 764065895
  frame_id: "ti_mmwave"
point_id: 11
x: 2.673828125
y: -0.181640625
z: 1.119140625
range: 3.09396481514
velocity: 0.0
doppler_bin: 8
bearing: -3.88629174232
intensity: 32.0817260742
---
header: 
  seq: 3279013
  stamp: 
    secs: 1561686388
    nsecs: 764100224
  frame_id: "ti_mmwave"
point_id: 13
x: 0.041015625
y: -0.033203125
z: 0.0625
range: 0.0871539413929
velocity: 0.0
doppler_bin: 8
bearing: -38.9909973145
intensity: 30.141002655
---
header: 
  seq: 3279014
  stamp: 
    secs: 1561686388
    nsecs: 764116019
  frame_id: "ti_mmwave"
point_id: 14
x: 0.044921875
y: -0.046875
z: 0.103515625
range: 0.130730912089
velocity: 0.0
doppler_bin: 8
bearing: -46.218875885
intensity: 29.0417442322
---
header: 
  seq: 3279015
  stamp: 
    secs: 1561686388
    nsecs: 764131206
  frame_id: "ti_mmwave"
point_id: 16
x: 1.216796875
y: 0.357421875
z: 0.02734375
range: 1.35088610649
velocity: 0.0
doppler_bin: 8
bearing: 16.3696231842
intensity: 19.3449840546
---
header: 
  seq: 3279016
  stamp: 
    secs: 1561686388
    nsecs: 822411490
  frame_id: "ti_mmwave"
point_id: 0
x: 0.01171875
y: -0.0390625
z: -0.0078125
range: 0.0435769706964
velocity: 0.0
doppler_bin: 8
bearing: -73.3007583618
intensity: 30.7445068359
---
header: 
  seq: 3279017
  stamp: 
    secs: 1561686388
    nsecs: 822491762
  frame_id: "ti_mmwave"
point_id: 1
x: 0.017578125
y: -0.080078125
z: -0.0078125
range: 0.0871539413929
velocity: 0.0
doppler_bin: 8
bearing: -77.6192398071
intensity: 31.9755630493
---
header: 
  seq: 3279018
  stamp: 
    secs: 1561686388
    nsecs: 822508234
  frame_id: "ti_mmwave"
point_id: 2
x: 0.029296875
y: -0.119140625
z: -0.00390625
range: 0.130730912089
velocity: 0.0
doppler_bin: 8
bearing: -76.1849746704
intensity: 30.2036132812
---
header: 
  seq: 3279019
  stamp: 
    secs: 1561686388
    nsecs: 822524396
  frame_id: "ti_mmwave"
point_id: 3
x: 0.056640625
y: -0.154296875
z: 0.0078125
range: 0.174307882786
velocity: 0.0
doppler_bin: 8
bearing: -69.8423843384
intensity: 25.490032196
---
header: 
  seq: 3279020
  stamp: 
    secs: 1561686388
    nsecs: 822537195
  frame_id: "ti_mmwave"
point_id: 4
x: 0.353515625
y: -0.080078125
z: -1.21484375
range: 1.35088610649
velocity: 0.0
doppler_bin: 8
bearing: -12.7632131577
intensity: 21.9865703583
---
header: 
  seq: 3279021
  stamp: 
    secs: 1561686388
    nsecs: 822563622
  frame_id: "ti_mmwave"
point_id: 5
x: 0.310546875
y: -0.041015625
z: 1.271484375
range: 1.39446306229
velocity: 0.0
doppler_bin: 8
bearing: -7.52382040024
intensity: 23.2014636993
---
header: 
  seq: 3279022
  stamp: 
    secs: 1561686388
    nsecs: 822642746
  frame_id: "ti_mmwave"
point_id: 6
x: 0.5078125
y: -0.04296875
z: 1.25
range: 1.43804001808
velocity: 0.0
doppler_bin: 8
bearing: -4.83658361435
intensity: 21.9312458038
---
header: 
  seq: 3279023
  stamp: 
    secs: 1561686388
    nsecs: 822656380
  frame_id: "ti_mmwave"
point_id: 7
x: 1.82421875
y: -0.171875
z: -0.171875
range: 1.96096372604
velocity: 0.0
doppler_bin: 8
bearing: -5.38242864609
intensity: 30.0
---
header: 
  seq: 3279024
  stamp: 
    secs: 1561686388
    nsecs: 822667893
  frame_id: "ti_mmwave"
point_id: 8
x: 1.87109375
y: -0.1171875
z: -0.166015625
range: 2.00454068184
velocity: 0.0
doppler_bin: 8
bearing: -3.58378148079
intensity: 31.5442390442
---
header: 
  seq: 3279025
  stamp: 
    secs: 1561686388
    nsecs: 822679167
  frame_id: "ti_mmwave"
point_id: 9
x: 1.91796875
y: -0.12109375
z: -0.037109375
range: 2.04811763763
velocity: 0.0
doppler_bin: 8
bearing: -3.61265730858
intensity: 29.0471553802
---
header: 
  seq: 3279026
  stamp: 
    secs: 1561686388
    nsecs: 822690241
  frame_id: "ti_mmwave"
point_id: 10
x: 2.56640625
y: -0.263671875
z: 1.14453125
range: 3.00681090355
velocity: 0.0
doppler_bin: 8
bearing: -5.86597156525
intensity: 29.3951931
---
header: 
  seq: 3279027
  stamp: 
    secs: 1561686388
    nsecs: 822700824
  frame_id: "ti_mmwave"
point_id: 11
x: 2.623046875
y: -0.1796875
z: 1.134765625
range: 3.05038785934
velocity: 0.0
doppler_bin: 8
bearing: -3.91883039474
intensity: 32.7207374573
---
header: 
  seq: 3279028
  stamp: 
    secs: 1561686388
    nsecs: 822712967
  frame_id: "ti_mmwave"
point_id: 12
x: 2.6640625
y: -0.181640625
z: 1.14453125
range: 3.09396481514
velocity: 0.0
doppler_bin: 8
bearing: -3.90049386024
intensity: 31.9700469971
---
header: 
  seq: 3279029
  stamp: 
    secs: 1561686388
    nsecs: 822728751
  frame_id: "ti_mmwave"
point_id: 14
x: 0.041015625
y: -0.033203125
z: 0.0625
range: 0.0871539413929
velocity: 0.0
doppler_bin: 8
bearing: -38.9909973145
intensity: 30.141002655
---
header: 
  seq: 3279030
  stamp: 
    secs: 1561686388
    nsecs: 822741469
  frame_id: "ti_mmwave"
point_id: 15
x: 0.044921875
y: -0.046875
z: 0.103515625
range: 0.130730912089
velocity: 0.0
doppler_bin: 8
bearing: -46.218875885
intensity: 29.0471553802
---
header: 
  seq: 3279031
  stamp: 
    secs: 1561686388
    nsecs: 822758825
  frame_id: "ti_mmwave"
point_id: 17
x: 1.21484375
y: 0.357421875
z: 0.068359375
range: 1.35088610649
velocity: 0.0
doppler_bin: 8
bearing: 16.3945274353
intensity: 19.2427921295
---
header: 
  seq: 3279032
  stamp: 
    secs: 1561686388
    nsecs: 823512539
  frame_id: "ti_mmwave"
point_id: 0
x: 0.01171875
y: -0.0390625
z: -0.0078125
range: 0.0435769706964
velocity: 0.0
doppler_bin: 8
bearing: -73.3007583618
intensity: 30.7408466339
---
header: 
  seq: 3279033
  stamp: 
    secs: 1561686388
    nsecs: 823587506
  frame_id: "ti_mmwave"
point_id: 1
x: 0.017578125
y: -0.080078125
z: -0.0078125
range: 0.0871539413929
velocity: 0.0
doppler_bin: 8
bearing: -77.6192398071
intensity: 31.9728050232
---
header: 
  seq: 3279034
  stamp: 
    secs: 1561686388
    nsecs: 823607358
  frame_id: "ti_mmwave"
point_id: 2
x: 0.029296875
y: -0.119140625
z: -0.00390625
range: 0.130730912089
velocity: 0.0
doppler_bin: 8
bearing: -76.1849746704
intensity: 30.1994667053
---
header: 
  seq: 3279035
  stamp: 
    secs: 1561686388
    nsecs: 823623631
  frame_id: "ti_mmwave"
point_id: 3
x: 0.056640625
y: -0.154296875
z: 0.005859375
range: 0.174307882786
velocity: 0.0
doppler_bin: 8
bearing: -69.8423843384
intensity: 25.4777469635
---
header: 
  seq: 3279036
  stamp: 
    secs: 1561686388
    nsecs: 823637589
  frame_id: "ti_mmwave"
point_id: 4
x: 0.375
y: -0.080078125
z: -1.208984375
range: 1.35088610649
velocity: 0.0
doppler_bin: 8
bearing: -12.0539922714
intensity: 21.9589958191
---
header: 
  seq: 3279037
  stamp: 
    secs: 1561686388
    nsecs: 823796609
  frame_id: "ti_mmwave"
point_id: 5
x: 0.28125
y: -0.041015625
z: 1.27734375
range: 1.39446306229
velocity: 0.0
doppler_bin: 8
bearing: -8.29714488983
intensity: 23.2428245544
---
header: 
  seq: 3279038
  stamp: 
    secs: 1561686388
    nsecs: 823861320
  frame_id: "ti_mmwave"
point_id: 6
x: 0.400390625
y: -0.0
z: 1.2890625
range: 1.43804001808
velocity: 0.0
doppler_bin: 8
bearing: -0.0
intensity: 21.9312458038
---
header: 
  seq: 3279039
  stamp: 
    secs: 1561686388
    nsecs: 823933157
  frame_id: "ti_mmwave"
point_id: 7
x: 1.826171875
y: -0.056640625
z: -0.228515625
range: 1.96096372604
velocity: 0.0
doppler_bin: 8
bearing: -1.77651870251
intensity: 27.4973640442
---
header: 
  seq: 3279040
  stamp: 
    secs: 1561686388
    nsecs: 823948377
  frame_id: "ti_mmwave"
point_id: 8
x: 1.85546875
y: -0.1171875
z: -0.287109375
range: 2.00454068184
velocity: 0.0
doppler_bin: 8
bearing: -3.61388087273
intensity: 28.1491317749
---
header: 
  seq: 3279041
  stamp: 
    secs: 1561686388
    nsecs: 823962842
  frame_id: "ti_mmwave"
point_id: 9
x: 2.568359375
y: -0.263671875
z: 1.140625
range: 3.00681090355
velocity: 0.0
doppler_bin: 8
bearing: -5.86154127121
intensity: 29.3298072815
---
header: 
  seq: 3279042
  stamp: 
    secs: 1561686388
    nsecs: 823975768
  frame_id: "ti_mmwave"
point_id: 10
x: 2.62109375
y: -0.1796875
z: 1.140625
range: 3.05038785934
velocity: 0.0
doppler_bin: 8
bearing: -3.9217414856
intensity: 32.6951293945
---
header: 
  seq: 3279043
  stamp: 
    secs: 1561686388
    nsecs: 823985282
  frame_id: "ti_mmwave"
point_id: 11
x: 2.658203125
y: -0.181640625
z: 1.15625
range: 3.09396481514
velocity: 0.0
doppler_bin: 8
bearing: -3.90906453133
intensity: 31.9479179382
---
header: 
  seq: 3279044
  stamp: 
    secs: 1561686388
    nsecs: 824012514
  frame_id: "ti_mmwave"
point_id: 13
x: 0.041015625
y: -0.033203125
z: 0.0625
range: 0.0871539413929
velocity: 0.0
doppler_bin: 8
bearing: -38.9909973145
intensity: 30.1367969513
---
header: 
  seq: 3279045
  stamp: 
    secs: 1561686388
    nsecs: 824027996
  frame_id: "ti_mmwave"
point_id: 14
x: 0.044921875
y: -0.046875
z: 0.103515625
range: 0.130730912089
velocity: 0.0
doppler_bin: 8
bearing: -46.218875885
intensity: 29.0417442322
---
header: 
  seq: 3279046
  stamp: 
    secs: 1561686388
    nsecs: 824043608
  frame_id: "ti_mmwave"
point_id: 16
x: 1.216796875
y: 0.357421875
z: 0.05078125
range: 1.35088610649
velocity: 0.0
doppler_bin: 8
bearing: 16.3696231842
intensity: 19.2941894531
---
header: 
  seq: 3279047
  stamp: 
    secs: 1561686388
    nsecs: 882233794
  frame_id: "ti_mmwave"
point_id: 0
x: 0.01171875
y: -0.0390625
z: -0.0078125
range: 0.0435769706964
velocity: 0.0
doppler_bin: 8
bearing: -73.3007583618
intensity: 30.7371826172
---
header: 
  seq: 3279048
  stamp: 
    secs: 1561686388
    nsecs: 882308715
  frame_id: "ti_mmwave"
point_id: 1
x: 0.017578125
y: -0.080078125
z: -0.0078125
range: 0.0871539413929
velocity: 0.0
doppler_bin: 8
bearing: -77.6192398071
intensity: 31.9728050232
---
header: 
  seq: 3279049
  stamp: 
    secs: 1561686388
    nsecs: 882320152
  frame_id: "ti_mmwave"
point_id: 2
x: 0.029296875
y: -0.119140625
z: -0.00390625
range: 0.130730912089
velocity: 0.0
doppler_bin: 8
bearing: -76.1849746704
intensity: 30.2036132812
---
header: 
  seq: 3279050
  stamp: 
    secs: 1561686388
    nsecs: 882328761
  frame_id: "ti_mmwave"
point_id: 3
x: 0.056640625
y: -0.154296875
z: 0.005859375
range: 0.174307882786
velocity: 0.0
doppler_bin: 8
bearing: -69.8423843384
intensity: 25.5144996643
---
header: 
  seq: 3279051
  stamp: 
    secs: 1561686388
    nsecs: 882340864
  frame_id: "ti_mmwave"
point_id: 4
x: 0.353515625
y: -0.080078125
z: -1.21484375
range: 1.35088610649
velocity: 0.0
doppler_bin: 8
bearing: -12.7632131577
intensity: 21.9865703583
---
header: 
  seq: 3279052
  stamp: 
    secs: 1561686388
    nsecs: 882349115
  frame_id: "ti_mmwave"
point_id: 5
x: 0.30859375
y: -0.041015625
z: 1.271484375
range: 1.39446306229
velocity: 0.0
doppler_bin: 8
bearing: -7.57088899612
intensity: 23.2633590698
---
header: 
  seq: 3279053
  stamp: 
    secs: 1561686388
    nsecs: 882356465
  frame_id: "ti_mmwave"
point_id: 6
x: 0.48828125
y: -0.04296875
z: 1.2578125
range: 1.43804001808
velocity: 0.0
doppler_bin: 8
bearing: -5.02907323837
intensity: 21.9865703583
---
header: 
  seq: 3279054
  stamp: 
    secs: 1561686388
    nsecs: 882364454
  frame_id: "ti_mmwave"
point_id: 7
x: 1.83203125
y: -0.171875
z: -0.0703125
range: 1.96096372604
velocity: 0.0
doppler_bin: 8
bearing: -5.35960912704
intensity: 28.4509811401
---
header: 
  seq: 3279055
  stamp: 
    secs: 1561686388
    nsecs: 882372406
  frame_id: "ti_mmwave"
point_id: 8
x: 1.876953125
y: -0.1171875
z: -0.048828125
range: 2.00454068184
velocity: 0.0
doppler_bin: 8
bearing: -3.57262253761
intensity: 29.637878418
---
header: 
  seq: 3279056
  stamp: 
    secs: 1561686388
    nsecs: 882380387
  frame_id: "ti_mmwave"
point_id: 9
x: 2.556640625
y: -0.263671875
z: 1.166015625
range: 3.00681090355
velocity: 0.0
doppler_bin: 8
bearing: -5.88822031021
intensity: 29.4250411987
---
header: 
  seq: 3279057
  stamp: 
    secs: 1561686388
    nsecs: 882389679
  frame_id: "ti_mmwave"
point_id: 10
x: 2.615234375
y: -0.1796875
z: 1.150390625
range: 3.05038785934
velocity: 0.0
doppler_bin: 8
bearing: -3.93050074577
intensity: 32.7554168701
---
header: 
  seq: 3279058
  stamp: 
    secs: 1561686388
    nsecs: 882398728
  frame_id: "ti_mmwave"
point_id: 11
x: 2.6484375
y: -0.181640625
z: 1.177734375
range: 3.09396481514
velocity: 0.0
doppler_bin: 8
bearing: -3.92343401909
intensity: 31.9783172607
---
header: 
  seq: 3279059
  stamp: 
    secs: 1561686388
    nsecs: 882456617
  frame_id: "ti_mmwave"
point_id: 12
x: 2.01953125
y: 0.3203125
z: -0.046875
range: 2.17884850502
velocity: 0.614668667316
doppler_bin: 9
bearing: 9.01245880127
intensity: 26.394865036
---
header: 
  seq: 3279060
  stamp: 
    secs: 1561686388
    nsecs: 882474455
  frame_id: "ti_mmwave"
point_id: 14
x: 0.041015625
y: -0.033203125
z: 0.0625
range: 0.0871539413929
velocity: 0.0
doppler_bin: 8
bearing: -38.9909973145
intensity: 30.141002655
---
header: 
  seq: 3279061
  stamp: 
    secs: 1561686388
    nsecs: 882486198
  frame_id: "ti_mmwave"
point_id: 15
x: 0.044921875
y: -0.046875
z: 0.103515625
range: 0.130730912089
velocity: 0.0
doppler_bin: 8
bearing: -46.218875885
intensity: 29.0471553802
---
header: 
  seq: 3279062
  stamp: 
    secs: 1561686388
    nsecs: 882659913
  frame_id: "ti_mmwave"
point_id: 17
x: 1.212890625
y: 0.357421875
z: 0.08984375
range: 1.35088610649
velocity: 0.0
doppler_bin: 8
bearing: 16.419506073
intensity: 19.1381378174
---
header: 
  seq: 3279063
  stamp: 
    secs: 1561686388
    nsecs: 882680072
  frame_id: "ti_mmwave"
point_id: 18
x: 1.837890625
y: -0.056640625
z: -0.080078125
range: 1.96096372604
velocity: 0.0
doppler_bin: 8
bearing: -1.76519858837
intensity: 28.4385547638
---
header: 
  seq: 3279064
  stamp: 
    secs: 1561686388
    nsecs: 883491148
  frame_id: "ti_mmwave"
point_id: 0
x: 0.01171875
y: -0.0390625
z: -0.0078125
range: 0.0435769706964
velocity: 0.0
doppler_bin: 8
bearing: -73.3007583618
intensity: 30.7371826172
---
header: 
  seq: 3279065
  stamp: 
    secs: 1561686388
    nsecs: 883556265
  frame_id: "ti_mmwave"
point_id: 1
x: 0.017578125
y: -0.080078125
z: -0.0078125
range: 0.0871539413929
velocity: 0.0
doppler_bin: 8
bearing: -77.6192398071
intensity: 31.9700469971
---
header: 
  seq: 3279066
  stamp: 
    secs: 1561686388
    nsecs: 883573515
  frame_id: "ti_mmwave"
point_id: 2
x: 0.029296875
y: -0.119140625
z: -0.00390625
range: 0.130730912089
velocity: 0.0
doppler_bin: 8
bearing: -76.1849746704
intensity: 30.1994667053
---
header: 
  seq: 3279067
  stamp: 
    secs: 1561686388
    nsecs: 883586835
  frame_id: "ti_mmwave"
point_id: 3
x: 0.056640625
y: -0.154296875
z: 0.005859375
range: 0.174307882786
velocity: 0.0
doppler_bin: 8
bearing: -69.8423843384
intensity: 25.490032196
---
header: 
  seq: 3279068
  stamp: 
    secs: 1561686388
    nsecs: 883598913
  frame_id: "ti_mmwave"
point_id: 4
x: 0.314453125
y: -0.080078125
z: -1.2265625
range: 1.35088610649
velocity: 0.0
doppler_bin: 8
bearing: -14.2871713638
intensity: 21.9865703583
---
header: 
  seq: 3279069
  stamp: 
    secs: 1561686388
    nsecs: 883610266
  frame_id: "ti_mmwave"
point_id: 5
x: 0.357421875
y: -0.041015625
z: 1.259765625
range: 1.39446306229
velocity: 0.0
doppler_bin: 8
bearing: -6.54629087448
intensity: 23.2428245544
---
header: 
  seq: 3279070
  stamp: 
    secs: 1561686388
    nsecs: 883624856
  frame_id: "ti_mmwave"
point_id: 6
x: 0.53515625
y: -0.04296875
z: 1.23828125
range: 1.43804001808
velocity: 0.0
doppler_bin: 8
bearing: -4.59054327011
intensity: 21.9589958191
---
header: 
  seq: 3279071
  stamp: 
    secs: 1561686388
    nsecs: 883638891
  frame_id: "ti_mmwave"
point_id: 7
x: 1.8359375
y: -0.115234375
z: -0.060546875
range: 1.96096372604
velocity: 0.0
doppler_bin: 8
bearing: -3.59151291847
intensity: 27.3239383698
---
header: 
  seq: 3279072
  stamp: 
    secs: 1561686388
    nsecs: 883651971
  frame_id: "ti_mmwave"
point_id: 8
x: 1.876953125
y: -0.1171875
z: 0.029296875
range: 2.00454068184
velocity: 0.0
doppler_bin: 8
bearing: -3.57262253761
intensity: 28.444770813
---
header: 
  seq: 3279073
  stamp: 
    secs: 1561686388
    nsecs: 883664181
  frame_id: "ti_mmwave"
point_id: 9
x: 1.90234375
y: -0.12109375
z: 0.251953125
range: 2.04811763763
velocity: 0.0
doppler_bin: 8
bearing: -3.64225053787
intensity: 26.8214511871
---
header: 
  seq: 3279074
  stamp: 
    secs: 1561686388
    nsecs: 883781288
  frame_id: "ti_mmwave"
point_id: 10
x: 2.548828125
y: -0.263671875
z: 1.18359375
range: 3.00681090355
velocity: 0.0
doppler_bin: 8
bearing: -5.90614128113
intensity: 29.4448261261
---
header: 
  seq: 3279075
  stamp: 
    secs: 1561686388
    nsecs: 883811252
  frame_id: "ti_mmwave"
point_id: 11
x: 2.59765625
y: -0.267578125
z: 1.173828125
range: 3.05038785934
velocity: 0.0
doppler_bin: 8
bearing: -5.88115358353
intensity: 32.7852478027
---
header: 
  seq: 3279076
  stamp: 
    secs: 1561686388
    nsecs: 883824173
  frame_id: "ti_mmwave"
point_id: 12
x: 2.646484375
y: -0.181640625
z: 1.181640625
range: 3.09396481514
velocity: 0.0
doppler_bin: 8
bearing: -3.92632055283
intensity: 32.0628585815
---
header: 
  seq: 3279077
  stamp: 
    secs: 1561686388
    nsecs: 883837835
  frame_id: "ti_mmwave"
point_id: 13
x: 4.90625
y: 1.4375
z: -0.01953125
range: 5.44712114334
velocity: 0.0
doppler_bin: 8
bearing: 16.330247879
intensity: 28.8195495605
---
header: 
  seq: 3279078
  stamp: 
    secs: 1561686388
    nsecs: 883853461
  frame_id: "ti_mmwave"
point_id: 15
x: 0.041015625
y: -0.033203125
z: 0.0625
range: 0.0871539413929
velocity: 0.0
doppler_bin: 8
bearing: -38.9909973145
intensity: 30.141002655
---
header: 
  seq: 3279079
  stamp: 
    secs: 1561686388
    nsecs: 883878081
  frame_id: "ti_mmwave"
point_id: 16
x: 0.044921875
y: -0.046875
z: 0.103515625
range: 0.130730912089
velocity: 0.0
doppler_bin: 8
bearing: -46.218875885
intensity: 29.0471553802
---
header: 
  seq: 3279080
  stamp: 
    secs: 1561686388
    nsecs: 883909293
  frame_id: "ti_mmwave"
point_id: 18
x: 1.216796875
y: 0.357421875
z: 0.048828125
range: 1.35088610649
velocity: 0.0
doppler_bin: 8
bearing: 16.3696231842
intensity: 19.1907806396
---
header: 
  seq: 3279081
  stamp: 
    secs: 1561686388
    nsecs: 943237840
  frame_id: "ti_mmwave"
point_id: 0
x: 0.01171875
y: -0.0390625
z: -0.0078125
range: 0.0435769706964
velocity: 0.0
doppler_bin: 8
bearing: -73.3007583618
intensity: 30.7408466339
---
header: 
  seq: 3279082
  stamp: 
    secs: 1561686388
    nsecs: 943312483
  frame_id: "ti_mmwave"
point_id: 1
x: 0.017578125
y: -0.080078125
z: -0.0078125
range: 0.0871539413929
velocity: 0.0
doppler_bin: 8
bearing: -77.6192398071
intensity: 31.9728050232
---
header: 
  seq: 3279083
  stamp: 
    secs: 1561686388
    nsecs: 943325642
  frame_id: "ti_mmwave"
point_id: 2
x: 0.029296875
y: -0.119140625
z: -0.00390625
range: 0.130730912089
velocity: 0.0
doppler_bin: 8
bearing: -76.1849746704
intensity: 30.1994667053
---
header: 
  seq: 3279084
  stamp: 
    secs: 1561686388
    nsecs: 943334150
  frame_id: "ti_mmwave"
point_id: 3
x: 0.056640625
y: -0.154296875
z: 0.005859375
range: 0.174307882786
velocity: 0.0
doppler_bin: 8
bearing: -69.8423843384
intensity: 25.5022830963
---
header: 
  seq: 3279085
  stamp: 
    secs: 1561686388
    nsecs: 943342540
  frame_id: "ti_mmwave"
point_id: 4
x: 0.349609375
y: -0.080078125
z: -1.216796875
range: 1.35088610649
velocity: 0.0
doppler_bin: 8
bearing: -12.9010734558
intensity: 21.9033164978
---
header: 
  seq: 3279086
  stamp: 
    secs: 1561686388
    nsecs: 943350392
  frame_id: "ti_mmwave"
point_id: 5
x: 0.306640625
y: -0.041015625
z: 1.271484375
range: 1.39446306229
velocity: 0.0
doppler_bin: 8
bearing: -7.6185464859
intensity: 23.2221927643
---
header: 
  seq: 3279087
  stamp: 
    secs: 1561686388
    nsecs: 943387912
  frame_id: "ti_mmwave"
point_id: 6
x: 0.427734375
y: -0.0
z: 1.28125
range: 1.43804001808
velocity: 0.0
doppler_bin: 8
bearing: -0.0
intensity: 21.9312458038
---
header: 
  seq: 3279088
  stamp: 
    secs: 1561686388
    nsecs: 943400142
  frame_id: "ti_mmwave"
point_id: 7
x: 1.82421875
y: -0.115234375
z: -0.212890625
range: 1.96096372604
velocity: 0.0
doppler_bin: 8
bearing: -3.61452412605
intensity: 28.8252449036
---
header: 
  seq: 3279089
  stamp: 
    secs: 1561686388
    nsecs: 943408404
  frame_id: "ti_mmwave"
point_id: 8
x: 1.857421875
y: -0.1171875
z: -0.2734375
range: 2.00454068184
velocity: 0.0
doppler_bin: 8
bearing: -3.61009049416
intensity: 30.1745071411
---
header: 
  seq: 3279090
  stamp: 
    secs: 1561686388
    nsecs: 943417475
  frame_id: "ti_mmwave"
point_id: 9
x: 1.865234375
y: -0.12109375
z: -0.451171875
range: 2.04811763763
velocity: 0.0
doppler_bin: 8
bearing: -3.71451354027
intensity: 28.2020149231
---
header: 
  seq: 3279091
  stamp: 
    secs: 1561686388
    nsecs: 943425438
  frame_id: "ti_mmwave"
point_id: 10
x: 2.580078125
y: -0.263671875
z: 1.115234375
range: 3.00681090355
velocity: 0.0
doppler_bin: 8
bearing: -5.83510255814
intensity: 29.3449840546
---
header: 
  seq: 3279092
  stamp: 
    secs: 1561686388
    nsecs: 943433546
  frame_id: "ti_mmwave"
point_id: 11
x: 2.607421875
y: -0.267578125
z: 1.154296875
range: 3.05038785934
velocity: 0.0
doppler_bin: 8
bearing: -5.85928010941
intensity: 32.7114448547
---
header: 
  seq: 3279093
  stamp: 
    secs: 1561686388
    nsecs: 943441538
  frame_id: "ti_mmwave"
point_id: 12
x: 2.654296875
y: -0.181640625
z: 1.16796875
range: 3.09396481514
velocity: 0.0
doppler_bin: 8
bearing: -3.91479969025
intensity: 31.9340286255
---
header: 
  seq: 3279094
  stamp: 
    secs: 1561686388
    nsecs: 943449794
  frame_id: "ti_mmwave"
point_id: 13
x: 2.044921875
y: 0.390625
z: 0.140625
range: 2.22242546082
velocity: 0.614668667316
doppler_bin: 9
bearing: 10.8144702911
intensity: 27.6863803864
---
header: 
  seq: 3279095
  stamp: 
    secs: 1561686388
    nsecs: 943457877
  frame_id: "ti_mmwave"
point_id: 14
x: 2.087890625
y: 0.3984375
z: 0.09375
range: 2.26600241661
velocity: 0.614668667316
doppler_bin: 9
bearing: 10.8039999008
intensity: 26.9019603729
---
header: 
  seq: 3279096
  stamp: 
    secs: 1561686388
    nsecs: 943481404
  frame_id: "ti_mmwave"
point_id: 16
x: 0.041015625
y: -0.033203125
z: 0.0625
range: 0.0871539413929
velocity: 0.0
doppler_bin: 8
bearing: -38.9909973145
intensity: 30.1452045441
---
header: 
  seq: 3279097
  stamp: 
    secs: 1561686388
    nsecs: 943650377
  frame_id: "ti_mmwave"
point_id: 17
x: 0.044921875
y: -0.046875
z: 0.103515625
range: 0.130730912089
velocity: 0.0
doppler_bin: 8
bearing: -46.218875885
intensity: 29.0471553802
---
header: 
  seq: 3279098
  stamp: 
    secs: 1561686388
    nsecs: 943675488
  frame_id: "ti_mmwave"
point_id: 19
x: 1.21484375
y: 0.357421875
z: 0.060546875
range: 1.35088610649
velocity: 0.0
doppler_bin: 8
bearing: 16.3945274353
intensity: 19.2427921295
---
header: 
  seq: 3279099
  stamp: 
    secs: 1561686389
    nsecs:   2443477
  frame_id: "ti_mmwave"
point_id: 0
x: 0.01171875
y: -0.0390625
z: -0.0078125
range: 0.0435769706964
velocity: 0.0
doppler_bin: 8
bearing: -73.3007583618
intensity: 30.7335166931
---
header: 
  seq: 3279100
  stamp: 
    secs: 1561686389
    nsecs:   2530859
  frame_id: "ti_mmwave"
point_id: 1
x: 0.017578125
y: -0.080078125
z: -0.0078125
range: 0.0871539413929
velocity: 0.0
doppler_bin: 8
bearing: -77.6192398071
intensity: 31.9700469971
---
header: 
  seq: 3279101
  stamp: 
    secs: 1561686389
    nsecs:   2552085
  frame_id: "ti_mmwave"
point_id: 2
x: 0.029296875
y: -0.119140625
z: -0.00390625
range: 0.130730912089
velocity: 0.0
doppler_bin: 8
bearing: -76.1849746704
intensity: 30.2036132812
---
header: 
  seq: 3279102
  stamp: 
    secs: 1561686389
    nsecs:   2563774
  frame_id: "ti_mmwave"
point_id: 3
x: 0.056640625
y: -0.154296875
z: 0.005859375
range: 0.174307882786
velocity: 0.0
doppler_bin: 8
bearing: -69.8423843384
intensity: 25.5022830963
---
header: 
  seq: 3279103
  stamp: 
    secs: 1561686389
    nsecs:   2575179
  frame_id: "ti_mmwave"
point_id: 4
x: 0.361328125
y: -0.080078125
z: -1.212890625
range: 1.35088610649
velocity: 0.0
doppler_bin: 8
bearing: -12.4960107803
intensity: 21.9033164978
---
header: 
  seq: 3279104
  stamp: 
    secs: 1561686389
    nsecs:   2587920
  frame_id: "ti_mmwave"
point_id: 5
x: 0.3125
y: -0.041015625
z: 1.26953125
range: 1.39446306229
velocity: 0.0
doppler_bin: 8
bearing: -7.47732973099
intensity: 23.2221927643
---
header: 
  seq: 3279105
  stamp: 
    secs: 1561686389
    nsecs:   2599710
  frame_id: "ti_mmwave"
point_id: 6
x: 0.431640625
y: -0.0
z: 1.279296875
range: 1.43804001808
velocity: 0.0
doppler_bin: 8
bearing: -0.0
intensity: 21.9312458038
---
header: 
  seq: 3279106
  stamp: 
    secs: 1561686389
    nsecs:   2610913
  frame_id: "ti_mmwave"
point_id: 7
x: 1.828125
y: -0.056640625
z: -0.201171875
range: 1.96096372604
velocity: 0.0
doppler_bin: 8
bearing: -1.77462208271
intensity: 28.4010601044
---
header: 
  seq: 3279107
  stamp: 
    secs: 1561686389
    nsecs:   2622379
  frame_id: "ti_mmwave"
point_id: 8
x: 1.869140625
y: -0.05859375
z: -0.21484375
range: 2.00454068184
velocity: 0.0
doppler_bin: 8
bearing: -1.79551804066
intensity: 30.6892757416
---
header: 
  seq: 3279108
  stamp: 
    secs: 1561686389
    nsecs:   2636155
  frame_id: "ti_mmwave"
point_id: 9
x: 1.90625
y: -0.060546875
z: -0.244140625
range: 2.04811763763
velocity: 0.0
doppler_bin: 8
bearing: -1.81923389435
intensity: 30.6182937622
---
header: 
  seq: 3279109
  stamp: 
    secs: 1561686389
    nsecs:   2740571
  frame_id: "ti_mmwave"
point_id: 10
x: 1.94140625
y: -0.060546875
z: -0.28515625
range: 2.09169459343
velocity: 0.0
doppler_bin: 8
bearing: -1.78631150723
intensity: 29.1907806396
---
header: 
  seq: 3279110
  stamp: 
    secs: 1561686389
    nsecs:   2758815
  frame_id: "ti_mmwave"
point_id: 11
x: 2.533203125
y: -0.263671875
z: 1.216796875
range: 3.00681090355
velocity: 0.0
doppler_bin: 8
bearing: -5.94231081009
intensity: 29.4299964905
---
header: 
  seq: 3279111
  stamp: 
    secs: 1561686389
    nsecs:   2771247
  frame_id: "ti_mmwave"
point_id: 12
x: 2.59765625
y: -0.267578125
z: 1.17578125
range: 3.05038785934
velocity: 0.0
doppler_bin: 8
bearing: -5.88115358353
intensity: 32.7646179199
---
header: 
  seq: 3279112
  stamp: 
    secs: 1561686389
    nsecs:   2785264
  frame_id: "ti_mmwave"
point_id: 13
x: 2.654296875
y: -0.181640625
z: 1.1640625
range: 3.09396481514
velocity: 0.0
doppler_bin: 8
bearing: -3.91479969025
intensity: 31.994808197
---
header: 
  seq: 3279113
  stamp: 
    secs: 1561686389
    nsecs:   2796947
  frame_id: "ti_mmwave"
point_id: 14
x: 1.9921875
y: 0.45703125
z: 0.4140625
range: 2.22242546082
velocity: 0.614668667316
doppler_bin: 9
bearing: 12.9207496643
intensity: 27.0671787262
---
header: 
  seq: 3279114
  stamp: 
    secs: 1561686389
    nsecs:   2805319
  frame_id: "ti_mmwave"
point_id: 15
x: 2.04296875
y: 0.46484375
z: 0.3671875
range: 2.26600241661
velocity: 0.614668667316
doppler_bin: 9
bearing: 12.8184700012
intensity: 26.9722938538
---
header: 
  seq: 3279115
  stamp: 
    secs: 1561686389
    nsecs:   2816148
  frame_id: "ti_mmwave"
point_id: 17
x: 0.041015625
y: -0.033203125
z: 0.0625
range: 0.0871539413929
velocity: 0.0
doppler_bin: 8
bearing: -38.9909973145
intensity: 30.1452045441
---
header: 
  seq: 3279116
  stamp: 
    secs: 1561686389
    nsecs:   2825372
  frame_id: "ti_mmwave"
point_id: 18
x: 0.044921875
y: -0.046875
z: 0.103515625
range: 0.130730912089
velocity: 0.0
doppler_bin: 8
bearing: -46.218875885
intensity: 29.0471553802
---
header: 
  seq: 3279117
  stamp: 
    secs: 1561686389
    nsecs:   2836424
  frame_id: "ti_mmwave"
point_id: 20
x: 1.21484375
y: 0.357421875
z: 0.068359375
range: 1.35088610649
velocity: 0.0
doppler_bin: 8
bearing: 16.3945274353
intensity: 19.1907806396
---
header: 
  seq: 3279118
  stamp: 
    secs: 1561686389
    nsecs:   3728788
  frame_id: "ti_mmwave"
point_id: 0
x: 0.01171875
y: -0.0390625
z: -0.0078125
range: 0.0435769706964
velocity: 0.0
doppler_bin: 8
bearing: -73.3007583618
intensity: 30.7408466339
---
header: 
  seq: 3279119
  stamp: 
    secs: 1561686389
    nsecs:   3804254
  frame_id: "ti_mmwave"
point_id: 1
x: 0.017578125
y: -0.080078125
z: -0.0078125
range: 0.0871539413929
velocity: 0.0
doppler_bin: 8
bearing: -77.6192398071
intensity: 31.9728050232
---
header: 
  seq: 3279120
  stamp: 
    secs: 1561686389
    nsecs:   3824144
  frame_id: "ti_mmwave"
point_id: 2
x: 0.029296875
y: -0.119140625
z: -0.00390625
range: 0.130730912089
velocity: 0.0
doppler_bin: 8
bearing: -76.1849746704
intensity: 30.2036132812
---
header: 
  seq: 3279121
  stamp: 
    secs: 1561686389
    nsecs:   3839168
  frame_id: "ti_mmwave"
point_id: 3
x: 0.056640625
y: -0.154296875
z: 0.005859375
range: 0.174307882786
velocity: 0.0
doppler_bin: 8
bearing: -69.8423843384
intensity: 25.5022830963
---
header: 
  seq: 3279122
  stamp: 
    secs: 1561686389
    nsecs:   3909497
  frame_id: "ti_mmwave"
point_id: 4
x: 0.35546875
y: -0.080078125
z: -1.21484375
range: 1.35088610649
velocity: 0.0
doppler_bin: 8
bearing: -12.6953649521
intensity: 21.9589958191
---
header: 
  seq: 3279123
  stamp: 
    secs: 1561686389
    nsecs:   3923759
  frame_id: "ti_mmwave"
point_id: 5
x: 0.294921875
y: -0.041015625
z: 1.275390625
range: 1.39446306229
velocity: 0.0
doppler_bin: 8
bearing: -7.91750335693
intensity: 23.2428245544
---
header: 
  seq: 3279124
  stamp: 
    secs: 1561686389
    nsecs:   3934449
  frame_id: "ti_mmwave"
point_id: 6
x: 0.4921875
y: -0.04296875
z: 1.255859375
range: 1.43804001808
velocity: 0.0
doppler_bin: 8
bearing: -4.98936271667
intensity: 21.9589958191
---
header: 
  seq: 3279125
  stamp: 
    secs: 1561686389
    nsecs:   3945865
  frame_id: "ti_mmwave"
point_id: 7
x: 1.8671875
y: -0.05859375
z: -0.220703125
range: 2.00454068184
velocity: 0.0
doppler_bin: 8
bearing: -1.79739499092
intensity: 29.9166908264
---
header: 
  seq: 3279126
  stamp: 
    secs: 1561686389
    nsecs:   3958876
  frame_id: "ti_mmwave"
point_id: 8
x: 1.91015625
y: -0.060546875
z: -0.20703125
range: 2.04811763763
velocity: 0.0
doppler_bin: 8
bearing: -1.81551587582
intensity: 29.6520175934
---
header: 
  seq: 3279127
  stamp: 
    secs: 1561686389
    nsecs:   3971134
  frame_id: "ti_mmwave"
point_id: 9
x: 1.998046875
y: 0.45703125
z: 0.390625
range: 2.22242546082
velocity: 0.0
doppler_bin: 8
bearing: 12.8841266632
intensity: 29.4546852112
---
header: 
  seq: 3279128
  stamp: 
    secs: 1561686389
    nsecs:   3983194
  frame_id: "ti_mmwave"
point_id: 10
x: 2.05859375
y: 0.3984375
z: 0.36328125
range: 2.26600241661
velocity: 0.0
doppler_bin: 8
bearing: 10.9540624619
intensity: 30.5115261078
---
header: 
  seq: 3279129
  stamp: 
    secs: 1561686389
    nsecs:   3995856
  frame_id: "ti_mmwave"
point_id: 11
x: 2.099609375
y: 0.40625
z: 0.353515625
range: 2.30957937241
velocity: 0.0
doppler_bin: 8
bearing: 10.9507484436
intensity: 27.7815132141
---
header: 
  seq: 3279130
  stamp: 
    secs: 1561686389
    nsecs:   4025807
  frame_id: "ti_mmwave"
point_id: 12
x: 2.53515625
y: -0.263671875
z: 1.21484375
range: 3.00681090355
velocity: 0.0
doppler_bin: 8
bearing: -5.9377655983
intensity: 29.2272548676
---
header: 
  seq: 3279131
  stamp: 
    secs: 1561686389
    nsecs:   4053619
  frame_id: "ti_mmwave"
point_id: 13
x: 2.59765625
y: -0.267578125
z: 1.173828125
range: 3.05038785934
velocity: 0.0
doppler_bin: 8
bearing: -5.88115358353
intensity: 32.73695755
---
header: 
  seq: 3279132
  stamp: 
    secs: 1561686389
    nsecs:   4066675
  frame_id: "ti_mmwave"
point_id: 14
x: 2.654296875
y: -0.181640625
z: 1.166015625
range: 3.09396481514
velocity: 0.0
doppler_bin: 8
bearing: -3.91479969025
intensity: 32.0709571838
---
header: 
  seq: 3279133
  stamp: 
    secs: 1561686389
    nsecs:   4083519
  frame_id: "ti_mmwave"
point_id: 16
x: 0.041015625
y: -0.033203125
z: 0.0625
range: 0.0871539413929
velocity: 0.0
doppler_bin: 8
bearing: -38.9909973145
intensity: 30.1452045441
---
header: 
  seq: 3279134
  stamp: 
    secs: 1561686389
    nsecs:   4094127
  frame_id: "ti_mmwave"
point_id: 17
x: 0.044921875
y: -0.046875
z: 0.103515625
range: 0.130730912089
velocity: 0.0
doppler_bin: 8
bearing: -46.218875885
intensity: 29.0417442322
---
header: 
  seq: 3279135
  stamp: 
    secs: 1561686389
    nsecs:   4106591
  frame_id: "ti_mmwave"
point_id: 19
x: 1.21484375
y: 0.357421875
z: 0.068359375
range: 1.35088610649
velocity: 0.0
doppler_bin: 8
bearing: 16.3945274353
intensity: 19.2941894531
---
header: 
  seq: 3279136
  stamp: 
    secs: 1561686389
    nsecs:  62217847
  frame_id: "ti_mmwave"
point_id: 0
x: 0.01171875
y: -0.0390625
z: -0.0078125
range: 0.0435769706964
velocity: 0.0
doppler_bin: 8
bearing: -73.3007583618
intensity: 30.7371826172
---
header: 
  seq: 3279137
  stamp: 
    secs: 1561686389
    nsecs:  62296432
  frame_id: "ti_mmwave"
point_id: 1
x: 0.017578125
y: -0.080078125
z: -0.0078125
range: 0.0871539413929
velocity: 0.0
doppler_bin: 8
bearing: -77.6192398071
intensity: 31.9728050232
---
header: 
  seq: 3279138
  stamp: 
    secs: 1561686389
    nsecs:  62308968
  frame_id: "ti_mmwave"
point_id: 2
x: 0.029296875
y: -0.119140625
z: -0.00390625
range: 0.130730912089
velocity: 0.0
doppler_bin: 8
bearing: -76.1849746704
intensity: 30.1994667053
---
header: 
  seq: 3279139
  stamp: 
    secs: 1561686389
    nsecs:  62317845
  frame_id: "ti_mmwave"
point_id: 3
x: 0.056640625
y: -0.154296875
z: 0.005859375
range: 0.174307882786
velocity: 0.0
doppler_bin: 8
bearing: -69.8423843384
intensity: 25.490032196
---
header: 
  seq: 3279140
  stamp: 
    secs: 1561686389
    nsecs:  62326586
  frame_id: "ti_mmwave"
point_id: 4
x: 0.34765625
y: -0.080078125
z: -1.216796875
range: 1.35088610649
velocity: 0.0
doppler_bin: 8
bearing: -12.9711065292
intensity: 21.9865703583
---
header: 
  seq: 3279141
  stamp: 
    secs: 1561686389
    nsecs:  62334741
  frame_id: "ti_mmwave"
point_id: 5
x: 0.306640625
y: -0.041015625
z: 1.271484375
range: 1.39446306229
velocity: 0.0
doppler_bin: 8
bearing: -7.6185464859
intensity: 23.2428245544
---
header: 
  seq: 3279142
  stamp: 
    secs: 1561686389
    nsecs:  62342737
  frame_id: "ti_mmwave"
point_id: 6
x: 0.49609375
y: -0.04296875
z: 1.25390625
range: 1.43804001808
velocity: 0.0
doppler_bin: 8
bearing: -4.95027208328
intensity: 21.9589958191
---
header: 
  seq: 3279143
  stamp: 
    secs: 1561686389
    nsecs:  62351061
  frame_id: "ti_mmwave"
point_id: 7
x: 1.875
y: -0.1171875
z: -0.11328125
range: 2.00454068184
velocity: 0.0
doppler_bin: 8
bearing: -3.57633447647
intensity: 30.2077541351
---
header: 
  seq: 3279144
  stamp: 
    secs: 1561686389
    nsecs:  62360794
  frame_id: "ti_mmwave"
point_id: 8
x: 1.916015625
y: -0.12109375
z: -0.091796875
range: 2.04811763763
velocity: 0.0
doppler_bin: 8
bearing: -3.61633038521
intensity: 30.8278541565
---
header: 
  seq: 3279145
  stamp: 
    secs: 1561686389
    nsecs:  62368597
  frame_id: "ti_mmwave"
point_id: 9
x: 1.9609375
y: -0.060546875
z: -0.05859375
range: 2.09169459343
velocity: 0.0
doppler_bin: 8
bearing: -1.76853096485
intensity: 28.4941940308
---
header: 
  seq: 3279146
  stamp: 
    secs: 1561686389
    nsecs:  62392301
  frame_id: "ti_mmwave"
point_id: 10
x: 1.99609375
y: 0.326171875
z: 0.51171875
range: 2.22242546082
velocity: 0.0
doppler_bin: 8
bearing: 9.28040218353
intensity: 28.1491317749
---
header: 
  seq: 3279147
  stamp: 
    secs: 1561686389
    nsecs:  62403711
  frame_id: "ti_mmwave"
point_id: 11
x: 2.037109375
y: 0.33203125
z: 0.517578125
range: 2.26600241661
velocity: 0.0
doppler_bin: 8
bearing: 9.25731277466
intensity: 28.9542255402
---
header: 
  seq: 3279148
  stamp: 
    secs: 1561686389
    nsecs:  62599479
  frame_id: "ti_mmwave"
point_id: 12
x: 2.548828125
y: -0.263671875
z: 1.181640625
range: 3.00681090355
velocity: 0.0
doppler_bin: 8
bearing: -5.90614128113
intensity: 29.4001808167
---
header: 
  seq: 3279149
  stamp: 
    secs: 1561686389
    nsecs:  62619051
  frame_id: "ti_mmwave"
point_id: 13
x: 2.615234375
y: -0.1796875
z: 1.154296875
range: 3.05038785934
velocity: 0.0
doppler_bin: 8
bearing: -3.93050074577
intensity: 32.699798584
---
header: 
  seq: 3279150
  stamp: 
    secs: 1561686389
    nsecs:  62627727
  frame_id: "ti_mmwave"
point_id: 14
x: 2.666015625
y: -0.181640625
z: 1.138671875
range: 3.09396481514
velocity: 0.0
doppler_bin: 8
bearing: -3.89764523506
intensity: 31.9228858948
---
header: 
  seq: 3279151
  stamp: 
    secs: 1561686389
    nsecs:  62640015
  frame_id: "ti_mmwave"
point_id: 16
x: 0.041015625
y: -0.033203125
z: 0.0625
range: 0.0871539413929
velocity: 0.0
doppler_bin: 8
bearing: -38.9909973145
intensity: 30.1452045441
---
header: 
  seq: 3279152
  stamp: 
    secs: 1561686389
    nsecs:  62648013
  frame_id: "ti_mmwave"
point_id: 17
x: 0.044921875
y: -0.046875
z: 0.103515625
range: 0.130730912089
velocity: 0.0
doppler_bin: 8
bearing: -46.218875885
intensity: 29.0471553802
---
header: 
  seq: 3279153
  stamp: 
    secs: 1561686389
    nsecs:  62659610
  frame_id: "ti_mmwave"
point_id: 19
x: 1.21484375
y: 0.357421875
z: 0.056640625
range: 1.35088610649
velocity: 0.0
doppler_bin: 8
bearing: 16.3945274353
intensity: 19.0848503113
---
header: 
  seq: 3279154
  stamp: 
    secs: 1561686389
    nsecs:  63614894
  frame_id: "ti_mmwave"
point_id: 0
x: 0.01171875
y: -0.0390625
z: -0.0078125
range: 0.0435769706964
velocity: 0.0
doppler_bin: 8
bearing: -73.3007583618
intensity: 30.7408466339
---
header: 
  seq: 3279155
  stamp: 
    secs: 1561686389
    nsecs:  63690715
  frame_id: "ti_mmwave"
point_id: 1
x: 0.017578125
y: -0.080078125
z: -0.0078125
range: 0.0871539413929
velocity: 0.0
doppler_bin: 8
bearing: -77.6192398071
intensity: 31.9755630493
---
header: 
  seq: 3279156
  stamp: 
    secs: 1561686389
    nsecs:  63711703
  frame_id: "ti_mmwave"
point_id: 2
x: 0.029296875
y: -0.119140625
z: -0.00390625
range: 0.130730912089
velocity: 0.0
doppler_bin: 8
bearing: -76.1849746704
intensity: 30.2036132812
---
header: 
  seq: 3279157
  stamp: 
    secs: 1561686389
    nsecs:  63728777
  frame_id: "ti_mmwave"
point_id: 3
x: 0.056640625
y: -0.154296875
z: 0.0078125
range: 0.174307882786
velocity: 0.0
doppler_bin: 8
bearing: -69.8423843384
intensity: 25.5022830963
---
header: 
  seq: 3279158
  stamp: 
    secs: 1561686389
    nsecs:  63745419
  frame_id: "ti_mmwave"
point_id: 4
x: 0.3359375
y: -0.080078125
z: -1.220703125
range: 1.35088610649
velocity: 0.0
doppler_bin: 8
bearing: -13.4075088501
intensity: 21.9865703583
---
header: 
  seq: 3279159
  stamp: 
    secs: 1561686389
    nsecs:  63758036
  frame_id: "ti_mmwave"
point_id: 5
x: 0.333984375
y: -0.041015625
z: 1.265625
range: 1.39446306229
velocity: 0.0
doppler_bin: 8
bearing: -7.00126743317
intensity: 23.2633590698
---
header: 
  seq: 3279160
  stamp: 
    secs: 1561686389
    nsecs:  63817899
  frame_id: "ti_mmwave"
point_id: 6
x: 0.50390625
y: -0.04296875
z: 1.251953125
range: 1.43804001808
velocity: 0.0
doppler_bin: 8
bearing: -4.87389659882
intensity: 21.9589958191
---
header: 
  seq: 3279161
  stamp: 
    secs: 1561686389
    nsecs:  63827744
  frame_id: "ti_mmwave"
point_id: 7
x: 1.919921875
y: -0.060546875
z: -0.056640625
range: 2.04811763763
velocity: 0.0
doppler_bin: 8
bearing: -1.80628752708
intensity: 27.1933135986
---
header: 
  seq: 3279162
  stamp: 
    secs: 1561686389
    nsecs:  63835757
  frame_id: "ti_mmwave"
point_id: 8
x: 2.537109375
y: -0.263671875
z: 1.208984375
range: 3.00681090355
velocity: 0.0
doppler_bin: 8
bearing: -5.93322753906
intensity: 29.3651371002
---
header: 
  seq: 3279163
  stamp: 
    secs: 1561686389
    nsecs:  63845695
  frame_id: "ti_mmwave"
point_id: 9
x: 2.595703125
y: -0.267578125
z: 1.177734375
range: 3.05038785934
velocity: 0.0
doppler_bin: 8
bearing: -5.88554811478
intensity: 32.73695755
---
header: 
  seq: 3279164
  stamp: 
    secs: 1561686389
    nsecs:  63857537
  frame_id: "ti_mmwave"
point_id: 10
x: 2.654296875
y: -0.181640625
z: 1.166015625
range: 3.09396481514
velocity: 0.0
doppler_bin: 8
bearing: -3.91479969025
intensity: 32.0057678223
---
header: 
  seq: 3279165
  stamp: 
    secs: 1561686389
    nsecs:  63873858
  frame_id: "ti_mmwave"
point_id: 13
x: 1.955078125
y: 0.26171875
z: 0.677734375
range: 2.22242546082
velocity: -0.614668667316
doppler_bin: 7
bearing: 7.62463474274
intensity: 26.1278381348
---
header: 
  seq: 3279166
  stamp: 
    secs: 1561686389
    nsecs:  63891715
  frame_id: "ti_mmwave"
point_id: 15
x: 0.041015625
y: -0.033203125
z: 0.0625
range: 0.0871539413929
velocity: 0.0
doppler_bin: 8
bearing: -38.9909973145
intensity: 30.1452045441
---
header: 
  seq: 3279167
  stamp: 
    secs: 1561686389
    nsecs:  63905492
  frame_id: "ti_mmwave"
point_id: 16
x: 0.044921875
y: -0.046875
z: 0.103515625
range: 0.130730912089
velocity: 0.0
doppler_bin: 8
bearing: -46.218875885
intensity: 29.0471553802
---
header: 
  seq: 3279168
  stamp: 
    secs: 1561686389
    nsecs:  63915863
  frame_id: "ti_mmwave"
point_id: 18
x: 1.21484375
y: 0.357421875
z: 0.0546875
range: 1.35088610649
velocity: 0.0
doppler_bin: 8
bearing: 16.3945274353
intensity: 19.2941894531
---
header: 
  seq: 3279169
  stamp: 
    secs: 1561686389
    nsecs:  63939524
  frame_id: "ti_mmwave"
point_id: 19
x: 1.322265625
y: -0.724609375
z: -2.08984375
range: 2.74534916878
velocity: 1.22933733463
doppler_bin: 10
bearing: -28.7230014801
intensity: 20.7918128967
---
header: 
  seq: 3279170
  stamp: 
    secs: 1561686389
    nsecs:  63960233
  frame_id: "ti_mmwave"
point_id: 20
x: 1.248046875
y: -0.736328125
z: -2.181640625
range: 2.78892612457
velocity: 1.22933733463
doppler_bin: 10
bearing: -30.5399417877
intensity: 21.9865703583
---
header: 
  seq: 3279171
  stamp: 
    secs: 1561686389
    nsecs:  63975806
  frame_id: "ti_mmwave"
point_id: 21
x: 1.966796875
y: -0.45703125
z: -0.521484375
range: 2.22242546082
velocity: -0.614668667316
doppler_bin: 7
bearing: -13.0818500519
intensity: 24.2324581146
---
header: 
  seq: 3279172
  stamp: 
    secs: 1561686389
    nsecs: 122170762
  frame_id: "ti_mmwave"
point_id: 0
x: 0.01171875
y: -0.0390625
z: -0.0078125
range: 0.0435769706964
velocity: 0.0
doppler_bin: 8
bearing: -73.3007583618
intensity: 30.7371826172
---
header: 
  seq: 3279173
  stamp: 
    secs: 1561686389
    nsecs: 122247754
  frame_id: "ti_mmwave"
point_id: 1
x: 0.017578125
y: -0.080078125
z: -0.0078125
range: 0.0871539413929
velocity: 0.0
doppler_bin: 8
bearing: -77.6192398071
intensity: 31.9728050232
---
header: 
  seq: 3279174
  stamp: 
    secs: 1561686389
    nsecs: 122259114
  frame_id: "ti_mmwave"
point_id: 2
x: 0.029296875
y: -0.119140625
z: -0.00390625
range: 0.130730912089
velocity: 0.0
doppler_bin: 8
bearing: -76.1849746704
intensity: 30.2036132812
---
header: 
  seq: 3279175
  stamp: 
    secs: 1561686389
    nsecs: 122267557
  frame_id: "ti_mmwave"
point_id: 3
x: 0.056640625
y: -0.154296875
z: 0.005859375
range: 0.174307882786
velocity: 0.0
doppler_bin: 8
bearing: -69.8423843384
intensity: 25.5144996643
---
header: 
  seq: 3279176
  stamp: 
    secs: 1561686389
    nsecs: 122277379
  frame_id: "ti_mmwave"
point_id: 4
x: 0.36328125
y: -0.080078125
z: -1.212890625
range: 1.35088610649
velocity: 0.0
doppler_bin: 8
bearing: -12.4309225082
intensity: 21.9312458038
---
header: 
  seq: 3279177
  stamp: 
    secs: 1561686389
    nsecs: 122285649
  frame_id: "ti_mmwave"
point_id: 5
x: 0.306640625
y: -0.041015625
z: 1.271484375
range: 1.39446306229
velocity: 0.0
doppler_bin: 8
bearing: -7.6185464859
intensity: 23.1806335449
---
header: 
  seq: 3279178
  stamp: 
    secs: 1561686389
    nsecs: 122293640
  frame_id: "ti_mmwave"
point_id: 6
x: 0.4296875
y: -0.0
z: 1.279296875
range: 1.43804001808
velocity: 0.0
doppler_bin: 8
bearing: -0.0
intensity: 21.8469142914
---
header: 
  seq: 3279179
  stamp: 
    secs: 1561686389
    nsecs: 122301887
  frame_id: "ti_mmwave"
point_id: 7
x: 2.564453125
y: -0.263671875
z: 1.146484375
range: 3.00681090355
velocity: 0.0
doppler_bin: 8
bearing: -5.87040758133
intensity: 29.4890174866
---
header: 
  seq: 3279180
  stamp: 
    secs: 1561686389
    nsecs: 122311811
  frame_id: "ti_mmwave"
point_id: 8
x: 2.62109375
y: -0.1796875
z: 1.140625
range: 3.05038785934
velocity: 0.0
doppler_bin: 8
bearing: -3.9217414856
intensity: 32.743888855
---
header: 
  seq: 3279181
  stamp: 
    secs: 1561686389
    nsecs: 122320138
  frame_id: "ti_mmwave"
point_id: 9
x: 2.671875
y: -0.181640625
z: 1.123046875
range: 3.09396481514
velocity: 0.0
doppler_bin: 8
bearing: -3.88912391663
intensity: 31.9755630493
---
header: 
  seq: 3279182
  stamp: 
    secs: 1561686389
    nsecs: 122328434
  frame_id: "ti_mmwave"
point_id: 10
x: 4.396484375
y: -0.287109375
z: 1.255859375
range: 4.88062095642
velocity: 0.0
doppler_bin: 8
bearing: -3.73635601997
intensity: 31.6879196167
---
header: 
  seq: 3279183
  stamp: 
    secs: 1561686389
    nsecs: 122336609
  frame_id: "ti_mmwave"
point_id: 11
x: 4.435546875
y: -0.2890625
z: 1.267578125
range: 4.9241976738
velocity: 0.0
doppler_bin: 8
bearing: -3.72866654396
intensity: 31.9368095398
---
header: 
  seq: 3279184
  stamp: 
    secs: 1561686389
    nsecs: 122345958
  frame_id: "ti_mmwave"
point_id: 12
x: 1.970703125
y: 0.26171875
z: 0.6328125
range: 2.22242546082
velocity: -0.614668667316
doppler_bin: 7
bearing: 7.56488466263
intensity: 27.0070381165
---
header: 
  seq: 3279185
  stamp: 
    secs: 1561686389
    nsecs: 122356519
  frame_id: "ti_mmwave"
point_id: 14
x: 0.041015625
y: -0.033203125
z: 0.0625
range: 0.0871539413929
velocity: 0.0
doppler_bin: 8
bearing: -38.9909973145
intensity: 30.141002655
---
header: 
  seq: 3279186
  stamp: 
    secs: 1561686389
    nsecs: 122365637
  frame_id: "ti_mmwave"
point_id: 15
x: 0.044921875
y: -0.046875
z: 0.103515625
range: 0.130730912089
velocity: 0.0
doppler_bin: 8
bearing: -46.218875885
intensity: 29.0417442322
---
header: 
  seq: 3279187
  stamp: 
    secs: 1561686389
    nsecs: 122387954
  frame_id: "ti_mmwave"
point_id: 17
x: 1.216796875
y: 0.357421875
z: 0.04296875
range: 1.35088610649
velocity: 0.0
doppler_bin: 8
bearing: 16.3696231842
intensity: 19.1907806396
---
header: 
  seq: 3279188
  stamp: 
    secs: 1561686389
    nsecs: 122402592
  frame_id: "ti_mmwave"
point_id: 18
x: 2.001953125
y: -0.521484375
z: -0.26953125
range: 2.22242546082
velocity: -0.614668667316
doppler_bin: 7
bearing: -14.6003913879
intensity: 25.8546066284
---
header: 
  seq: 3279189
  stamp: 
    secs: 1561686389
    nsecs: 123416076
  frame_id: "ti_mmwave"
point_id: 0
x: 0.01171875
y: -0.0390625
z: -0.0078125
range: 0.0435769706964
velocity: 0.0
doppler_bin: 8
bearing: -73.3007583618
intensity: 30.7335166931
---
header: 
  seq: 3279190
  stamp: 
    secs: 1561686389
    nsecs: 123484872
  frame_id: "ti_mmwave"
point_id: 1
x: 0.017578125
y: -0.080078125
z: -0.0078125
range: 0.0871539413929
velocity: 0.0
doppler_bin: 8
bearing: -77.6192398071
intensity: 31.9728050232
---
header: 
  seq: 3279191
  stamp: 
    secs: 1561686389
    nsecs: 123507758
  frame_id: "ti_mmwave"
point_id: 2
x: 0.029296875
y: -0.119140625
z: -0.00390625
range: 0.130730912089
velocity: 0.0
doppler_bin: 8
bearing: -76.1849746704
intensity: 30.1994667053
---
header: 
  seq: 3279192
  stamp: 
    secs: 1561686389
    nsecs: 123523072
  frame_id: "ti_mmwave"
point_id: 3
x: 0.056640625
y: -0.154296875
z: 0.005859375
range: 0.174307882786
velocity: 0.0
doppler_bin: 8
bearing: -69.8423843384
intensity: 25.490032196
---
header: 
  seq: 3279193
  stamp: 
    secs: 1561686389
    nsecs: 123536116
  frame_id: "ti_mmwave"
point_id: 4
x: 0.32421875
y: -0.080078125
z: -1.22265625
range: 1.35088610649
velocity: 0.0
doppler_bin: 8
bearing: -13.8737030029
intensity: 21.9865703583
---
header: 
  seq: 3279194
  stamp: 
    secs: 1561686389
    nsecs: 123549438
  frame_id: "ti_mmwave"
point_id: 5
x: 0.33203125
y: -0.041015625
z: 1.265625
range: 1.39446306229
velocity: 0.0
doppler_bin: 8
bearing: -7.04203891754
intensity: 23.2428245544
---
header: 
  seq: 3279195
  stamp: 
    secs: 1561686389
    nsecs: 123564625
  frame_id: "ti_mmwave"
point_id: 6
x: 0.509765625
y: -0.04296875
z: 1.25
range: 1.43804001808
velocity: 0.0
doppler_bin: 8
bearing: -4.81814002991
intensity: 21.9589958191
---
header: 
  seq: 3279196
  stamp: 
    secs: 1561686389
    nsecs: 123641519
  frame_id: "ti_mmwave"
point_id: 7
x: 1.875
y: -0.1171875
z: -0.1015625
range: 2.00454068184
velocity: 0.0
doppler_bin: 8
bearing: -3.57633447647
intensity: 28.3378429413
---
header: 
  seq: 3279197
  stamp: 
    secs: 1561686389
    nsecs: 123663550
  frame_id: "ti_mmwave"
point_id: 8
x: 1.912109375
y: -0.060546875
z: -0.193359375
range: 2.04811763763
velocity: 0.0
doppler_bin: 8
bearing: -1.81366276741
intensity: 29.127532959
---
header: 
  seq: 3279198
  stamp: 
    secs: 1561686389
    nsecs: 123679644
  frame_id: "ti_mmwave"
point_id: 9
x: 1.927734375
y: -0.060546875
z: -0.36328125
range: 2.09169459343
velocity: 0.0
doppler_bin: 8
bearing: -1.7989718914
intensity: 26.8574180603
---
header: 
  seq: 3279199
  stamp: 
    secs: 1561686389
    nsecs: 123692020
  frame_id: "ti_mmwave"
point_id: 10
x: 1.95703125
y: -0.3203125
z: 0.501953125
range: 2.17884850502
velocity: 0.0
doppler_bin: 8
bearing: -9.29533290863
intensity: 26.4933490753
---
header: 
  seq: 3279200
  stamp: 
    secs: 1561686389
    nsecs: 123704217
  frame_id: "ti_mmwave"
point_id: 11
x: 2.53515625
y: -0.263671875
z: 1.212890625
range: 3.00681090355
velocity: 0.0
doppler_bin: 8
bearing: -5.9377655983
intensity: 29.2890777588
---
header: 
  seq: 3279201
  stamp: 
    secs: 1561686389
    nsecs: 123719250
  frame_id: "ti_mmwave"
point_id: 12
x: 2.591796875
y: -0.267578125
z: 1.185546875
range: 3.05038785934
velocity: 0.0
doppler_bin: 8
bearing: -5.89435625076
intensity: 32.6599655151
---
header: 
  seq: 3279202
  stamp: 
    secs: 1561686389
    nsecs: 123733900
  frame_id: "ti_mmwave"
point_id: 13
x: 2.64453125
y: -0.181640625
z: 1.185546875
range: 3.09396481514
velocity: 0.0
doppler_bin: 8
bearing: -3.92921113968
intensity: 31.8808441162
---
header: 
  seq: 3279203
  stamp: 
    secs: 1561686389
    nsecs: 123746712
  frame_id: "ti_mmwave"
point_id: 14
x: 4.40234375
y: -0.287109375
z: 1.23828125
range: 4.88062095642
velocity: 0.0
doppler_bin: 8
bearing: -3.73139691353
intensity: 28.9431610107
---
header: 
  seq: 3279204
  stamp: 
    secs: 1561686389
    nsecs: 123811929
  frame_id: "ti_mmwave"
point_id: 15
x: 2.048828125
y: 0.064453125
z: 0.384765625
range: 2.22242546082
velocity: -0.614668667316
doppler_bin: 7
bearing: 1.80184686184
intensity: 27.0415058136
---
header: 
  seq: 3279205
  stamp: 
    secs: 1561686389
    nsecs: 123834311
  frame_id: "ti_mmwave"
point_id: 17
x: 0.041015625
y: -0.033203125
z: 0.0625
range: 0.0871539413929
velocity: 0.0
doppler_bin: 8
bearing: -38.9909973145
intensity: 30.141002655
---
header: 
  seq: 3279206
  stamp: 
    secs: 1561686389
    nsecs: 123850318
  frame_id: "ti_mmwave"
point_id: 18
x: 0.044921875
y: -0.046875
z: 0.103515625
range: 0.130730912089
velocity: 0.0
doppler_bin: 8
bearing: -46.218875885
intensity: 29.0417442322
---
header: 
  seq: 3279207
  stamp: 
    secs: 1561686389
    nsecs: 123865907
  frame_id: "ti_mmwave"
point_id: 20
x: 1.216796875
y: 0.357421875
z: 0.021484375
range: 1.35088610649
velocity: 0.0
doppler_bin: 8
bearing: 16.3696231842
intensity: 19.3951931
---
header: 
  seq: 3279208
  stamp: 
    secs: 1561686389
    nsecs: 123881762
  frame_id: "ti_mmwave"
point_id: 21
x: 3.37890625
y: -1.861328125
z: -2.47265625
range: 4.88062095642
velocity: 0.0
doppler_bin: 8
bearing: -28.8489227295
intensity: 26.4738292694
---
header: 
  seq: 3279209
  stamp: 
    secs: 1561686389
    nsecs: 182173877
  frame_id: "ti_mmwave"
point_id: 0
x: 0.01171875
y: -0.0390625
z: -0.0078125
range: 0.0435769706964
velocity: 0.0
doppler_bin: 8
bearing: -73.3007583618
intensity: 30.7371826172
---
header: 
  seq: 3279210
  stamp: 
    secs: 1561686389
    nsecs: 182262606
  frame_id: "ti_mmwave"
point_id: 1
x: 0.017578125
y: -0.080078125
z: -0.0078125
range: 0.0871539413929
velocity: 0.0
doppler_bin: 8
bearing: -77.6192398071
intensity: 31.9728050232
---
header: 
  seq: 3279211
  stamp: 
    secs: 1561686389
    nsecs: 182283734
  frame_id: "ti_mmwave"
point_id: 2
x: 0.029296875
y: -0.119140625
z: -0.00390625
range: 0.130730912089
velocity: 0.0
doppler_bin: 8
bearing: -76.1849746704
intensity: 30.2036132812
---
header: 
  seq: 3279212
  stamp: 
    secs: 1561686389
    nsecs: 182296351
  frame_id: "ti_mmwave"
point_id: 3
x: 0.056640625
y: -0.154296875
z: 0.0078125
range: 0.174307882786
velocity: 0.0
doppler_bin: 8
bearing: -69.8423843384
intensity: 25.5022830963
---
header: 
  seq: 3279213
  stamp: 
    secs: 1561686389
    nsecs: 182310498
  frame_id: "ti_mmwave"
point_id: 4
x: 0.361328125
y: -0.080078125
z: -1.212890625
range: 1.35088610649
velocity: 0.0
doppler_bin: 8
bearing: -12.4960107803
intensity: 21.9865703583
---
header: 
  seq: 3279214
  stamp: 
    secs: 1561686389
    nsecs: 182323365
  frame_id: "ti_mmwave"
point_id: 5
x: 0.283203125
y: -0.041015625
z: 1.27734375
range: 1.39446306229
velocity: 0.0
doppler_bin: 8
bearing: -8.24071216583
intensity: 23.2633590698
---
header: 
  seq: 3279215
  stamp: 
    secs: 1561686389
    nsecs: 182336810
  frame_id: "ti_mmwave"
point_id: 6
x: 0.41015625
y: -0.0
z: 1.28515625
range: 1.43804001808
velocity: 0.0
doppler_bin: 8
bearing: -0.0
intensity: 21.9312458038
---
header: 
  seq: 3279216
  stamp: 
    secs: 1561686389
    nsecs: 182349218
  frame_id: "ti_mmwave"
point_id: 7
x: 2.0
y: -0.126953125
z: 0.404296875
range: 2.17884850502
velocity: 0.0
doppler_bin: 8
bearing: -3.63206624985
intensity: 27.6715583801
---
header: 
  seq: 3279217
