header: 
  seq: 1123851
  stamp: 
    secs: 1561683037
    nsecs: 283802089
  frame_id: "ti_mmwave"
point_id: 0
x: 0.01171875
y: -0.0390625
z: -0.0078125
range: 0.0435769706964
velocity: 0.0
doppler_bin: 8
bearing: -73.3007583618
intensity: 30.7335166931
---
header: 
  seq: 1123852
  stamp: 
    secs: 1561683037
    nsecs: 283879030
  frame_id: "ti_mmwave"
point_id: 1
x: 0.017578125
y: -0.080078125
z: -0.0078125
range: 0.0871539413929
velocity: 0.0
doppler_bin: 8
bearing: -77.6192398071
intensity: 31.9645252228
---
header: 
  seq: 1123853
  stamp: 
    secs: 1561683037
    nsecs: 283892513
  frame_id: "ti_mmwave"
point_id: 2
x: 0.029296875
y: -0.119140625
z: -0.005859375
range: 0.130730912089
velocity: 0.0
doppler_bin: 8
bearing: -76.1849746704
intensity: 30.2201576233
---
header: 
  seq: 1123854
  stamp: 
    secs: 1561683037
    nsecs: 283900673
  frame_id: "ti_mmwave"
point_id: 3
x: 0.056640625
y: -0.154296875
z: 0.005859375
range: 0.174307882786
velocity: 0.0
doppler_bin: 8
bearing: -69.8423843384
intensity: 25.4777469635
---
header: 
  seq: 1123855
  stamp: 
    secs: 1561683037
    nsecs: 283908502
  frame_id: "ti_mmwave"
point_id: 4
x: 0.37109375
y: -0.080078125
z: -1.2109375
range: 1.35088610649
velocity: 0.0
doppler_bin: 8
bearing: -12.177107811
intensity: 21.9312458038
---
header: 
  seq: 1123856
  stamp: 
    secs: 1561683037
    nsecs: 283918822
  frame_id: "ti_mmwave"
point_id: 5
x: 0.265625
y: -0.041015625
z: 1.28125
range: 1.39446306229
velocity: 0.0
doppler_bin: 8
bearing: -8.77781772614
intensity: 23.2633590698
---
header: 
  seq: 1123857
  stamp: 
    secs: 1561683037
    nsecs: 283927256
  frame_id: "ti_mmwave"
point_id: 6
x: 0.45703125
y: -0.04296875
z: 1.26953125
range: 1.43804001808
velocity: 0.0
doppler_bin: 8
bearing: -5.37099504471
intensity: 21.9033164978
---
header: 
  seq: 1123858
  stamp: 
    secs: 1561683037
    nsecs: 283935993
  frame_id: "ti_mmwave"
point_id: 7
x: 2.595703125
y: -0.263671875
z: 1.07421875
range: 3.00681090355
velocity: 0.0
doppler_bin: 8
bearing: -5.80021762848
intensity: 29.6142101288
---
header: 
  seq: 1123859
  stamp: 
    secs: 1561683037
    nsecs: 283944305
  frame_id: "ti_mmwave"
point_id: 8
x: 2.6171875
y: -0.267578125
z: 1.130859375
range: 3.05038785934
velocity: 0.0
doppler_bin: 8
bearing: -5.83756875992
intensity: 32.9114685059
---
header: 
  seq: 1123860
  stamp: 
    secs: 1561683037
    nsecs: 283955973
  frame_id: "ti_mmwave"
point_id: 9
x: 2.666015625
y: -0.271484375
z: 1.119140625
range: 3.09396481514
velocity: 0.0
doppler_bin: 8
bearing: -5.81447267532
intensity: 32.1431388855
---
header: 
  seq: 1123861
  stamp: 
    secs: 1561683037
    nsecs: 284129928
  frame_id: "ti_mmwave"
point_id: 10
x: 4.41796875
y: -0.287109375
z: 1.181640625
range: 4.88062095642
velocity: 0.0
doppler_bin: 8
bearing: -3.71823716164
intensity: 30.99335289
---
header: 
  seq: 1123862
  stamp: 
    secs: 1561683037
    nsecs: 284149702
  frame_id: "ti_mmwave"
point_id: 11
x: 4.478515625
y: -0.2890625
z: 1.103515625
range: 4.9241976738
velocity: 0.0
doppler_bin: 8
bearing: -3.69299149513
intensity: 30.4999294281
---
header: 
  seq: 1123863
  stamp: 
    secs: 1561683037
    nsecs: 284157895
  frame_id: "ti_mmwave"
point_id: 12
x: 4.869140625
y: -0.30859375
z: 0.83203125
range: 5.27281332016
velocity: 0.0
doppler_bin: 8
bearing: -3.62641048431
intensity: 30.6557979584
---
header: 
  seq: 1123864
  stamp: 
    secs: 1561683037
    nsecs: 284168343
  frame_id: "ti_mmwave"
point_id: 13
x: 2.19921875
y: 0.138671875
z: 0.162109375
range: 2.3531563282
velocity: 0.614668667316
doppler_bin: 9
bearing: 3.60801196098
intensity: 24.8144264221
---
header: 
  seq: 1123865
  stamp: 
    secs: 1561683037
    nsecs: 284176232
  frame_id: "ti_mmwave"
point_id: 14
x: 2.0390625
y: -0.46484375
z: 0.392578125
range: 2.26600241661
velocity: -0.614668667316
doppler_bin: 7
bearing: -12.842212677
intensity: 27.8103694916
---
header: 
  seq: 1123866
  stamp: 
    secs: 1561683037
    nsecs: 284184035
  frame_id: "ti_mmwave"
point_id: 15
x: 2.087890625
y: -0.474609375
z: 0.345703125
range: 2.30957937241
velocity: -0.614668667316
doppler_bin: 7
bearing: -12.8065824509
intensity: 28.034570694
---
header: 
  seq: 1123867
  stamp: 
    secs: 1561683037
    nsecs: 284193710
  frame_id: "ti_mmwave"
point_id: 16
x: 2.1484375
y: -0.482421875
z: 0.18359375
range: 2.3531563282
velocity: -0.614668667316
doppler_bin: 7
bearing: -12.6555919647
intensity: 24.9415454865
---
header: 
  seq: 1123868
  stamp: 
    secs: 1561683037
    nsecs: 284204160
  frame_id: "ti_mmwave"
point_id: 18
x: 0.041015625
y: -0.033203125
z: 0.0625
range: 0.0871539413929
velocity: 0.0
doppler_bin: 8
bearing: -38.9909973145
intensity: 30.1283721924
---
header: 
  seq: 1123869
  stamp: 
    secs: 1561683037
    nsecs: 284212614
  frame_id: "ti_mmwave"
point_id: 19
x: 0.046875
y: -0.046875
z: 0.103515625
range: 0.130730912089
velocity: 0.0
doppler_bin: 8
bearing: -45.0
intensity: 29.0036716461
---
header: 
  seq: 1123870
  stamp: 
    secs: 1561683037
    nsecs: 284243594
  frame_id: "ti_mmwave"
point_id: 21
x: 1.20703125
y: 0.357421875
z: 0.158203125
range: 1.35088610649
velocity: 0.0
doppler_bin: 8
bearing: 16.4948921204
intensity: 19.1381378174
---
header: 
  seq: 1123871
  stamp: 
    secs: 1561683037
    nsecs: 285280875
  frame_id: "ti_mmwave"
point_id: 0
x: 0.01171875
y: -0.0390625
z: -0.0078125
range: 0.0435769706964
velocity: 0.0
doppler_bin: 8
bearing: -73.3007583618
intensity: 30.7481651306
---
header: 
  seq: 1123872
  stamp: 
    secs: 1561683037
    nsecs: 285337515
  frame_id: "ti_mmwave"
point_id: 1
x: 0.017578125
y: -0.080078125
z: -0.0078125
range: 0.0871539413929
velocity: 0.0
doppler_bin: 8
bearing: -77.6192398071
intensity: 31.9700469971
---
header: 
  seq: 1123873
  stamp: 
    secs: 1561683037
    nsecs: 285350161
  frame_id: "ti_mmwave"
point_id: 2
x: 0.041015625
y: -0.115234375
z: -0.0078125
range: 0.130730912089
velocity: 0.0
doppler_bin: 8
bearing: -70.4077224731
intensity: 30.2242832184
---
header: 
  seq: 1123874
  stamp: 
    secs: 1561683037
    nsecs: 285358855
  frame_id: "ti_mmwave"
point_id: 3
x: 0.056640625
y: -0.154296875
z: 0.005859375
range: 0.174307882786
velocity: 0.0
doppler_bin: 8
bearing: -69.8423843384
intensity: 25.5022830963
---
header: 
  seq: 1123875
  stamp: 
    secs: 1561683037
    nsecs: 285366876
  frame_id: "ti_mmwave"
point_id: 4
x: 0.369140625
y: -0.080078125
z: -1.2109375
range: 1.35088610649
velocity: 0.0
doppler_bin: 8
bearing: -12.2396001816
intensity: 21.9312458038
---
header: 
  seq: 1123876
  stamp: 
    secs: 1561683037
    nsecs: 285374606
  frame_id: "ti_mmwave"
point_id: 5
x: 0.275390625
y: -0.041015625
z: 1.279296875
range: 1.39446306229
velocity: 0.0
doppler_bin: 8
bearing: -8.47114467621
intensity: 23.2633590698
---
header: 
  seq: 1123877
  stamp: 
    secs: 1561683037
    nsecs: 285382430
  frame_id: "ti_mmwave"
point_id: 6
x: 0.466796875
y: -0.04296875
z: 1.265625
range: 1.43804001808
velocity: 0.0
doppler_bin: 8
bearing: -5.25926733017
intensity: 21.9589958191
---
header: 
  seq: 1123878
  stamp: 
    secs: 1561683037
    nsecs: 285390268
  frame_id: "ti_mmwave"
point_id: 7
x: 2.0625
y: -0.064453125
z: -0.30859375
range: 2.22242546082
velocity: 0.0
doppler_bin: 8
bearing: -1.7899106741
intensity: 27.5663604736
---
header: 
  seq: 1123879
  stamp: 
    secs: 1561683037
    nsecs: 285398195
  frame_id: "ti_mmwave"
point_id: 8
x: 2.083984375
y: -0.19921875
z: -0.375
range: 2.26600241661
velocity: 0.0
doppler_bin: 8
bearing: -5.46060371399
intensity: 27.481880188
---
header: 
  seq: 1123880
  stamp: 
    secs: 1561683037
    nsecs: 285407998
  frame_id: "ti_mmwave"
point_id: 9
x: 2.57421875
y: -0.263671875
z: 1.126953125
range: 3.00681090355
velocity: 0.0
doppler_bin: 8
bearing: -5.84829235077
intensity: 29.5182304382
---
header: 
  seq: 1123881
  stamp: 
    secs: 1561683037
    nsecs: 285415911
  frame_id: "ti_mmwave"
point_id: 10
x: 2.603515625
y: -0.267578125
z: 1.162109375
range: 3.05038785934
velocity: 0.0
doppler_bin: 8
bearing: -5.8680100441
intensity: 32.8126068115
---
header: 
  seq: 1123882
  stamp: 
    secs: 1561683037
    nsecs: 285423906
  frame_id: "ti_mmwave"
point_id: 11
x: 2.662109375
y: -0.271484375
z: 1.130859375
range: 3.09396481514
velocity: 0.0
doppler_bin: 8
bearing: -5.82294607162
intensity: 32.0030326843
---
header: 
  seq: 1123883
  stamp: 
    secs: 1561683037
    nsecs: 285431814
  frame_id: "ti_mmwave"
point_id: 12
x: 4.4140625
y: -0.287109375
z: 1.193359375
range: 4.88062095642
velocity: 0.0
doppler_bin: 8
bearing: -3.72151875496
intensity: 30.8457622528
---
header: 
  seq: 1123884
  stamp: 
    secs: 1561683037
    nsecs: 285439305
  frame_id: "ti_mmwave"
point_id: 13
x: 4.4765625
y: -0.2890625
z: 1.1171875
range: 4.9241976738
velocity: 0.0
doppler_bin: 8
bearing: -3.69459795952
intensity: 30.2077541351
---
header: 
  seq: 1123885
  stamp: 
    secs: 1561683037
    nsecs: 285447636
  frame_id: "ti_mmwave"
point_id: 14
x: 4.85546875
y: -0.46484375
z: 0.837890625
range: 5.27281332016
velocity: 0.0
doppler_bin: 8
bearing: -5.46860933304
intensity: 30.4020671844
---
header: 
  seq: 1123886
  stamp: 
    secs: 1561683037
    nsecs: 285457963
  frame_id: "ti_mmwave"
point_id: 16
x: 0.041015625
y: -0.033203125
z: 0.0625
range: 0.0871539413929
velocity: 0.0
doppler_bin: 8
bearing: -38.9909973145
intensity: 30.1283721924
---
header: 
  seq: 1123887
  stamp: 
    secs: 1561683037
    nsecs: 285467058
  frame_id: "ti_mmwave"
point_id: 17
x: 0.044921875
y: -0.046875
z: 0.103515625
range: 0.130730912089
velocity: 0.0
doppler_bin: 8
bearing: -46.218875885
intensity: 29.0091304779
---
header: 
  seq: 1123888
  stamp: 
    secs: 1561683037
    nsecs: 285479302
  frame_id: "ti_mmwave"
point_id: 19
x: 1.1171875
y: -0.515625
z: 0.30859375
range: 1.35088610649
velocity: 0.0
doppler_bin: 8
bearing: -24.7751407623
intensity: 19.0308990479
---
header: 
  seq: 1123889
  stamp: 
    secs: 1561683037
    nsecs: 285487464
  frame_id: "ti_mmwave"
point_id: 20
x: 2.861328125
y: -2.00390625
z: -2.96484375
range: 4.88062095642
velocity: 0.0
doppler_bin: 8
bearing: -35.0051422119
intensity: 27.9518451691
---
header: 
  seq: 1123890
  stamp: 
    secs: 1561683037
    nsecs: 285496026
  frame_id: "ti_mmwave"
point_id: 21
x: 2.833984375
y: -2.021484375
z: -3.041015625
range: 4.9241976738
velocity: 0.0
doppler_bin: 8
bearing: -35.5003089905
intensity: 27.5050830841
---
header: 
  seq: 1123891
  stamp: 
    secs: 1561683037
    nsecs: 343743865
  frame_id: "ti_mmwave"
point_id: 0
x: 0.01171875
y: -0.0390625
z: -0.0078125
range: 0.0435769706964
velocity: 0.0
doppler_bin: 8
bearing: -73.3007583618
intensity: 30.7408466339
---
header: 
  seq: 1123892
  stamp: 
    secs: 1561683037
    nsecs: 343816238
  frame_id: "ti_mmwave"
point_id: 1
x: 0.017578125
y: -0.080078125
z: -0.0078125
range: 0.0871539413929
velocity: 0.0
doppler_bin: 8
bearing: -77.6192398071
intensity: 31.9672870636
---
header: 
  seq: 1123893
  stamp: 
    secs: 1561683037
    nsecs: 343830024
  frame_id: "ti_mmwave"
point_id: 2
x: 0.041015625
y: -0.115234375
z: -0.0078125
range: 0.130730912089
velocity: 0.0
doppler_bin: 8
bearing: -70.4077224731
intensity: 30.2160263062
---
header: 
  seq: 1123894
  stamp: 
    secs: 1561683037
    nsecs: 343839166
  frame_id: "ti_mmwave"
point_id: 3
x: 0.056640625
y: -0.154296875
z: 0.005859375
range: 0.174307882786
velocity: 0.0
doppler_bin: 8
bearing: -69.8423843384
intensity: 25.4777469635
---
header: 
  seq: 1123895
  stamp: 
    secs: 1561683037
    nsecs: 343847214
  frame_id: "ti_mmwave"
point_id: 4
x: 0.34765625
y: -0.080078125
z: -1.216796875
range: 1.35088610649
velocity: 0.0
doppler_bin: 8
bearing: -12.9711065292
intensity: 21.9033164978
---
header: 
  seq: 1123896
  stamp: 
    secs: 1561683037
    nsecs: 343856882
  frame_id: "ti_mmwave"
point_id: 5
x: 0.263671875
y: -0.041015625
z: 1.28125
range: 1.39446306229
velocity: 0.0
doppler_bin: 8
bearing: -8.84181499481
intensity: 23.2428245544
---
header: 
  seq: 1123897
  stamp: 
    secs: 1561683037
    nsecs: 343865450
  frame_id: "ti_mmwave"
point_id: 6
x: 0.4609375
y: -0.04296875
z: 1.267578125
range: 1.43804001808
velocity: 0.0
doppler_bin: 8
bearing: -5.32574033737
intensity: 21.9312458038
---
header: 
  seq: 1123898
  stamp: 
    secs: 1561683037
    nsecs: 343873324
  frame_id: "ti_mmwave"
point_id: 7
x: 2.076171875
y: -0.0
z: -0.205078125
range: 2.22242546082
velocity: 0.0
doppler_bin: 8
bearing: -0.0
intensity: 29.5808582306
---
header: 
  seq: 1123899
  stamp: 
    secs: 1561683037
    nsecs: 343881354
  frame_id: "ti_mmwave"
point_id: 8
x: 2.119140625
y: -0.0
z: -0.173828125
range: 2.26600241661
velocity: 0.0
doppler_bin: 8
bearing: -0.0
intensity: 29.2890777588
---
header: 
  seq: 1123900
  stamp: 
    secs: 1561683037
    nsecs: 343890908
  frame_id: "ti_mmwave"
point_id: 9
x: 2.16015625
y: 0.134765625
z: -0.134765625
range: 2.30957937241
velocity: 0.0
doppler_bin: 8
bearing: 3.56988406181
intensity: 27.9865055084
---
header: 
  seq: 1123901
  stamp: 
    secs: 1561683037
    nsecs: 343898857
  frame_id: "ti_mmwave"
point_id: 10
x: 2.513671875
y: -0.263671875
z: 1.255859375
range: 3.00681090355
velocity: 0.0
doppler_bin: 8
bearing: -5.98814868927
intensity: 29.5085144043
---
header: 
  seq: 1123902
  stamp: 
    secs: 1561683037
    nsecs: 343906411
  frame_id: "ti_mmwave"
point_id: 11
x: 2.58984375
y: -0.267578125
z: 1.19140625
range: 3.05038785934
velocity: 0.0
doppler_bin: 8
bearing: -5.8987698555
intensity: 32.7600212097
---
header: 
  seq: 1123903
  stamp: 
    secs: 1561683037
    nsecs: 344066524
  frame_id: "ti_mmwave"
point_id: 12
x: 2.654296875
y: -0.181640625
z: 1.1640625
range: 3.09396481514
velocity: 0.0
doppler_bin: 8
bearing: -3.91479969025
intensity: 31.9395904541
---
header: 
  seq: 1123904
  stamp: 
    secs: 1561683037
    nsecs: 344087210
  frame_id: "ti_mmwave"
point_id: 13
x: 4.423828125
y: -0.287109375
z: 1.154296875
range: 4.88062095642
velocity: 0.0
doppler_bin: 8
bearing: -3.71332621574
intensity: 30.8493366241
---
header: 
  seq: 1123905
  stamp: 
    secs: 1561683037
    nsecs: 344095974
  frame_id: "ti_mmwave"
point_id: 14
x: 4.4765625
y: -0.2890625
z: 1.1171875
range: 4.9241976738
velocity: 0.0
doppler_bin: 8
bearing: -3.69459795952
intensity: 30.2160263062
---
header: 
  seq: 1123906
  stamp: 
    secs: 1561683037
    nsecs: 344104375
  frame_id: "ti_mmwave"
point_id: 15
x: 4.880859375
y: -0.30859375
z: 0.7578125
range: 5.27281332016
velocity: 0.0
doppler_bin: 8
bearing: -3.61772704124
intensity: 30.5037975311
---
header: 
  seq: 1123907
  stamp: 
    secs: 1561683037
    nsecs: 344114339
  frame_id: "ti_mmwave"
point_id: 16
x: 2.185546875
y: 0.275390625
z: 0.154296875
range: 2.3531563282
velocity: 0.614668667316
doppler_bin: 9
bearing: 7.18172597885
intensity: 28.767950058
---
header: 
  seq: 1123908
  stamp: 
    secs: 1561683037
    nsecs: 344122161
  frame_id: "ti_mmwave"
point_id: 17
x: 2.234375
y: 0.2109375
z: 0.166015625
range: 2.396733284
velocity: 0.614668667316
doppler_bin: 9
bearing: 5.39305782318
intensity: 27.8816833496
---
header: 
  seq: 1123909
  stamp: 
    secs: 1561683037
    nsecs: 344132095
  frame_id: "ti_mmwave"
point_id: 19
x: 0.041015625
y: -0.033203125
z: 0.0625
range: 0.0871539413929
velocity: 0.0
doppler_bin: 8
bearing: -38.9909973145
intensity: 30.1283721924
---
header: 
  seq: 1123910
  stamp: 
    secs: 1561683037
    nsecs: 344140144
  frame_id: "ti_mmwave"
point_id: 20
x: 0.052734375
y: -0.04296875
z: 0.1015625
range: 0.130730912089
velocity: 0.0
doppler_bin: 8
bearing: -39.1736602783
intensity: 29.0036716461
---
header: 
  seq: 1123911
  stamp: 
    secs: 1561683037
    nsecs: 344149646
  frame_id: "ti_mmwave"
point_id: 22
x: 1.2109375
y: 0.357421875
z: 0.126953125
range: 1.35088610649
velocity: 0.0
doppler_bin: 8
bearing: 16.4445590973
intensity: 19.1381378174
---
header: 
  seq: 1123912
  stamp: 
    secs: 1561683037
    nsecs: 344159229
  frame_id: "ti_mmwave"
point_id: 23
x: 2.48828125
y: -2.00390625
z: -3.283203125
range: 4.88062095642
velocity: 0.0
doppler_bin: 8
bearing: -38.8457984924
intensity: 27.8746051788
---
header: 
  seq: 1123913
  stamp: 
    secs: 1561683037
    nsecs: 344167016
  frame_id: "ti_mmwave"
point_id: 24
x: 2.578125
y: -2.021484375
z: -3.26171875
range: 4.9241976738
velocity: 0.0
doppler_bin: 8
bearing: -38.0996742249
intensity: 27.2997436523
---
header: 
  seq: 1123914
  stamp: 
    secs: 1561683037
    nsecs: 403780522
  frame_id: "ti_mmwave"
point_id: 0
x: 0.01171875
y: -0.0390625
z: -0.0078125
range: 0.0435769706964
velocity: 0.0
doppler_bin: 8
bearing: -73.3007583618
intensity: 30.7298469543
---
header: 
  seq: 1123915
  stamp: 
    secs: 1561683037
    nsecs: 403854654
  frame_id: "ti_mmwave"
point_id: 1
x: 0.017578125
y: -0.080078125
z: -0.0078125
range: 0.0871539413929
velocity: 0.0
doppler_bin: 8
bearing: -77.6192398071
intensity: 31.9645252228
---
header: 
  seq: 1123916
  stamp: 
    secs: 1561683037
    nsecs: 403865655
  frame_id: "ti_mmwave"
point_id: 2
x: 0.041015625
y: -0.115234375
z: -0.0078125
range: 0.130730912089
velocity: 0.0
doppler_bin: 8
bearing: -70.4077224731
intensity: 30.2160263062
---
header: 
  seq: 1123917
  stamp: 
    secs: 1561683037
    nsecs: 403874361
  frame_id: "ti_mmwave"
point_id: 3
x: 0.056640625
y: -0.154296875
z: 0.005859375
range: 0.174307882786
velocity: 0.0
doppler_bin: 8
bearing: -69.8423843384
intensity: 25.4777469635
---
header: 
  seq: 1123918
  stamp: 
    secs: 1561683037
    nsecs: 403882158
  frame_id: "ti_mmwave"
point_id: 4
x: 0.37109375
y: -0.080078125
z: -1.208984375
range: 1.35088610649
velocity: 0.0
doppler_bin: 8
bearing: -12.177107811
intensity: 21.875207901
---
header: 
  seq: 1123919
  stamp: 
    secs: 1561683037
    nsecs: 403890454
  frame_id: "ti_mmwave"
point_id: 5
x: 0.228515625
y: -0.041015625
z: 1.2890625
range: 1.39446306229
velocity: 0.0
doppler_bin: 8
bearing: -10.1755104065
intensity: 23.2428245544
---
header: 
  seq: 1123920
  stamp: 
    secs: 1561683037
    nsecs: 403902076
  frame_id: "ti_mmwave"
point_id: 6
x: 0.373046875
y: -0.0
z: 1.296875
range: 1.43804001808
velocity: 0.0
doppler_bin: 8
bearing: -0.0
intensity: 21.9312458038
---
header: 
  seq: 1123921
  stamp: 
    secs: 1561683037
    nsecs: 403910428
  frame_id: "ti_mmwave"
point_id: 7
x: 2.076171875
y: -0.064453125
z: -0.193359375
range: 2.22242546082
velocity: 0.0
doppler_bin: 8
bearing: -1.77813148499
intensity: 29.0848503113
---
header: 
  seq: 1123922
  stamp: 
    secs: 1561683037
    nsecs: 403918361
  frame_id: "ti_mmwave"
point_id: 8
x: 2.119140625
y: -0.1328125
z: -0.130859375
range: 2.26600241661
velocity: 0.0
doppler_bin: 8
bearing: -3.58619689941
intensity: 29.4151134491
---
header: 
  seq: 1123923
  stamp: 
    secs: 1561683037
    nsecs: 403926785
  frame_id: "ti_mmwave"
point_id: 9
x: 2.154296875
y: -0.203125
z: -0.119140625
range: 2.30957937241
velocity: 0.0
doppler_bin: 8
bearing: -5.38639736176
intensity: 28.1888542175
---
header: 
  seq: 1123924
  stamp: 
    secs: 1561683037
    nsecs: 403934964
  frame_id: "ti_mmwave"
point_id: 10
x: 2.205078125
y: -0.0
z: 0.138671875
range: 2.3531563282
velocity: 0.0
doppler_bin: 8
bearing: -0.0
intensity: 26.4542236328
---
header: 
  seq: 1123925
  stamp: 
    secs: 1561683037
    nsecs: 403942611
  frame_id: "ti_mmwave"
point_id: 11
x: 2.533203125
y: -0.263671875
z: 1.21875
range: 3.00681090355
velocity: 0.0
doppler_bin: 8
bearing: -5.94231081009
intensity: 29.4101428986
---
header: 
  seq: 1123926
  stamp: 
    secs: 1561683037
    nsecs: 403966184
  frame_id: "ti_mmwave"
point_id: 12
x: 2.58203125
y: -0.267578125
z: 1.208984375
range: 3.05038785934
velocity: 0.0
doppler_bin: 8
bearing: -5.91649150848
intensity: 32.73695755
---
header: 
  seq: 1123927
  stamp: 
    secs: 1561683037
    nsecs: 403978651
  frame_id: "ti_mmwave"
point_id: 13
x: 2.642578125
y: -0.181640625
z: 1.19140625
range: 3.09396481514
velocity: 0.0
doppler_bin: 8
bearing: -3.93210625648
intensity: 31.9479179382
---
header: 
  seq: 1123928
  stamp: 
    secs: 1561683037
    nsecs: 404142621
  frame_id: "ti_mmwave"
point_id: 14
x: 4.4140625
y: -0.287109375
z: 1.1953125
range: 4.88062095642
velocity: 0.0
doppler_bin: 8
bearing: -3.72151875496
intensity: 30.6145248413
---
header: 
  seq: 1123929
  stamp: 
    secs: 1561683037
    nsecs: 404161924
  frame_id: "ti_mmwave"
point_id: 15
x: 4.443359375
y: -0.43359375
z: 1.197265625
range: 4.9241976738
velocity: 0.0
doppler_bin: 8
bearing: -5.57341480255
intensity: 30.0
---
header: 
  seq: 1123930
  stamp: 
    secs: 1561683037
    nsecs: 404172346
  frame_id: "ti_mmwave"
point_id: 17
x: 0.041015625
y: -0.033203125
z: 0.0625
range: 0.0871539413929
velocity: 0.0
doppler_bin: 8
bearing: -38.9909973145
intensity: 30.1241531372
---
header: 
  seq: 1123931
  stamp: 
    secs: 1561683037
    nsecs: 404181137
  frame_id: "ti_mmwave"
point_id: 18
x: 0.044921875
y: -0.046875
z: 0.103515625
range: 0.130730912089
velocity: 0.0
doppler_bin: 8
bearing: -46.218875885
intensity: 29.0036716461
---
header: 
  seq: 1123932
  stamp: 
    secs: 1561683037
    nsecs: 404190789
  frame_id: "ti_mmwave"
point_id: 20
x: 1.205078125
y: 0.357421875
z: 0.16796875
range: 1.35088610649
velocity: 0.0
doppler_bin: 8
bearing: 16.5201683044
intensity: 19.0848503113
---
header: 
  seq: 1123933
  stamp: 
    secs: 1561683037
    nsecs: 405178022
  frame_id: "ti_mmwave"
point_id: 0
x: 0.01171875
y: -0.0390625
z: -0.0078125
range: 0.0435769706964
velocity: 0.0
doppler_bin: 8
bearing: -73.3007583618
intensity: 30.7371826172
---
header: 
  seq: 1123934
  stamp: 
    secs: 1561683037
    nsecs: 405245130
  frame_id: "ti_mmwave"
point_id: 1
x: 0.017578125
y: -0.080078125
z: -0.0078125
range: 0.0871539413929
velocity: 0.0
doppler_bin: 8
bearing: -77.6192398071
intensity: 31.9645252228
---
header: 
  seq: 1123935
  stamp: 
    secs: 1561683037
    nsecs: 405260167
  frame_id: "ti_mmwave"
point_id: 2
x: 0.041015625
y: -0.115234375
z: -0.0078125
range: 0.130730912089
velocity: 0.0
doppler_bin: 8
bearing: -70.4077224731
intensity: 30.2160263062
---
header: 
  seq: 1123936
  stamp: 
    secs: 1561683037
    nsecs: 405280167
  frame_id: "ti_mmwave"
point_id: 3
x: 0.056640625
y: -0.154296875
z: 0.005859375
range: 0.174307882786
velocity: 0.0
doppler_bin: 8
bearing: -69.8423843384
intensity: 25.4777469635
---
header: 
  seq: 1123937
  stamp: 
    secs: 1561683037
    nsecs: 405339864
  frame_id: "ti_mmwave"
point_id: 4
x: 0.37109375
y: -0.080078125
z: -1.2109375
range: 1.35088610649
velocity: 0.0
doppler_bin: 8
bearing: -12.177107811
intensity: 21.9312458038
---
header: 
  seq: 1123938
  stamp: 
    secs: 1561683037
    nsecs: 405354147
  frame_id: "ti_mmwave"
point_id: 5
x: 0.22265625
y: -0.041015625
z: 1.2890625
range: 1.39446306229
velocity: 0.0
doppler_bin: 8
bearing: -10.4374752045
intensity: 23.2633590698
---
header: 
  seq: 1123939
  stamp: 
    secs: 1561683037
    nsecs: 405370010
  frame_id: "ti_mmwave"
point_id: 6
x: 0.3359375
y: -0.0
z: 1.306640625
range: 1.43804001808
velocity: 0.0
doppler_bin: 8
bearing: -0.0
intensity: 21.9312458038
---
header: 
  seq: 1123940
  stamp: 
    secs: 1561683037
    nsecs: 405387606
  frame_id: "ti_mmwave"
point_id: 7
x: 2.06640625
y: -0.130859375
z: -0.259765625
range: 2.22242546082
velocity: 0.0
doppler_bin: 8
bearing: -3.62353277206
intensity: 28.6687774658
---
header: 
  seq: 1123941
  stamp: 
    secs: 1561683037
    nsecs: 405425394
  frame_id: "ti_mmwave"
point_id: 8
x: 2.119140625
y: -0.06640625
z: -0.177734375
range: 2.26600241661
velocity: 0.0
doppler_bin: 8
bearing: -1.79485630989
intensity: 27.0926990509
---
header: 
  seq: 1123942
  stamp: 
    secs: 1561683037
    nsecs: 405439285
  frame_id: "ti_mmwave"
point_id: 9
x: 2.572265625
y: -0.263671875
z: 1.130859375
range: 3.00681090355
velocity: 0.0
doppler_bin: 8
bearing: -5.85270166397
intensity: 29.5664863586
---
header: 
  seq: 1123943
  stamp: 
    secs: 1561683037
    nsecs: 405452605
  frame_id: "ti_mmwave"
point_id: 10
x: 2.60546875
y: -0.267578125
z: 1.154296875
range: 3.05038785934
velocity: 0.0
doppler_bin: 8
bearing: -5.86364221573
intensity: 32.8352737427
---
header: 
  seq: 1123944
  stamp: 
    secs: 1561683037
    nsecs: 405484839
  frame_id: "ti_mmwave"
point_id: 11
x: 2.65234375
y: -0.271484375
z: 1.15234375
range: 3.09396481514
velocity: 0.0
doppler_bin: 8
bearing: -5.84423685074
intensity: 32.0085067749
---
header: 
  seq: 1123945
  stamp: 
    secs: 1561683037
    nsecs: 405537726
  frame_id: "ti_mmwave"
point_id: 12
x: 4.412109375
y: -0.287109375
z: 1.201171875
range: 4.88062095642
velocity: 0.0
doppler_bin: 8
bearing: -3.72316122055
intensity: 30.7700424194
---
header: 
  seq: 1123946
  stamp: 
    secs: 1561683037
    nsecs: 405569637
  frame_id: "ti_mmwave"
point_id: 13
x: 4.4609375
y: -0.2890625
z: 1.17578125
range: 4.9241976738
velocity: 0.0
doppler_bin: 8
bearing: -3.70750308037
intensity: 30.1114730835
---
header: 
  seq: 1123947
  stamp: 
    secs: 1561683037
    nsecs: 405626233
  frame_id: "ti_mmwave"
point_id: 14
x: 2.12890625
y: 0.6328125
z: 0.357421875
range: 2.396733284
velocity: 1.22933733463
doppler_bin: 10
bearing: 16.5544605255
intensity: 24.5331840515
---
header: 
  seq: 1123948
  stamp: 
    secs: 1561683037
    nsecs: 405796351
  frame_id: "ti_mmwave"
point_id: 15
x: 2.16796875
y: 0.64453125
z: 0.365234375
range: 2.44031047821
velocity: 1.22933733463
doppler_bin: 10
bearing: 16.5570716858
intensity: 23.138671875
---
header: 
  seq: 1123949
  stamp: 
    secs: 1561683037
    nsecs: 405901610
  frame_id: "ti_mmwave"
point_id: 17
x: 0.041015625
y: -0.033203125
z: 0.0625
range: 0.0871539413929
velocity: 0.0
doppler_bin: 8
bearing: -38.9909973145
intensity: 30.1241531372
---
header: 
  seq: 1123950
  stamp: 
    secs: 1561683037
    nsecs: 405919496
  frame_id: "ti_mmwave"
point_id: 18
x: 0.052734375
y: -0.04296875
z: 0.1015625
range: 0.130730912089
velocity: 0.0
doppler_bin: 8
bearing: -39.1736602783
intensity: 28.9982051849
---
header: 
  seq: 1123951
  stamp: 
    secs: 1561683037
    nsecs: 405932797
  frame_id: "ti_mmwave"
point_id: 20
x: 1.119140625
y: -0.515625
z: 0.298828125
range: 1.35088610649
velocity: 0.0
doppler_bin: 8
bearing: -24.7370834351
intensity: 18.9762706757
---
header: 
  seq: 1123952
  stamp: 
    secs: 1561683037
    nsecs: 463917241
  frame_id: "ti_mmwave"
point_id: 0
x: 0.01171875
y: -0.0390625
z: -0.0078125
range: 0.0435769706964
velocity: 0.0
doppler_bin: 8
bearing: -73.3007583618
intensity: 30.7445068359
---
header: 
  seq: 1123953
  stamp: 
    secs: 1561683037
    nsecs: 464013278
  frame_id: "ti_mmwave"
point_id: 1
x: 0.017578125
y: -0.080078125
z: -0.0078125
range: 0.0871539413929
velocity: 0.0
doppler_bin: 8
bearing: -77.6192398071
intensity: 31.9672870636
---
header: 
  seq: 1123954
  stamp: 
    secs: 1561683037
    nsecs: 464030629
  frame_id: "ti_mmwave"
point_id: 2
x: 0.029296875
y: -0.119140625
z: -0.005859375
range: 0.130730912089
velocity: 0.0
doppler_bin: 8
bearing: -76.1849746704
intensity: 30.2201576233
---
header: 
  seq: 1123955
  stamp: 
    secs: 1561683037
    nsecs: 464044881
  frame_id: "ti_mmwave"
point_id: 3
x: 0.056640625
y: -0.154296875
z: 0.005859375
range: 0.174307882786
velocity: 0.0
doppler_bin: 8
bearing: -69.8423843384
intensity: 25.4777469635
---
header: 
  seq: 1123956
  stamp: 
    secs: 1561683037
    nsecs: 464059782
  frame_id: "ti_mmwave"
point_id: 4
x: 0.3671875
y: -0.080078125
z: -1.2109375
range: 1.35088610649
velocity: 0.0
doppler_bin: 8
bearing: -12.3027267456
intensity: 21.9033164978
---
header: 
  seq: 1123957
  stamp: 
    secs: 1561683037
    nsecs: 464141491
  frame_id: "ti_mmwave"
point_id: 5
x: 0.248046875
y: -0.041015625
z: 1.28515625
range: 1.39446306229
velocity: 0.0
doppler_bin: 8
bearing: -9.38914775848
intensity: 23.2428245544
---
header: 
  seq: 1123958
  stamp: 
    secs: 1561683037
    nsecs: 464157332
  frame_id: "ti_mmwave"
point_id: 6
x: 0.455078125
y: -0.04296875
z: 1.26953125
range: 1.43804001808
velocity: 0.0
doppler_bin: 8
bearing: -5.39391040802
intensity: 21.9312458038
---
header: 
  seq: 1123959
  stamp: 
    secs: 1561683037
    nsecs: 464173635
  frame_id: "ti_mmwave"
point_id: 7
x: 2.021484375
y: -0.064453125
z: -0.298828125
range: 2.17884850502
velocity: 0.0
doppler_bin: 8
bearing: -1.82620322704
intensity: 26.981004715
---
header: 
  seq: 1123960
  stamp: 
    secs: 1561683037
    nsecs: 464189405
  frame_id: "ti_mmwave"
point_id: 8
x: 2.072265625
y: -0.064453125
z: -0.2265625
range: 2.22242546082
velocity: 0.0
doppler_bin: 8
bearing: -1.78148114681
intensity: 29.0902080536
---
header: 
  seq: 1123961
  stamp: 
    secs: 1561683037
    nsecs: 464203522
  frame_id: "ti_mmwave"
point_id: 9
x: 2.1171875
y: -0.06640625
z: -0.201171875
range: 2.26600241661
velocity: 0.0
doppler_bin: 8
bearing: -1.79651117325
intensity: 27.9448795319
---
header: 
  seq: 1123962
  stamp: 
    secs: 1561683037
    nsecs: 464217131
  frame_id: "ti_mmwave"
point_id: 10
x: 2.158203125
y: -0.203125
z: 0.01171875
range: 2.30957937241
velocity: 0.0
doppler_bin: 8
bearing: -5.37670564651
intensity: 26.1066017151
---
header: 
  seq: 1123963
  stamp: 
    secs: 1561683037
    nsecs: 464230798
  frame_id: "ti_mmwave"
point_id: 11
x: 2.57421875
y: -0.263671875
z: 1.125
range: 3.00681090355
velocity: 0.0
doppler_bin: 8
bearing: -5.84829235077
intensity: 29.4939002991
---
header: 
  seq: 1123964
  stamp: 
    secs: 1561683037
    nsecs: 464239964
  frame_id: "ti_mmwave"
point_id: 12
x: 2.6015625
y: -0.267578125
z: 1.166015625
range: 3.05038785934
velocity: 0.0
doppler_bin: 8
bearing: -5.87238502502
intensity: 32.7829627991
---
header: 
  seq: 1123965
  stamp: 
    secs: 1561683037
    nsecs: 464268386
  frame_id: "ti_mmwave"
point_id: 13
x: 2.658203125
y: -0.271484375
z: 1.140625
range: 3.09396481514
velocity: 0.0
doppler_bin: 8
bearing: -5.83144378662
intensity: 31.9423675537
---
header: 
  seq: 1123966
  stamp: 
    secs: 1561683037
    nsecs: 464330809
  frame_id: "ti_mmwave"
point_id: 14
x: 4.423828125
y: -0.287109375
z: 1.154296875
range: 4.88062095642
velocity: 0.0
doppler_bin: 8
bearing: -3.71332621574
intensity: 31.1693973541
---
header: 
  seq: 1123967
  stamp: 
    secs: 1561683037
    nsecs: 464346362
  frame_id: "ti_mmwave"
point_id: 15
x: 4.478515625
y: -0.2890625
z: 1.10546875
range: 4.9241976738
velocity: 0.0
doppler_bin: 8
bearing: -3.69299149513
intensity: 30.6258201599
---
header: 
  seq: 1123968
  stamp: 
    secs: 1561683037
    nsecs: 464363532
  frame_id: "ti_mmwave"
point_id: 16
x: 2.193359375
y: 0.4921875
z: -0.111328125
range: 2.396733284
velocity: 0.614668667316
doppler_bin: 9
bearing: 12.6475992203
intensity: 25.9328613281
---
header: 
  seq: 1123969
  stamp: 
    secs: 1561683037
    nsecs: 464382535
  frame_id: "ti_mmwave"
point_id: 18
x: 0.041015625
y: -0.033203125
z: 0.0625
range: 0.0871539413929
velocity: 0.0
doppler_bin: 8
bearing: -38.9909973145
intensity: 30.1283721924
---
header: 
  seq: 1123970
  stamp: 
    secs: 1561683037
    nsecs: 464408388
  frame_id: "ti_mmwave"
point_id: 19
x: 0.044921875
y: -0.046875
z: 0.103515625
range: 0.130730912089
velocity: 0.0
doppler_bin: 8
bearing: -46.218875885
intensity: 29.0036716461
---
header: 
  seq: 1123971
  stamp: 
    secs: 1561683037
    nsecs: 464474295
  frame_id: "ti_mmwave"
point_id: 21
x: 1.111328125
y: -0.515625
z: 0.330078125
range: 1.35088610649
velocity: 0.0
doppler_bin: 8
bearing: -24.8899745941
intensity: 19.0848503113
---
header: 
  seq: 1123972
  stamp: 
    secs: 1561683037
    nsecs: 464493211
  frame_id: "ti_mmwave"
point_id: 22
x: 2.701171875
y: -2.021484375
z: -3.16015625
range: 4.9241976738
velocity: 0.0
doppler_bin: 8
bearing: -36.8101959229
intensity: 27.6641292572
---
header: 
  seq: 1123973
  stamp: 
    secs: 1561683037
    nsecs: 465240756
  frame_id: "ti_mmwave"
point_id: 0
x: 0.01171875
y: -0.0390625
z: -0.0078125
range: 0.0435769706964
velocity: 0.0
doppler_bin: 8
bearing: -73.3007583618
intensity: 30.7371826172
---
header: 
  seq: 1123974
  stamp: 
    secs: 1561683037
    nsecs: 465301261
  frame_id: "ti_mmwave"
point_id: 1
x: 0.017578125
y: -0.080078125
z: -0.0078125
range: 0.0871539413929
velocity: 0.0
doppler_bin: 8
bearing: -77.6192398071
intensity: 31.9645252228
---
header: 
  seq: 1123975
  stamp: 
    secs: 1561683037
    nsecs: 465311590
  frame_id: "ti_mmwave"
point_id: 2
x: 0.041015625
y: -0.115234375
z: -0.0078125
range: 0.130730912089
velocity: 0.0
doppler_bin: 8
bearing: -70.4077224731
intensity: 30.2160263062
---
header: 
  seq: 1123976
  stamp: 
    secs: 1561683037
    nsecs: 465322248
  frame_id: "ti_mmwave"
point_id: 3
x: 0.056640625
y: -0.154296875
z: 0.005859375
range: 0.174307882786
velocity: 0.0
doppler_bin: 8
bearing: -69.8423843384
intensity: 25.4777469635
---
header: 
  seq: 1123977
  stamp: 
    secs: 1561683037
    nsecs: 465330756
  frame_id: "ti_mmwave"
point_id: 4
x: 0.3671875
y: -0.080078125
z: -1.2109375
range: 1.35088610649
velocity: 0.0
doppler_bin: 8
bearing: -12.3027267456
intensity: 21.8469142914
---
header: 
  seq: 1123978
  stamp: 
    secs: 1561683037
    nsecs: 465339405
  frame_id: "ti_mmwave"
point_id: 5
x: 0.29296875
y: -0.041015625
z: 1.275390625
range: 1.39446306229
velocity: 0.0
doppler_bin: 8
bearing: -7.96961069107
intensity: 23.2014636993
---
header: 
  seq: 1123979
  stamp: 
    secs: 1561683037
    nsecs: 465351010
  frame_id: "ti_mmwave"
point_id: 6
x: 0.41015625
y: -0.0
z: 1.28515625
range: 1.43804001808
velocity: 0.0
doppler_bin: 8
bearing: -0.0
intensity: 21.9312458038
---
header: 
  seq: 1123980
  stamp: 
    secs: 1561683037
    nsecs: 465360267
  frame_id: "ti_mmwave"
point_id: 7
x: 2.037109375
y: -0.126953125
z: -0.126953125
range: 2.17884850502
velocity: 0.0
doppler_bin: 8
bearing: -3.56607413292
intensity: 27.0415058136
---
header: 
  seq: 1123981
  stamp: 
    secs: 1561683037
    nsecs: 465367774
  frame_id: "ti_mmwave"
point_id: 8
x: 2.080078125
y: -0.130859375
z: -0.107421875
range: 2.22242546082
velocity: 0.0
doppler_bin: 8
bearing: -3.59977912903
intensity: 29.4250411987
---
header: 
  seq: 1123982
  stamp: 
    secs: 1561683037
    nsecs: 465524685
  frame_id: "ti_mmwave"
point_id: 9
x: 2.123046875
y: -0.1328125
z: 0.009765625
range: 2.26600241661
velocity: 0.0
doppler_bin: 8
bearing: -3.57961583138
intensity: 28.6864452362
---
header: 
  seq: 1123983
  stamp: 
    secs: 1561683037
    nsecs: 465542522
  frame_id: "ti_mmwave"
point_id: 10
x: 2.537109375
y: -0.263671875
z: 1.208984375
range: 3.00681090355
velocity: 0.0
doppler_bin: 8
bearing: -5.93322753906
intensity: 29.5616836548
---
header: 
  seq: 1123984
  stamp: 
    secs: 1561683037
    nsecs: 465553298
  frame_id: "ti_mmwave"
point_id: 11
x: 2.6015625
y: -0.267578125
z: 1.166015625
range: 3.05038785934
velocity: 0.0
doppler_bin: 8
bearing: -5.87238502502
intensity: 32.8757781982
---
header: 
  seq: 1123985
  stamp: 
    secs: 1561683037
    nsecs: 465561142
  frame_id: "ti_mmwave"
point_id: 12
x: 2.66796875
y: -0.181640625
z: 1.130859375
range: 3.09396481514
velocity: 0.0
doppler_bin: 8
bearing: -3.89480042458
intensity: 32.0978317261
---
header: 
  seq: 1123986
  stamp: 
    secs: 1561683037
    nsecs: 465572607
  frame_id: "ti_mmwave"
point_id: 13
x: 4.419921875
y: -0.287109375
z: 1.16796875
range: 4.88062095642
velocity: 0.0
doppler_bin: 8
bearing: -3.71659874916
intensity: 30.9377174377
---
header: 
  seq: 1123987
  stamp: 
    secs: 1561683037
    nsecs: 465580506
  frame_id: "ti_mmwave"
point_id: 14
x: 4.470703125
y: -0.2890625
z: 1.134765625
range: 4.9241976738
velocity: 0.0
doppler_bin: 8
bearing: -3.69942688942
intensity: 30.3502922058
---
header: 
  seq: 1123988
  stamp: 
    secs: 1561683037
    nsecs: 465591773
  frame_id: "ti_mmwave"
point_id: 16
x: 0.041015625
y: -0.033203125
z: 0.0625
range: 0.0871539413929
velocity: 0.0
doppler_bin: 8
bearing: -38.9909973145
intensity: 30.1325874329
---
header: 
  seq: 1123989
  stamp: 
    secs: 1561683037
    nsecs: 465646689
  frame_id: "ti_mmwave"
point_id: 17
x: 0.0546875
y: -0.04296875
z: 0.1015625
range: 0.130730912089
velocity: 0.0
doppler_bin: 8
bearing: -38.1572265625
intensity: 29.0036716461
---
header: 
  seq: 1123990
  stamp: 
    secs: 1561683037
    nsecs: 465658207
  frame_id: "ti_mmwave"
point_id: 19
x: 1.11328125
y: -0.515625
z: 0.318359375
range: 1.35088610649
velocity: 0.0
doppler_bin: 8
bearing: -24.8515853882
intensity: 19.0308990479
---
header: 
  seq: 1123991
  stamp: 
    secs: 1561683037
    nsecs: 523842231
  frame_id: "ti_mmwave"
point_id: 0
x: 0.01171875
y: -0.0390625
z: -0.0078125
range: 0.0435769706964
velocity: 0.0
doppler_bin: 8
bearing: -73.3007583618
intensity: 30.7335166931
---
header: 
  seq: 1123992
  stamp: 
    secs: 1561683037
    nsecs: 523919742
  frame_id: "ti_mmwave"
point_id: 1
x: 0.017578125
y: -0.080078125
z: -0.0078125
range: 0.0871539413929
velocity: 0.0
doppler_bin: 8
bearing: -77.6192398071
intensity: 31.9645252228
---
header: 
  seq: 1123993
  stamp: 
    secs: 1561683037
    nsecs: 523931399
  frame_id: "ti_mmwave"
point_id: 2
x: 0.041015625
y: -0.115234375
z: -0.0078125
range: 0.130730912089
velocity: 0.0
doppler_bin: 8
bearing: -70.4077224731
intensity: 30.2118930817
---
header: 
  seq: 1123994
  stamp: 
    secs: 1561683037
    nsecs: 523939629
  frame_id: "ti_mmwave"
point_id: 3
x: 0.056640625
y: -0.154296875
z: 0.005859375
range: 0.174307882786
velocity: 0.0
doppler_bin: 8
bearing: -69.8423843384
intensity: 25.4777469635
---
header: 
  seq: 1123995
  stamp: 
    secs: 1561683037
    nsecs: 523947496
  frame_id: "ti_mmwave"
point_id: 4
x: 0.34375
y: -0.080078125
z: -1.21875
range: 1.35088610649
velocity: 0.0
doppler_bin: 8
bearing: -13.1134386063
intensity: 21.9589958191
---
header: 
  seq: 1123996
  stamp: 
    secs: 1561683037
    nsecs: 523955391
  frame_id: "ti_mmwave"
point_id: 5
x: 0.28125
y: -0.041015625
z: 1.27734375
range: 1.39446306229
velocity: 0.0
doppler_bin: 8
bearing: -8.29714488983
intensity: 23.2837963104
---
header: 
  seq: 1123997
  stamp: 
    secs: 1561683037
    nsecs: 523963242
  frame_id: "ti_mmwave"
point_id: 6
x: 0.458984375
y: -0.04296875
z: 1.26953125
range: 1.43804001808
velocity: 0.0
doppler_bin: 8
bearing: -5.34827184677
intensity: 21.9589958191
---
header: 
  seq: 1123998
  stamp: 
    secs: 1561683037
    nsecs: 523971237
  frame_id: "ti_mmwave"
point_id: 7
x: 2.078125
y: -0.064453125
z: -0.162109375
range: 2.22242546082
velocity: 0.0
doppler_bin: 8
bearing: -1.77646136284
intensity: 26.5896492004
---
header: 
  seq: 1123999
  stamp: 
    secs: 1561683037
    nsecs: 523980716
  frame_id: "ti_mmwave"
point_id: 8
x: 2.1171875
y: -0.06640625
z: -0.197265625
range: 2.26600241661
velocity: 0.0
doppler_bin: 8
bearing: -1.79651117325
intensity: 26.1909332275
---
header: 
  seq: 1124000
  stamp: 
    secs: 1561683037
    nsecs: 523989731
  frame_id: "ti_mmwave"
point_id: 9
x: 2.158203125
y: -0.068359375
z: -0.19921875
range: 2.30957937241
velocity: 0.0
doppler_bin: 8
bearing: -1.81419193745
intensity: 26.4542236328
---
header: 
  seq: 1124001
  stamp: 
    secs: 1561683037
    nsecs: 523997951
  frame_id: "ti_mmwave"
point_id: 10
x: 2.205078125
y: -0.068359375
z: -0.12109375
range: 2.3531563282
velocity: 0.0
doppler_bin: 8
bearing: -1.77565121651
intensity: 26.9635639191
---
header: 
  seq: 1124002
  stamp: 
    secs: 1561683037
    nsecs: 524006033
  frame_id: "ti_mmwave"
point_id: 11
x: 2.248046875
y: 0.0703125
z: -0.076171875
range: 2.396733284
velocity: 0.0
doppler_bin: 8
bearing: 1.79146468639
intensity: 26.1489715576
---
header: 
  seq: 1124003
  stamp: 
    secs: 1561683037
    nsecs: 524014155
  frame_id: "ti_mmwave"
point_id: 12
x: 2.578125
y: -0.263671875
z: 1.119140625
range: 3.00681090355
velocity: 0.0
doppler_bin: 8
bearing: -5.83949232101
intensity: 29.5036487579
---
header: 
  seq: 1124004
  stamp: 
    secs: 1561683037
    nsecs: 524022417
  frame_id: "ti_mmwave"
point_id: 13
x: 2.625
y: -0.267578125
z: 1.11328125
range: 3.05038785934
velocity: 0.0
doppler_bin: 8
bearing: -5.82031440735
intensity: 32.8012275696
---
header: 
  seq: 1124005
  stamp: 
    secs: 1561683037
    nsecs: 524029833
  frame_id: "ti_mmwave"
point_id: 14
x: 2.681640625
y: -0.181640625
z: 1.1015625
range: 3.09396481514
velocity: 0.0
doppler_bin: 8
bearing: -3.87500452995
intensity: 32.0276069641
---
header: 
  seq: 1124006
  stamp: 
    secs: 1561683037
    nsecs: 524218675
  frame_id: "ti_mmwave"
point_id: 15
x: 4.423828125
y: -0.287109375
z: 1.158203125
range: 4.88062095642
velocity: 0.0
doppler_bin: 8
bearing: -3.71332621574
intensity: 30.5994186401
---
header: 
  seq: 1124007
  stamp: 
    secs: 1561683037
    nsecs: 524237845
  frame_id: "ti_mmwave"
point_id: 16
x: 4.478515625
y: -0.2890625
z: 1.107421875
range: 4.9241976738
velocity: 0.0
doppler_bin: 8
bearing: -3.69299149513
intensity: 30.0518054962
---
header: 
  seq: 1124008
  stamp: 
    secs: 1561683037
    nsecs: 524281149
  frame_id: "ti_mmwave"
point_id: 18
x: 0.041015625
y: -0.033203125
z: 0.0625
range: 0.0871539413929
velocity: 0.0
doppler_bin: 8
bearing: -38.9909973145
intensity: 30.1283721924
---
header: 
  seq: 1124009
  stamp: 
    secs: 1561683037
    nsecs: 524290619
  frame_id: "ti_mmwave"
point_id: 19
x: 0.052734375
y: -0.04296875
z: 0.1015625
range: 0.130730912089
velocity: 0.0
doppler_bin: 8
bearing: -39.1736602783
intensity: 29.0036716461
---
header: 
  seq: 1124010
  stamp: 
    secs: 1561683037
    nsecs: 524318986
  frame_id: "ti_mmwave"
point_id: 21
x: 1.20703125
y: 0.357421875
z: 0.15625
range: 1.35088610649
velocity: 0.0
doppler_bin: 8
bearing: 16.4948921204
intensity: 19.0848503113
---
header: 
  seq: 1124011
  stamp: 
    secs: 1561683037
    nsecs: 524333201
  frame_id: "ti_mmwave"
point_id: 22
x: 2.728515625
y: -2.021484375
z: -3.13671875
range: 4.9241976738
velocity: 0.0
doppler_bin: 8
bearing: -36.5337600708
intensity: 27.2427577972
---
header: 
  seq: 1124012
  stamp: 
    secs: 1561683037
    nsecs: 525329308
  frame_id: "ti_mmwave"
point_id: 0
x: 0.01171875
y: -0.0390625
z: -0.0078125
range: 0.0435769706964
velocity: 0.0
doppler_bin: 8
bearing: -73.3007583618
intensity: 30.7298469543
---
header: 
  seq: 1124013
  stamp: 
    secs: 1561683037
    nsecs: 525382378
  frame_id: "ti_mmwave"
point_id: 1
x: 0.017578125
y: -0.080078125
z: -0.0078125
range: 0.0871539413929
velocity: 0.0
doppler_bin: 8
bearing: -77.6192398071
intensity: 31.9645252228
---
header: 
  seq: 1124014
  stamp: 
    secs: 1561683037
    nsecs: 525398691
  frame_id: "ti_mmwave"
point_id: 2
x: 0.041015625
y: -0.115234375
z: -0.0078125
range: 0.130730912089
velocity: 0.0
doppler_bin: 8
bearing: -70.4077224731
intensity: 30.2160263062
---
header: 
  seq: 1124015
  stamp: 
    secs: 1561683037
    nsecs: 525411962
  frame_id: "ti_mmwave"
point_id: 3
x: 0.056640625
y: -0.154296875
z: 0.005859375
range: 0.174307882786
velocity: 0.0
doppler_bin: 8
bearing: -69.8423843384
intensity: 25.4777469635
---
header: 
  seq: 1124016
  stamp: 
    secs: 1561683037
    nsecs: 525508436
  frame_id: "ti_mmwave"
point_id: 4
x: 0.349609375
y: -0.080078125
z: -1.216796875
range: 1.35088610649
velocity: 0.0
doppler_bin: 8
bearing: -12.9010734558
intensity: 21.9033164978
---
header: 
  seq: 1124017
  stamp: 
    secs: 1561683037
    nsecs: 525527558
  frame_id: "ti_mmwave"
point_id: 5
x: 0.283203125
y: -0.041015625
z: 1.27734375
range: 1.39446306229
velocity: 0.0
doppler_bin: 8
bearing: -8.24071216583
intensity: 23.2014636993
---
header: 
  seq: 1124018
  stamp: 
    secs: 1561683037
    nsecs: 525533575
  frame_id: "ti_mmwave"
point_id: 6
x: 0.41015625
y: -0.0
z: 1.28515625
range: 1.43804001808
velocity: 0.0
doppler_bin: 8
bearing: -0.0
intensity: 21.8469142914
---
header: 
  seq: 1124019
  stamp: 
    secs: 1561683037
    nsecs: 525556545
  frame_id: "ti_mmwave"
point_id: 7
x: 2.01171875
y: -0.064453125
z: -0.365234375
range: 2.17884850502
velocity: 0.0
doppler_bin: 8
bearing: -1.8350622654
intensity: 27.1011734009
---
header: 
  seq: 1124020
  stamp: 
    secs: 1561683037
    nsecs: 525569655
  frame_id: "ti_mmwave"
point_id: 8
x: 2.060546875
y: -0.064453125
z: -0.32421875
range: 2.22242546082
velocity: 0.0
doppler_bin: 8
bearing: -1.7916059494
intensity: 28.6746749878
---
header: 
  seq: 1124021
  stamp: 
    secs: 1561683037
    nsecs: 525629585
  frame_id: "ti_mmwave"
point_id: 9
x: 2.10546875
y: -0.06640625
z: -0.294921875
range: 2.26600241661
velocity: 0.0
doppler_bin: 8
bearing: -1.80650353432
intensity: 27.5204849243
---
header: 
  seq: 1124022
  stamp: 
    secs: 1561683037
    nsecs: 525645398
  frame_id: "ti_mmwave"
point_id: 10
x: 2.125
y: -0.134765625
z: -0.408203125
range: 2.30957937241
velocity: 0.0
doppler_bin: 8
bearing: -3.6287882328
intensity: 26.637008667
---
header: 
  seq: 1124023
  stamp: 
    secs: 1561683037
    nsecs: 525658088
  frame_id: "ti_mmwave"
point_id: 11
x: 2.541015625
y: -0.263671875
z: 1.201171875
range: 3.00681090355
velocity: 0.0
doppler_bin: 8
bearing: -5.92417097092
intensity: 29.3651371002
---
header: 
  seq: 1124024
  stamp: 
    secs: 1561683037
    nsecs: 525674070
  frame_id: "ti_mmwave"
point_id: 12
x: 2.595703125
y: -0.267578125
z: 1.177734375
range: 3.05038785934
velocity: 0.0
doppler_bin: 8
bearing: -5.88554811478
intensity: 32.7875366211
---
header: 
  seq: 1124025
  stamp: 
    secs: 1561683037
    nsecs: 525682497
  frame_id: "ti_mmwave"
point_id: 13
x: 2.650390625
y: -0.271484375
z: 1.15625
range: 3.09396481514
velocity: 0.0
doppler_bin: 8
bearing: -5.84851360321
intensity: 32.0139694214
---
header: 
  seq: 1124026
  stamp: 
    secs: 1561683037
    nsecs: 525732429
  frame_id: "ti_mmwave"
point_id: 14
x: 4.421875
y: -0.287109375
z: 1.166015625
range: 4.88062095642
velocity: 0.0
doppler_bin: 8
bearing: -3.7149617672
intensity: 30.9482040405
---
header: 
  seq: 1124027
  stamp: 
    secs: 1561683037
    nsecs: 525746028
  frame_id: "ti_mmwave"
point_id: 15
x: 4.470703125
y: -0.2890625
z: 1.13671875
range: 4.9241976738
velocity: 0.0
doppler_bin: 8
bearing: -3.69942688942
intensity: 30.3221569061
---
header: 
  seq: 1124028
  stamp: 
    secs: 1561683037
    nsecs: 525759088
  frame_id: "ti_mmwave"
point_id: 16
x: 4.869140625
y: -0.30859375
z: 0.83203125
range: 5.27281332016
velocity: 0.0
doppler_bin: 8
bearing: -3.62641048431
intensity: 30.678144455
---
header: 
  seq: 1124029
  stamp: 
    secs: 1561683037
    nsecs: 525774392
  frame_id: "ti_mmwave"
point_id: 18
x: 0.041015625
y: -0.033203125
z: 0.0625
range: 0.0871539413929
velocity: 0.0
doppler_bin: 8
bearing: -38.9909973145
intensity: 30.1283721924
---
header: 
  seq: 1124030
  stamp: 
    secs: 1561683037
    nsecs: 525786578
  frame_id: "ti_mmwave"
point_id: 19
x: 0.044921875
y: -0.046875
z: 0.103515625
range: 0.130730912089
velocity: 0.0
doppler_bin: 8
bearing: -46.218875885
intensity: 29.0091304779
---
header: 
  seq: 1124031
  stamp: 
    secs: 1561683037
    nsecs: 525801468
  frame_id: "ti_mmwave"
point_id: 21
x: 1.119140625
y: -0.515625
z: 0.302734375
range: 1.35088610649
velocity: 0.0
doppler_bin: 8
bearing: -24.7370834351
intensity: 19.0848503113
---
header: 
  seq: 1124032
  stamp: 
    secs: 1561683037
    nsecs: 525814887
  frame_id: "ti_mmwave"
point_id: 22
x: 2.771484375
y: -2.00390625
z: -3.048828125
range: 4.88062095642
velocity: 0.0
doppler_bin: 8
bearing: -35.868598938
intensity: 27.9726753235
---
header: 
  seq: 1124033
  stamp: 
    secs: 1561683037
    nsecs: 525848536
  frame_id: "ti_mmwave"
point_id: 23
x: 2.796875
y: -2.021484375
z: -3.07421875
range: 4.9241976738
velocity: 0.0
doppler_bin: 8
bearing: -35.8581008911
intensity: 27.5281639099
---
header: 
  seq: 1124034
  stamp: 
    secs: 1561683037
    nsecs: 583911548
  frame_id: "ti_mmwave"
point_id: 0
x: 0.01171875
y: -0.0390625
z: -0.0078125
range: 0.0435769706964
velocity: 0.0
doppler_bin: 8
bearing: -73.3007583618
intensity: 30.7371826172
---
header: 
  seq: 1124035
  stamp: 
    secs: 1561683037
    nsecs: 584015295
  frame_id: "ti_mmwave"
point_id: 1
x: 0.017578125
y: -0.080078125
z: -0.0078125
range: 0.0871539413929
velocity: 0.0
doppler_bin: 8
bearing: -77.6192398071
intensity: 31.9645252228
---
header: 
  seq: 1124036
  stamp: 
    secs: 1561683037
    nsecs: 584034344
  frame_id: "ti_mmwave"
point_id: 2
x: 0.041015625
y: -0.115234375
z: -0.0078125
range: 0.130730912089
velocity: 0.0
doppler_bin: 8
bearing: -70.4077224731
intensity: 30.2160263062
---
header: 
  seq: 1124037
  stamp: 
    secs: 1561683037
    nsecs: 584051665
  frame_id: "ti_mmwave"
point_id: 3
x: 0.056640625
y: -0.154296875
z: 0.005859375
range: 0.174307882786
velocity: 0.0
doppler_bin: 8
bearing: -69.8423843384
intensity: 25.4777469635
---
header: 
  seq: 1124038
  stamp: 
    secs: 1561683037
    nsecs: 584070884
  frame_id: "ti_mmwave"
point_id: 4
x: 0.36328125
y: -0.080078125
z: -1.212890625
range: 1.35088610649
velocity: 0.0
doppler_bin: 8
bearing: -12.4309225082
intensity: 21.9312458038
---
header: 
  seq: 1124039
  stamp: 
    secs: 1561683037
    nsecs: 584090500
  frame_id: "ti_mmwave"
point_id: 5
x: 0.29296875
y: -0.041015625
z: 1.275390625
range: 1.39446306229
velocity: 0.0
doppler_bin: 8
bearing: -7.96961069107
intensity: 23.2428245544
---
header: 
  seq: 1124040
  stamp: 
    secs: 1561683037
    nsecs: 584110494
  frame_id: "ti_mmwave"
point_id: 6
x: 0.466796875
y: -0.04296875
z: 1.265625
range: 1.43804001808
velocity: 0.0
doppler_bin: 8
bearing: -5.25926733017
intensity: 21.9312458038
---
header: 
  seq: 1124041
  stamp: 
    secs: 1561683037
    nsecs: 584125945
  frame_id: "ti_mmwave"
point_id: 7
x: 2.078125
y: -0.064453125
z: -0.166015625
range: 2.22242546082
velocity: 0.0
doppler_bin: 8
bearing: -1.77646136284
intensity: 27.7959651947
---
header: 
  seq: 1124042
  stamp: 
    secs: 1561683037
    nsecs: 584144779
  frame_id: "ti_mmwave"
point_id: 8
x: 2.125
y: -0.0
z: -0.09375
range: 2.26600241661
velocity: 0.0
doppler_bin: 8
bearing: -0.0
intensity: 26.8930892944
---
header: 
  seq: 1124043
  stamp: 
    secs: 1561683037
    nsecs: 584223601
  frame_id: "ti_mmwave"
point_id: 9
x: 2.583984375
y: -0.263671875
z: 1.103515625
range: 3.00681090355
velocity: 0.0
doppler_bin: 8
bearing: -5.82634210587
intensity: 29.5520648956
---
header: 
  seq: 1124044
  stamp: 
    secs: 1561683037
    nsecs: 584239456
  frame_id: "ti_mmwave"
point_id: 10
x: 2.615234375
y: -0.267578125
z: 1.1328125
range: 3.05038785934
velocity: 0.0
doppler_bin: 8
bearing: -5.84189844131
intensity: 32.8194198608
---
header: 
  seq: 1124045
  stamp: 
    secs: 1561683037
    nsecs: 584253112
  frame_id: "ti_mmwave"
point_id: 11
x: 2.6640625
y: -0.181640625
z: 1.142578125
range: 3.09396481514
velocity: 0.0
doppler_bin: 8
bearing: -3.90049386024
intensity: 32.0030326843
---
header: 
  seq: 1124046
  stamp: 
    secs: 1561683037
    nsecs: 584268010
  frame_id: "ti_mmwave"
point_id: 12
x: 4.4140625
y: -0.287109375
z: 1.19140625
range: 4.88062095642
velocity: 0.0
doppler_bin: 8
bearing: -3.72151875496
intensity: 30.8457622528
---
header: 
  seq: 1124047
  stamp: 
    secs: 1561683037
    nsecs: 584282309
  frame_id: "ti_mmwave"
point_id: 13
x: 4.462890625
y: -0.2890625
z: 1.166015625
range: 4.9241976738
velocity: 0.0
doppler_bin: 8
bearing: -3.70588517189
intensity: 30.1325874329
---
header: 
  seq: 1124048
  stamp: 
    secs: 1561683037
    nsecs: 584300730
  frame_id: "ti_mmwave"
point_id: 15
x: 0.041015625
y: -0.033203125
z: 0.0625
range: 0.0871539413929
velocity: 0.0
doppler_bin: 8
bearing: -38.9909973145
intensity: 30.1283721924
---
header: 
  seq: 1124049
  stamp: 
    secs: 1561683037
    nsecs: 584314388
  frame_id: "ti_mmwave"
point_id: 16
x: 0.044921875
y: -0.046875
z: 0.103515625
range: 0.130730912089
velocity: 0.0
doppler_bin: 8
bearing: -46.218875885
intensity: 29.0091304779
---
header: 
  seq: 1124050
  stamp: 
    secs: 1561683037
    nsecs: 584331123
  frame_id: "ti_mmwave"
point_id: 18
x: 1.20703125
y: 0.357421875
z: 0.158203125
range: 1.35088610649
velocity: 0.0
doppler_bin: 8
bearing: 16.4948921204
intensity: 19.0308990479
---
header: 
  seq: 1124051
  stamp: 
    secs: 1561683037
    nsecs: 584375571
  frame_id: "ti_mmwave"
point_id: 19
x: 2.8828125
y: -2.021484375
z: -2.994140625
range: 4.9241976738
velocity: 0.0
doppler_bin: 8
bearing: -35.0388870239
intensity: 27.3158874512
---
header: 
  seq: 1124052
  stamp: 
    secs: 1561683037
    nsecs: 585365722
  frame_id: "ti_mmwave"
point_id: 0
x: 0.01171875
y: -0.0390625
z: -0.0078125
range: 0.0435769706964
velocity: 0.0
doppler_bin: 8
bearing: -73.3007583618
intensity: 30.7371826172
---
header: 
  seq: 1124053
  stamp: 
    secs: 1561683037
    nsecs: 585417634
  frame_id: "ti_mmwave"
point_id: 1
x: 0.017578125
y: -0.080078125
z: -0.0078125
range: 0.0871539413929
velocity: 0.0
doppler_bin: 8
bearing: -77.6192398071
intensity: 31.9645252228
---
header: 
  seq: 1124054
  stamp: 
    secs: 1561683037
    nsecs: 585433298
  frame_id: "ti_mmwave"
point_id: 2
x: 0.029296875
y: -0.119140625
z: -0.005859375
range: 0.130730912089
velocity: 0.0
doppler_bin: 8
bearing: -76.1849746704
intensity: 30.2201576233
---
header: 
  seq: 1124055
  stamp: 
    secs: 1561683037
    nsecs: 585447884
  frame_id: "ti_mmwave"
point_id: 3
x: 0.056640625
y: -0.154296875
z: 0.005859375
range: 0.174307882786
velocity: 0.0
doppler_bin: 8
bearing: -69.8423843384
intensity: 25.4777469635
---
header: 
  seq: 1124056
  stamp: 
    secs: 1561683037
    nsecs: 585474313
  frame_id: "ti_mmwave"
point_id: 4
x: 0.359375
y: -0.080078125
z: -1.212890625
range: 1.35088610649
velocity: 0.0
doppler_bin: 8
bearing: -12.5617752075
intensity: 21.9033164978
---
header: 
  seq: 1124057
  stamp: 
    secs: 1561683037
    nsecs: 585494292
  frame_id: "ti_mmwave"
point_id: 5
x: 0.291015625
y: -0.041015625
z: 1.275390625
range: 1.39446306229
velocity: 0.0
doppler_bin: 8
bearing: -8.02240371704
intensity: 23.2221927643
---
header: 
  seq: 1124058
  stamp: 
    secs: 1561683037
    nsecs: 585507446
  frame_id: "ti_mmwave"
point_id: 6
x: 0.388671875
y: -0.0
z: 1.29296875
range: 1.43804001808
velocity: 0.0
doppler_bin: 8
bearing: -0.0
intensity: 21.9033164978
---
header: 
  seq: 1124059
  stamp: 
    secs: 1561683037
    nsecs: 585520707
  frame_id: "ti_mmwave"
point_id: 7
x: 2.126953125
y: -0.06640625
z: 0.013671875
range: 2.26600241661
velocity: 0.0
doppler_bin: 8
bearing: -1.78826808929
intensity: 26.9372692108
---
header: 
  seq: 1124060
  stamp: 
    secs: 1561683037
    nsecs: 585583952
  frame_id: "ti_mmwave"
point_id: 8
x: 2.603515625
y: -0.263671875
z: 1.05859375
range: 3.00681090355
velocity: 0.0
doppler_bin: 8
bearing: -5.78293085098
intensity: 29.4743366241
---
header: 
  seq: 1124061
  stamp: 
    secs: 1561683037
    nsecs: 585609785
  frame_id: "ti_mmwave"
point_id: 9
x: 2.61328125
y: -0.267578125
z: 1.138671875
range: 3.05038785934
velocity: 0.0
doppler_bin: 8
bearing: -5.84623432159
intensity: 32.7875366211
---
header: 
  seq: 1124062
  stamp: 
    secs: 1561683037
    nsecs: 585636177
  frame_id: "ti_mmwave"
point_id: 10
x: 2.662109375
y: -0.181640625
z: 1.14453125
range: 3.09396481514
velocity: 0.0
doppler_bin: 8
bearing: -3.90334677696
intensity: 32.030330658
---
header: 
  seq: 1124063
  stamp: 
    secs: 1561683037
    nsecs: 585673172
  frame_id: "ti_mmwave"
point_id: 11
x: 4.41796875
y: -0.287109375
z: 1.181640625
range: 4.88062095642
velocity: 0.0
doppler_bin: 8
bearing: -3.71823716164
intensity: 30.8098697662
---
header: 
  seq: 1124064
  stamp: 
    secs: 1561683037
    nsecs: 585690739
  frame_id: "ti_mmwave"
point_id: 12
x: 4.46875
y: -0.2890625
z: 1.142578125
range: 4.9241976738
velocity: 0.0
doppler_bin: 8
bearing: -3.70103907585
intensity: 30.1703338623
---
header: 
  seq: 1124065
  stamp: 
    secs: 1561683037
    nsecs: 585704290
  frame_id: "ti_mmwave"
point_id: 13
x: 4.892578125
y: -0.30859375
z: 0.6796875
range: 5.27281332016
velocity: 0.0
doppler_bin: 8
bearing: -3.60908436775
intensity: 30.5422992706
---
header: 
  seq: 1124066
  stamp: 
    secs: 1561683037
    nsecs: 585721248
  frame_id: "ti_mmwave"
point_id: 15
x: 0.041015625
y: -0.033203125
z: 0.0625
range: 0.0871539413929
velocity: 0.0
doppler_bin: 8
bearing: -38.9909973145
intensity: 30.1325874329
---
header: 
  seq: 1124067
  stamp: 
    secs: 1561683037
    nsecs: 585732836
  frame_id: "ti_mmwave"
point_id: 16
x: 0.044921875
y: -0.046875
z: 0.103515625
range: 0.130730912089
velocity: 0.0
doppler_bin: 8
bearing: -46.218875885
intensity: 29.0091304779
---
header: 
  seq: 1124068
  stamp: 
    secs: 1561683037
    nsecs: 585746323
  frame_id: "ti_mmwave"
point_id: 18
x: 1.11328125
y: -0.474609375
z: 0.375
range: 1.35088610649
velocity: 0.0
doppler_bin: 8
bearing: -23.0893154144
intensity: 18.9762706757
---
header: 
  seq: 1124069
  stamp: 
    secs: 1561683037
    nsecs: 585757315
  frame_id: "ti_mmwave"
point_id: 19
x: 2.810546875
y: -2.00390625
z: -3.01171875
range: 4.88062095642
velocity: 0.0
doppler_bin: 8
bearing: -35.4886817932
intensity: 27.8247261047
---
header: 
  seq: 1124070
  stamp: 
    secs: 1561683037
    nsecs: 585768442
  frame_id: "ti_mmwave"
point_id: 20
x: 2.826171875
y: -2.021484375
z: -3.046875
range: 4.9241976738
velocity: 0.0
doppler_bin: 8
bearing: -35.5751152039
intensity: 27.2754135132
---
header: 
  seq: 1124071
  stamp: 
    secs: 1561683037
    nsecs: 643811330
  frame_id: "ti_mmwave"
point_id: 0
x: 0.01171875
y: -0.0390625
z: -0.0078125
range: 0.0435769706964
velocity: 0.0
doppler_bin: 8
bearing: -73.3007583618
intensity: 30.7371826172
---
header: 
  seq: 1124072
  stamp: 
    secs: 1561683037
    nsecs: 643861630
  frame_id: "ti_mmwave"
point_id: 1
x: 0.017578125
y: -0.080078125
z: -0.0078125
range: 0.0871539413929
velocity: 0.0
doppler_bin: 8
bearing: -77.6192398071
intensity: 31.9645252228
---
header: 
  seq: 1124073
  stamp: 
    secs: 1561683037
    nsecs: 643869030
  frame_id: "ti_mmwave"
point_id: 2
x: 0.029296875
y: -0.119140625
z: -0.005859375
range: 0.130730912089
velocity: 0.0
doppler_bin: 8
bearing: -76.1849746704
intensity: 30.2201576233
---
header: 
  seq: 1124074
  stamp: 
    secs: 1561683037
    nsecs: 643874758
  frame_id: "ti_mmwave"
point_id: 3
x: 0.056640625
y: -0.154296875
z: 0.005859375
range: 0.174307882786
velocity: 0.0
doppler_bin: 8
bearing: -69.8423843384
intensity: 25.490032196
---
header: 
  seq: 1124075
  stamp: 
    secs: 1561683037
    nsecs: 643880114
  frame_id: "ti_mmwave"
point_id: 4
x: 0.361328125
y: -0.080078125
z: -1.212890625
range: 1.35088610649
velocity: 0.0
doppler_bin: 8
bearing: -12.4960107803
intensity: 21.9312458038
---
header: 
  seq: 1124076
  stamp: 
    secs: 1561683037
    nsecs: 643885602
  frame_id: "ti_mmwave"
point_id: 5
x: 0.265625
y: -0.041015625
z: 1.28125
range: 1.39446306229
velocity: 0.0
doppler_bin: 8
bearing: -8.77781772614
intensity: 23.2221927643
---
header: 
  seq: 1124077
  stamp: 
    secs: 1561683037
    nsecs: 643890660
  frame_id: "ti_mmwave"
point_id: 6
x: 0.443359375
y: -0.04296875
z: 1.275390625
range: 1.43804001808
velocity: 0.0
doppler_bin: 8
bearing: -5.53560686111
intensity: 21.875207901
---
header: 
  seq: 1124078
  stamp: 
    secs: 1561683037
    nsecs: 643895908
  frame_id: "ti_mmwave"
point_id: 7
x: 2.5703125
y: -0.263671875
z: 1.134765625
range: 3.00681090355
velocity: 0.0
doppler_bin: 8
bearing: -5.85711812973
intensity: 29.4546852112
---
header: 
  seq: 1124079
  stamp: 
    secs: 1561683037
    nsecs: 643902468
  frame_id: "ti_mmwave"
point_id: 8
x: 2.603515625
y: -0.267578125
z: 1.162109375
range: 3.05038785934
velocity: 0.0
doppler_bin: 8
bearing: -5.8680100441
intensity: 32.817150116
---
header: 
  seq: 1124080
  stamp: 
    secs: 1561683037
    nsecs: 643908398
  frame_id: "ti_mmwave"
point_id: 9
x: 2.65234375
y: -0.271484375
z: 1.150390625
range: 3.09396481514
velocity: 0.0
doppler_bin: 8
bearing: -5.84423685074
intensity: 31.9975509644
---
header: 
  seq: 1124081
  stamp: 
    secs: 1561683037
    nsecs: 643913830
  frame_id: "ti_mmwave"
point_id: 10
x: 4.412109375
y: -0.287109375
z: 1.203125
range: 4.88062095642
velocity: 0.0
doppler_bin: 8
bearing: -3.72316122055
intensity: 30.8098697662
---
header: 
  seq: 1124082
  stamp: 
    secs: 1561683037
    nsecs: 643919322
  frame_id: "ti_mmwave"
point_id: 11
x: 4.46875
