header: 
  seq: 3436645
  stamp: 
    secs: 1561686654
    nsecs: 682161087
  frame_id: "ti_mmwave"
point_id: 0
x: 0.01171875
y: -0.0390625
z: -0.0078125
range: 0.0435769706964
velocity: 0.0
doppler_bin: 8
bearing: -73.3007583618
intensity: 30.7298469543
---
header: 
  seq: 3436646
  stamp: 
    secs: 1561686654
    nsecs: 682231638
  frame_id: "ti_mmwave"
point_id: 1
x: 0.017578125
y: -0.080078125
z: -0.0078125
range: 0.0871539413929
velocity: 0.0
doppler_bin: 8
bearing: -77.6192398071
intensity: 31.9755630493
---
header: 
  seq: 3436647
  stamp: 
    secs: 1561686654
    nsecs: 682245142
  frame_id: "ti_mmwave"
point_id: 2
x: 0.029296875
y: -0.119140625
z: -0.00390625
range: 0.130730912089
velocity: 0.0
doppler_bin: 8
bearing: -76.1849746704
intensity: 30.2036132812
---
header: 
  seq: 3436648
  stamp: 
    secs: 1561686654
    nsecs: 682256796
  frame_id: "ti_mmwave"
point_id: 3
x: 0.056640625
y: -0.154296875
z: 0.005859375
range: 0.174307882786
velocity: 0.0
doppler_bin: 8
bearing: -69.8423843384
intensity: 25.5022830963
---
header: 
  seq: 3436649
  stamp: 
    secs: 1561686654
    nsecs: 682271050
  frame_id: "ti_mmwave"
point_id: 4
x: 0.3515625
y: -0.080078125
z: -1.216796875
range: 1.35088610649
velocity: 0.0
doppler_bin: 8
bearing: -12.83177948
intensity: 21.9589958191
---
header: 
  seq: 3436650
  stamp: 
    secs: 1561686654
    nsecs: 682283723
  frame_id: "ti_mmwave"
point_id: 5
x: 0.2890625
y: -0.041015625
z: 1.275390625
range: 1.39446306229
velocity: 0.0
doppler_bin: 8
bearing: -8.0758972168
intensity: 23.2633590698
---
header: 
  seq: 3436651
  stamp: 
    secs: 1561686654
    nsecs: 682297212
  frame_id: "ti_mmwave"
point_id: 6
x: 0.466796875
y: -0.04296875
z: 1.265625
range: 1.43804001808
velocity: 0.0
doppler_bin: 8
bearing: -5.25926733017
intensity: 21.8469142914
---
header: 
  seq: 3436652
  stamp: 
    secs: 1561686654
    nsecs: 682309456
  frame_id: "ti_mmwave"
point_id: 7
x: 1.361328125
y: -0.044921875
z: 0.44140625
range: 1.52519392967
velocity: 0.0
doppler_bin: 8
bearing: -1.88999271393
intensity: 23.4044418335
---
header: 
  seq: 3436653
  stamp: 
    secs: 1561686654
    nsecs: 682322046
  frame_id: "ti_mmwave"
point_id: 8
x: 1.46484375
y: -0.046875
z: -0.150390625
range: 1.56877088547
velocity: 0.0
doppler_bin: 8
bearing: -1.83283960819
intensity: 30.4649524689
---
header: 
  seq: 3436654
  stamp: 
    secs: 1561686654
    nsecs: 682336796
  frame_id: "ti_mmwave"
point_id: 9
x: 1.498046875
y: -0.046875
z: -0.212890625
range: 1.61234796047
velocity: 0.0
doppler_bin: 8
bearing: -1.79224264622
intensity: 33.793056488
---
header: 
  seq: 3436655
  stamp: 
    secs: 1561686654
    nsecs: 682348734
  frame_id: "ti_mmwave"
point_id: 10
x: 1.53515625
y: -0.048828125
z: -0.234375
range: 1.65592491627
velocity: 0.0
doppler_bin: 8
bearing: -1.82177066803
intensity: 33.6548805237
---
header: 
  seq: 3436656
  stamp: 
    secs: 1561686654
    nsecs: 682375546
  frame_id: "ti_mmwave"
point_id: 11
x: 1.560546875
y: -0.05078125
z: -0.32421875
range: 1.69950187206
velocity: 0.0
doppler_bin: 8
bearing: -1.86378574371
intensity: 29.7543182373
---
header: 
  seq: 3436657
  stamp: 
    secs: 1561686654
    nsecs: 682531146
  frame_id: "ti_mmwave"
point_id: 12
x: 2.548828125
y: -0.263671875
z: 1.185546875
range: 3.00681090355
velocity: 0.0
doppler_bin: 8
bearing: -5.90614128113
intensity: 29.4448261261
---
header: 
  seq: 3436658
  stamp: 
    secs: 1561686654
    nsecs: 682551022
  frame_id: "ti_mmwave"
point_id: 13
x: 2.607421875
y: -0.267578125
z: 1.15234375
range: 3.05038785934
velocity: 0.0
doppler_bin: 8
bearing: -5.85928010941
intensity: 32.7461967468
---
header: 
  seq: 3436659
  stamp: 
    secs: 1561686654
    nsecs: 682560242
  frame_id: "ti_mmwave"
point_id: 14
x: 2.66796875
y: -0.181640625
z: 1.134765625
range: 3.09396481514
velocity: 0.0
doppler_bin: 8
bearing: -3.89480042458
intensity: 31.9920654297
---
header: 
  seq: 3436660
  stamp: 
    secs: 1561686654
    nsecs: 682569921
  frame_id: "ti_mmwave"
point_id: 15
x: 1.615234375
y: 0.255859375
z: 0.060546875
range: 1.74307882786
velocity: -0.614668667316
doppler_bin: 7
bearing: 9.00108623505
intensity: 26.5896492004
---
header: 
  seq: 3436661
  stamp: 
    secs: 1561686654
    nsecs: 682578488
  frame_id: "ti_mmwave"
point_id: 16
x: 1.646484375
y: 0.314453125
z: 0.060546875
range: 1.78665578365
velocity: -0.614668667316
doppler_bin: 7
bearing: 10.8124036789
intensity: 25.9549617767
---
header: 
  seq: 3436662
  stamp: 
    secs: 1561686654
    nsecs: 682587229
  frame_id: "ti_mmwave"
point_id: 17
x: 1.634765625
y: -0.482421875
z: 0.20703125
range: 1.83023273945
velocity: -0.614668667316
doppler_bin: 7
bearing: -16.441411972
intensity: 25.4777469635
---
header: 
  seq: 3436663
  stamp: 
    secs: 1561686654
    nsecs: 682598288
  frame_id: "ti_mmwave"
point_id: 19
x: 0.041015625
y: -0.033203125
z: 0.0625
range: 0.0871539413929
velocity: 0.0
doppler_bin: 8
bearing: -38.9909973145
intensity: 30.1452045441
---
header: 
  seq: 3436664
  stamp: 
    secs: 1561686654
    nsecs: 682606723
  frame_id: "ti_mmwave"
point_id: 20
x: 0.044921875
y: -0.046875
z: 0.103515625
range: 0.130730912089
velocity: 0.0
doppler_bin: 8
bearing: -46.218875885
intensity: 29.0525608063
---
header: 
  seq: 3436665
  stamp: 
    secs: 1561686654
    nsecs: 682617251
  frame_id: "ti_mmwave"
point_id: 22
x: 1.212890625
y: 0.357421875
z: 0.08984375
range: 1.35088610649
velocity: 0.0
doppler_bin: 8
bearing: 16.419506073
intensity: 19.1381378174
---
header: 
  seq: 3436666
  stamp: 
    secs: 1561686654
    nsecs: 682625678
  frame_id: "ti_mmwave"
point_id: 23
x: 1.646484375
y: 0.4296875
z: 0.23046875
range: 1.83023273945
velocity: -0.614668667316
doppler_bin: 7
bearing: 14.6264057159
intensity: 23.031961441
---
header: 
  seq: 3436667
  stamp: 
    secs: 1561686654
    nsecs: 683535930
  frame_id: "ti_mmwave"
point_id: 0
x: 0.01171875
y: -0.0390625
z: -0.0078125
range: 0.0435769706964
velocity: 0.0
doppler_bin: 8
bearing: -73.3007583618
intensity: 30.7335166931
---
header: 
  seq: 3436668
  stamp: 
    secs: 1561686654
    nsecs: 683594068
  frame_id: "ti_mmwave"
point_id: 1
x: 0.017578125
y: -0.080078125
z: -0.0078125
range: 0.0871539413929
velocity: 0.0
doppler_bin: 8
bearing: -77.6192398071
intensity: 31.9755630493
---
header: 
  seq: 3436669
  stamp: 
    secs: 1561686654
    nsecs: 683610867
  frame_id: "ti_mmwave"
point_id: 2
x: 0.029296875
y: -0.119140625
z: -0.00390625
range: 0.130730912089
velocity: 0.0
doppler_bin: 8
bearing: -76.1849746704
intensity: 30.2036132812
---
header: 
  seq: 3436670
  stamp: 
    secs: 1561686654
    nsecs: 683624683
  frame_id: "ti_mmwave"
point_id: 3
x: 0.056640625
y: -0.154296875
z: 0.0078125
range: 0.174307882786
velocity: 0.0
doppler_bin: 8
bearing: -69.8423843384
intensity: 25.5022830963
---
header: 
  seq: 3436671
  stamp: 
    secs: 1561686654
    nsecs: 683638396
  frame_id: "ti_mmwave"
point_id: 4
x: 0.32421875
y: -0.080078125
z: -1.22265625
range: 1.35088610649
velocity: 0.0
doppler_bin: 8
bearing: -13.8737030029
intensity: 21.9865703583
---
header: 
  seq: 3436672
  stamp: 
    secs: 1561686654
    nsecs: 683650835
  frame_id: "ti_mmwave"
point_id: 5
x: 0.306640625
y: -0.041015625
z: 1.271484375
range: 1.39446306229
velocity: 0.0
doppler_bin: 8
bearing: -7.6185464859
intensity: 23.2837963104
---
header: 
  seq: 3436673
  stamp: 
    secs: 1561686654
    nsecs: 683663550
  frame_id: "ti_mmwave"
point_id: 6
x: 0.494140625
y: -0.04296875
z: 1.255859375
range: 1.43804001808
velocity: 0.0
doppler_bin: 8
bearing: -4.96974086761
intensity: 21.9033164978
---
header: 
  seq: 3436674
  stamp: 
    secs: 1561686654
    nsecs: 683677888
  frame_id: "ti_mmwave"
point_id: 7
x: 1.431640625
y: -0.0
z: 0.34765625
range: 1.56877088547
velocity: 0.0
doppler_bin: 8
bearing: -0.0
intensity: 22.5527248383
---
header: 
  seq: 3436675
  stamp: 
    secs: 1561686654
    nsecs: 683691466
  frame_id: "ti_mmwave"
point_id: 8
x: 1.5078125
y: 0.142578125
z: 0.001953125
range: 1.61234796047
velocity: 0.0
doppler_bin: 8
bearing: 5.40180301666
intensity: 27.1096305847
---
header: 
  seq: 3436676
  stamp: 
    secs: 1561686654
    nsecs: 683773377
  frame_id: "ti_mmwave"
point_id: 9
x: 1.55078125
y: 0.09765625
z: -0.04296875
range: 1.65592491627
velocity: 0.0
doppler_bin: 8
bearing: 3.60328841209
intensity: 29.2376194
---
header: 
  seq: 3436677
  stamp: 
    secs: 1561686654
    nsecs: 683784158
  frame_id: "ti_mmwave"
point_id: 10
x: 1.591796875
y: 0.099609375
z: -0.001953125
range: 1.69950187206
velocity: 0.0
doppler_bin: 8
bearing: 3.58071136475
intensity: 28.9265098572
---
header: 
  seq: 3436678
  stamp: 
    secs: 1561686654
    nsecs: 683791680
  frame_id: "ti_mmwave"
point_id: 11
x: 1.619140625
y: 0.205078125
z: 0.109375
range: 1.74307882786
velocity: 0.0
doppler_bin: 8
bearing: 7.21856737137
intensity: 27.3798732758
---
header: 
  seq: 3436679
  stamp: 
    secs: 1561686654
    nsecs: 683799059
  frame_id: "ti_mmwave"
point_id: 12
x: 2.55859375
y: -0.263671875
z: 1.1640625
range: 3.00681090355
velocity: 0.0
doppler_bin: 8
bearing: -5.88375711441
intensity: 29.2272548676
---
header: 
  seq: 3436680
  stamp: 
    secs: 1561686654
    nsecs: 683806326
  frame_id: "ti_mmwave"
point_id: 13
x: 2.60546875
y: -0.267578125
z: 1.158203125
range: 3.05038785934
velocity: 0.0
doppler_bin: 8
bearing: -5.86364221573
intensity: 32.6268844604
---
header: 
  seq: 3436681
  stamp: 
    secs: 1561686654
    nsecs: 683815676
  frame_id: "ti_mmwave"
point_id: 14
x: 2.66796875
y: -0.181640625
z: 1.1328125
range: 3.09396481514
velocity: 0.0
doppler_bin: 8
bearing: -3.89480042458
intensity: 31.9755630493
---
header: 
  seq: 3436682
  stamp: 
    secs: 1561686654
    nsecs: 683831105
  frame_id: "ti_mmwave"
point_id: 16
x: 0.041015625
y: -0.033203125
z: 0.0625
range: 0.0871539413929
velocity: 0.0
doppler_bin: 8
bearing: -38.9909973145
intensity: 30.1452045441
---
header: 
  seq: 3436683
  stamp: 
    secs: 1561686654
    nsecs: 683845864
  frame_id: "ti_mmwave"
point_id: 17
x: 0.044921875
y: -0.046875
z: 0.103515625
range: 0.130730912089
velocity: 0.0
doppler_bin: 8
bearing: -46.218875885
intensity: 29.0525608063
---
header: 
  seq: 3436684
  stamp: 
    secs: 1561686654
    nsecs: 683861359
  frame_id: "ti_mmwave"
point_id: 19
x: 1.21484375
y: 0.357421875
z: 0.076171875
range: 1.35088610649
velocity: 0.0
doppler_bin: 8
bearing: 16.3945274353
intensity: 19.2941894531
---
header: 
  seq: 3436685
  stamp: 
    secs: 1561686654
    nsecs: 683876002
  frame_id: "ti_mmwave"
point_id: 20
x: 1.36328125
y: -0.091796875
z: 0.546875
range: 1.56877088547
velocity: 0.0
doppler_bin: 8
bearing: -3.85221004486
intensity: 22.5285301208
---
header: 
  seq: 3436686
  stamp: 
    secs: 1561686654
    nsecs: 743449652
  frame_id: "ti_mmwave"
point_id: 0
x: 0.01171875
y: -0.0390625
z: -0.0078125
range: 0.0435769706964
velocity: 0.0
doppler_bin: 8
bearing: -73.3007583618
intensity: 30.7298469543
---
header: 
  seq: 3436687
  stamp: 
    secs: 1561686654
    nsecs: 743532954
  frame_id: "ti_mmwave"
point_id: 1
x: 0.017578125
y: -0.080078125
z: -0.0078125
range: 0.0871539413929
velocity: 0.0
doppler_bin: 8
bearing: -77.6192398071
intensity: 31.9755630493
---
header: 
  seq: 3436688
  stamp: 
    secs: 1561686654
    nsecs: 743544668
  frame_id: "ti_mmwave"
point_id: 2
x: 0.029296875
y: -0.119140625
z: -0.005859375
range: 0.130730912089
velocity: 0.0
doppler_bin: 8
bearing: -76.1849746704
intensity: 30.2036132812
---
header: 
  seq: 3436689
  stamp: 
    secs: 1561686654
    nsecs: 743552922
  frame_id: "ti_mmwave"
point_id: 3
x: 0.056640625
y: -0.154296875
z: 0.005859375
range: 0.174307882786
velocity: 0.0
doppler_bin: 8
bearing: -69.8423843384
intensity: 25.5022830963
---
header: 
  seq: 3436690
  stamp: 
    secs: 1561686654
    nsecs: 743560635
  frame_id: "ti_mmwave"
point_id: 4
x: 0.357421875
y: -0.080078125
z: -1.21484375
range: 1.35088610649
velocity: 0.0
doppler_bin: 8
bearing: -12.6282215118
intensity: 21.9865703583
---
header: 
  seq: 3436691
  stamp: 
    secs: 1561686654
    nsecs: 743568718
  frame_id: "ti_mmwave"
point_id: 5
x: 0.30859375
y: -0.041015625
z: 1.271484375
range: 1.39446306229
velocity: 0.0
doppler_bin: 8
bearing: -7.57088899612
intensity: 23.2633590698
---
header: 
  seq: 3436692
  stamp: 
    secs: 1561686654
    nsecs: 743576556
  frame_id: "ti_mmwave"
point_id: 6
x: 0.5078125
y: -0.04296875
z: 1.25
range: 1.43804001808
velocity: 0.0
doppler_bin: 8
bearing: -4.83658361435
intensity: 21.9865703583
---
header: 
  seq: 3436693
  stamp: 
    secs: 1561686654
    nsecs: 743584343
  frame_id: "ti_mmwave"
point_id: 7
x: 1.390625
y: -0.0
z: -0.337890625
range: 1.52519392967
velocity: 0.0
doppler_bin: 8
bearing: -0.0
intensity: 24.9136161804
---
header: 
  seq: 3436694
  stamp: 
    secs: 1561686654
    nsecs: 743594490
  frame_id: "ti_mmwave"
point_id: 8
x: 1.455078125
y: -0.046875
z: -0.224609375
range: 1.56877088547
velocity: 0.0
doppler_bin: 8
bearing: -1.84513187408
intensity: 29.1115760803
---
header: 
  seq: 3436695
  stamp: 
    secs: 1561686654
    nsecs: 743603622
  frame_id: "ti_mmwave"
point_id: 9
x: 1.48046875
y: -0.046875
z: -0.310546875
range: 1.61234796047
velocity: 0.0
doppler_bin: 8
bearing: -1.81350874901
intensity: 30.696680069
---
header: 
  seq: 3436696
  stamp: 
    secs: 1561686654
    nsecs: 743611169
  frame_id: "ti_mmwave"
point_id: 10
x: 1.455078125
y: -0.048828125
z: -0.546875
range: 1.65592491627
velocity: 0.0
doppler_bin: 8
bearing: -1.92195594311
intensity: 28.7852172852
---
header: 
  seq: 3436697
  stamp: 
    secs: 1561686654
    nsecs: 743619622
  frame_id: "ti_mmwave"
point_id: 11
x: 1.55859375
y: -0.205078125
z: -0.45703125
range: 1.74307882786
velocity: 0.0
doppler_bin: 8
bearing: -7.49585771561
intensity: 26.9460525513
---
header: 
  seq: 3436698
  stamp: 
    secs: 1561686654
    nsecs: 743628058
  frame_id: "ti_mmwave"
point_id: 12
x: 1.609375
y: 0.314453125
z: 0.34765625
range: 1.78665578365
velocity: 0.0
doppler_bin: 8
bearing: 11.0556430817
intensity: 26.4836006165
---
header: 
  seq: 3436699
  stamp: 
    secs: 1561686654
    nsecs: 743636166
  frame_id: "ti_mmwave"
point_id: 13
x: 2.533203125
y: -0.263671875
z: 1.21875
range: 3.00681090355
velocity: 0.0
doppler_bin: 8
bearing: -5.94231081009
intensity: 29.3851966858
---
header: 
  seq: 3436700
  stamp: 
    secs: 1561686654
    nsecs: 743644843
  frame_id: "ti_mmwave"
point_id: 14
x: 2.595703125
y: -0.267578125
z: 1.177734375
range: 3.05038785934
velocity: 0.0
doppler_bin: 8
bearing: -5.88554811478
intensity: 32.7554168701
---
header: 
  seq: 3436701
  stamp: 
    secs: 1561686654
    nsecs: 743655126
  frame_id: "ti_mmwave"
point_id: 15
x: 2.65625
y: -0.181640625
z: 1.158203125
range: 3.09396481514
velocity: 0.0
doppler_bin: 8
bearing: -3.91193032265
intensity: 32.0167007446
---
header: 
  seq: 3436702
  stamp: 
    secs: 1561686654
    nsecs: 743666438
  frame_id: "ti_mmwave"
point_id: 17
x: 0.041015625
y: -0.033203125
z: 0.0625
range: 0.0871539413929
velocity: 0.0
doppler_bin: 8
bearing: -38.9909973145
intensity: 30.1535968781
---
header: 
  seq: 3436703
  stamp: 
    secs: 1561686654
    nsecs: 743833544
  frame_id: "ti_mmwave"
point_id: 18
x: 0.044921875
y: -0.046875
z: 0.103515625
range: 0.130730912089
velocity: 0.0
doppler_bin: 8
bearing: -46.218875885
intensity: 29.0579586029
---
header: 
  seq: 3436704
  stamp: 
    secs: 1561686654
    nsecs: 743870231
  frame_id: "ti_mmwave"
point_id: 20
x: 1.212890625
y: 0.357421875
z: 0.09375
range: 1.35088610649
velocity: 0.0
doppler_bin: 8
bearing: 16.419506073
intensity: 19.2941894531
---
header: 
  seq: 3436705
  stamp: 
    secs: 1561686654
    nsecs: 743884833
  frame_id: "ti_mmwave"
point_id: 21
x: 1.025390625
y: 0.53515625
z: 1.0390625
range: 1.65592491627
velocity: 0.0
doppler_bin: 8
bearing: 27.5602703094
intensity: 26.8484535217
---
header: 
  seq: 3436706
  stamp: 
    secs: 1561686654
    nsecs: 743935462
  frame_id: "ti_mmwave"
point_id: 22
x: 1.580078125
y: 0.306640625
z: 0.294921875
range: 1.74307882786
velocity: 0.0
doppler_bin: 8
bearing: 10.9826869965
intensity: 24.6239795685
---
header: 
  seq: 3436707
  stamp: 
    secs: 1561686654
    nsecs: 743950789
  frame_id: "ti_mmwave"
point_id: 23
x: 1.46875
y: -0.26171875
z: -0.765625
range: 1.78665578365
velocity: 0.0
doppler_bin: 8
bearing: -10.1035737991
intensity: 25.5388298035
---
header: 
  seq: 3436708
  stamp: 
    secs: 1561686654
    nsecs: 802246647
  frame_id: "ti_mmwave"
point_id: 0
x: 0.01171875
y: -0.0390625
z: -0.0078125
range: 0.0435769706964
velocity: 0.0
doppler_bin: 8
bearing: -73.3007583618
intensity: 30.7335166931
---
header: 
  seq: 3436709
  stamp: 
    secs: 1561686654
    nsecs: 802323395
  frame_id: "ti_mmwave"
point_id: 1
x: 0.017578125
y: -0.080078125
z: -0.0078125
range: 0.0871539413929
velocity: 0.0
doppler_bin: 8
bearing: -77.6192398071
intensity: 31.9783172607
---
header: 
  seq: 3436710
  stamp: 
    secs: 1561686654
    nsecs: 802337269
  frame_id: "ti_mmwave"
point_id: 2
x: 0.029296875
y: -0.119140625
z: -0.00390625
range: 0.130730912089
velocity: 0.0
doppler_bin: 8
bearing: -76.1849746704
intensity: 30.2118930817
---
header: 
  seq: 3436711
  stamp: 
    secs: 1561686654
    nsecs: 802346333
  frame_id: "ti_mmwave"
point_id: 3
x: 0.056640625
y: -0.154296875
z: 0.005859375
range: 0.174307882786
velocity: 0.0
doppler_bin: 8
bearing: -69.8423843384
intensity: 25.5144996643
---
header: 
  seq: 3436712
  stamp: 
    secs: 1561686654
    nsecs: 802355303
  frame_id: "ti_mmwave"
point_id: 4
x: 0.376953125
y: -0.080078125
z: -1.208984375
range: 1.35088610649
velocity: 0.0
doppler_bin: 8
bearing: -11.9933481216
intensity: 22.0139713287
---
header: 
  seq: 3436713
  stamp: 
    secs: 1561686654
    nsecs: 802364103
  frame_id: "ti_mmwave"
point_id: 5
x: 0.2890625
y: -0.041015625
z: 1.275390625
range: 1.39446306229
velocity: 0.0
doppler_bin: 8
bearing: -8.0758972168
intensity: 23.3041381836
---
header: 
  seq: 3436714
  stamp: 
    secs: 1561686654
    nsecs: 802372328
  frame_id: "ti_mmwave"
point_id: 6
x: 0.462890625
y: -0.04296875
z: 1.267578125
range: 1.43804001808
velocity: 0.0
doppler_bin: 8
bearing: -5.30339765549
intensity: 22.0139713287
---
header: 
  seq: 3436715
  stamp: 
    secs: 1561686654
    nsecs: 802380591
  frame_id: "ti_mmwave"
point_id: 7
x: 1.46875
y: -0.091796875
z: 0.07421875
range: 1.56877088547
velocity: 0.0
doppler_bin: 8
bearing: -3.57633447647
intensity: 26.5991611481
---
header: 
  seq: 3436716
  stamp: 
    secs: 1561686654
    nsecs: 802389019
  frame_id: "ti_mmwave"
point_id: 8
x: 1.509765625
y: -0.09375
z: -0.0390625
range: 1.61234796047
velocity: 0.0
doppler_bin: 8
bearing: -3.55326104164
intensity: 30.3059978485
---
header: 
  seq: 3436717
  stamp: 
    secs: 1561686654
    nsecs: 802398678
  frame_id: "ti_mmwave"
point_id: 9
x: 1.55078125
y: -0.09765625
z: -0.060546875
range: 1.65592491627
velocity: 0.0
doppler_bin: 8
bearing: -3.60328841209
intensity: 30.1661548615
---
header: 
  seq: 3436718
  stamp: 
    secs: 1561686654
    nsecs: 802418194
  frame_id: "ti_mmwave"
point_id: 10
x: 1.62109375
y: 0.314453125
z: 0.291015625
range: 1.78665578365
velocity: 0.0
doppler_bin: 8
bearing: 10.9776716232
intensity: 28.6923179626
---
header: 
  seq: 3436719
  stamp: 
    secs: 1561686654
    nsecs: 802434542
  frame_id: "ti_mmwave"
point_id: 11
x: 1.669921875
y: 0.267578125
z: 0.30078125
range: 1.83023273945
velocity: 0.0
doppler_bin: 8
bearing: 9.10334396362
intensity: 28.5430603027
---
header: 
  seq: 3436720
  stamp: 
    secs: 1561686654
    nsecs: 802449550
  frame_id: "ti_mmwave"
point_id: 12
x: 2.51953125
y: -0.263671875
z: 1.2421875
range: 3.00681090355
velocity: 0.0
doppler_bin: 8
bearing: -5.97432327271
intensity: 29.122220993
---
header: 
  seq: 3436721
  stamp: 
    secs: 1561686654
    nsecs: 802457443
  frame_id: "ti_mmwave"
point_id: 13
x: 2.603515625
y: -0.1796875
z: 1.177734375
range: 3.05038785934
velocity: 0.0
doppler_bin: 8
bearing: -3.94813656807
intensity: 32.6292533875
---
header: 
  seq: 3436722
  stamp: 
    secs: 1561686654
    nsecs: 802627849
  frame_id: "ti_mmwave"
point_id: 14
x: 2.654296875
y: -0.181640625
z: 1.166015625
range: 3.09396481514
velocity: 0.0
doppler_bin: 8
bearing: -3.91479969025
intensity: 31.994808197
---
header: 
  seq: 3436723
  stamp: 
    secs: 1561686654
    nsecs: 802654742
  frame_id: "ti_mmwave"
point_id: 15
x: 1.59375
y: -0.05078125
z: 0.009765625
range: 1.69950187206
velocity: 0.614668667316
doppler_bin: 9
bearing: -1.82498347759
intensity: 25.6110134125
---
header: 
  seq: 3436724
  stamp: 
    secs: 1561686654
    nsecs: 802673129
  frame_id: "ti_mmwave"
point_id: 17
x: 0.041015625
y: -0.033203125
z: 0.0625
range: 0.0871539413929
velocity: 0.0
doppler_bin: 8
bearing: -38.9909973145
intensity: 30.1494026184
---
header: 
  seq: 3436725
  stamp: 
    secs: 1561686654
    nsecs: 802701866
  frame_id: "ti_mmwave"
point_id: 18
x: 0.044921875
y: -0.046875
z: 0.103515625
range: 0.130730912089
velocity: 0.0
doppler_bin: 8
bearing: -46.218875885
intensity: 29.0525608063
---
header: 
  seq: 3436726
  stamp: 
    secs: 1561686654
    nsecs: 802730538
  frame_id: "ti_mmwave"
point_id: 20
x: 1.212890625
y: 0.357421875
z: 0.091796875
range: 1.35088610649
velocity: 0.0
doppler_bin: 8
bearing: 16.419506073
intensity: 19.0848503113
---
header: 
  seq: 3436727
  stamp: 
    secs: 1561686654
    nsecs: 803502594
  frame_id: "ti_mmwave"
point_id: 0
x: 0.01171875
y: -0.0390625
z: -0.0078125
range: 0.0435769706964
velocity: 0.0
doppler_bin: 8
bearing: -73.3007583618
intensity: 30.7335166931
---
header: 
  seq: 3436728
  stamp: 
    secs: 1561686654
    nsecs: 803566913
  frame_id: "ti_mmwave"
point_id: 1
x: 0.017578125
y: -0.080078125
z: -0.0078125
range: 0.0871539413929
velocity: 0.0
doppler_bin: 8
bearing: -77.6192398071
intensity: 31.9783172607
---
header: 
  seq: 3436729
  stamp: 
    secs: 1561686654
    nsecs: 803585902
  frame_id: "ti_mmwave"
point_id: 2
x: 0.029296875
y: -0.119140625
z: -0.00390625
range: 0.130730912089
velocity: 0.0
doppler_bin: 8
bearing: -76.1849746704
intensity: 30.2077541351
---
header: 
  seq: 3436730
  stamp: 
    secs: 1561686654
    nsecs: 803610193
  frame_id: "ti_mmwave"
point_id: 3
x: 0.056640625
y: -0.154296875
z: 0.0078125
range: 0.174307882786
velocity: 0.0
doppler_bin: 8
bearing: -69.8423843384
intensity: 25.5022830963
---
header: 
  seq: 3436731
  stamp: 
    secs: 1561686654
    nsecs: 803674630
  frame_id: "ti_mmwave"
point_id: 4
x: 0.365234375
y: -0.080078125
z: -1.2109375
range: 1.35088610649
velocity: 0.0
doppler_bin: 8
bearing: -12.3664970398
intensity: 22.0139713287
---
header: 
  seq: 3436732
  stamp: 
    secs: 1561686654
    nsecs: 803686735
  frame_id: "ti_mmwave"
point_id: 5
x: 0.306640625
y: -0.041015625
z: 1.271484375
range: 1.39446306229
velocity: 0.0
doppler_bin: 8
bearing: -7.6185464859
intensity: 23.2837963104
---
header: 
  seq: 3436733
  stamp: 
    secs: 1561686654
    nsecs: 803695116
  frame_id: "ti_mmwave"
point_id: 6
x: 0.400390625
y: -0.0
z: 1.2890625
range: 1.43804001808
velocity: 0.0
doppler_bin: 8
bearing: -0.0
intensity: 21.9033164978
---
header: 
  seq: 3436734
  stamp: 
    secs: 1561686654
    nsecs: 803704436
  frame_id: "ti_mmwave"
point_id: 7
x: 1.47265625
y: -0.0
z: 0.05078125
range: 1.56877088547
velocity: 0.0
doppler_bin: 8
bearing: -0.0
intensity: 26.4048137665
---
header: 
  seq: 3436735
  stamp: 
    secs: 1561686654
    nsecs: 803712610
  frame_id: "ti_mmwave"
point_id: 8
x: 1.509765625
y: -0.046875
z: -0.103515625
range: 1.61234796047
velocity: 0.0
doppler_bin: 8
bearing: -1.77834033966
intensity: 30.1494026184
---
header: 
  seq: 3436736
  stamp: 
    secs: 1561686654
    nsecs: 803720498
  frame_id: "ti_mmwave"
point_id: 9
x: 1.548828125
y: -0.048828125
z: -0.12109375
range: 1.65592491627
velocity: 0.0
doppler_bin: 8
bearing: -1.80570006371
intensity: 30.4571399689
---
header: 
  seq: 3436737
  stamp: 
    secs: 1561686654
    nsecs: 803727542
  frame_id: "ti_mmwave"
point_id: 10
x: 1.591796875
y: -0.0
z: -0.09375
range: 1.69950187206
velocity: 0.0
doppler_bin: 8
bearing: -0.0
intensity: 27.7232170105
---
header: 
  seq: 3436738
  stamp: 
    secs: 1561686654
    nsecs: 803743805
  frame_id: "ti_mmwave"
point_id: 11
x: 2.5625
y: -0.263671875
z: 1.154296875
range: 3.00681090355
velocity: 0.0
doppler_bin: 8
bearing: -5.87485074997
intensity: 29.6473083496
---
header: 
  seq: 3436739
  stamp: 
    secs: 1561686654
    nsecs: 803757816
  frame_id: "ti_mmwave"
point_id: 12
x: 2.6171875
y: -0.1796875
z: 1.1484375
range: 3.05038785934
velocity: 0.0
doppler_bin: 8
bearing: -3.9275765419
intensity: 32.8533210754
---
header: 
  seq: 3436740
  stamp: 
    secs: 1561686654
    nsecs: 803771168
  frame_id: "ti_mmwave"
point_id: 13
x: 2.65234375
y: -0.181640625
z: 1.16796875
range: 3.09396481514
velocity: 0.0
doppler_bin: 8
bearing: -3.9176735878
intensity: 32.0978317261
---
header: 
  seq: 3436741
  stamp: 
    secs: 1561686654
    nsecs: 803786671
  frame_id: "ti_mmwave"
point_id: 15
x: 0.041015625
y: -0.033203125
z: 0.0625
range: 0.0871539413929
velocity: 0.0
doppler_bin: 8
bearing: -38.9909973145
intensity: 30.1535968781
---
header: 
  seq: 3436742
  stamp: 
    secs: 1561686654
    nsecs: 803807490
  frame_id: "ti_mmwave"
point_id: 16
x: 0.044921875
y: -0.046875
z: 0.103515625
range: 0.130730912089
velocity: 0.0
doppler_bin: 8
bearing: -46.218875885
intensity: 29.0633506775
---
header: 
  seq: 3436743
  stamp: 
    secs: 1561686654
    nsecs: 803863913
  frame_id: "ti_mmwave"
point_id: 18
x: 1.212890625
y: 0.357421875
z: 0.09375
range: 1.35088610649
velocity: 0.0
doppler_bin: 8
bearing: 16.419506073
intensity: 19.1907806396
---
header: 
  seq: 3436744
  stamp: 
    secs: 1561686654
    nsecs: 803875641
  frame_id: "ti_mmwave"
point_id: 19
x: 1.466796875
y: -0.091796875
z: 0.078125
range: 1.56877088547
velocity: 0.0
doppler_bin: 8
bearing: -3.58108401299
intensity: 26.3848934174
---
header: 
  seq: 3436745
  stamp: 
    secs: 1561686654
    nsecs: 862187692
  frame_id: "ti_mmwave"
point_id: 0
x: 0.01171875
y: -0.0390625
z: -0.0078125
range: 0.0435769706964
velocity: 0.0
doppler_bin: 8
bearing: -73.3007583618
intensity: 30.7261753082
---
header: 
  seq: 3436746
  stamp: 
    secs: 1561686654
    nsecs: 862269778
  frame_id: "ti_mmwave"
point_id: 1
x: 0.017578125
y: -0.080078125
z: -0.0078125
range: 0.0871539413929
velocity: 0.0
doppler_bin: 8
bearing: -77.6192398071
intensity: 31.9755630493
---
header: 
  seq: 3436747
  stamp: 
    secs: 1561686654
    nsecs: 862286787
  frame_id: "ti_mmwave"
point_id: 2
x: 0.029296875
y: -0.119140625
z: -0.00390625
range: 0.130730912089
velocity: 0.0
doppler_bin: 8
bearing: -76.1849746704
intensity: 30.2077541351
---
header: 
  seq: 3436748
  stamp: 
    secs: 1561686654
    nsecs: 862296693
  frame_id: "ti_mmwave"
point_id: 3
x: 0.056640625
y: -0.154296875
z: 0.005859375
range: 0.174307882786
velocity: 0.0
doppler_bin: 8
bearing: -69.8423843384
intensity: 25.5022830963
---
header: 
  seq: 3436749
  stamp: 
    secs: 1561686654
    nsecs: 862304881
  frame_id: "ti_mmwave"
point_id: 4
x: 0.349609375
y: -0.080078125
z: -1.216796875
range: 1.35088610649
velocity: 0.0
doppler_bin: 8
bearing: -12.9010734558
intensity: 21.9589958191
---
header: 
  seq: 3436750
  stamp: 
    secs: 1561686654
    nsecs: 862313278
  frame_id: "ti_mmwave"
point_id: 5
x: 0.29296875
y: -0.041015625
z: 1.275390625
range: 1.39446306229
velocity: 0.0
doppler_bin: 8
bearing: -7.96961069107
intensity: 23.2633590698
---
header: 
  seq: 3436751
  stamp: 
    secs: 1561686654
    nsecs: 862321646
  frame_id: "ti_mmwave"
point_id: 6
x: 0.525390625
y: -0.04296875
z: 1.2421875
range: 1.43804001808
velocity: 0.0
doppler_bin: 8
bearing: -4.67549467087
intensity: 21.8469142914
---
header: 
  seq: 3436752
  stamp: 
    secs: 1561686654
    nsecs: 862330364
  frame_id: "ti_mmwave"
point_id: 7
x: 2.541015625
y: -0.263671875
z: 1.201171875
range: 3.00681090355
velocity: 0.0
doppler_bin: 8
bearing: -5.92417097092
intensity: 29.0417442322
---
header: 
  seq: 3436753
  stamp: 
    secs: 1561686654
    nsecs: 862338804
  frame_id: "ti_mmwave"
point_id: 8
x: 2.6015625
y: -0.1796875
z: 1.18359375
range: 3.05038785934
velocity: 0.0
doppler_bin: 8
bearing: -3.95109152794
intensity: 32.2323608398
---
header: 
  seq: 3436754
  stamp: 
    secs: 1561686654
    nsecs: 862348308
  frame_id: "ti_mmwave"
point_id: 9
x: 2.6328125
y: -0.181640625
z: 1.212890625
range: 3.09396481514
velocity: 0.0
doppler_bin: 8
bearing: -3.94664478302
intensity: 31.2548122406
---
header: 
  seq: 3436755
  stamp: 
    secs: 1561686654
    nsecs: 862356622
  frame_id: "ti_mmwave"
point_id: 10
x: 1.498046875
y: -0.046875
z: 0.20703125
range: 1.61234796047
velocity: 0.614668667316
doppler_bin: 9
bearing: -1.79224264622
intensity: 28.6153450012
---
header: 
  seq: 3436756
  stamp: 
    secs: 1561686654
    nsecs: 862366256
  frame_id: "ti_mmwave"
point_id: 11
x: 1.54296875
y: -0.0
z: 0.18359375
range: 1.65592491627
velocity: 0.614668667316
doppler_bin: 9
bearing: -0.0
intensity: 29.7451171875
---
header: 
  seq: 3436757
  stamp: 
    secs: 1561686654
    nsecs: 862375525
  frame_id: "ti_mmwave"
point_id: 12
x: 1.572265625
y: -0.0
z: 0.275390625
range: 1.69950187206
velocity: 0.614668667316
doppler_bin: 9
bearing: -0.0
intensity: 28.1491317749
---
header: 
  seq: 3436758
  stamp: 
    secs: 1561686654
    nsecs: 862386396
  frame_id: "ti_mmwave"
point_id: 13
x: 1.60546875
y: 0.05078125
z: 0.314453125
range: 1.74307882786
velocity: 0.614668667316
doppler_bin: 9
bearing: 1.81167113781
intensity: 26.170003891
---
header: 
  seq: 3436759
  stamp: 
    secs: 1561686654
    nsecs: 862551576
  frame_id: "ti_mmwave"
point_id: 14
x: 1.384765625
y: -0.0
z: -0.50390625
range: 1.56877088547
velocity: -0.614668667316
doppler_bin: 7
bearing: -0.0
intensity: 23.4830493927
---
header: 
  seq: 3436760
  stamp: 
    secs: 1561686654
    nsecs: 862575867
  frame_id: "ti_mmwave"
point_id: 16
x: 0.041015625
y: -0.033203125
z: 0.0625
range: 0.0871539413929
velocity: 0.0
doppler_bin: 8
bearing: -38.9909973145
intensity: 30.1535968781
---
header: 
  seq: 3436761
  stamp: 
    secs: 1561686654
    nsecs: 862587684
  frame_id: "ti_mmwave"
point_id: 17
x: 0.044921875
y: -0.046875
z: 0.103515625
range: 0.130730912089
velocity: 0.0
doppler_bin: 8
bearing: -46.218875885
intensity: 29.0579586029
---
header: 
  seq: 3436762
  stamp: 
    secs: 1561686654
    nsecs: 862595118
  frame_id: "ti_mmwave"
point_id: 19
x: 1.212890625
y: 0.357421875
z: 0.091796875
range: 1.35088610649
velocity: 0.0
doppler_bin: 8
bearing: 16.419506073
intensity: 19.1381378174
---
header: 
  seq: 3436763
  stamp: 
    secs: 1561686654
    nsecs: 863658153
  frame_id: "ti_mmwave"
point_id: 0
x: 0.01171875
y: -0.0390625
z: -0.0078125
range: 0.0435769706964
velocity: 0.0
doppler_bin: 8
bearing: -73.3007583618
intensity: 30.7261753082
---
header: 
  seq: 3436764
  stamp: 
    secs: 1561686654
    nsecs: 863691646
  frame_id: "ti_mmwave"
point_id: 1
x: 0.017578125
y: -0.080078125
z: -0.0078125
range: 0.0871539413929
velocity: 0.0
doppler_bin: 8
bearing: -77.6192398071
intensity: 31.9700469971
---
header: 
  seq: 3436765
  stamp: 
    secs: 1561686654
    nsecs: 863701811
  frame_id: "ti_mmwave"
point_id: 2
x: 0.029296875
y: -0.119140625
z: -0.00390625
range: 0.130730912089
velocity: 0.0
doppler_bin: 8
bearing: -76.1849746704
intensity: 30.1994667053
---
header: 
  seq: 3436766
  stamp: 
    secs: 1561686654
    nsecs: 863710614
  frame_id: "ti_mmwave"
point_id: 3
x: 0.056640625
y: -0.154296875
z: 0.005859375
range: 0.174307882786
velocity: 0.0
doppler_bin: 8
bearing: -69.8423843384
intensity: 25.490032196
---
header: 
  seq: 3436767
  stamp: 
    secs: 1561686654
    nsecs: 863720412
  frame_id: "ti_mmwave"
point_id: 4
x: 0.369140625
y: -0.080078125
z: -1.2109375
range: 1.35088610649
velocity: 0.0
doppler_bin: 8
bearing: -12.2396001816
intensity: 21.9312458038
---
header: 
  seq: 3436768
  stamp: 
    secs: 1561686654
    nsecs: 863729025
  frame_id: "ti_mmwave"
point_id: 5
x: 0.3125
y: -0.041015625
z: 1.271484375
range: 1.39446306229
velocity: 0.0
doppler_bin: 8
bearing: -7.47732973099
intensity: 23.2633590698
---
header: 
  seq: 3436769
  stamp: 
    secs: 1561686654
    nsecs: 863781422
  frame_id: "ti_mmwave"
point_id: 6
x: 0.41796875
y: -0.0
z: 1.283203125
range: 1.43804001808
velocity: 0.0
doppler_bin: 8
bearing: -0.0
intensity: 21.9033164978
---
header: 
  seq: 3436770
  stamp: 
    secs: 1561686654
    nsecs: 863790129
  frame_id: "ti_mmwave"
point_id: 7
x: 1.2890625
y: 0.044921875
z: -0.62109375
range: 1.52519392967
velocity: 0.0
doppler_bin: 8
bearing: 1.99586343765
intensity: 22.5767860413
---
header: 
  seq: 3436771
  stamp: 
    secs: 1561686654
    nsecs: 863798761
  frame_id: "ti_mmwave"
point_id: 8
x: 1.455078125
y: -0.0
z: -0.228515625
range: 1.56877088547
velocity: 0.0
doppler_bin: 8
bearing: -0.0
intensity: 29.1062431335
---
header: 
  seq: 3436772
  stamp: 
    secs: 1561686654
    nsecs: 863806860
  frame_id: "ti_mmwave"
point_id: 9
x: 1.5
y: 0.046875
z: -0.1953125
range: 1.61234796047
velocity: 0.0
doppler_bin: 8
bearing: 1.7899106741
intensity: 31.455072403
---
header: 
  seq: 3436773
  stamp: 
    secs: 1561686654
    nsecs: 863814234
  frame_id: "ti_mmwave"
point_id: 10
x: 1.5390625
y: 0.048828125
z: -0.216796875
range: 1.65592491627
velocity: 0.0
doppler_bin: 8
bearing: 1.81714987755
intensity: 30.5576038361
---
header: 
  seq: 3436774
  stamp: 
    secs: 1561686654
    nsecs: 863823122
  frame_id: "ti_mmwave"
point_id: 11
x: 1.591796875
y: -0.0
z: -0.1171875
range: 1.69950187206
velocity: 0.0
doppler_bin: 8
bearing: -0.0
intensity: 28.2085800171
---
header: 
  seq: 3436775
  stamp: 
    secs: 1561686654
    nsecs: 863830743
  frame_id: "ti_mmwave"
point_id: 12
x: 2.541015625
y: -0.263671875
z: 1.197265625
range: 3.00681090355
velocity: 0.0
doppler_bin: 8
bearing: -5.92417097092
intensity: 29.7312793732
---
header: 
  seq: 3436776
  stamp: 
    secs: 1561686654
    nsecs: 863838502
  frame_id: "ti_mmwave"
point_id: 13
x: 2.5859375
y: -0.1796875
z: 1.216796875
range: 3.05038785934
velocity: 0.0
doppler_bin: 8
bearing: -3.97488832474
intensity: 32.8645629883
---
header: 
  seq: 3436777
  stamp: 
    secs: 1561686654
    nsecs: 863845980
  frame_id: "ti_mmwave"
point_id: 14
x: 2.61328125
y: -0.181640625
z: 1.25390625
range: 3.09396481514
velocity: 0.0
doppler_bin: 8
bearing: -3.97604727745
intensity: 32.0002937317
---
header: 
  seq: 3436778
  stamp: 
    secs: 1561686654
    nsecs: 863853491
  frame_id: "ti_mmwave"
point_id: 15
x: 4.3828125
y: -0.287109375
z: 1.306640625
range: 4.88062095642
velocity: 0.0
doppler_bin: 8
bearing: -3.74797797203
intensity: 28.8366146088
---
header: 
  seq: 3436779
  stamp: 
    secs: 1561686654
    nsecs: 863863735
  frame_id: "ti_mmwave"
point_id: 17
x: 0.041015625
y: -0.033203125
z: 0.0625
range: 0.0871539413929
velocity: 0.0
doppler_bin: 8
bearing: -38.9909973145
intensity: 30.1494026184
---
header: 
  seq: 3436780
  stamp: 
    secs: 1561686654
    nsecs: 863871028
  frame_id: "ti_mmwave"
point_id: 18
x: 0.044921875
y: -0.046875
z: 0.103515625
range: 0.130730912089
velocity: 0.0
doppler_bin: 8
bearing: -46.218875885
intensity: 29.0579586029
---
header: 
  seq: 3436781
  stamp: 
    secs: 1561686654
    nsecs: 863881475
  frame_id: "ti_mmwave"
point_id: 20
x: 1.212890625
y: 0.357421875
z: 0.09765625
range: 1.35088610649
velocity: 0.0
doppler_bin: 8
bearing: 16.419506073
intensity: 19.2941894531
---
header: 
  seq: 3436782
  stamp: 
    secs: 1561686654
    nsecs: 863889969
  frame_id: "ti_mmwave"
point_id: 21
x: 3.396484375
y: -2.00390625
z: -2.33203125
range: 4.88062095642
velocity: 0.0
doppler_bin: 8
bearing: -30.5403614044
intensity: 26.2736587524
---
header: 
  seq: 3436783
  stamp: 
    secs: 1561686654
    nsecs: 922337614
  frame_id: "ti_mmwave"
point_id: 0
x: 0.01171875
y: -0.0390625
z: -0.0078125
range: 0.0435769706964
velocity: 0.0
doppler_bin: 8
bearing: -73.3007583618
intensity: 30.7261753082
---
header: 
  seq: 3436784
  stamp: 
    secs: 1561686654
    nsecs: 922413751
  frame_id: "ti_mmwave"
point_id: 1
x: 0.017578125
y: -0.080078125
z: -0.0078125
range: 0.0871539413929
velocity: 0.0
doppler_bin: 8
bearing: -77.6192398071
intensity: 31.9728050232
---
header: 
  seq: 3436785
  stamp: 
    secs: 1561686654
    nsecs: 922426909
  frame_id: "ti_mmwave"
point_id: 2
x: 0.029296875
y: -0.119140625
z: -0.00390625
range: 0.130730912089
velocity: 0.0
doppler_bin: 8
bearing: -76.1849746704
intensity: 30.2036132812
---
header: 
  seq: 3436786
  stamp: 
    secs: 1561686654
    nsecs: 922435343
  frame_id: "ti_mmwave"
point_id: 3
x: 0.056640625
y: -0.154296875
z: 0.005859375
range: 0.174307882786
velocity: 0.0
doppler_bin: 8
bearing: -69.8423843384
intensity: 25.4777469635
---
header: 
  seq: 3436787
  stamp: 
    secs: 1561686654
    nsecs: 922443845
  frame_id: "ti_mmwave"
point_id: 4
x: 0.369140625
y: -0.080078125
z: -1.2109375
range: 1.35088610649
velocity: 0.0
doppler_bin: 8
bearing: -12.2396001816
intensity: 21.9033164978
---
header: 
  seq: 3436788
  stamp: 
    secs: 1561686654
    nsecs: 922451621
  frame_id: "ti_mmwave"
point_id: 5
x: 0.287109375
y: -0.041015625
z: 1.27734375
range: 1.39446306229
velocity: 0.0
doppler_bin: 8
bearing: -8.13010311127
intensity: 23.2428245544
---
header: 
  seq: 3436789
  stamp: 
    secs: 1561686654
    nsecs: 922459679
  frame_id: "ti_mmwave"
point_id: 6
x: 0.416015625
y: -0.0
z: 1.283203125
range: 1.43804001808
velocity: 0.0
doppler_bin: 8
bearing: -0.0
intensity: 21.875207901
---
header: 
  seq: 3436790
  stamp: 
    secs: 1561686654
    nsecs: 922467882
  frame_id: "ti_mmwave"
point_id: 7
x: 1.46484375
y: -0.046875
z: -0.134765625
range: 1.56877088547
velocity: 0.0
doppler_bin: 8
bearing: -1.83283960819
intensity: 26.6464195251
---
header: 
  seq: 3436791
  stamp: 
    secs: 1561686654
    nsecs: 922476252
  frame_id: "ti_mmwave"
point_id: 8
x: 1.50390625
y: -0.046875
z: -0.1640625
range: 1.61234796047
velocity: 0.0
doppler_bin: 8
bearing: -1.78526449203
intensity: 28.1491317749
---
header: 
  seq: 3436792
  stamp: 
    secs: 1561686654
    nsecs: 922487798
  frame_id: "ti_mmwave"
point_id: 9
x: 1.55078125
y: -0.09765625
z: -0.01171875
range: 1.65592491627
velocity: 0.0
doppler_bin: 8
bearing: -3.60328841209
intensity: 26.3245735168
---
header: 
  seq: 3436793
  stamp: 
    secs: 1561686654
    nsecs: 922496348
  frame_id: "ti_mmwave"
point_id: 10
x: 1.58203125
y: 0.099609375
z: -0.173828125
range: 1.69950187206
velocity: 0.0
doppler_bin: 8
bearing: 3.60275626183
intensity: 26.5609817505
---
header: 
  seq: 3436794
  stamp: 
    secs: 1561686654
    nsecs: 922504418
  frame_id: "ti_mmwave"
point_id: 11
x: 1.6171875
y: -0.0
z: -0.25
range: 1.74307882786
velocity: 0.0
doppler_bin: 8
bearing: -0.0
intensity: 25.6110134125
---
header: 
  seq: 3436795
  stamp: 
    secs: 1561686654
    nsecs: 922512489
  frame_id: "ti_mmwave"
point_id: 12
x: 1.6328125
y: -0.314453125
z: 0.212890625
range: 1.78665578365
velocity: 0.0
doppler_bin: 8
bearing: -10.9007778168
intensity: 26.7209777832
---
header: 
  seq: 3436796
  stamp: 
    secs: 1561686654
    nsecs: 922520877
  frame_id: "ti_mmwave"
point_id: 13
x: 1.673828125
y: -0.322265625
z: 0.20703125
range: 1.83023273945
velocity: 0.0
doppler_bin: 8
bearing: -10.8979253769
intensity: 26.570558548
---
header: 
  seq: 3436797
  stamp: 
    secs: 1561686654
    nsecs: 922530256
  frame_id: "ti_mmwave"
point_id: 14
x: 2.5234375
y: -0.263671875
z: 1.234375
range: 3.00681090355
velocity: 0.0
doppler_bin: 8
bearing: -5.96514177322
intensity: 29.122220993
---
header: 
  seq: 3436798
  stamp: 
    secs: 1561686654
    nsecs: 922538641
  frame_id: "ti_mmwave"
point_id: 15
x: 2.578125
y: -0.267578125
z: 1.21875
range: 3.05038785934
velocity: 0.0
doppler_bin: 8
bearing: -5.92539215088
intensity: 32.4526596069
---
header: 
  seq: 3436799
  stamp: 
    secs: 1561686654
    nsecs: 922559449
  frame_id: "ti_mmwave"
point_id: 16
x: 2.62109375
y: -0.181640625
z: 1.236328125
range: 3.09396481514
velocity: 0.0
doppler_bin: 8
bearing: -3.96423411369
intensity: 31.3672065735
---
header: 
  seq: 3436800
  stamp: 
    secs: 1561686654
    nsecs: 922570669
  frame_id: "ti_mmwave"
point_id: 17
x: 4.4140625
y: -0.287109375
z: 1.1953125
range: 4.88062095642
velocity: 0.0
doppler_bin: 8
bearing: -3.72151875496
intensity: 29.8272342682
---
header: 
  seq: 3436801
  stamp: 
    secs: 1561686654
    nsecs: 922657786
  frame_id: "ti_mmwave"
point_id: 18
x: 4.439453125
y: -0.2890625
z: 1.25390625
range: 4.9241976738
velocity: 0.0
doppler_bin: 8
bearing: -3.7253947258
intensity: 29.1381378174
---
header: 
  seq: 3436802
  stamp: 
    secs: 1561686654
    nsecs: 922677824
  frame_id: "ti_mmwave"
point_id: 20
x: 0.041015625
y: -0.033203125
z: 0.0625
range: 0.0871539413929
velocity: 0.0
doppler_bin: 8
bearing: -38.9909973145
intensity: 30.1494026184
---
header: 
  seq: 3436803
  stamp: 
    secs: 1561686654
    nsecs: 922691419
  frame_id: "ti_mmwave"
point_id: 21
x: 0.044921875
y: -0.046875
z: 0.103515625
range: 0.130730912089
velocity: 0.0
doppler_bin: 8
bearing: -46.218875885
intensity: 29.0525608063
---
header: 
  seq: 3436804
  stamp: 
    secs: 1561686654
    nsecs: 922706044
  frame_id: "ti_mmwave"
point_id: 23
x: 1.212890625
y: 0.357421875
z: 0.099609375
range: 1.35088610649
velocity: 0.0
doppler_bin: 8
bearing: 16.419506073
intensity: 19.2427921295
---
header: 
  seq: 3436805
  stamp: 
    secs: 1561686654
    nsecs: 922721413
  frame_id: "ti_mmwave"
point_id: 25
x: 1.40625
y: -0.4609375
z: 0.69921875
range: 1.74307882786
velocity: 0.0
doppler_bin: 8
bearing: -18.1479930878
intensity: 23.344537735
---
header: 
  seq: 3436806
  stamp: 
    secs: 1561686654
    nsecs: 923695830
  frame_id: "ti_mmwave"
point_id: 0
x: 0.01171875
y: -0.0390625
z: -0.0078125
range: 0.0435769706964
velocity: 0.0
doppler_bin: 8
bearing: -73.3007583618
intensity: 30.7261753082
---
header: 
  seq: 3436807
  stamp: 
    secs: 1561686654
    nsecs: 923759814
  frame_id: "ti_mmwave"
point_id: 1
x: 0.017578125
y: -0.080078125
z: -0.0078125
range: 0.0871539413929
velocity: 0.0
doppler_bin: 8
bearing: -77.6192398071
intensity: 31.9728050232
---
header: 
  seq: 3436808
  stamp: 
    secs: 1561686654
    nsecs: 923779350
  frame_id: "ti_mmwave"
point_id: 2
x: 0.029296875
y: -0.119140625
z: -0.00390625
range: 0.130730912089
velocity: 0.0
doppler_bin: 8
bearing: -76.1849746704
intensity: 30.2036132812
---
header: 
  seq: 3436809
  stamp: 
    secs: 1561686654
    nsecs: 923794233
  frame_id: "ti_mmwave"
point_id: 3
x: 0.056640625
y: -0.154296875
z: 0.005859375
range: 0.174307882786
velocity: 0.0
doppler_bin: 8
bearing: -69.8423843384
intensity: 25.5022830963
---
header: 
  seq: 3436810
  stamp: 
    secs: 1561686654
    nsecs: 923807248
  frame_id: "ti_mmwave"
point_id: 4
x: 0.341796875
y: -0.080078125
z: -1.21875
range: 1.35088610649
velocity: 0.0
doppler_bin: 8
bearing: -13.1857614517
intensity: 21.9865703583
---
header: 
  seq: 3436811
  stamp: 
    secs: 1561686654
    nsecs: 923820073
  frame_id: "ti_mmwave"
point_id: 5
x: 0.2734375
y: -0.041015625
z: 1.279296875
range: 1.39446306229
velocity: 0.0
doppler_bin: 8
bearing: -8.53076648712
intensity: 23.2837963104
---
header: 
  seq: 3436812
  stamp: 
    secs: 1561686654
    nsecs: 923831874
  frame_id: "ti_mmwave"
point_id: 6
x: 0.3984375
y: -0.0
z: 1.2890625
range: 1.43804001808
velocity: 0.0
doppler_bin: 8
bearing: -0.0
intensity: 21.9033164978
---
header: 
  seq: 3436813
  stamp: 
    secs: 1561686654
    nsecs: 923844985
  frame_id: "ti_mmwave"
point_id: 7
x: 1.3515625
y: -0.044921875
z: 0.470703125
range: 1.52519392967
velocity: 0.0
doppler_bin: 8
bearing: -1.90363883972
intensity: 22.0951499939
---
header: 
  seq: 3436814
  stamp: 
    secs: 1561686654
    nsecs: 923856788
  frame_id: "ti_mmwave"
point_id: 8
x: 1.46875
y: -0.0
z: -0.099609375
range: 1.56877088547
velocity: 0.0
doppler_bin: 8
bearing: -0.0
intensity: 28.5913829803
---
header: 
  seq: 3436815
  stamp: 
    secs: 1561686654
    nsecs: 924034027
  frame_id: "ti_mmwave"
point_id: 9
x: 1.5
y: -0.046875
z: -0.19921875
range: 1.61234796047
velocity: 0.0
doppler_bin: 8
bearing: -1.7899106741
intensity: 31.4426269531
---
header: 
  seq: 3436816
  stamp: 
    secs: 1561686654
    nsecs: 924044918
  frame_id: "ti_mmwave"
point_id: 10
x: 1.529296875
y: -0.048828125
z: -0.26953125
range: 1.65592491627
velocity: 0.0
doppler_bin: 8
bearing: -1.82874584198
intensity: 31.4983463287
---
header: 
  seq: 3436817
  stamp: 
    secs: 1561686654
    nsecs: 924052679
  frame_id: "ti_mmwave"
point_id: 11
x: 1.51171875
y: -0.05078125
z: -0.505859375
range: 1.69950187206
velocity: 0.0
doppler_bin: 8
bearing: -1.92394113541
intensity: 28.767950058
---
header: 
  seq: 3436818
  stamp: 
    secs: 1561686654
    nsecs: 924060508
  frame_id: "ti_mmwave"
point_id: 12
x: 1.642578125
y: -0.26171875
z: 0.212890625
range: 1.78665578365
velocity: 0.0
doppler_bin: 8
bearing: -9.05307292938
intensity: 26.6275787354
---
header: 
  seq: 3436819
  stamp: 
    secs: 1561686654
    nsecs: 924067808
  frame_id: "ti_mmwave"
point_id: 13
x: 2.58984375
y: -0.267578125
z: 1.193359375
range: 3.05038785934
velocity: 0.0
doppler_bin: 8
bearing: -5.8987698555
intensity: 31.2515583038
---
header: 
  seq: 3436820
  stamp: 
    secs: 1561686654
    nsecs: 924075720
  frame_id: "ti_mmwave"
point_id: 14
x: 2.640625
y: -0.271484375
z: 1.177734375
range: 3.09396481514
velocity: 0.0
doppler_bin: 8
bearing: -5.86999225616
intensity: 30.1325874329
---
header: 
  seq: 3436821
  stamp: 
    secs: 1561686654
    nsecs: 924083345
  frame_id: "ti_mmwave"
point_id: 15
x: 4.408203125
y: -0.287109375
z: 1.216796875
range: 4.88062095642
velocity: 0.0
doppler_bin: 8
bearing: -3.72645139694
intensity: 30.3742656708
---
header: 
  seq: 3436822
  stamp: 
    secs: 1561686654
    nsecs: 924093233
  frame_id: "ti_mmwave"
point_id: 16
x: 4.447265625
y: -0.2890625
z: 1.2265625
range: 4.9241976738
velocity: 0.0
doppler_bin: 8
bearing: -3.71886897087
intensity: 30.2077541351
---
header: 
  seq: 3436823
  stamp: 
    secs: 1561686654
    nsecs: 924105031
  frame_id: "ti_mmwave"
point_id: 18
x: 0.041015625
y: -0.033203125
z: 0.0625
range: 0.0871539413929
velocity: 0.0
doppler_bin: 8
bearing: -38.9909973145
intensity: 30.1494026184
---
header: 
  seq: 3436824
  stamp: 
    secs: 1561686654
    nsecs: 924110247
  frame_id: "ti_mmwave"
point_id: 19
x: 0.044921875
y: -0.046875
z: 0.103515625
range: 0.130730912089
velocity: 0.0
doppler_bin: 8
bearing: -46.218875885
intensity: 29.0525608063
---
header: 
  seq: 3436825
  stamp: 
    secs: 1561686654
    nsecs: 924123312
  frame_id: "ti_mmwave"
point_id: 21
x: 1.21484375
y: 0.357421875
z: 0.083984375
range: 1.35088610649
velocity: 0.0
doppler_bin: 8
bearing: 16.3945274353
intensity: 19.2427921295
---
header: 
  seq: 3436826
  stamp: 
    secs: 1561686654
    nsecs: 982476233
  frame_id: "ti_mmwave"
point_id: 0
x: 0.01171875
y: -0.0390625
z: -0.0078125
range: 0.0435769706964
velocity: 0.0
doppler_bin: 8
bearing: -73.3007583618
intensity: 30.7335166931
---
header: 
  seq: 3436827
  stamp: 
    secs: 1561686654
    nsecs: 982552212
  frame_id: "ti_mmwave"
point_id: 1
x: 0.017578125
y: -0.080078125
z: -0.0078125
range: 0.0871539413929
velocity: 0.0
doppler_bin: 8
bearing: -77.6192398071
intensity: 31.9755630493
---
header: 
  seq: 3436828
  stamp: 
    secs: 1561686654
    nsecs: 982565596
  frame_id: "ti_mmwave"
point_id: 2
x: 0.029296875
y: -0.119140625
z: -0.005859375
range: 0.130730912089
velocity: 0.0
doppler_bin: 8
bearing: -76.1849746704
intensity: 30.2036132812
---
header: 
  seq: 3436829
  stamp: 
    secs: 1561686654
    nsecs: 982574321
  frame_id: "ti_mmwave"
point_id: 3
x: 0.056640625
y: -0.154296875
z: 0.005859375
range: 0.174307882786
velocity: 0.0
doppler_bin: 8
bearing: -69.8423843384
intensity: 25.5022830963
---
header: 
  seq: 3436830
  stamp: 
    secs: 1561686654
    nsecs: 982582211
  frame_id: "ti_mmwave"
point_id: 4
x: 0.322265625
y: -0.080078125
z: -1.224609375
range: 1.35088610649
velocity: 0.0
doppler_bin: 8
bearing: -13.9545097351
intensity: 21.9312458038
---
header: 
  seq: 3436831
  stamp: 
    secs: 1561686654
    nsecs: 982591752
  frame_id: "ti_mmwave"
point_id: 5
x: 0.31640625
y: -0.041015625
z: 1.26953125
range: 1.39446306229
velocity: 0.0
doppler_bin: 8
bearing: -7.38604259491
intensity: 23.2221927643
---
header: 
  seq: 3436832
  stamp: 
    secs: 1561686654
    nsecs: 982599780
  frame_id: "ti_mmwave"
point_id: 6
x: 0.48828125
y: -0.04296875
z: 1.2578125
range: 1.43804001808
velocity: 0.0
doppler_bin: 8
bearing: -5.02907323837
intensity: 21.9033164978
---
header: 
  seq: 3436833
  stamp: 
    secs: 1561686654
    nsecs: 982607862
  frame_id: "ti_mmwave"
point_id: 7
x: 1.46875
y: -0.046875
z: -0.099609375
range: 1.56877088547
velocity: 0.0
doppler_bin: 8
bearing: -1.82796823978
intensity: 24.9968700409
---
header: 
  seq: 3436834
  stamp: 
    secs: 1561686654
    nsecs: 982616018
  frame_id: "ti_mmwave"
point_id: 8
x: 1.509765625
y: -0.0
z: -0.103515625
range: 1.61234796047
velocity: 0.0
doppler_bin: 8
bearing: -0.0
intensity: 26.5801143646
---
header: 
  seq: 3436835
  stamp: 
    secs: 1561686654
    nsecs: 982625461
  frame_id: "ti_mmwave"
point_id: 9
x: 1.5546875
y: -0.0
z: 0.013671875
range: 1.65592491627
velocity: 0.0
doppler_bin: 8
bearing: -0.0
intensity: 26.1909332275
---
header: 
  seq: 3436836
  stamp: 
    secs: 1561686654
    nsecs: 982633937
  frame_id: "ti_mmwave"
point_id: 10
x: 1.59375
y: -0.0
z: 0.0625
range: 1.69950187206
velocity: 0.0
doppler_bin: 8
bearing: -0.0
intensity: 26.503074646
---
header: 
  seq: 3436837
  stamp: 
    secs: 1561686654
    nsecs: 982641991
  frame_id: "ti_mmwave"
point_id: 11
x: 1.626953125
y: -0.0
z: 0.173828125
range: 1.74307882786
velocity: 0.0
doppler_bin: 8
bearing: -0.0
intensity: 27.8318862915
---
header: 
  seq: 3436838
  stamp: 
    secs: 1561686654
    nsecs: 982650377
  frame_id: "ti_mmwave"
point_id: 12
x: 1.669921875
y: 0.10546875
z: 0.123046875
range: 1.78665578365
velocity: 0.0
doppler_bin: 8
bearing: 3.61388087273
intensity: 27.3639640808
---
header: 
  seq: 3436839
  stamp: 
    secs: 1561686654
    nsecs: 982659704
  frame_id: "ti_mmwave"
point_id: 13
x: 1.6953125
y: 0.267578125
z: 0.056640625
range: 1.83023273945
velocity: 0.0
doppler_bin: 8
bearing: 8.96923732758
intensity: 25.1719589233
---
header: 
  seq: 3436840
  stamp: 
    secs: 1561686654
    nsecs: 982668074
  frame_id: "ti_mmwave"
point_id: 14
x: 2.537109375
y: -0.263671875
z: 1.208984375
range: 3.00681090355
velocity: 0.0
doppler_bin: 8
bearing: -5.93322753906
intensity: 29.2220630646
---
header: 
  seq: 3436841
  stamp: 
    secs: 1561686654
    nsecs: 982676430
  frame_id: "ti_mmwave"
point_id: 15
x: 2.583984375
y: -0.267578125
z: 1.205078125
range: 3.05038785934
velocity: 0.0
doppler_bin: 8
bearing: -5.91205120087
intensity: 32.8035087585
---
header: 
  seq: 3436842
  stamp: 
    secs: 1561686654
    nsecs: 982697366
  frame_id: "ti_mmwave"
point_id: 16
x: 2.634765625
y: -0.181640625
z: 1.2109375
range: 3.09396481514
velocity: 0.0
doppler_bin: 8
bearing: -3.94372868538
intensity: 32.4378204346
---
header: 
  seq: 3436843
  stamp: 
    secs: 1561686654
    nsecs: 982705530
  frame_id: "ti_mmwave"
point_id: 17
x: 2.611328125
y: -0.0
z: 1.36328125
range: 3.13754177094
velocity: 0.0
doppler_bin: 8
bearing: -0.0
intensity: 28.3947811127
---
header: 
  seq: 3436844
  stamp: 
    secs: 1561686654
    nsecs: 982822127
  frame_id: "ti_mmwave"
point_id: 18
x: 4.37890625
y: -0.287109375
z: 1.318359375
range: 4.88062095642
velocity: 0.0
doppler_bin: 8
bearing: -3.75131201744
intensity: 29.7909297943
---
header: 
  seq: 3436845
  stamp: 
    secs: 1561686654
    nsecs: 982831854
  frame_id: "ti_mmwave"
point_id: 19
x: 4.408203125
y: -0.2890625
z: 1.359375
range: 4.9241976738
velocity: 0.0
doppler_bin: 8
bearing: -3.75172901154
intensity: 29.9033889771
---
header: 
  seq: 3436846
  stamp: 
    secs: 1561686654
    nsecs: 982842549
  frame_id: "ti_mmwave"
point_id: 21
x: 0.041015625
y: -0.033203125
z: 0.0625
range: 0.0871539413929
velocity: 0.0
doppler_bin: 8
bearing: -38.9909973145
intensity: 30.1452045441
---
header: 
  seq: 3436847
  stamp: 
    secs: 1561686654
    nsecs: 982855204
  frame_id: "ti_mmwave"
point_id: 22
x: 0.044921875
y: -0.046875
z: 0.103515625
range: 0.130730912089
velocity: 0.0
doppler_bin: 8
bearing: -46.218875885
intensity: 29.0471553802
---
header: 
  seq: 3436848
  stamp: 
    secs: 1561686654
    nsecs: 982869989
  frame_id: "ti_mmwave"
point_id: 24
x: 1.21484375
y: 0.357421875
z: 0.07421875
range: 1.35088610649
velocity: 0.0
doppler_bin: 8
bearing: 16.3945274353
intensity: 19.2941894531
---
header: 
  seq: 3436849
  stamp: 
    secs: 1561686654
    nsecs: 982883574
  frame_id: "ti_mmwave"
point_id: 25
x: 0.720703125
y: 1.01953125
z: -0.92578125
range: 1.65592491627
velocity: 0.0
doppler_bin: 8
bearing: 54.7436408997
intensity: 24.8855075836
---
header: 
  seq: 3436850
  stamp: 
    secs: 1561686654
    nsecs: 982895008
  frame_id: "ti_mmwave"
point_id: 26
x: 1.55078125
y: -0.375
z: 0.63671875
range: 1.83023273945
velocity: 0.0
doppler_bin: 8
bearing: -13.5939455032
intensity: 24.3616256714
---
header: 
  seq: 3436851
  stamp: 
    secs: 1561686655
    nsecs:  42066815
  frame_id: "ti_mmwave"
point_id: 0
x: 0.01171875
y: -0.0390625
z: -0.0078125
range: 0.0435769706964
velocity: 0.0
doppler_bin: 8
bearing: -73.3007583618
intensity: 30.7371826172
---
header: 
  seq: 3436852
  stamp: 
    secs: 1561686655
    nsecs:  42149705
  frame_id: "ti_mmwave"
point_id: 1
x: 0.017578125
y: -0.080078125
z: -0.0078125
range: 0.0871539413929
velocity: 0.0
doppler_bin: 8
bearing: -77.6192398071
intensity: 31.9783172607
---
header: 
  seq: 3436853
  stamp: 
    secs: 1561686655
    nsecs:  42165044
  frame_id: "ti_mmwave"
point_id: 2
x: 0.029296875
y: -0.119140625
z: -0.00390625
range: 0.130730912089
velocity: 0.0
doppler_bin: 8
bearing: -76.1849746704
intensity: 30.2036132812
---
header: 
  seq: 3436854
  stamp: 
    secs: 1561686655
    nsecs:  42176052
  frame_id: "ti_mmwave"
point_id: 3
x: 0.056640625
y: -0.154296875
z: 0.005859375
range: 0.174307882786
velocity: 0.0
doppler_bin: 8
bearing: -69.8423843384
intensity: 25.5022830963
---
header: 
  seq: 3436855
  stamp: 
    secs: 1561686655
    nsecs:  42184171
  frame_id: "ti_mmwave"
point_id: 4
x: 0.345703125
y: -0.080078125
z: -1.216796875
range: 1.35088610649
velocity: 0.0
doppler_bin: 8
bearing: -13.0418901443
intensity: 21.9589958191
---
header: 
  seq: 3436856
  stamp: 
    secs: 1561686655
    nsecs:  42192440
  frame_id: "ti_mmwave"
point_id: 5
x: 0.296875
y: -0.041015625
z: 1.2734375
range: 1.39446306229
velocity: 0.0
doppler_bin: 8
bearing: -7.86606836319
intensity: 23.2221927643
---
header: 
  seq: 3436857
  stamp: 
    secs: 1561686655
    nsecs:  42201399
  frame_id: "ti_mmwave"
point_id: 6
x: 0.494140625
y: -0.04296875
z: 1.255859375
range: 1.43804001808
velocity: 0.0
doppler_bin: 8
bearing: -4.96974086761
intensity: 21.9312458038
---
header: 
  seq: 3436858
  stamp: 
    secs: 1561686655
    nsecs:  42211466
  frame_id: "ti_mmwave"
point_id: 8
x: 1.548828125
y: -0.0
z: 0.140625
range: 1.65592491627
velocity: 0.0
doppler_bin: 8
bearing: -0.0
intensity: 25.1719589233
---
header: 
  seq: 3436859
  stamp: 
    secs: 1561686655
    nsecs:  42219574
  frame_id: "ti_mmwave"
point_id: 9
x: 1.59375
y: -0.0
z: 0.072265625
range: 1.69950187206
velocity: 0.0
doppler_bin: 8
bearing: -0.0
intensity: 28.4073314667
---
header: 
  seq: 3436860
  stamp: 
    secs: 1561686655
    nsecs:  42229607
  frame_id: "ti_mmwave"
point_id: 10
x: 1.6328125
y: -0.0
z: 0.09765625
range: 1.74307882786
velocity: 0.0
doppler_bin: 8
bearing: -0.0
intensity: 27.201593399
---
header: 
  seq: 3436861
  stamp: 
    secs: 1561686655
    nsecs:  42243072
  frame_id: "ti_mmwave"
point_id: 11
x: 2.546875
y: -0.263671875
z: 1.189453125
range: 3.00681090355
velocity: 0.0
doppler_bin: 8
bearing: -5.91063833237
intensity: 29.7081165314
---
header: 
  seq: 3436862
  stamp: 
    secs: 1561686655
    nsecs:  42426486
  frame_id: "ti_mmwave"
point_id: 12
x: 2.60546875
y: -0.267578125
z: 1.154296875
range: 3.05038785934
velocity: 0.0
doppler_bin: 8
bearing: -5.86364221573
intensity: 33.3925247192
---
header: 
  seq: 3436863
  stamp: 
    secs: 1561686655
    nsecs:  42448989
  frame_id: "ti_mmwave"
point_id: 13
x: 2.671875
y: -0.181640625
z: 1.123046875
range: 3.09396481514
velocity: 0.0
doppler_bin: 8
bearing: -3.88912391663
intensity: 33.199382782
---
header: 
  seq: 3436864
  stamp: 
    secs: 1561686655
    nsecs:  42457756
  frame_id: "ti_mmwave"
point_id: 14
x: 2.6953125
y: -0.091796875
z: 1.18359375
range: 3.13754177094
velocity: 0.0
doppler_bin: 8
bearing: -1.95062410831
intensity: 29.247959137
---
header: 
  seq: 3436865
  stamp: 
    secs: 1561686655
    nsecs:  42465830
  frame_id: "ti_mmwave"
point_id: 15
x: 4.388671875
y: -0.287109375
z: 1.283203125
range: 4.88062095642
velocity: 0.0
doppler_bin: 8
bearing: -3.74298858643
intensity: 29.7497196198
---
header: 
  seq: 3436866
  stamp: 
    secs: 1561686655
    nsecs:  42473639
  frame_id: "ti_mmwave"
point_id: 16
x: 4.427734375
y: -0.2890625
z: 1.29296875
range: 4.9241976738
velocity: 0.0
doppler_bin: 8
bearing: -3.73522686958
intensity: 29.8989448547
---
header: 
  seq: 3436867
  stamp: 
    secs: 1561686655
    nsecs:  42487008
  frame_id: "ti_mmwave"
point_id: 18
x: 0.041015625
y: -0.033203125
z: 0.0625
range: 0.0871539413929
velocity: 0.0
doppler_bin: 8
bearing: -38.9909973145
intensity: 30.1452045441
---
header: 
  seq: 3436868
  stamp: 
    secs: 1561686655
    nsecs:  42494879
  frame_id: "ti_mmwave"
point_id: 19
x: 0.044921875
y: -0.046875
z: 0.103515625
range: 0.130730912089
velocity: 0.0
doppler_bin: 8
bearing: -46.218875885
intensity: 29.0471553802
---
header: 
  seq: 3436869
  stamp: 
    secs: 1561686655
    nsecs:  42506001
  frame_id: "ti_mmwave"
point_id: 21
x: 1.21484375
y: 0.357421875
z: 0.068359375
range: 1.35088610649
velocity: 0.0
doppler_bin: 8
bearing: 16.3945274353
intensity: 19.2941894531
---
header: 
  seq: 3436870
  stamp: 
    secs: 1561686655
    nsecs:  42542209
  frame_id: "ti_mmwave"
point_id: 22
x: 1.373046875
y: 0.046875
z: -0.634765625
range: 1.61234796047
velocity: 0.0
doppler_bin: 8
bearing: 1.95528423786
intensity: 23.5602588654
---
header: 
  seq: 3436871
  stamp: 
    secs: 1561686655
    nsecs:  42552271
  frame_id: "ti_mmwave"
point_id: 23
x: 0.408203125
y: 0.923828125
z: -1.181640625
range: 1.65592491627
velocity: 0.0
doppler_bin: 8
bearing: 66.1612548828
intensity: 25.1454772949
---
header: 
  seq: 3436872
  stamp: 
    secs: 1561686655
    nsecs:  43889491
  frame_id: "ti_mmwave"
point_id: 0
x: 0.01171875
y: -0.0390625
z: -0.0078125
range: 0.0435769706964
velocity: 0.0
doppler_bin: 8
bearing: -73.3007583618
intensity: 30.7298469543
---
header: 
  seq: 3436873
  stamp: 
    secs: 1561686655
    nsecs:  43943548
  frame_id: "ti_mmwave"
point_id: 1
x: 0.017578125
y: -0.080078125
z: -0.0078125
range: 0.0871539413929
velocity: 0.0
doppler_bin: 8
bearing: -77.6192398071
intensity: 31.9728050232
---
header: 
  seq: 3436874
  stamp: 
    secs: 1561686655
    nsecs:  43960506
  frame_id: "ti_mmwave"
point_id: 2
x: 0.029296875
y: -0.119140625
z: -0.00390625
range: 0.130730912089
velocity: 0.0
doppler_bin: 8
bearing: -76.1849746704
intensity: 30.2036132812
---
header: 
  seq: 3436875
  stamp: 
    secs: 1561686655
    nsecs:  43973868
  frame_id: "ti_mmwave"
point_id: 3
x: 0.056640625
y: -0.154296875
z: 0.005859375
range: 0.174307882786
velocity: 0.0
doppler_bin: 8
bearing: -69.8423843384
intensity: 25.5022830963
---
header: 
  seq: 3436876
  stamp: 
    secs: 1561686655
    nsecs:  44226300
  frame_id: "ti_mmwave"
point_id: 4
x: 0.3515625
y: -0.080078125
z: -1.21484375
range: 1.35088610649
velocity: 0.0
doppler_bin: 8
bearing: -12.83177948
intensity: 21.9312458038
---
header: 
  seq: 3436877
  stamp: 
    secs: 1561686655
    nsecs:  44248669
  frame_id: "ti_mmwave"
point_id: 5
x: 0.318359375
y: -0.041015625
