header: 
  seq: 1655824
  stamp: 
    secs: 1561868825
    nsecs: 396007228
  frame_id: "ti_mmwave"
point_id: 0
x: 0.01171875
y: -0.0390625
z: -0.0078125
range: 0.0435769706964
velocity: 0.0
doppler_bin: 8
bearing: -73.3007583618
intensity: 30.6408348083
---
header: 
  seq: 1655825
  stamp: 
    secs: 1561868825
    nsecs: 396100025
  frame_id: "ti_mmwave"
point_id: 1
x: 0.017578125
y: -0.080078125
z: -0.0078125
range: 0.0871539413929
velocity: 0.0
doppler_bin: 8
bearing: -77.6192398071
intensity: 31.8977088928
---
header: 
  seq: 1655826
  stamp: 
    secs: 1561868825
    nsecs: 396125233
  frame_id: "ti_mmwave"
point_id: 2
x: 0.029296875
y: -0.119140625
z: -0.005859375
range: 0.130730912089
velocity: 0.0
doppler_bin: 8
bearing: -76.1849746704
intensity: 30.1114730835
---
header: 
  seq: 1655827
  stamp: 
    secs: 1561868825
    nsecs: 396138478
  frame_id: "ti_mmwave"
point_id: 3
x: 0.056640625
y: -0.154296875
z: 0.005859375
range: 0.174307882786
velocity: 0.0
doppler_bin: 8
bearing: -69.8423843384
intensity: 25.4406795502
---
header: 
  seq: 1655828
  stamp: 
    secs: 1561868825
    nsecs: 396152551
  frame_id: "ti_mmwave"
point_id: 4
x: 0.109375
y: -0.080078125
z: 1.26171875
range: 1.35088610649
velocity: 0.0
doppler_bin: 8
bearing: -36.2094573975
intensity: 23.1597042084
---
header: 
  seq: 1655829
  stamp: 
    secs: 1561868825
    nsecs: 396167154
  frame_id: "ti_mmwave"
point_id: 6
x: 0.408203125
y: -0.083984375
z: -1.283203125
range: 1.43804001808
velocity: 0.0
doppler_bin: 8
bearing: -11.6258993149
intensity: 23.0749607086
---
header: 
  seq: 1655830
  stamp: 
    secs: 1561868825
    nsecs: 396182031
  frame_id: "ti_mmwave"
point_id: 7
x: 1.6328125
y: -0.0
z: -0.099609375
range: 1.74307882786
velocity: 0.0
doppler_bin: 8
bearing: -0.0
intensity: 30.3901729584
---
header: 
  seq: 1655831
  stamp: 
    secs: 1561868825
    nsecs: 396196532
  frame_id: "ti_mmwave"
point_id: 8
x: 1.67578125
y: -0.0
z: -0.0859375
range: 1.78665578365
velocity: 0.0
doppler_bin: 8
bearing: -0.0
intensity: 31.1494445801
---
header: 
  seq: 1655832
  stamp: 
    secs: 1561868825
    nsecs: 396299582
  frame_id: "ti_mmwave"
point_id: 9
x: 1.71875
y: -0.0
z: 0.01953125
range: 1.83023273945
velocity: 0.0
doppler_bin: 8
bearing: -0.0
intensity: 29.4051647186
---
header: 
  seq: 1655833
  stamp: 
    secs: 1561868825
    nsecs: 396315357
  frame_id: "ti_mmwave"
point_id: 10
x: 1.73046875
y: 0.0546875
z: 0.314453125
range: 1.87380969524
velocity: 0.0
doppler_bin: 8
bearing: 1.81009960175
intensity: 28.6864452362
---
header: 
  seq: 1655834
  stamp: 
    secs: 1561868825
    nsecs: 396327261
  frame_id: "ti_mmwave"
point_id: 11
x: 1.744140625
y: 0.056640625
z: 0.439453125
range: 1.91738677025
velocity: 0.0
doppler_bin: 8
bearing: 1.86001551151
intensity: 28.6213130951
---
header: 
  seq: 1655835
  stamp: 
    secs: 1561868825
    nsecs: 396340387
  frame_id: "ti_mmwave"
point_id: 12
x: 2.619140625
y: -0.17578125
z: 1.037109375
range: 3.00681090355
velocity: 0.0
doppler_bin: 8
bearing: -3.83959650993
intensity: 28.8195495605
---
header: 
  seq: 1655836
  stamp: 
    secs: 1561868825
    nsecs: 396351842
  frame_id: "ti_mmwave"
point_id: 13
x: 2.693359375
y: -0.08984375
z: 0.96875
range: 3.05038785934
velocity: 0.0
doppler_bin: 8
bearing: -1.91053581238
intensity: 32.1484375
---
header: 
  seq: 1655837
  stamp: 
    secs: 1561868825
    nsecs: 396364958
  frame_id: "ti_mmwave"
point_id: 14
x: 2.767578125
y: -0.0
z: 0.880859375
range: 3.09396481514
velocity: 0.0
doppler_bin: 8
bearing: -0.0
intensity: 31.1360912323
---
header: 
  seq: 1655838
  stamp: 
    secs: 1561868825
    nsecs: 396375994
  frame_id: "ti_mmwave"
point_id: 15
x: 4.443359375
y: -0.142578125
z: 0.923828125
range: 4.83704376221
velocity: 0.0
doppler_bin: 8
bearing: -1.8378713131
intensity: 28.2801513672
---
header: 
  seq: 1655839
  stamp: 
    secs: 1561868825
    nsecs: 396387936
  frame_id: "ti_mmwave"
point_id: 16
x: 4.458984375
y: -0.142578125
z: 1.04296875
range: 4.88062095642
velocity: 0.0
doppler_bin: 8
bearing: -1.83143544197
intensity: 31.430147171
---
header: 
  seq: 1655840
  stamp: 
    secs: 1561868825
    nsecs: 396396879
  frame_id: "ti_mmwave"
point_id: 17
x: 4.4921875
y: -0.14453125
z: 1.080078125
range: 4.9241976738
velocity: 0.0
doppler_bin: 8
bearing: -1.84279382229
intensity: 30.7188205719
---
header: 
  seq: 1655841
  stamp: 
    secs: 1561868825
    nsecs: 396406870
  frame_id: "ti_mmwave"
point_id: 19
x: 0.041015625
y: -0.033203125
z: 0.0625
range: 0.0871539413929
velocity: 0.0
doppler_bin: 8
bearing: -38.9909973145
intensity: 30.0860023499
---
header: 
  seq: 1655842
  stamp: 
    secs: 1561868825
    nsecs: 396414712
  frame_id: "ti_mmwave"
point_id: 20
x: 0.044921875
y: -0.046875
z: 0.103515625
range: 0.130730912089
velocity: 0.0
doppler_bin: 8
bearing: -46.218875885
intensity: 28.9982051849
---
header: 
  seq: 1655843
  stamp: 
    secs: 1561868825
    nsecs: 396423983
  frame_id: "ti_mmwave"
point_id: 22
x: 2.724609375
y: -0.181640625
z: 0.990234375
range: 3.09396481514
velocity: 0.0
doppler_bin: 8
bearing: -3.81407499313
intensity: 31.1226978302
---
header: 
  seq: 1655844
  stamp: 
    secs: 1561868825
    nsecs: 456044394
  frame_id: "ti_mmwave"
point_id: 0
x: 0.01171875
y: -0.0390625
z: -0.0078125
range: 0.0435769706964
velocity: 0.0
doppler_bin: 8
bearing: -73.3007583618
intensity: 30.6408348083
---
header: 
  seq: 1655845
  stamp: 
    secs: 1561868825
    nsecs: 456093292
  frame_id: "ti_mmwave"
point_id: 1
x: 0.017578125
y: -0.080078125
z: -0.0078125
range: 0.0871539413929
velocity: 0.0
doppler_bin: 8
bearing: -77.6192398071
intensity: 31.8977088928
---
header: 
  seq: 1655846
  stamp: 
    secs: 1561868825
    nsecs: 456100321
  frame_id: "ti_mmwave"
point_id: 2
x: 0.029296875
y: -0.119140625
z: -0.005859375
range: 0.130730912089
velocity: 0.0
doppler_bin: 8
bearing: -76.1849746704
intensity: 30.1114730835
---
header: 
  seq: 1655847
  stamp: 
    secs: 1561868825
    nsecs: 456107236
  frame_id: "ti_mmwave"
point_id: 3
x: 0.056640625
y: -0.154296875
z: 0.0078125
range: 0.174307882786
velocity: 0.0
doppler_bin: 8
bearing: -69.8423843384
intensity: 25.4406795502
---
header: 
  seq: 1655848
  stamp: 
    secs: 1561868825
    nsecs: 456112734
  frame_id: "ti_mmwave"
point_id: 4
x: 0.1875
y: -0.080078125
z: 1.251953125
range: 1.35088610649
velocity: 0.0
doppler_bin: 8
bearing: -23.1265201569
intensity: 23.138671875
---
header: 
  seq: 1655849
  stamp: 
    secs: 1561868825
    nsecs: 456119512
  frame_id: "ti_mmwave"
point_id: 5
x: 0.119140625
y: -0.08203125
z: 1.30078125
range: 1.39446306229
velocity: 0.0
doppler_bin: 8
bearing: -34.5483665466
intensity: 24.6538276672
---
header: 
  seq: 1655850
  stamp: 
    secs: 1561868825
    nsecs: 456124760
  frame_id: "ti_mmwave"
point_id: 6
x: 0.36328125
y: -0.083984375
z: -1.296875
range: 1.43804001808
velocity: 0.0
doppler_bin: 8
bearing: -13.0171117783
intensity: 23.1175384521
---
header: 
  seq: 1655851
  stamp: 
    secs: 1561868825
    nsecs: 456130137
  frame_id: "ti_mmwave"
point_id: 7
x: 0.509765625
y: -0.04296875
z: -1.29296875
range: 1.48161697388
velocity: 0.0
doppler_bin: 8
bearing: -4.81814002991
intensity: 21.7609119415
---
header: 
  seq: 1655852
  stamp: 
    secs: 1561868825
    nsecs: 456135454
  frame_id: "ti_mmwave"
point_id: 8
x: 1.626953125
y: -0.0
z: -0.171875
range: 1.74307882786
velocity: 0.0
doppler_bin: 8
bearing: -0.0
intensity: 28.2736930847
---
header: 
  seq: 1655853
  stamp: 
    secs: 1561868825
    nsecs: 456141284
  frame_id: "ti_mmwave"
point_id: 9
x: 1.748046875
y: 0.0546875
z: 0.185546875
range: 1.87380969524
velocity: 0.0
doppler_bin: 8
bearing: 1.79190933704
intensity: 29.9387683868
---
header: 
  seq: 1655854
  stamp: 
    secs: 1561868825
    nsecs: 456146597
  frame_id: "ti_mmwave"
point_id: 10
x: 1.791015625
y: 0.056640625
z: 0.169921875
range: 1.91738677025
velocity: 0.0
doppler_bin: 8
bearing: 1.81136763096
intensity: 28.1624126434
---
header: 
  seq: 1655855
  stamp: 
    secs: 1561868825
    nsecs: 456152887
  frame_id: "ti_mmwave"
point_id: 11
x: 1.73046875
y: 0.66015625
z: 0.513671875
range: 2.04811763763
velocity: 0.0
doppler_bin: 8
bearing: 20.8813457489
intensity: 26.0205993652
---
header: 
  seq: 1655856
  stamp: 
    secs: 1561868825
    nsecs: 456158955
  frame_id: "ti_mmwave"
point_id: 12
x: 2.591796875
y: -0.17578125
z: 1.10546875
range: 3.00681090355
velocity: 0.0
doppler_bin: 8
bearing: -3.87998151779
intensity: 29.2272548676
---
header: 
  seq: 1655857
  stamp: 
    secs: 1561868825
    nsecs: 456164144
  frame_id: "ti_mmwave"
point_id: 13
x: 2.681640625
y: -0.08984375
z: 1.0
range: 3.05038785934
velocity: 0.0
doppler_bin: 8
bearing: -1.91887867451
intensity: 32.3804626465
---
header: 
  seq: 1655858
  stamp: 
    secs: 1561868825
    nsecs: 456169546
  frame_id: "ti_mmwave"
point_id: 14
x: 2.751953125
y: -0.08984375
z: 0.923828125
range: 3.09396481514
velocity: 0.0
doppler_bin: 8
bearing: -1.86988639832
intensity: 31.319393158
---
header: 
  seq: 1655859
  stamp: 
    secs: 1561868825
    nsecs: 456175277
  frame_id: "ti_mmwave"
point_id: 15
x: 4.37109375
y: -0.142578125
z: 1.365234375
range: 4.88062095642
velocity: 0.0
doppler_bin: 8
bearing: -1.86823499203
intensity: 30.1828422546
---
header: 
  seq: 1655860
  stamp: 
    secs: 1561868825
    nsecs: 456181111
  frame_id: "ti_mmwave"
point_id: 16
x: 4.43359375
y: -0.14453125
z: 1.298828125
range: 4.9241976738
velocity: 0.0
doppler_bin: 8
bearing: -1.86713063717
intensity: 29.527923584
---
header: 
  seq: 1655861
  stamp: 
    secs: 1561868825
    nsecs: 456186749
  frame_id: "ti_mmwave"
point_id: 17
x: 4.908203125
y: -0.154296875
z: 0.626953125
range: 5.27281332016
velocity: 0.0
doppler_bin: 8
bearing: -1.8005875349
intensity: 30.7481651306
---
header: 
  seq: 1655862
  stamp: 
    secs: 1561868825
    nsecs: 456192597
  frame_id: "ti_mmwave"
point_id: 18
x: 1.671875
y: 0.052734375
z: 0.390625
range: 1.83023273945
velocity: -0.614668667316
doppler_bin: 7
bearing: 1.8066277504
intensity: 26.4345264435
---
header: 
  seq: 1655863
  stamp: 
    secs: 1561868825
    nsecs: 456200431
  frame_id: "ti_mmwave"
point_id: 20
x: 0.041015625
y: -0.033203125
z: 0.0625
range: 0.0871539413929
velocity: 0.0
doppler_bin: 8
bearing: -38.9909973145
intensity: 30.0945091248
---
header: 
  seq: 1655864
  stamp: 
    secs: 1561868825
    nsecs: 456206157
  frame_id: "ti_mmwave"
point_id: 21
x: 0.046875
y: -0.046875
z: 0.103515625
range: 0.130730912089
velocity: 0.0
doppler_bin: 8
bearing: -45.0
intensity: 29.0036716461
---
header: 
  seq: 1655865
  stamp: 
    secs: 1561868825
    nsecs: 456214136
  frame_id: "ti_mmwave"
point_id: 23
x: 1.826171875
y: -0.6015625
z: 0.029296875
range: 2.04811763763
velocity: 0.0
doppler_bin: 8
bearing: -18.2324924469
intensity: 25.3275432587
---
header: 
  seq: 1655866
  stamp: 
    secs: 1561868825
    nsecs: 456850996
  frame_id: "ti_mmwave"
point_id: 0
x: 0.01171875
y: -0.0390625
z: -0.0078125
range: 0.0435769706964
velocity: 0.0
doppler_bin: 8
bearing: -73.3007583618
intensity: 30.6370849609
---
header: 
  seq: 1655867
  stamp: 
    secs: 1561868825
    nsecs: 456906666
  frame_id: "ti_mmwave"
point_id: 1
x: 0.017578125
y: -0.080078125
z: -0.0078125
range: 0.0871539413929
velocity: 0.0
doppler_bin: 8
bearing: -77.6192398071
intensity: 31.8977088928
---
header: 
  seq: 1655868
  stamp: 
    secs: 1561868825
    nsecs: 456920822
  frame_id: "ti_mmwave"
point_id: 2
x: 0.029296875
y: -0.119140625
z: -0.005859375
range: 0.130730912089
velocity: 0.0
doppler_bin: 8
bearing: -76.1849746704
intensity: 30.1157035828
---
header: 
  seq: 1655869
  stamp: 
    secs: 1561868825
    nsecs: 456931053
  frame_id: "ti_mmwave"
point_id: 3
x: 0.056640625
y: -0.154296875
z: 0.0078125
range: 0.174307882786
velocity: 0.0
doppler_bin: 8
bearing: -69.8423843384
intensity: 25.4406795502
---
header: 
  seq: 1655870
  stamp: 
    secs: 1561868825
    nsecs: 456979301
  frame_id: "ti_mmwave"
point_id: 4
x: 0.140625
y: -0.080078125
z: 1.2578125
range: 1.35088610649
velocity: 0.0
doppler_bin: 8
bearing: -29.6591091156
intensity: 23.1175384521
---
header: 
  seq: 1655871
  stamp: 
    secs: 1561868825
    nsecs: 456989469
  frame_id: "ti_mmwave"
point_id: 5
x: 0.05859375
y: -0.08203125
z: 1.3046875
range: 1.39446306229
velocity: 0.0
doppler_bin: 8
bearing: -54.4623222351
intensity: 24.6389293671
---
header: 
  seq: 1655872
  stamp: 
    secs: 1561868825
    nsecs: 456998262
  frame_id: "ti_mmwave"
point_id: 6
x: 0.39453125
y: -0.083984375
z: -1.287109375
range: 1.43804001808
velocity: 0.0
doppler_bin: 8
bearing: -12.0172519684
intensity: 23.1175384521
---
header: 
  seq: 1655873
  stamp: 
    secs: 1561868825
    nsecs: 457016229
  frame_id: "ti_mmwave"
point_id: 7
x: 0.560546875
y: -0.04296875
z: -1.2734375
range: 1.48161697388
velocity: 0.0
doppler_bin: 8
bearing: -4.38343858719
intensity: 21.7609119415
---
header: 
  seq: 1655874
  stamp: 
    secs: 1561868825
    nsecs: 457037594
  frame_id: "ti_mmwave"
point_id: 8
x: 1.67578125
y: -0.0
z: -0.078125
range: 1.78665578365
velocity: 0.0
doppler_bin: 8
bearing: -0.0
intensity: 29.6754798889
---
header: 
  seq: 1655875
  stamp: 
    secs: 1561868825
    nsecs: 457057408
  frame_id: "ti_mmwave"
point_id: 9
x: 1.71875
y: -0.0
z: 0.01953125
range: 1.83023273945
velocity: 0.0
doppler_bin: 8
bearing: -0.0
intensity: 30.5422992706
---
header: 
  seq: 1655876
  stamp: 
    secs: 1561868825
    nsecs: 457067447
  frame_id: "ti_mmwave"
point_id: 10
x: 1.7578125
y: 0.0546875
z: 0.009765625
range: 1.87380969524
velocity: 0.0
doppler_bin: 8
bearing: 1.78196060658
intensity: 29.8855895996
---
header: 
  seq: 1655877
  stamp: 
    secs: 1561868825
    nsecs: 457093308
  frame_id: "ti_mmwave"
point_id: 11
x: 2.68359375
y: -0.08984375
z: 0.99609375
range: 3.05038785934
velocity: 0.0
doppler_bin: 8
bearing: -1.91748321056
intensity: 32.0439147949
---
header: 
  seq: 1655878
  stamp: 
    secs: 1561868825
    nsecs: 457152480
  frame_id: "ti_mmwave"
point_id: 12
x: 2.74609375
y: -0.08984375
z: 0.939453125
range: 3.09396481514
velocity: 0.0
doppler_bin: 8
bearing: -1.8738732338
intensity: 31.0551013947
---
header: 
  seq: 1655879
  stamp: 
    secs: 1561868825
    nsecs: 457162837
  frame_id: "ti_mmwave"
point_id: 13
x: 4.40625
y: -0.142578125
z: 1.24609375
range: 4.88062095642
velocity: 0.0
doppler_bin: 8
bearing: -1.85333895683
intensity: 31.3353881836
---
header: 
  seq: 1655880
  stamp: 
    secs: 1561868825
    nsecs: 457173947
  frame_id: "ti_mmwave"
point_id: 14
x: 4.44921875
y: -0.0
z: 1.255859375
range: 4.9241976738
velocity: 0.0
doppler_bin: 8
bearing: -0.0
intensity: 30.7077655792
---
header: 
  seq: 1655881
  stamp: 
    secs: 1561868825
    nsecs: 457182872
  frame_id: "ti_mmwave"
point_id: 15
x: 4.890625
y: -0.30859375
z: 0.697265625
range: 5.27281332016
velocity: 0.0
doppler_bin: 8
bearing: -3.61052203178
intensity: 31.3001194
---
header: 
  seq: 1655882
  stamp: 
    secs: 1561868825
    nsecs: 457193933
  frame_id: "ti_mmwave"
point_id: 17
x: 0.041015625
y: -0.033203125
z: 0.0625
range: 0.0871539413929
velocity: 0.0
doppler_bin: 8
bearing: -38.9909973145
intensity: 30.0902576447
---
header: 
  seq: 1655883
  stamp: 
    secs: 1561868825
    nsecs: 457202501
  frame_id: "ti_mmwave"
point_id: 18
x: 0.044921875
y: -0.046875
z: 0.103515625
range: 0.130730912089
velocity: 0.0
doppler_bin: 8
bearing: -46.218875885
intensity: 29.0091304779
---
header: 
  seq: 1655884
  stamp: 
    secs: 1561868825
    nsecs: 516002340
  frame_id: "ti_mmwave"
point_id: 0
x: 0.01171875
y: -0.0390625
z: -0.0078125
range: 0.0435769706964
velocity: 0.0
doppler_bin: 8
bearing: -73.3007583618
intensity: 30.6370849609
---
header: 
  seq: 1655885
  stamp: 
    secs: 1561868825
    nsecs: 516117639
  frame_id: "ti_mmwave"
point_id: 1
x: 0.017578125
y: -0.080078125
z: -0.0078125
range: 0.0871539413929
velocity: 0.0
doppler_bin: 8
bearing: -77.6192398071
intensity: 31.894903183
---
header: 
  seq: 1655886
  stamp: 
    secs: 1561868825
    nsecs: 516138410
  frame_id: "ti_mmwave"
point_id: 2
x: 0.029296875
y: -0.119140625
z: -0.005859375
range: 0.130730912089
velocity: 0.0
doppler_bin: 8
bearing: -76.1849746704
intensity: 30.1114730835
---
header: 
  seq: 1655887
  stamp: 
    secs: 1561868825
    nsecs: 516152358
  frame_id: "ti_mmwave"
point_id: 3
x: 0.056640625
y: -0.154296875
z: 0.005859375
range: 0.174307882786
velocity: 0.0
doppler_bin: 8
bearing: -69.8423843384
intensity: 25.4282550812
---
header: 
  seq: 1655888
  stamp: 
    secs: 1561868825
    nsecs: 516169808
  frame_id: "ti_mmwave"
point_id: 5
x: 0.080078125
y: -0.08203125
z: -1.3046875
range: 1.39446306229
velocity: 0.0
doppler_bin: 8
bearing: -45.6902770996
intensity: 24.6389293671
---
header: 
  seq: 1655889
  stamp: 
    secs: 1561868825
    nsecs: 516205115
  frame_id: "ti_mmwave"
point_id: 6
x: 0.451171875
y: -0.083984375
z: -1.26953125
range: 1.43804001808
velocity: 0.0
doppler_bin: 8
bearing: -10.5447587967
intensity: 23.0963020325
---
header: 
  seq: 1655890
  stamp: 
    secs: 1561868825
    nsecs: 516224198
  frame_id: "ti_mmwave"
point_id: 7
x: 0.5859375
y: -0.04296875
z: -1.26171875
range: 1.48161697388
velocity: 0.0
doppler_bin: 8
bearing: -4.19418287277
intensity: 21.7026176453
---
header: 
  seq: 1655891
  stamp: 
    secs: 1561868825
    nsecs: 516331502
  frame_id: "ti_mmwave"
point_id: 8
x: 1.59765625
y: -0.0
z: -0.349609375
range: 1.74307882786
velocity: 0.0
doppler_bin: 8
bearing: -0.0
intensity: 28.0208930969
---
header: 
  seq: 1655892
  stamp: 
    secs: 1561868825
    nsecs: 516349382
  frame_id: "ti_mmwave"
point_id: 9
x: 2.697265625
y: -0.08984375
z: 0.95703125
range: 3.05038785934
velocity: 0.0
doppler_bin: 8
bearing: -1.90777087212
intensity: 32.2141418457
---
header: 
  seq: 1655893
  stamp: 
    secs: 1561868825
    nsecs: 516365452
  frame_id: "ti_mmwave"
point_id: 10
x: 2.755859375
y: -0.08984375
z: 0.91015625
range: 3.09396481514
velocity: 0.0
doppler_bin: 8
bearing: -1.86723792553
intensity: 31.25806427
---
header: 
  seq: 1655894
  stamp: 
    secs: 1561868825
    nsecs: 516378724
  frame_id: "ti_mmwave"
point_id: 11
x: 4.400390625
y: -0.142578125
z: 1.115234375
range: 4.83704376221
velocity: 0.0
doppler_bin: 8
bearing: -1.85580503941
intensity: 28.5793533325
---
header: 
  seq: 1655895
  stamp: 
    secs: 1561868825
    nsecs: 516388561
  frame_id: "ti_mmwave"
point_id: 12
x: 4.412109375
y: -0.142578125
z: 1.2265625
range: 4.88062095642
velocity: 0.0
doppler_bin: 8
bearing: -1.85087943077
intensity: 31.8610839844
---
header: 
  seq: 1655896
  stamp: 
    secs: 1561868825
    nsecs: 516413024
  frame_id: "ti_mmwave"
point_id: 13
x: 4.4453125
y: -0.14453125
z: 1.26171875
range: 4.9241976738
velocity: 0.0
doppler_bin: 8
bearing: -1.86221218109
intensity: 31.235250473
---
header: 
  seq: 1655897
  stamp: 
    secs: 1561868825
    nsecs: 516435320
  frame_id: "ti_mmwave"
point_id: 14
x: 4.841796875
y: -0.154296875
z: 0.791015625
range: 5.22923660278
velocity: 0.0
doppler_bin: 8
bearing: -1.82526648045
intensity: 29.986951828
---
header: 
  seq: 1655898
  stamp: 
    secs: 1561868825
    nsecs: 516449887
  frame_id: "ti_mmwave"
point_id: 15
x: 4.904296875
y: -0.30859375
z: 0.5859375
range: 5.27281332016
velocity: 0.0
doppler_bin: 8
bearing: -3.60048341751
intensity: 31.6166744232
---
header: 
  seq: 1655899
  stamp: 
    secs: 1561868825
    nsecs: 516470896
  frame_id: "ti_mmwave"
point_id: 16
x: 4.96875
y: -0.46875
z: 0.05859375
range: 5.31639051437
velocity: 0.0
doppler_bin: 8
bearing: -5.38931179047
intensity: 30.1157035828
---
header: 
  seq: 1655900
  stamp: 
    secs: 1561868825
    nsecs: 516494506
  frame_id: "ti_mmwave"
point_id: 17
x: 1.658203125
y: -0.0
z: -0.24609375
range: 1.78665578365
velocity: 0.614668667316
doppler_bin: 9
bearing: -0.0
intensity: 29.7863693237
---
header: 
  seq: 1655901
  stamp: 
    secs: 1561868825
    nsecs: 516507672
  frame_id: "ti_mmwave"
point_id: 18
x: 1.6875
y: -0.0
z: -0.318359375
range: 1.83023273945
velocity: 0.614668667316
doppler_bin: 9
bearing: -0.0
intensity: 28.9265098572
---
header: 
  seq: 1655902
  stamp: 
    secs: 1561868825
    nsecs: 516583845
  frame_id: "ti_mmwave"
point_id: 19
x: 1.685546875
y: -0.0
z: -0.505859375
range: 1.87380969524
velocity: 0.614668667316
doppler_bin: 9
bearing: -0.0
intensity: 26.1595001221
---
header: 
  seq: 1655903
  stamp: 
    secs: 1561868825
    nsecs: 516605466
  frame_id: "ti_mmwave"
point_id: 22
x: 1.697265625
y: 0.0546875
z: 0.4609375
range: 1.87380969524
velocity: -0.614668667316
doppler_bin: 7
bearing: 1.84548568726
intensity: 26.3848934174
---
header: 
  seq: 1655904
  stamp: 
    secs: 1561868825
    nsecs: 516622725
  frame_id: "ti_mmwave"
point_id: 24
x: 0.041015625
y: -0.033203125
z: 0.0625
range: 0.0871539413929
velocity: 0.0
doppler_bin: 8
bearing: -38.9909973145
intensity: 30.0902576447
---
header: 
  seq: 1655905
  stamp: 
    secs: 1561868825
    nsecs: 516637512
  frame_id: "ti_mmwave"
point_id: 25
x: 0.044921875
y: -0.046875
z: 0.103515625
range: 0.130730912089
velocity: 0.0
doppler_bin: 8
bearing: -46.218875885
intensity: 29.0036716461
---
header: 
  seq: 1655906
  stamp: 
    secs: 1561868825
    nsecs: 516653507
  frame_id: "ti_mmwave"
point_id: 27
x: 1.146484375
y: 2.1484375
z: 0.310546875
range: 2.61461830139
velocity: 0.614668667316
doppler_bin: 9
bearing: 61.9139976501
intensity: 22.718416214
---
header: 
  seq: 1655907
  stamp: 
    secs: 1561868825
    nsecs: 516673876
  frame_id: "ti_mmwave"
point_id: 28
x: 1.083984375
y: -0.544921875
z: -2.1796875
range: 2.65819525719
velocity: 0.614668667316
doppler_bin: 9
bearing: -26.6888008118
intensity: 24.857213974
---
header: 
  seq: 1655908
  stamp: 
    secs: 1561868825
    nsecs: 517518650
  frame_id: "ti_mmwave"
point_id: 0
x: 0.01171875
y: -0.0390625
z: -0.0078125
range: 0.0435769706964
velocity: 0.0
doppler_bin: 8
bearing: -73.3007583618
intensity: 30.6333332062
---
header: 
  seq: 1655909
  stamp: 
    secs: 1561868825
    nsecs: 517583475
  frame_id: "ti_mmwave"
point_id: 1
x: 0.017578125
y: -0.080078125
z: -0.0078125
range: 0.0871539413929
velocity: 0.0
doppler_bin: 8
bearing: -77.6192398071
intensity: 31.894903183
---
header: 
  seq: 1655910
  stamp: 
    secs: 1561868825
    nsecs: 517604001
  frame_id: "ti_mmwave"
point_id: 2
x: 0.029296875
y: -0.119140625
z: -0.005859375
range: 0.130730912089
velocity: 0.0
doppler_bin: 8
bearing: -76.1849746704
intensity: 30.1114730835
---
header: 
  seq: 1655911
  stamp: 
    secs: 1561868825
    nsecs: 517629589
  frame_id: "ti_mmwave"
point_id: 3
x: 0.056640625
y: -0.154296875
z: 0.005859375
range: 0.174307882786
velocity: 0.0
doppler_bin: 8
bearing: -69.8423843384
intensity: 25.4530715942
---
header: 
  seq: 1655912
  stamp: 
    secs: 1561868825
    nsecs: 517693582
  frame_id: "ti_mmwave"
point_id: 4
x: 0.177734375
y: -0.080078125
z: 1.25390625
range: 1.35088610649
velocity: 0.0
doppler_bin: 8
bearing: -24.2539196014
intensity: 23.1597042084
---
header: 
  seq: 1655913
  stamp: 
    secs: 1561868825
    nsecs: 517712298
  frame_id: "ti_mmwave"
point_id: 5
x: 0.076171875
y: -0.08203125
z: 1.3046875
range: 1.39446306229
velocity: 0.0
doppler_bin: 8
bearing: -47.1210975647
intensity: 24.6389293671
---
header: 
  seq: 1655914
  stamp: 
    secs: 1561868825
    nsecs: 517726731
  frame_id: "ti_mmwave"
point_id: 6
x: 0.384765625
y: -0.083984375
z: -1.291015625
range: 1.43804001808
velocity: 0.0
doppler_bin: 8
bearing: -12.3130636215
intensity: 23.0535144806
---
header: 
  seq: 1655915
  stamp: 
    secs: 1561868825
    nsecs: 517740611
  frame_id: "ti_mmwave"
point_id: 7
x: 1.66796875
y: 0.052734375
z: 0.169921875
range: 1.78665578365
velocity: 0.0
doppler_bin: 8
bearing: 1.81085586548
intensity: 28.9872512817
---
header: 
  seq: 1655916
  stamp: 
    secs: 1561868825
    nsecs: 517752589
  frame_id: "ti_mmwave"
point_id: 8
x: 1.7109375
y: 0.052734375
z: 0.146484375
range: 1.83023273945
velocity: 0.0
doppler_bin: 8
bearing: 1.765406847
intensity: 29.5664863586
---
header: 
  seq: 1655917
  stamp: 
    secs: 1561868825
    nsecs: 517805690
  frame_id: "ti_mmwave"
point_id: 9
x: 2.611328125
y: -0.17578125
z: 1.056640625
range: 3.00681090355
velocity: 0.0
doppler_bin: 8
bearing: -3.85104894638
intensity: 28.8252449036
---
header: 
  seq: 1655918
  stamp: 
    secs: 1561868825
    nsecs: 517822952
  frame_id: "ti_mmwave"
point_id: 10
x: 2.689453125
y: -0.08984375
z: 0.98046875
range: 3.05038785934
velocity: 0.0
doppler_bin: 8
bearing: -1.91330885887
intensity: 32.1112060547
---
header: 
  seq: 1655919
  stamp: 
    secs: 1561868825
    nsecs: 517837729
  frame_id: "ti_mmwave"
point_id: 11
x: 2.748046875
y: -0.08984375
z: 0.9375
range: 3.09396481514
velocity: 0.0
doppler_bin: 8
bearing: -1.8725425005
intensity: 31.0822658539
---
header: 
  seq: 1655920
  stamp: 
    secs: 1561868825
    nsecs: 517850832
  frame_id: "ti_mmwave"
point_id: 12
x: 4.3984375
y: -0.142578125
z: 1.115234375
range: 4.83704376221
velocity: 0.0
doppler_bin: 8
bearing: -1.8566287756
intensity: 28.9927310944
---
header: 
  seq: 1655921
  stamp: 
    secs: 1561868825
    nsecs: 517863525
  frame_id: "ti_mmwave"
point_id: 13
x: 4.416015625
y: -0.142578125
z: 1.212890625
range: 4.88062095642
velocity: 0.0
doppler_bin: 8
bearing: -1.84924340248
intensity: 32.4353408813
---
header: 
  seq: 1655922
  stamp: 
    secs: 1561868825
    nsecs: 517878828
  frame_id: "ti_mmwave"
point_id: 14
x: 4.45703125
y: -0.14453125
z: 1.216796875
range: 4.9241976738
velocity: 0.0
doppler_bin: 8
bearing: -1.8573192358
intensity: 32.0057678223
---
header: 
  seq: 1655923
  stamp: 
    secs: 1561868825
    nsecs: 517930386
  frame_id: "ti_mmwave"
point_id: 15
x: 4.822265625
y: -0.154296875
z: 0.90625
range: 5.22923660278
velocity: 0.0
doppler_bin: 8
bearing: -1.83265411854
intensity: 30.3901729584
---
header: 
  seq: 1655924
  stamp: 
    secs: 1561868825
    nsecs: 517946124
  frame_id: "ti_mmwave"
point_id: 16
x: 4.892578125
y: -0.30859375
z: 0.689453125
range: 5.27281332016
velocity: 0.0
doppler_bin: 8
bearing: -3.60908436775
intensity: 31.455072403
---
header: 
  seq: 1655925
  stamp: 
    secs: 1561868825
    nsecs: 517960357
  frame_id: "ti_mmwave"
point_id: 17
x: 4.96875
y: -0.46875
z: -0.08984375
range: 5.31639051437
velocity: 0.0
doppler_bin: 8
bearing: -5.38931179047
intensity: 29.6848297119
---
header: 
  seq: 1655926
  stamp: 
    secs: 1561868825
    nsecs: 517973165
  frame_id: "ti_mmwave"
point_id: 18
x: 1.7421875
y: 0.0546875
z: 0.234375
range: 1.87380969524
velocity: -0.614668667316
doppler_bin: 7
bearing: 1.79793179035
intensity: 27.3319721222
---
header: 
  seq: 1655927
  stamp: 
    secs: 1561868825
    nsecs: 517986660
  frame_id: "ti_mmwave"
point_id: 20
x: 0.041015625
y: -0.033203125
z: 0.0625
range: 0.0871539413929
velocity: 0.0
doppler_bin: 8
bearing: -38.9909973145
intensity: 30.0945091248
---
header: 
  seq: 1655928
  stamp: 
    secs: 1561868825
    nsecs: 518035817
  frame_id: "ti_mmwave"
point_id: 21
x: 0.046875
y: -0.046875
z: 0.103515625
range: 0.130730912089
velocity: 0.0
doppler_bin: 8
bearing: -45.0
intensity: 29.0091304779
---
header: 
  seq: 1655929
  stamp: 
    secs: 1561868825
    nsecs: 575985517
  frame_id: "ti_mmwave"
point_id: 0
x: 0.01171875
y: -0.0390625
z: -0.0078125
range: 0.0435769706964
velocity: 0.0
doppler_bin: 8
bearing: -73.3007583618
intensity: 30.6333332062
---
header: 
  seq: 1655930
  stamp: 
    secs: 1561868825
    nsecs: 576058595
  frame_id: "ti_mmwave"
point_id: 1
x: 0.017578125
y: -0.080078125
z: -0.0078125
range: 0.0871539413929
velocity: 0.0
doppler_bin: 8
bearing: -77.6192398071
intensity: 31.894903183
---
header: 
  seq: 1655931
  stamp: 
    secs: 1561868825
    nsecs: 576071342
  frame_id: "ti_mmwave"
point_id: 2
x: 0.029296875
y: -0.119140625
z: -0.005859375
range: 0.130730912089
velocity: 0.0
doppler_bin: 8
bearing: -76.1849746704
intensity: 30.1114730835
---
header: 
  seq: 1655932
  stamp: 
    secs: 1561868825
    nsecs: 576079816
  frame_id: "ti_mmwave"
point_id: 3
x: 0.056640625
y: -0.154296875
z: 0.0078125
range: 0.174307882786
velocity: 0.0
doppler_bin: 8
bearing: -69.8423843384
intensity: 25.4654273987
---
header: 
  seq: 1655933
  stamp: 
    secs: 1561868825
    nsecs: 576090485
  frame_id: "ti_mmwave"
point_id: 4
x: 0.162109375
y: -0.080078125
z: 1.255859375
range: 1.35088610649
velocity: 0.0
doppler_bin: 8
bearing: -26.2882633209
intensity: 23.1597042084
---
header: 
  seq: 1655934
  stamp: 
    secs: 1561868825
    nsecs: 576098772
  frame_id: "ti_mmwave"
point_id: 5
x: 0.138671875
y: -0.08203125
z: 1.298828125
range: 1.39446306229
velocity: 0.0
doppler_bin: 8
bearing: -30.6064052582
intensity: 24.6686763763
---
header: 
  seq: 1655935
  stamp: 
    secs: 1561868825
    nsecs: 576107030
  frame_id: "ti_mmwave"
point_id: 6
x: 0.359375
y: -0.083984375
z: -1.298828125
range: 1.43804001808
velocity: 0.0
doppler_bin: 8
bearing: -13.1537084579
intensity: 23.138671875
---
header: 
  seq: 1655936
  stamp: 
    secs: 1561868825
    nsecs: 576114981
  frame_id: "ti_mmwave"
point_id: 7
x: 1.66796875
y: 0.052734375
z: -0.16796875
range: 1.78665578365
velocity: 0.0
doppler_bin: 8
bearing: 1.81085586548
intensity: 30.8350257874
---
header: 
  seq: 1655937
  stamp: 
    secs: 1561868825
    nsecs: 576123016
  frame_id: "ti_mmwave"
point_id: 8
x: 1.7109375
y: 0.052734375
z: -0.150390625
range: 1.83023273945
velocity: 0.0
doppler_bin: 8
bearing: 1.765406847
intensity: 31.4332714081
---
header: 
  seq: 1655938
  stamp: 
    secs: 1561868825
    nsecs: 576131146
  frame_id: "ti_mmwave"
point_id: 9
x: 1.751953125
y: 0.109375
z: -0.123046875
range: 1.87380969524
velocity: 0.0
doppler_bin: 8
bearing: 3.57235765457
intensity: 28.5064620972
---
header: 
  seq: 1655939
  stamp: 
    secs: 1561868825
    nsecs: 576140887
  frame_id: "ti_mmwave"
point_id: 10
x: 2.59375
y: -0.17578125
z: 1.099609375
range: 3.00681090355
velocity: 0.0
doppler_bin: 8
bearing: -3.87706851959
intensity: 28.8761730194
---
header: 
  seq: 1655940
  stamp: 
    secs: 1561868825
    nsecs: 576150646
  frame_id: "ti_mmwave"
point_id: 11
x: 2.65234375
y: -0.1796875
z: 1.064453125
range: 3.05038785934
velocity: 0.0
doppler_bin: 8
bearing: -3.87567687035
intensity: 32.0817260742
---
header: 
  seq: 1655941
  stamp: 
    secs: 1561868825
    nsecs: 576159324
  frame_id: "ti_mmwave"
point_id: 12
x: 2.748046875
y: -0.08984375
z: 0.935546875
range: 3.09396481514
velocity: 0.0
doppler_bin: 8
bearing: -1.8725425005
intensity: 31.027765274
---
header: 
  seq: 1655942
  stamp: 
    secs: 1561868825
    nsecs: 576167905
  frame_id: "ti_mmwave"
point_id: 13
x: 4.412109375
y: -0.142578125
z: 1.224609375
range: 4.88062095642
velocity: 0.0
doppler_bin: 8
bearing: -1.85087943077
intensity: 30.2571544647
---
header: 
  seq: 1655943
  stamp: 
    secs: 1561868825
    nsecs: 576176495
  frame_id: "ti_mmwave"
point_id: 14
x: 4.43359375
y: -0.14453125
z: 1.296875
range: 4.9241976738
velocity: 0.0
doppler_bin: 8
bearing: -1.86713063717
intensity: 29.5568771362
---
header: 
  seq: 1655944
  stamp: 
    secs: 1561868825
    nsecs: 576338118
  frame_id: "ti_mmwave"
point_id: 15
x: 4.810546875
y: -0.154296875
z: 0.962890625
range: 5.22923660278
velocity: 0.0
doppler_bin: 8
bearing: -1.83711528778
intensity: 30.2653331757
---
header: 
  seq: 1655945
  stamp: 
    secs: 1561868825
    nsecs: 576357423
  frame_id: "ti_mmwave"
point_id: 16
x: 4.890625
y: -0.30859375
z: 0.69140625
range: 5.27281332016
velocity: 0.0
doppler_bin: 8
bearing: -3.61052203178
intensity: 31.7811317444
---
header: 
  seq: 1655946
  stamp: 
    secs: 1561868825
    nsecs: 576365803
  frame_id: "ti_mmwave"
point_id: 17
x: 4.951171875
y: -0.623046875
z: 0.080078125
range: 5.31639051437
velocity: 0.0
doppler_bin: 8
bearing: -7.17230129242
intensity: 30.1325874329
---
header: 
  seq: 1655947
  stamp: 
    secs: 1561868825
    nsecs: 576381120
  frame_id: "ti_mmwave"
point_id: 19
x: 0.041015625
y: -0.033203125
z: 0.0625
range: 0.0871539413929
velocity: 0.0
doppler_bin: 8
bearing: -38.9909973145
intensity: 30.0902576447
---
header: 
  seq: 1655948
  stamp: 
    secs: 1561868825
    nsecs: 576389225
  frame_id: "ti_mmwave"
point_id: 20
x: 0.044921875
y: -0.046875
z: 0.103515625
range: 0.130730912089
velocity: 0.0
doppler_bin: 8
bearing: -46.218875885
intensity: 29.0036716461
---
header: 
  seq: 1655949
  stamp: 
    secs: 1561868825
    nsecs: 577344217
  frame_id: "ti_mmwave"
point_id: 0
x: 0.01171875
y: -0.0390625
z: -0.0078125
range: 0.0435769706964
velocity: 0.0
doppler_bin: 8
bearing: -73.3007583618
intensity: 30.6370849609
---
header: 
  seq: 1655950
  stamp: 
    secs: 1561868825
    nsecs: 577399527
  frame_id: "ti_mmwave"
point_id: 1
x: 0.017578125
y: -0.080078125
z: -0.0078125
range: 0.0871539413929
velocity: 0.0
doppler_bin: 8
bearing: -77.6192398071
intensity: 31.894903183
---
header: 
  seq: 1655951
  stamp: 
    secs: 1561868825
    nsecs: 577418596
  frame_id: "ti_mmwave"
point_id: 2
x: 0.029296875
y: -0.119140625
z: -0.005859375
range: 0.130730912089
velocity: 0.0
doppler_bin: 8
bearing: -76.1849746704
intensity: 30.1114730835
---
header: 
  seq: 1655952
  stamp: 
    secs: 1561868825
    nsecs: 577433715
  frame_id: "ti_mmwave"
point_id: 3
x: 0.056640625
y: -0.154296875
z: 0.005859375
range: 0.174307882786
velocity: 0.0
doppler_bin: 8
bearing: -69.8423843384
intensity: 25.4406795502
---
header: 
  seq: 1655953
  stamp: 
    secs: 1561868825
    nsecs: 577449058
  frame_id: "ti_mmwave"
point_id: 4
x: 0.08984375
y: -0.080078125
z: 1.26171875
range: 1.35088610649
velocity: 0.0
doppler_bin: 8
bearing: -41.7107582092
intensity: 23.1175384521
---
header: 
  seq: 1655954
  stamp: 
    secs: 1561868825
    nsecs: 577464066
  frame_id: "ti_mmwave"
point_id: 6
x: 0.431640625
y: -0.083984375
z: -1.275390625
range: 1.43804001808
velocity: 0.0
doppler_bin: 8
bearing: -11.0104799271
intensity: 23.0963020325
---
header: 
  seq: 1655955
  stamp: 
    secs: 1561868825
    nsecs: 577556870
  frame_id: "ti_mmwave"
point_id: 7
x: 0.60546875
y: -0.04296875
z: -1.251953125
range: 1.48161697388
velocity: 0.0
doppler_bin: 8
bearing: -4.05934619904
intensity: 21.7026176453
---
header: 
  seq: 1655956
  stamp: 
    secs: 1561868825
    nsecs: 577573429
  frame_id: "ti_mmwave"
point_id: 8
x: 1.609375
y: -0.052734375
z: -0.466796875
range: 1.78665578365
velocity: 0.0
doppler_bin: 8
bearing: -1.8767387867
intensity: 26.7209777832
---
header: 
  seq: 1655957
  stamp: 
    secs: 1561868825
    nsecs: 577588836
  frame_id: "ti_mmwave"
point_id: 9
x: 1.6953125
y: -0.0
z: -0.2734375
range: 1.83023273945
velocity: 0.0
doppler_bin: 8
bearing: -0.0
intensity: 29.1645393372
---
header: 
  seq: 1655958
  stamp: 
    secs: 1561868825
    nsecs: 577604451
  frame_id: "ti_mmwave"
point_id: 10
x: 1.744140625
y: -0.0
z: -0.22265625
range: 1.87380969524
velocity: 0.0
doppler_bin: 8
bearing: -0.0
intensity: 28.0821094513
---
header: 
  seq: 1655959
  stamp: 
    secs: 1561868825
    nsecs: 577616757
  frame_id: "ti_mmwave"
point_id: 11
x: 2.640625
y: -0.087890625
z: 0.990234375
range: 3.00681090355
velocity: 0.0
doppler_bin: 8
bearing: -1.90633034706
intensity: 28.8874092102
---
header: 
  seq: 1655960
  stamp: 
    secs: 1561868825
    nsecs: 577630409
  frame_id: "ti_mmwave"
point_id: 12
x: 2.685546875
y: -0.08984375
z: 0.9921875
range: 3.05038785934
velocity: 0.0
doppler_bin: 8
bearing: -1.91608965397
intensity: 32.1351776123
---
header: 
  seq: 1655961
  stamp: 
    secs: 1561868825
    nsecs: 577645375
  frame_id: "ti_mmwave"
point_id: 13
x: 2.748046875
y: -0.08984375
z: 0.935546875
range: 3.09396481514
velocity: 0.0
doppler_bin: 8
bearing: -1.8725425005
intensity: 31.0788803101
---
header: 
  seq: 1655962
  stamp: 
    secs: 1561868825
    nsecs: 577659465
  frame_id: "ti_mmwave"
point_id: 14
x: 4.90625
y: -0.46484375
z: 0.453125
range: 5.27281332016
velocity: 0.0
doppler_bin: 8
bearing: -5.41234540939
intensity: 30.2857131958
---
header: 
  seq: 1655963
  stamp: 
    secs: 1561868825
    nsecs: 577669245
  frame_id: "ti_mmwave"
point_id: 15
x: 4.94921875
y: -0.623046875
z: -0.14453125
range: 5.31639051437
velocity: 0.0
doppler_bin: 8
bearing: -7.17510271072
intensity: 29.339931488
---
header: 
  seq: 1655964
  stamp: 
    secs: 1561868825
    nsecs: 577722620
  frame_id: "ti_mmwave"
point_id: 16
x: 1.81640625
y: -0.23046875
z: 0.197265625
range: 1.96096372604
velocity: -0.614668667316
doppler_bin: 7
bearing: -7.23114776611
intensity: 25.490032196
---
header: 
  seq: 1655965
  stamp: 
    secs: 1561868825
    nsecs: 577753447
  frame_id: "ti_mmwave"
point_id: 18
x: 0.041015625
y: -0.033203125
z: 0.0625
range: 0.0871539413929
velocity: 0.0
doppler_bin: 8
bearing: -38.9909973145
intensity: 30.0902576447
---
header: 
  seq: 1655966
  stamp: 
    secs: 1561868825
    nsecs: 577844825
  frame_id: "ti_mmwave"
point_id: 19
x: 0.044921875
y: -0.046875
z: 0.103515625
range: 0.130730912089
velocity: 0.0
doppler_bin: 8
bearing: -46.218875885
intensity: 29.0036716461
---
header: 
  seq: 1655967
  stamp: 
    secs: 1561868825
    nsecs: 636148615
  frame_id: "ti_mmwave"
point_id: 0
x: 0.01171875
y: -0.0390625
z: -0.0078125
range: 0.0435769706964
velocity: 0.0
doppler_bin: 8
bearing: -73.3007583618
intensity: 30.6370849609
---
header: 
  seq: 1655968
  stamp: 
    secs: 1561868825
    nsecs: 636236618
  frame_id: "ti_mmwave"
point_id: 1
x: 0.017578125
y: -0.080078125
z: -0.0078125
range: 0.0871539413929
velocity: 0.0
doppler_bin: 8
bearing: -77.6192398071
intensity: 31.894903183
---
header: 
  seq: 1655969
  stamp: 
    secs: 1561868825
    nsecs: 636250160
  frame_id: "ti_mmwave"
point_id: 2
x: 0.029296875
y: -0.119140625
z: -0.005859375
range: 0.130730912089
velocity: 0.0
doppler_bin: 8
bearing: -76.1849746704
intensity: 30.1114730835
---
header: 
  seq: 1655970
  stamp: 
    secs: 1561868825
    nsecs: 636259278
  frame_id: "ti_mmwave"
point_id: 3
x: 0.056640625
y: -0.154296875
z: 0.005859375
range: 0.174307882786
velocity: 0.0
doppler_bin: 8
bearing: -69.8423843384
intensity: 25.4406795502
---
header: 
  seq: 1655971
  stamp: 
    secs: 1561868825
    nsecs: 636272418
  frame_id: "ti_mmwave"
point_id: 5
x: 0.1015625
y: -0.08203125
z: -1.302734375
range: 1.39446306229
velocity: 0.0
doppler_bin: 8
bearing: -38.9275436401
intensity: 24.6089782715
---
header: 
  seq: 1655972
  stamp: 
    secs: 1561868825
    nsecs: 636282284
  frame_id: "ti_mmwave"
point_id: 6
x: 0.462890625
y: -0.083984375
z: -1.265625
range: 1.43804001808
velocity: 0.0
doppler_bin: 8
bearing: -10.2835702896
intensity: 23.031961441
---
header: 
  seq: 1655973
  stamp: 
    secs: 1561868825
    nsecs: 636292994
  frame_id: "ti_mmwave"
point_id: 7
x: 0.587890625
y: -0.04296875
z: -1.259765625
range: 1.48161697388
velocity: 0.0
doppler_bin: 8
bearing: -4.1802983284
intensity: 21.6731739044
---
header: 
  seq: 1655974
  stamp: 
    secs: 1561868825
    nsecs: 636301929
  frame_id: "ti_mmwave"
point_id: 8
x: 1.626953125
y: 0.052734375
z: -0.400390625
range: 1.78665578365
velocity: 0.0
doppler_bin: 8
bearing: 1.85647618771
intensity: 27.5358314514
---
header: 
  seq: 1655975
  stamp: 
    secs: 1561868825
    nsecs: 636310494
  frame_id: "ti_mmwave"
point_id: 9
x: 1.666015625
y: 0.052734375
z: -0.416015625
range: 1.83023273945
velocity: 0.0
doppler_bin: 8
bearing: 1.8129774332
intensity: 29.7081165314
---
header: 
  seq: 1655976
  stamp: 
    secs: 1561868825
    nsecs: 636486172
  frame_id: "ti_mmwave"
point_id: 10
x: 1.712890625
y: 0.109375
z: -0.388671875
range: 1.87380969524
velocity: 0.0
doppler_bin: 8
bearing: 3.65360689163
intensity: 28.2347431183
---
header: 
  seq: 1655977
  stamp: 
    secs: 1561868825
    nsecs: 636505672
  frame_id: "ti_mmwave"
point_id: 11
x: 2.6015625
y: -0.17578125
z: 1.078125
range: 3.00681090355
velocity: 0.0
doppler_bin: 8
bearing: -3.86546111107
intensity: 28.9486961365
---
header: 
  seq: 1655978
  stamp: 
    secs: 1561868825
    nsecs: 636514334
  frame_id: "ti_mmwave"
point_id: 12
x: 2.65625
y: -0.1796875
z: 1.0546875
range: 3.05038785934
velocity: 0.0
doppler_bin: 8
bearing: -3.86999511719
intensity: 32.1165428162
---
header: 
  seq: 1655979
  stamp: 
    secs: 1561868825
    nsecs: 636524815
  frame_id: "ti_mmwave"
point_id: 13
x: 2.75
y: -0.08984375
z: 0.931640625
range: 3.09396481514
velocity: 0.0
doppler_bin: 8
bearing: -1.87121355534
intensity: 31.172712326
---
header: 
  seq: 1655980
  stamp: 
    secs: 1561868825
    nsecs: 636535081
  frame_id: "ti_mmwave"
point_id: 14
x: 4.916015625
y: -0.46484375
z: 0.345703125
range: 5.27281332016
velocity: 0.0
doppler_bin: 8
bearing: -5.40165662766
intensity: 30.1367969513
---
header: 
  seq: 1655981
  stamp: 
    secs: 1561868825
    nsecs: 636545409
  frame_id: "ti_mmwave"
point_id: 16
x: 0.041015625
y: -0.033203125
z: 0.0625
range: 0.0871539413929
velocity: 0.0
doppler_bin: 8
bearing: -38.9909973145
intensity: 30.0902576447
---
header: 
  seq: 1655982
  stamp: 
    secs: 1561868825
    nsecs: 636554550
  frame_id: "ti_mmwave"
point_id: 17
x: 0.044921875
y: -0.046875
z: 0.103515625
range: 0.130730912089
velocity: 0.0
doppler_bin: 8
bearing: -46.218875885
intensity: 29.0036716461
---
header: 
  seq: 1655983
  stamp: 
    secs: 1561868825
    nsecs: 637343612
  frame_id: "ti_mmwave"
point_id: 0
x: 0.01171875
y: -0.0390625
z: -0.0078125
range: 0.0435769706964
velocity: 0.0
doppler_bin: 8
bearing: -73.3007583618
intensity: 30.6333332062
---
header: 
  seq: 1655984
  stamp: 
    secs: 1561868825
    nsecs: 637452643
  frame_id: "ti_mmwave"
point_id: 1
x: 0.017578125
y: -0.080078125
z: -0.0078125
range: 0.0871539413929
velocity: 0.0
doppler_bin: 8
bearing: -77.6192398071
intensity: 31.894903183
---
header: 
  seq: 1655985
  stamp: 
    secs: 1561868825
    nsecs: 637469202
  frame_id: "ti_mmwave"
point_id: 2
x: 0.029296875
y: -0.119140625
z: -0.005859375
range: 0.130730912089
velocity: 0.0
doppler_bin: 8
bearing: -76.1849746704
intensity: 30.1114730835
---
header: 
  seq: 1655986
  stamp: 
    secs: 1561868825
    nsecs: 637480001
  frame_id: "ti_mmwave"
point_id: 3
x: 0.056640625
y: -0.154296875
z: 0.0078125
range: 0.174307882786
velocity: 0.0
doppler_bin: 8
bearing: -69.8423843384
intensity: 25.4530715942
---
header: 
  seq: 1655987
  stamp: 
    secs: 1561868825
    nsecs: 637497527
  frame_id: "ti_mmwave"
point_id: 4
x: 0.140625
y: -0.080078125
z: 1.2578125
range: 1.35088610649
velocity: 0.0
doppler_bin: 8
bearing: -29.6591091156
intensity: 23.138671875
---
header: 
  seq: 1655988
  stamp: 
    secs: 1561868825
    nsecs: 637512603
  frame_id: "ti_mmwave"
point_id: 5
x: 0.095703125
y: -0.08203125
z: 1.302734375
range: 1.39446306229
velocity: 0.0
doppler_bin: 8
bearing: -40.6012954712
intensity: 24.6239795685
---
header: 
  seq: 1655989
  stamp: 
    secs: 1561868825
    nsecs: 637525499
  frame_id: "ti_mmwave"
point_id: 6
x: 0.369140625
y: -0.083984375
z: -1.294921875
range: 1.43804001808
velocity: 0.0
doppler_bin: 8
bearing: -12.8173685074
intensity: 23.0535144806
---
header: 
  seq: 1655990
  stamp: 
    secs: 1561868825
    nsecs: 637538697
  frame_id: "ti_mmwave"
point_id: 7
x: 0.5234375
y: -0.04296875
z: -1.287109375
range: 1.48161697388
velocity: 0.0
doppler_bin: 8
bearing: -4.69286251068
intensity: 21.7026176453
---
header: 
  seq: 1655991
  stamp: 
    secs: 1561868825
    nsecs: 637552973
  frame_id: "ti_mmwave"
point_id: 8
x: 1.6640625
y: -0.0
z: -0.20703125
range: 1.78665578365
velocity: 0.0
doppler_bin: 8
bearing: -0.0
intensity: 30.6069774628
---
header: 
  seq: 1655992
  stamp: 
    secs: 1561868825
    nsecs: 637571402
  frame_id: "ti_mmwave"
point_id: 9
x: 1.703125
y: -0.0
z: -0.2265625
range: 1.83023273945
velocity: 0.0
doppler_bin: 8
bearing: -0.0
intensity: 31.1327476501
---
header: 
  seq: 1655993
  stamp: 
    secs: 1561868825
    nsecs: 637591543
  frame_id: "ti_mmwave"
point_id: 10
x: 1.748046875
y: -0.0
z: -0.1953125
range: 1.87380969524
velocity: 0.0
doppler_bin: 8
bearing: -0.0
intensity: 28.1090431213
---
header: 
  seq: 1655994
  stamp: 
    secs: 1561868825
    nsecs: 637687518
  frame_id: "ti_mmwave"
point_id: 11
x: 2.6171875
y: -0.17578125
z: 1.04296875
range: 3.00681090355
velocity: 0.0
doppler_bin: 8
bearing: -3.84245300293
intensity: 28.9542255402
---
header: 
  seq: 1655995
  stamp: 
    secs: 1561868825
    nsecs: 637704130
  frame_id: "ti_mmwave"
point_id: 12
x: 2.69140625
y: -0.08984375
z: 0.97265625
range: 3.05038785934
velocity: 0.0
doppler_bin: 8
bearing: -1.91192126274
intensity: 32.1827278137
---
header: 
  seq: 1655996
  stamp: 
    secs: 1561868825
    nsecs: 637716322
  frame_id: "ti_mmwave"
point_id: 13
x: 2.7734375
y: -0.0
z: 0.859375
range: 3.09396481514
velocity: 0.0
doppler_bin: 8
bearing: -0.0
intensity: 31.1394329071
---
header: 
  seq: 1655997
  stamp: 
    secs: 1561868825
    nsecs: 637728017
  frame_id: "ti_mmwave"
point_id: 14
x: 4.8046875
y: -0.154296875
z: 0.994140625
range: 5.22923660278
velocity: 0.0
doppler_bin: 8
bearing: -1.83935415745
intensity: 31.0105934143
---
header: 
  seq: 1655998
  stamp: 
    secs: 1561868825
    nsecs: 637740731
  frame_id: "ti_mmwave"
point_id: 15
x: 4.876953125
y: -0.30859375
z: 0.787109375
range: 5.27281332016
velocity: 0.0
doppler_bin: 8
bearing: -3.62061715126
intensity: 32.4029960632
---
header: 
  seq: 1655999
  stamp: 
    secs: 1561868825
    nsecs: 637752986
  frame_id: "ti_mmwave"
point_id: 16
x: 4.96484375
y: -0.46875
z: 0.203125
range: 5.31639051437
velocity: 0.0
doppler_bin: 8
bearing: -5.39352655411
intensity: 30.3382568359
---
header: 
  seq: 1656000
  stamp: 
    secs: 1561868825
    nsecs: 637766397
  frame_id: "ti_mmwave"
point_id: 17
x: 1.796875
y: -0.056640625
z: 0.072265625
range: 1.91738677025
velocity: -0.614668667316
doppler_bin: 7
bearing: -1.80546462536
intensity: 24.9276046753
---
header: 
  seq: 1656001
  stamp: 
    secs: 1561868825
    nsecs: 637781082
  frame_id: "ti_mmwave"
point_id: 19
x: 0.041015625
y: -0.033203125
z: 0.0625
range: 0.0871539413929
velocity: 0.0
doppler_bin: 8
bearing: -38.9909973145
intensity: 30.0860023499
---
header: 
  seq: 1656002
  stamp: 
    secs: 1561868825
    nsecs: 637794300
  frame_id: "ti_mmwave"
point_id: 20
x: 0.044921875
y: -0.046875
z: 0.103515625
range: 0.130730912089
velocity: 0.0
doppler_bin: 8
bearing: -46.218875885
intensity: 28.9982051849
---
header: 
  seq: 1656003
  stamp: 
    secs: 1561868825
    nsecs: 696064094
  frame_id: "ti_mmwave"
point_id: 0
x: 0.01171875
y: -0.0390625
z: -0.0078125
range: 0.0435769706964
velocity: 0.0
doppler_bin: 8
bearing: -73.3007583618
intensity: 30.6333332062
---
header: 
  seq: 1656004
  stamp: 
    secs: 1561868825
    nsecs: 696137042
  frame_id: "ti_mmwave"
point_id: 1
x: 0.017578125
y: -0.080078125
z: -0.0078125
range: 0.0871539413929
velocity: 0.0
doppler_bin: 8
bearing: -77.6192398071
intensity: 31.894903183
---
header: 
  seq: 1656005
  stamp: 
    secs: 1561868825
    nsecs: 696147935
  frame_id: "ti_mmwave"
point_id: 2
x: 0.029296875
y: -0.119140625
z: -0.005859375
range: 0.130730912089
velocity: 0.0
doppler_bin: 8
bearing: -76.1849746704
intensity: 30.1114730835
---
header: 
  seq: 1656006
  stamp: 
    secs: 1561868825
    nsecs: 696158310
  frame_id: "ti_mmwave"
point_id: 3
x: 0.056640625
y: -0.154296875
z: 0.005859375
range: 0.174307882786
velocity: 0.0
doppler_bin: 8
bearing: -69.8423843384
intensity: 25.4530715942
---
header: 
  seq: 1656007
  stamp: 
    secs: 1561868825
    nsecs: 696167424
  frame_id: "ti_mmwave"
point_id: 4
x: 0.171875
y: -0.080078125
z: 1.25390625
range: 1.35088610649
velocity: 0.0
doppler_bin: 8
bearing: -24.9812393188
intensity: 23.0963020325
---
header: 
  seq: 1656008
  stamp: 
    secs: 1561868825
    nsecs: 696176707
  frame_id: "ti_mmwave"
point_id: 5
x: 0.111328125
y: -0.08203125
z: 1.30078125
range: 1.39446306229
velocity: 0.0
doppler_bin: 8
bearing: -36.3843536377
intensity: 24.6389293671
---
header: 
  seq: 1656009
  stamp: 
    secs: 1561868825
    nsecs: 696184946
  frame_id: "ti_mmwave"
point_id: 6
x: 0.38671875
y: -0.083984375
z: -1.291015625
range: 1.43804001808
velocity: 0.0
doppler_bin: 8
bearing: -12.2527589798
intensity: 23.138671875
---
header: 
  seq: 1656010
  stamp: 
    secs: 1561868825
    nsecs: 696193570
  frame_id: "ti_mmwave"
point_id: 7
x: 0.546875
y: -0.04296875
z: -1.279296875
range: 1.48161697388
velocity: 0.0
doppler_bin: 8
bearing: -4.49258184433
intensity: 21.7609119415
---
header: 
  seq: 1656011
  stamp: 
    secs: 1561868825
    nsecs: 696207095
  frame_id: "ti_mmwave"
point_id: 8
x: 1.66796875
y: 0.10546875
z: -0.12890625
range: 1.78665578365
velocity: 0.0
doppler_bin: 8
bearing: 3.61810112
intensity: 28.7852172852
---
header: 
  seq: 1656012
  stamp: 
    secs: 1561868825
    nsecs: 696374912
  frame_id: "ti_mmwave"
point_id: 9
x: 1.7109375
y: 0.052734375
z: -0.154296875
range: 1.83023273945
velocity: 0.0
doppler_bin: 8
bearing: 1.765406847
intensity: 28.7966918945
---
header: 
  seq: 1656013
  stamp: 
    secs: 1561868825
    nsecs: 696403636
  frame_id: "ti_mmwave"
point_id: 10
x: 2.623046875
y: -0.17578125
z: 1.029296875
range: 3.00681090355
velocity: 0.0
doppler_bin: 8
bearing: -3.83389568329
intensity: 28.9982051849
---
header: 
  seq: 1656014
  stamp: 
    secs: 1561868825
    nsecs: 696417116
  frame_id: "ti_mmwave"
point_id: 11
x: 2.689453125
y: -0.08984375
z: 0.98046875
range: 3.05038785934
velocity: 0.0
doppler_bin: 8
bearing: -1.91330885887
intensity: 32.129863739
---
header: 
  seq: 1656015
  stamp: 
    secs: 1561868825
    nsecs: 696429489
  frame_id: "ti_mmwave"
point_id: 12
x: 2.748046875
y: -0.08984375
z: 0.93359375
range: 3.09396481514
velocity: 0.0
doppler_bin: 8
bearing: -1.8725425005
intensity: 31.1925582886
---
header: 
  seq: 1656016
  stamp: 
    secs: 1561868825
    nsecs: 696445741
  frame_id: "ti_mmwave"
point_id: 13
x: 4.390625
y: -0.0
z: 1.158203125
range: 4.83704376221
velocity: 0.0
doppler_bin: 8
bearing: -0.0
intensity: 29.484128952
---
header: 
  seq: 1656017
  stamp: 
    secs: 1561868825
    nsecs: 696494834
  frame_id: "ti_mmwave"
point_id: 14
x: 4.40625
y: -0.142578125
z: 1.25
range: 4.88062095642
velocity: 0.0
doppler_bin: 8
bearing: -1.85333895683
intensity: 32.8555717468
---
header: 
  seq: 1656018
  stamp: 
    secs: 1561868825
    nsecs: 696509038
  frame_id: "ti_mmwave"
point_id: 15
x: 4.4453125
y: -0.0
z: 1.26953125
range: 4.9241976738
velocity: 0.0
doppler_bin: 8
bearing: -0.0
intensity: 32.3451728821
---
header: 
  seq: 1656019
  stamp: 
    secs: 1561868825
    nsecs: 696524389
  frame_id: "ti_mmwave"
point_id: 16
x: 4.794921875
y: -0.154296875
z: 1.0390625
range: 5.22923660278
velocity: 0.0
doppler_bin: 8
bearing: -1.84309768677
intensity: 30.7151374817
---
header: 
  seq: 1656020
  stamp: 
    secs: 1561868825
    nsecs: 696538742
  frame_id: "ti_mmwave"
point_id: 17
x: 4.884765625
y: -0.154296875
z: 0.7890625
range: 5.27281332016
velocity: 0.0
doppler_bin: 8
bearing: -1.8092212677
intensity: 32.0628585815
---
header: 
  seq: 1656021
  stamp: 
    secs: 1561868825
    nsecs: 696550869
  frame_id: "ti_mmwave"
point_id: 18
x: 4.96875
y: -0.46875
z: 0.068359375
range: 5.31639051437
velocity: 0.0
doppler_bin: 8
bearing: -5.38931179047
intensity: 30.2242832184
---
header: 
  seq: 1656022
  stamp: 
    secs: 1561868825
    nsecs: 696565274
  frame_id: "ti_mmwave"
point_id: 20
x: 0.041015625
y: -0.033203125
z: 0.0625
range: 0.0871539413929
velocity: 0.0
doppler_bin: 8
bearing: -38.9909973145
intensity: 30.0902576447
---
header: 
  seq: 1656023
  stamp: 
    secs: 1561868825
    nsecs: 696573886
  frame_id: "ti_mmwave"
point_id: 21
x: 0.044921875
y: -0.046875
z: 0.103515625
range: 0.130730912089
velocity: 0.0
doppler_bin: 8
bearing: -46.218875885
intensity: 29.0036716461
---
header: 
  seq: 1656024
  stamp: 
    secs: 1561868825
    nsecs: 696743612
  frame_id: "ti_mmwave"
point_id: 23
x: 4.37890625
y: -0.283203125
z: 1.166015625
range: 4.83704376221
velocity: 0.0
doppler_bin: 8
bearing: -3.70041632652
intensity: 29.4792366028
---
header: 
  seq: 1656025
  stamp: 
    secs: 1561868825
    nsecs: 755886756
  frame_id: "ti_mmwave"
point_id: 0
x: 0.01171875
y: -0.0390625
z: -0.0078125
range: 0.0435769706964
velocity: 0.0
doppler_bin: 8
bearing: -73.3007583618
intensity: 30.6333332062
---
header: 
  seq: 1656026
  stamp: 
    secs: 1561868825
    nsecs: 756005625
  frame_id: "ti_mmwave"
point_id: 1
x: 0.017578125
y: -0.080078125
z: -0.0078125
range: 0.0871539413929
velocity: 0.0
doppler_bin: 8
bearing: -77.6192398071
intensity: 31.894903183
---
header: 
  seq: 1656027
  stamp: 
    secs: 1561868825
    nsecs: 756021798
  frame_id: "ti_mmwave"
point_id: 2
x: 0.029296875
y: -0.119140625
z: -0.005859375
range: 0.130730912089
velocity: 0.0
doppler_bin: 8
bearing: -76.1849746704
intensity: 30.1114730835
---
header: 
  seq: 1656028
  stamp: 
    secs: 1561868825
    nsecs: 756031205
  frame_id: "ti_mmwave"
point_id: 3
x: 0.056640625
y: -0.154296875
z: 0.005859375
range: 0.174307882786
velocity: 0.0
doppler_bin: 8
bearing: -69.8423843384
intensity: 25.4530715942
---
header: 
  seq: 1656029
  stamp: 
    secs: 1561868825
    nsecs: 756040377
  frame_id: "ti_mmwave"
point_id: 4
x: 0.12109375
y: -0.080078125
z: 1.259765625
range: 1.35088610649
velocity: 0.0
doppler_bin: 8
bearing: -33.4762802124
intensity: 23.1175384521
---
header: 
  seq: 1656030
  stamp: 
    secs: 1561868825
    nsecs: 756048630
  frame_id: "ti_mmwave"
point_id: 5
x: 0.021484375
y: -0.08203125
z: -1.306640625
range: 1.39446306229
velocity: 0.0
doppler_bin: 8
bearing: -75.3236083984
intensity: 24.6389293671
---
header: 
  seq: 1656031
  stamp: 
    secs: 1561868825
    nsecs: 756057175
  frame_id: "ti_mmwave"
point_id: 6
x: 0.43359375
y: -0.083984375
z: -1.275390625
range: 1.43804001808
velocity: 0.0
doppler_bin: 8
bearing: -10.9620876312
intensity: 23.138671875
---
header: 
  seq: 1656032
  stamp: 
    secs: 1561868825
    nsecs: 756065434
  frame_id: "ti_mmwave"
point_id: 7
x: 0.587890625
y: -0.04296875
z: -1.259765625
range: 1.48161697388
velocity: 0.0
doppler_bin: 8
bearing: -4.1802983284
intensity: 21.7318630219
---
header: 
  seq: 1656033
  stamp: 
    secs: 1561868825
    nsecs: 756075245
  frame_id: "ti_mmwave"
point_id: 8
x: 1.619140625
y: -0.0
z: -0.2421875
range: 1.74307882786
velocity: 0.0
doppler_bin: 8
bearing: -0.0
intensity: 30.3782482147
---
header: 
  seq: 1656034
  stamp: 
    secs: 1561868825
    nsecs: 756084156
  frame_id: "ti_mmwave"
point_id: 9
x: 1.6640625
y: 0.052734375
z: -0.20703125
range: 1.78665578365
velocity: 0.0
doppler_bin: 8
bearing: 1.8151037693
intensity: 33.9304847717
---
header: 
  seq: 1656035
  stamp: 
    secs: 1561868825
    nsecs: 756094091
  frame_id: "ti_mmwave"
point_id: 10
x: 1.70703125
y: 0.052734375
z: -0.177734375
range: 1.83023273945
velocity: 0.0
doppler_bin: 8
bearing: 1.76944422722
intensity: 33.8201713562
---
header: 
  seq: 1656036
  stamp: 
    secs: 1561868825
    nsecs: 756112558
  frame_id: "ti_mmwave"
point_id: 11
x: 1.751953125
y: 0.109375
z: -0.109375
range: 1.87380969524
velocity: 0.0
doppler_bin: 8
bearing: 3.57235765457
intensity: 30.7298469543
---
header: 
  seq: 1656037
  stamp: 
    secs: 1561868825
    nsecs: 756120809
  frame_id: "ti_mmwave"
point_id: 12
x: 1.78515625
y: 0.224609375
z: 0.0703125
range: 1.91738677025
velocity: 0.0
doppler_bin: 8
bearing: 7.17130327225
intensity: 26.812412262
---
header: 
  seq: 1656038
  stamp: 
    secs: 1561868825
    nsecs: 756134081
  frame_id: "ti_mmwave"
point_id: 13
x: 2.625
y: -0.17578125
z: 1.021484375
range: 3.00681090355
velocity: 0.0
doppler_bin: 8
bearing: -3.83105134964
intensity: 28.9486961365
---
header: 
  seq: 1656039
  stamp: 
    secs: 1561868825
    nsecs: 756147129
  frame_id: "ti_mmwave"
point_id: 14
x: 2.697265625
y: -0.08984375
z: 0.95703125
range: 3.05038785934
velocity: 0.0
doppler_bin: 8
bearing: -1.90777087212
intensity: 32.1958465576
---
header: 
  seq: 1656040
  stamp: 
    secs: 1561868825
    nsecs: 756161821
  frame_id: "ti_mmwave"
point_id: 15
x: 2.76171875
y: -0.08984375
z: 0.890625
range: 3.09396481514
velocity: 0.0
doppler_bin: 8
bearing: -1.86327898502
intensity: 31.1892566681
---
header: 
  seq: 1656041
  stamp: 
    secs: 1561868825
    nsecs: 756175518
  frame_id: "ti_mmwave"
point_id: 16
x: 4.38671875
y: -0.142578125
z: 1.166015625
range: 4.83704376221
velocity: 0.0
doppler_bin: 8
bearing: -1.86158514023
intensity: 29.2737045288
---
header: 
  seq: 1656042
  stamp: 
    secs: 1561868825
    nsecs: 756188940
  frame_id: "ti_mmwave"
point_id: 17
x: 4.412109375
y: -0.142578125
z: 1.2265625
range: 4.88062095642
velocity: 0.0
doppler_bin: 8
bearing: -1.85087943077
intensity: 32.5599555969
---
header: 
  seq: 1656043
  stamp: 
    secs: 1561868825
    nsecs: 756199789
  frame_id: "ti_mmwave"
point_id: 18
x: 4.4453125
y: -0.14453125
z: 1.259765625
range: 4.9241976738
velocity: 0.0
doppler_bin: 8
bearing: -1.86221218109
intensity: 32.0844154358
---
header: 
  seq: 1656044
  stamp: 
    secs: 1561868825
    nsecs: 756365487
  frame_id: "ti_mmwave"
point_id: 19
x: 4.8046875
y: -0.154296875
z: 0.998046875
range: 5.22923660278
velocity: 0.0
doppler_bin: 8
bearing: -1.83935415745
intensity: 30.4453983307
---
header: 
  seq: 1656045
  stamp: 
    secs: 1561868825
    nsecs: 756384946
  frame_id: "ti_mmwave"
point_id: 20
x: 4.890625
y: -0.30859375
z: 0.701171875
range: 5.27281332016
velocity: 0.0
doppler_bin: 8
bearing: -3.61052203178
intensity: 31.9061183929
---
header: 
  seq: 1656046
  stamp: 
    secs: 1561868825
    nsecs: 756393572
  frame_id: "ti_mmwave"
point_id: 21
x: 4.96875
y: -0.46875
z: 0.001953125
range: 5.31639051437
velocity: 0.0
doppler_bin: 8
bearing: -5.38931179047
intensity: 29.986951828
---
header: 
  seq: 1656047
  stamp: 
    secs: 1561868825
    nsecs: 756409492
  frame_id: "ti_mmwave"
point_id: 23
x: 0.041015625
y: -0.033203125
z: 0.0625
range: 0.0871539413929
velocity: 0.0
doppler_bin: 8
bearing: -38.9909973145
intensity: 30.0902576447
---
header: 
  seq: 1656048
  stamp: 
    secs: 1561868825
    nsecs: 756417513
  frame_id: "ti_mmwave"
point_id: 24
x: 0.044921875
y: -0.046875
z: 0.103515625
range: 0.130730912089
velocity: 0.0
doppler_bin: 8
bearing: -46.218875885
intensity: 29.0036716461
---
header: 
  seq: 1656049
  stamp: 
    secs: 1561868825
    nsecs: 757355745
  frame_id: "ti_mmwave"
point_id: 0
x: 0.01171875
y: -0.0390625
z: -0.0078125
range: 0.0435769706964
velocity: 0.0
doppler_bin: 8
bearing: -73.3007583618
intensity: 30.6333332062
---
header: 
  seq: 1656050
  stamp: 
    secs: 1561868825
    nsecs: 757413631
  frame_id: "ti_mmwave"
point_id: 1
x: 0.017578125
y: -0.080078125
z: -0.0078125
range: 0.0871539413929
velocity: 0.0
doppler_bin: 8
bearing: -77.6192398071
intensity: 31.894903183
---
header: 
  seq: 1656051
  stamp: 
    secs: 1561868825
    nsecs: 757431971
  frame_id: "ti_mmwave"
point_id: 2
x: 0.029296875
y: -0.119140625
z: -0.005859375
range: 0.130730912089
velocity: 0.0
doppler_bin: 8
bearing: -76.1849746704
intensity: 30.1114730835
---
header: 
  seq: 1656052
  stamp: 
    secs: 1561868825
    nsecs: 757484605
  frame_id: "ti_mmwave"
point_id: 3
x: 0.056640625
y: -0.154296875
z: 0.005859375
range: 0.174307882786
velocity: 0.0
doppler_bin: 8
bearing: -69.8423843384
intensity: 25.4406795502
---
header: 
  seq: 1656053
  stamp: 
    secs: 1561868825
    nsecs: 757502054
  frame_id: "ti_mmwave"
point_id: 4
x: 0.134765625
y: -0.080078125
z: 1.2578125
range: 1.35088610649
velocity: 0.0
doppler_bin: 8
bearing: -30.7189025879
intensity: 23.138671875
---
header: 
  seq: 1656054
  stamp: 
    secs: 1561868825
    nsecs: 757518728
  frame_id: "ti_mmwave"
point_id: 5
x: 0.083984375
y: -0.08203125
z: 1.3046875
range: 1.39446306229
velocity: 0.0
doppler_bin: 8
bearing: -44.3259658813
intensity: 24.6538276672
---
header: 
  seq: 1656055
  stamp: 
    secs: 1561868825
    nsecs: 757562013
  frame_id: "ti_mmwave"
point_id: 6
x: 0.400390625
y: -0.083984375
z: -1.287109375
range: 1.43804001808
velocity: 0.0
doppler_bin: 8
bearing: -11.8463935852
intensity: 23.1175384521
---
header: 
  seq: 1656056
  stamp: 
    secs: 1561868825
    nsecs: 757572401
  frame_id: "ti_mmwave"
point_id: 7
x: 0.5703125
y: -0.04296875
z: -1.267578125
range: 1.48161697388
