header: 
  seq: 1521050
  stamp: 
    secs: 1561865853
    nsecs: 297622635
  frame_id: "ti_mmwave"
point_id: 0
x: 0.01171875
y: -0.0390625
z: -0.0078125
range: 0.0435769706964
velocity: 0.0
doppler_bin: 8
bearing: -73.3007583618
intensity: 30.6370849609
---
header: 
  seq: 1521051
  stamp: 
    secs: 1561865853
    nsecs: 297699594
  frame_id: "ti_mmwave"
point_id: 1
x: 0.017578125
y: -0.080078125
z: -0.0078125
range: 0.0871539413929
velocity: 0.0
doppler_bin: 8
bearing: -77.6192398071
intensity: 31.8977088928
---
header: 
  seq: 1521052
  stamp: 
    secs: 1561865853
    nsecs: 297710446
  frame_id: "ti_mmwave"
point_id: 2
x: 0.029296875
y: -0.119140625
z: -0.005859375
range: 0.130730912089
velocity: 0.0
doppler_bin: 8
bearing: -76.1849746704
intensity: 30.1325874329
---
header: 
  seq: 1521053
  stamp: 
    secs: 1561865853
    nsecs: 297718832
  frame_id: "ti_mmwave"
point_id: 3
x: 0.056640625
y: -0.154296875
z: 0.005859375
range: 0.174307882786
velocity: 0.0
doppler_bin: 8
bearing: -69.8423843384
intensity: 25.4406795502
---
header: 
  seq: 1521054
  stamp: 
    secs: 1561865853
    nsecs: 297727141
  frame_id: "ti_mmwave"
point_id: 4
x: 1.1015625
y: -0.0
z: 0.091796875
range: 1.1765781641
velocity: 0.0
doppler_bin: 8
bearing: -0.0
intensity: 25.9106464386
---
header: 
  seq: 1521055
  stamp: 
    secs: 1561865853
    nsecs: 297735170
  frame_id: "ti_mmwave"
point_id: 5
x: 1.14453125
y: 0.03515625
z: -0.025390625
range: 1.22015523911
velocity: 0.0
doppler_bin: 8
bearing: 1.75938534737
intensity: 29.3449840546
---
header: 
  seq: 1521056
  stamp: 
    secs: 1561865853
    nsecs: 297745437
  frame_id: "ti_mmwave"
point_id: 6
x: 1.173828125
y: 0.07421875
z: -0.150390625
range: 1.2637321949
velocity: 0.0
doppler_bin: 8
bearing: 3.61787867546
intensity: 27.8461723328
---
header: 
  seq: 1521057
  stamp: 
    secs: 1561865853
    nsecs: 297753536
  frame_id: "ti_mmwave"
point_id: 7
x: 4.787109375
y: -1.404296875
z: -0.1640625
range: 5.31639051437
velocity: 0.0
doppler_bin: 8
bearing: -16.3490333557
intensity: 28.5064620972
---
header: 
  seq: 1521058
  stamp: 
    secs: 1561865853
    nsecs: 297761351
  frame_id: "ti_mmwave"
point_id: 8
x: 4.826171875
y: -1.416015625
z: -0.162109375
range: 5.35996723175
velocity: 0.0
doppler_bin: 8
bearing: -16.3518714905
intensity: 28.5853729248
---
header: 
  seq: 1521059
  stamp: 
    secs: 1561865853
    nsecs: 297770505
  frame_id: "ti_mmwave"
point_id: 9
x: 1.185546875
y: -0.0
z: 0.3203125
range: 1.3073091507
velocity: 0.614668667316
doppler_bin: 9
bearing: -0.0
intensity: 24.563659668
---
header: 
  seq: 1521060
  stamp: 
    secs: 1561865853
    nsecs: 297779353
  frame_id: "ti_mmwave"
point_id: 10
x: 1.134765625
y: 0.037109375
z: 0.34375
range: 1.2637321949
velocity: 1.22933733463
doppler_bin: 10
bearing: 1.87303268909
intensity: 23.0749607086
---
header: 
  seq: 1521061
  stamp: 
    secs: 1561865853
    nsecs: 297787920
  frame_id: "ti_mmwave"
point_id: 11
x: 1.203125
y: -0.396484375
z: -0.041015625
range: 1.35088610649
velocity: -0.614668667316
doppler_bin: 7
bearing: -18.239402771
intensity: 26.6086540222
---
header: 
  seq: 1521062
  stamp: 
    secs: 1561865853
    nsecs: 297797200
  frame_id: "ti_mmwave"
point_id: 12
x: 1.193359375
y: -0.53125
z: 0.0859375
range: 1.39446306229
velocity: -0.614668667316
doppler_bin: 7
bearing: -23.9972820282
intensity: 30.1367969513
---
header: 
  seq: 1521063
  stamp: 
    secs: 1561865853
    nsecs: 297806543
  frame_id: "ti_mmwave"
point_id: 13
x: 1.220703125
y: -0.548828125
z: 0.181640625
range: 1.43804001808
velocity: -0.614668667316
doppler_bin: 7
bearing: -24.2086830139
intensity: 30.3542976379
---
header: 
  seq: 1521064
  stamp: 
    secs: 1561865853
    nsecs: 297815338
  frame_id: "ti_mmwave"
point_id: 14
x: 1.228515625
y: -0.609375
z: 0.234375
range: 1.48161697388
velocity: -0.614668667316
doppler_bin: 7
bearing: -26.3825798035
intensity: 26.9897003174
---
header: 
  seq: 1521065
  stamp: 
    secs: 1561865853
    nsecs: 297822985
  frame_id: "ti_mmwave"
point_id: 15
x: 0.009765625
y: 0.03125
z: 0.025390625
range: 0.0435769706964
velocity: 0.0
doppler_bin: 8
bearing: 72.6459732056
intensity: 29.2992954254
---
header: 
  seq: 1521066
  stamp: 
    secs: 1561865853
    nsecs: 297978989
  frame_id: "ti_mmwave"
point_id: 16
x: 0.041015625
y: -0.033203125
z: 0.0625
range: 0.0871539413929
velocity: 0.0
doppler_bin: 8
bearing: -38.9909973145
intensity: 30.0860023499
---
header: 
  seq: 1521067
  stamp: 
    secs: 1561865853
    nsecs: 297999553
  frame_id: "ti_mmwave"
point_id: 17
x: 0.044921875
y: -0.046875
z: 0.103515625
range: 0.130730912089
velocity: 0.0
doppler_bin: 8
bearing: -46.218875885
intensity: 28.9817657471
---
header: 
  seq: 1521068
  stamp: 
    secs: 1561865853
    nsecs: 299004469
  frame_id: "ti_mmwave"
point_id: 0
x: 0.01171875
y: -0.0390625
z: -0.0078125
range: 0.0435769706964
velocity: 0.0
doppler_bin: 8
bearing: -73.3007583618
intensity: 30.6445808411
---
header: 
  seq: 1521069
  stamp: 
    secs: 1561865853
    nsecs: 299075895
  frame_id: "ti_mmwave"
point_id: 1
x: 0.017578125
y: -0.080078125
z: -0.0078125
range: 0.0871539413929
velocity: 0.0
doppler_bin: 8
bearing: -77.6192398071
intensity: 31.9005146027
---
header: 
  seq: 1521070
  stamp: 
    secs: 1561865853
    nsecs: 299096299
  frame_id: "ti_mmwave"
point_id: 2
x: 0.029296875
y: -0.119140625
z: -0.005859375
range: 0.130730912089
velocity: 0.0
doppler_bin: 8
bearing: -76.1849746704
intensity: 30.1367969513
---
header: 
  seq: 1521071
  stamp: 
    secs: 1561865853
    nsecs: 299109286
  frame_id: "ti_mmwave"
point_id: 3
x: 0.056640625
y: -0.154296875
z: 0.005859375
range: 0.174307882786
velocity: 0.0
doppler_bin: 8
bearing: -69.8423843384
intensity: 25.4406795502
---
header: 
  seq: 1521072
  stamp: 
    secs: 1561865853
    nsecs: 299123266
  frame_id: "ti_mmwave"
point_id: 4
x: 1.060546875
y: -0.06640625
z: -0.021484375
range: 1.13300120831
velocity: 0.0
doppler_bin: 8
bearing: -3.582903862
intensity: 20.7188205719
---
header: 
  seq: 1521073
  stamp: 
    secs: 1561865853
    nsecs: 299137172
  frame_id: "ti_mmwave"
point_id: 5
x: 1.1015625
y: -0.068359375
z: -0.05859375
range: 1.1765781641
velocity: 0.0
doppler_bin: 8
bearing: -3.55103540421
intensity: 26.170003891
---
header: 
  seq: 1521074
  stamp: 
    secs: 1561865853
    nsecs: 299150325
  frame_id: "ti_mmwave"
point_id: 6
x: 1.142578125
y: -0.03515625
z: -0.08203125
range: 1.22015523911
velocity: 0.0
doppler_bin: 8
bearing: -1.76239109039
intensity: 27.2181053162
---
header: 
  seq: 1521075
  stamp: 
    secs: 1561865853
    nsecs: 299184476
  frame_id: "ti_mmwave"
point_id: 7
x: 1.1796875
y: -0.07421875
z: 0.099609375
range: 1.2637321949
velocity: 0.0
doppler_bin: 8
bearing: -3.59995675087
intensity: 25.2113800049
---
header: 
  seq: 1521076
  stamp: 
    secs: 1561865853
    nsecs: 299202744
  frame_id: "ti_mmwave"
point_id: 8
x: 1.205078125
y: -0.0390625
z: 0.2265625
range: 1.3073091507
velocity: 0.0
doppler_bin: 8
bearing: -1.85658740997
intensity: 27.0156803131
---
header: 
  seq: 1521077
  stamp: 
    secs: 1561865853
    nsecs: 299211214
  frame_id: "ti_mmwave"
point_id: 9
x: 1.16796875
y: -0.23828125
z: 0.431640625
range: 1.35088610649
velocity: 0.0
doppler_bin: 8
bearing: -11.5308666229
intensity: 27.8247261047
---
header: 
  seq: 1521078
  stamp: 
    secs: 1561865853
    nsecs: 299276312
  frame_id: "ti_mmwave"
point_id: 10
x: 1.197265625
y: -0.287109375
z: 0.443359375
range: 1.39446306229
velocity: 0.0
doppler_bin: 8
bearing: -13.485127449
intensity: 27.7378635406
---
header: 
  seq: 1521079
  stamp: 
    secs: 1561865853
    nsecs: 299286278
  frame_id: "ti_mmwave"
point_id: 11
x: 4.78515625
y: -1.248046875
z: -0.67578125
range: 5.31639051437
velocity: 0.0
doppler_bin: 8
bearing: -14.618019104
intensity: 28.6864452362
---
header: 
  seq: 1521080
  stamp: 
    secs: 1561865853
    nsecs: 299294095
  frame_id: "ti_mmwave"
point_id: 12
x: 4.828125
y: -1.2578125
z: -0.650390625
range: 5.35996723175
velocity: 0.0
doppler_bin: 8
bearing: -14.6020021439
intensity: 28.6923179626
---
header: 
  seq: 1521081
  stamp: 
    secs: 1561865853
    nsecs: 299303918
  frame_id: "ti_mmwave"
point_id: 13
x: 1.068359375
y: -0.6953125
z: 0.30078125
range: 1.39446306229
velocity: -1.22933733463
doppler_bin: 6
bearing: -33.0569877625
intensity: 27.2591171265
---
header: 
  seq: 1521082
  stamp: 
    secs: 1561865853
    nsecs: 299315041
  frame_id: "ti_mmwave"
point_id: 14
x: 1.130859375
y: -0.67578125
z: 0.29296875
range: 1.43804001808
velocity: -1.22933733463
doppler_bin: 6
bearing: -30.8617801666
intensity: 25.0379066467
---
header: 
  seq: 1521083
  stamp: 
    secs: 1561865853
    nsecs: 299328911
  frame_id: "ti_mmwave"
point_id: 15
x: 0.009765625
y: 0.03125
z: 0.025390625
range: 0.0435769706964
velocity: 0.0
doppler_bin: 8
bearing: 72.6459732056
intensity: 29.2992954254
---
header: 
  seq: 1521084
  stamp: 
    secs: 1561865853
    nsecs: 299341281
  frame_id: "ti_mmwave"
point_id: 16
x: 0.041015625
y: -0.033203125
z: 0.0625
range: 0.0871539413929
velocity: 0.0
doppler_bin: 8
bearing: -38.9909973145
intensity: 30.0860023499
---
header: 
  seq: 1521085
  stamp: 
    secs: 1561865853
    nsecs: 299353465
  frame_id: "ti_mmwave"
point_id: 17
x: 0.046875
y: -0.046875
z: 0.103515625
range: 0.130730912089
velocity: 0.0
doppler_bin: 8
bearing: -45.0
intensity: 28.9872512817
---
header: 
  seq: 1521086
  stamp: 
    secs: 1561865853
    nsecs: 299383911
  frame_id: "ti_mmwave"
point_id: 19
x: 1.138671875
y: -0.107421875
z: -0.044921875
range: 1.22015523911
velocity: 0.0
doppler_bin: 8
bearing: -5.38931179047
intensity: 27.2181053162
---
header: 
  seq: 1521087
  stamp: 
    secs: 1561865853
    nsecs: 358249329
  frame_id: "ti_mmwave"
point_id: 0
x: 0.01171875
y: -0.0390625
z: -0.0078125
range: 0.0435769706964
velocity: 0.0
doppler_bin: 8
bearing: -73.3007583618
intensity: 30.6520614624
---
header: 
  seq: 1521088
  stamp: 
    secs: 1561865853
    nsecs: 358320796
  frame_id: "ti_mmwave"
point_id: 1
x: 0.017578125
y: -0.080078125
z: -0.0078125
range: 0.0871539413929
velocity: 0.0
doppler_bin: 8
bearing: -77.6192398071
intensity: 31.9033164978
---
header: 
  seq: 1521089
  stamp: 
    secs: 1561865853
    nsecs: 358334860
  frame_id: "ti_mmwave"
point_id: 2
x: 0.029296875
y: -0.119140625
z: -0.005859375
range: 0.130730912089
velocity: 0.0
doppler_bin: 8
bearing: -76.1849746704
intensity: 30.1367969513
---
header: 
  seq: 1521090
  stamp: 
    secs: 1561865853
    nsecs: 358343379
  frame_id: "ti_mmwave"
point_id: 3
x: 0.056640625
y: -0.154296875
z: 0.005859375
range: 0.174307882786
velocity: 0.0
doppler_bin: 8
bearing: -69.8423843384
intensity: 25.4530715942
---
header: 
  seq: 1521091
  stamp: 
    secs: 1561865853
    nsecs: 358351712
  frame_id: "ti_mmwave"
point_id: 4
x: 1.041015625
y: -0.033203125
z: -0.21875
range: 1.13300120831
velocity: 0.0
doppler_bin: 8
bearing: -1.82682585716
intensity: 22.0139713287
---
header: 
  seq: 1521092
  stamp: 
    secs: 1561865853
    nsecs: 358360076
  frame_id: "ti_mmwave"
point_id: 5
x: 1.09375
y: -0.0
z: -0.1484375
range: 1.1765781641
velocity: 0.0
doppler_bin: 8
bearing: -0.0
intensity: 27.2345561981
---
header: 
  seq: 1521093
  stamp: 
    secs: 1561865853
    nsecs: 358371238
  frame_id: "ti_mmwave"
point_id: 6
x: 1.142578125
y: 0.072265625
z: -0.013671875
range: 1.22015523911
velocity: 0.0
doppler_bin: 8
bearing: 3.61901545525
intensity: 28.8592624664
---
header: 
  seq: 1521094
  stamp: 
    secs: 1561865853
    nsecs: 358379567
  frame_id: "ti_mmwave"
point_id: 7
x: 1.181640625
y: 0.037109375
z: 0.107421875
range: 1.2637321949
velocity: 0.0
doppler_bin: 8
bearing: 1.79878032207
intensity: 28.5491294861
---
header: 
  seq: 1521095
  stamp: 
    secs: 1561865853
    nsecs: 358388087
  frame_id: "ti_mmwave"
point_id: 8
x: 0.59375
y: 0.0390625
z: 1.119140625
range: 1.35088610649
velocity: 0.0
doppler_bin: 8
bearing: 3.76403474808
intensity: 26.9196510315
---
header: 
  seq: 1521096
  stamp: 
    secs: 1561865853
    nsecs: 358397943
  frame_id: "ti_mmwave"
point_id: 9
x: 1.197265625
y: 0.0390625
z: 0.26953125
range: 1.3073091507
velocity: -0.614668667316
doppler_bin: 7
bearing: 1.86869370937
intensity: 28.0753498077
---
header: 
  seq: 1521097
  stamp: 
    secs: 1561865853
    nsecs: 358415734
  frame_id: "ti_mmwave"
point_id: 10
x: 1.267578125
y: -0.328125
z: 0.025390625
range: 1.39446306229
velocity: -0.614668667316
doppler_bin: 7
bearing: -14.5130062103
intensity: 26.5127792358
---
header: 
  seq: 1521098
  stamp: 
    secs: 1561865853
    nsecs: 358429693
  frame_id: "ti_mmwave"
point_id: 11
x: 1.255859375
y: 0.671875
z: 0.150390625
range: 1.52519392967
velocity: -0.614668667316
doppler_bin: 7
bearing: 28.1464347839
intensity: 25.9328613281
---
header: 
  seq: 1521099
  stamp: 
    secs: 1561865853
    nsecs: 358440562
  frame_id: "ti_mmwave"
point_id: 12
x: 1.26953125
y: 0.736328125
z: 0.111328125
range: 1.56877088547
velocity: -0.614668667316
doppler_bin: 7
bearing: 30.1137332916
intensity: 27.6042251587
---
header: 
  seq: 1521100
  stamp: 
    secs: 1561865853
    nsecs: 358601958
  frame_id: "ti_mmwave"
point_id: 13
x: 1.30859375
y: 0.755859375
z: -0.05859375
range: 1.61234796047
velocity: -0.614668667316
doppler_bin: 7
bearing: 30.0112438202
intensity: 27.201593399
---
header: 
  seq: 1521101
  stamp: 
    secs: 1561865853
    nsecs: 358628488
  frame_id: "ti_mmwave"
point_id: 14
x: 0.009765625
y: 0.03125
z: 0.025390625
range: 0.0435769706964
velocity: 0.0
doppler_bin: 8
bearing: 72.6459732056
intensity: 29.2941894531
---
header: 
  seq: 1521102
  stamp: 
    secs: 1561865853
    nsecs: 358637609
  frame_id: "ti_mmwave"
point_id: 15
x: 0.041015625
y: -0.033203125
z: 0.0625
range: 0.0871539413929
velocity: 0.0
doppler_bin: 8
bearing: -38.9909973145
intensity: 30.0902576447
---
header: 
  seq: 1521103
  stamp: 
    secs: 1561865853
    nsecs: 358685730
  frame_id: "ti_mmwave"
point_id: 16
x: 0.046875
y: -0.046875
z: 0.103515625
range: 0.130730912089
velocity: 0.0
doppler_bin: 8
bearing: -45.0
intensity: 28.9872512817
---
header: 
  seq: 1521104
  stamp: 
    secs: 1561865853
    nsecs: 358704880
  frame_id: "ti_mmwave"
point_id: 18
x: 1.205078125
y: -0.396484375
z: -0.005859375
range: 1.35088610649
velocity: 0.0
doppler_bin: 8
bearing: -18.2117919922
intensity: 26.6745300293
---
header: 
  seq: 1521105
  stamp: 
    secs: 1561865853
    nsecs: 358718198
  frame_id: "ti_mmwave"
point_id: 19
x: 0.873046875
y: -0.3828125
z: -0.7734375
range: 1.3073091507
velocity: -0.614668667316
doppler_bin: 7
bearing: -23.6764297485
intensity: 25.3402614594
---
header: 
  seq: 1521106
  stamp: 
    secs: 1561865853
    nsecs: 358726855
  frame_id: "ti_mmwave"
point_id: 20
x: 0.736328125
y: -0.77734375
z: 0.75390625
range: 1.39446306229
velocity: -0.614668667316
doppler_bin: 7
bearing: -46.5521507263
intensity: 23.8560619354
---
header: 
  seq: 1521107
  stamp: 
    secs: 1561865853
    nsecs: 417489934
  frame_id: "ti_mmwave"
point_id: 0
x: 0.01171875
y: -0.0390625
z: -0.0078125
range: 0.0435769706964
velocity: 0.0
doppler_bin: 8
bearing: -73.3007583618
intensity: 30.6483230591
---
header: 
  seq: 1521108
  stamp: 
    secs: 1561865853
    nsecs: 417584398
  frame_id: "ti_mmwave"
point_id: 1
x: 0.017578125
y: -0.080078125
z: -0.0078125
range: 0.0871539413929
velocity: 0.0
doppler_bin: 8
bearing: -77.6192398071
intensity: 31.9005146027
---
header: 
  seq: 1521109
  stamp: 
    secs: 1561865853
    nsecs: 417604172
  frame_id: "ti_mmwave"
point_id: 2
x: 0.029296875
y: -0.119140625
z: -0.005859375
range: 0.130730912089
velocity: 0.0
doppler_bin: 8
bearing: -76.1849746704
intensity: 30.1367969513
---
header: 
  seq: 1521110
  stamp: 
    secs: 1561865853
    nsecs: 417613505
  frame_id: "ti_mmwave"
point_id: 3
x: 0.056640625
y: -0.154296875
z: 0.005859375
range: 0.174307882786
velocity: 0.0
doppler_bin: 8
bearing: -69.8423843384
intensity: 25.4406795502
---
header: 
  seq: 1521111
  stamp: 
    secs: 1561865853
    nsecs: 417621866
  frame_id: "ti_mmwave"
point_id: 4
x: 0.96484375
y: 0.06640625
z: -0.44140625
range: 1.13300120831
velocity: 0.0
doppler_bin: 8
bearing: 3.93722486496
intensity: 21.3672065735
---
header: 
  seq: 1521112
  stamp: 
    secs: 1561865853
    nsecs: 417630490
  frame_id: "ti_mmwave"
point_id: 5
x: 0.966796875
y: 0.068359375
z: -0.53125
range: 1.1765781641
velocity: 0.0
doppler_bin: 8
bearing: 4.044485569
intensity: 26.8663635254
---
header: 
  seq: 1521113
  stamp: 
    secs: 1561865853
    nsecs: 417640259
  frame_id: "ti_mmwave"
point_id: 6
x: 1.142578125
y: -0.0
z: 0.087890625
range: 1.22015523911
velocity: 0.0
doppler_bin: 8
bearing: -0.0
intensity: 29.4151134491
---
header: 
  seq: 1521114
  stamp: 
    secs: 1561865853
    nsecs: 417648158
  frame_id: "ti_mmwave"
point_id: 7
x: 1.181640625
y: 0.07421875
z: 0.078125
range: 1.2637321949
velocity: 0.0
doppler_bin: 8
bearing: 3.59402155876
intensity: 29.0633506775
---
header: 
  seq: 1521115
  stamp: 
    secs: 1561865853
    nsecs: 417825677
  frame_id: "ti_mmwave"
point_id: 8
x: 0.923828125
y: -0.123046875
z: 0.919921875
range: 1.39446306229
velocity: 0.0
doppler_bin: 8
bearing: -7.58670854568
intensity: 25.6820163727
---
header: 
  seq: 1521116
  stamp: 
    secs: 1561865853
    nsecs: 417846922
  frame_id: "ti_mmwave"
point_id: 9
x: 2.662109375
y: -0.1796875
z: 1.0390625
range: 3.05038785934
velocity: 0.0
doppler_bin: 8
bearing: -3.86150240898
intensity: 31.1991539001
---
header: 
  seq: 1521117
  stamp: 
    secs: 1561865853
    nsecs: 417855464
  frame_id: "ti_mmwave"
point_id: 10
x: 2.75
y: -0.08984375
z: 0.931640625
range: 3.09396481514
velocity: 0.0
doppler_bin: 8
bearing: -1.87121355534
intensity: 30.248960495
---
header: 
  seq: 1521118
  stamp: 
    secs: 1561865853
    nsecs: 417863516
  frame_id: "ti_mmwave"
point_id: 11
x: 1.17578125
y: -0.154296875
z: 0.314453125
range: 1.3073091507
velocity: -0.614668667316
doppler_bin: 7
bearing: -7.47616100311
intensity: 28.4010601044
---
header: 
  seq: 1521119
  stamp: 
    secs: 1561865853
    nsecs: 417871606
  frame_id: "ti_mmwave"
point_id: 12
x: 1.19921875
y: -0.197265625
z: 0.361328125
range: 1.35088610649
velocity: -0.614668667316
doppler_bin: 7
bearing: -9.34122085571
intensity: 28.7215633392
---
header: 
  seq: 1521120
  stamp: 
    secs: 1561865853
    nsecs: 417879480
  frame_id: "ti_mmwave"
point_id: 13
x: 1.220703125
y: 0.04296875
z: 0.576171875
range: 1.43804001808
velocity: -0.614668667316
doppler_bin: 7
bearing: 2.01597905159
intensity: 24.5939254761
---
header: 
  seq: 1521121
  stamp: 
    secs: 1561865853
    nsecs: 417889731
  frame_id: "ti_mmwave"
point_id: 14
x: 0.009765625
y: 0.03125
z: 0.025390625
range: 0.0435769706964
velocity: 0.0
doppler_bin: 8
bearing: 72.6459732056
intensity: 29.2992954254
---
header: 
  seq: 1521122
  stamp: 
    secs: 1561865853
    nsecs: 417897951
  frame_id: "ti_mmwave"
point_id: 15
x: 0.041015625
y: -0.033203125
z: 0.0625
range: 0.0871539413929
velocity: 0.0
doppler_bin: 8
bearing: -38.9909973145
intensity: 30.0860023499
---
header: 
  seq: 1521123
  stamp: 
    secs: 1561865853
    nsecs: 417909302
  frame_id: "ti_mmwave"
point_id: 16
x: 0.046875
y: -0.046875
z: 0.103515625
range: 0.130730912089
velocity: 0.0
doppler_bin: 8
bearing: -45.0
intensity: 28.9817657471
---
header: 
  seq: 1521124
  stamp: 
    secs: 1561865853
    nsecs: 418799786
  frame_id: "ti_mmwave"
point_id: 0
x: 0.01171875
y: -0.0390625
z: -0.0078125
range: 0.0435769706964
velocity: 0.0
doppler_bin: 8
bearing: -73.3007583618
intensity: 30.6445808411
---
header: 
  seq: 1521125
  stamp: 
    secs: 1561865853
    nsecs: 418843339
  frame_id: "ti_mmwave"
point_id: 1
x: 0.017578125
y: -0.080078125
z: -0.0078125
range: 0.0871539413929
velocity: 0.0
doppler_bin: 8
bearing: -77.6192398071
intensity: 31.9005146027
---
header: 
  seq: 1521126
  stamp: 
    secs: 1561865853
    nsecs: 418864385
  frame_id: "ti_mmwave"
point_id: 2
x: 0.029296875
y: -0.119140625
z: -0.005859375
range: 0.130730912089
velocity: 0.0
doppler_bin: 8
bearing: -76.1849746704
intensity: 30.1325874329
---
header: 
  seq: 1521127
  stamp: 
    secs: 1561865853
    nsecs: 418878308
  frame_id: "ti_mmwave"
point_id: 3
x: 0.056640625
y: -0.154296875
z: 0.005859375
range: 0.174307882786
velocity: 0.0
doppler_bin: 8
bearing: -69.8423843384
intensity: 25.4282550812
---
header: 
  seq: 1521128
  stamp: 
    secs: 1561865853
    nsecs: 418891374
  frame_id: "ti_mmwave"
point_id: 4
x: 1.05078125
y: 0.06640625
z: -0.1484375
range: 1.13300120831
velocity: 0.0
doppler_bin: 8
bearing: 3.61611390114
intensity: 25.7170886993
---
header: 
  seq: 1521129
  stamp: 
    secs: 1561865853
    nsecs: 418930123
  frame_id: "ti_mmwave"
point_id: 5
x: 1.099609375
y: 0.03515625
z: -0.107421875
range: 1.1765781641
velocity: 0.0
doppler_bin: 8
bearing: 1.83121299744
intensity: 32.0871009827
---
header: 
  seq: 1521130
  stamp: 
    secs: 1561865853
    nsecs: 418953214
  frame_id: "ti_mmwave"
point_id: 6
x: 1.140625
y: 0.03515625
z: -0.09375
range: 1.22015523911
velocity: 0.0
doppler_bin: 8
bearing: 1.765406847
intensity: 34.211101532
---
header: 
  seq: 1521131
  stamp: 
    secs: 1561865853
    nsecs: 419038422
  frame_id: "ti_mmwave"
point_id: 7
x: 1.18359375
y: 0.037109375
z: -0.06640625
range: 1.2637321949
velocity: 0.0
doppler_bin: 8
bearing: 1.79581403732
intensity: 32.8802566528
---
header: 
  seq: 1521132
  stamp: 
    secs: 1561865853
    nsecs: 419057223
  frame_id: "ti_mmwave"
point_id: 8
x: 1.2265625
y: 0.0390625
z: 0.02734375
range: 1.3073091507
velocity: 0.0
doppler_bin: 8
bearing: 1.82409000397
intensity: 28.8309345245
---
header: 
  seq: 1521133
  stamp: 
    secs: 1561865853
    nsecs: 419071410
  frame_id: "ti_mmwave"
point_id: 9
x: 1.1796875
y: 0.0390625
z: 0.462890625
range: 1.35088610649
velocity: 0.0
doppler_bin: 8
bearing: 1.89651834965
intensity: 24.9968700409
---
header: 
  seq: 1521134
  stamp: 
    secs: 1561865853
    nsecs: 419082959
  frame_id: "ti_mmwave"
point_id: 10
x: 0.775390625
y: -0.041015625
z: -1.052734375
range: 1.39446306229
velocity: 0.0
doppler_bin: 8
bearing: -3.02793717384
intensity: 23.7657699585
---
header: 
  seq: 1521135
  stamp: 
    secs: 1561865853
    nsecs: 419094626
  frame_id: "ti_mmwave"
point_id: 11
x: 2.61328125
y: -0.17578125
z: 1.05078125
range: 3.00681090355
velocity: 0.0
doppler_bin: 8
bearing: -3.84817934036
intensity: 29.2941894531
---
header: 
  seq: 1521136
  stamp: 
    secs: 1561865853
    nsecs: 419110844
  frame_id: "ti_mmwave"
point_id: 12
x: 2.658203125
y: -0.1796875
z: 1.048828125
range: 3.05038785934
velocity: 0.0
doppler_bin: 8
bearing: -3.86716008186
intensity: 32.6974639893
---
header: 
  seq: 1521137
  stamp: 
    secs: 1561865853
    nsecs: 419126138
  frame_id: "ti_mmwave"
point_id: 13
x: 2.744140625
y: -0.08984375
z: 0.947265625
range: 3.09396481514
velocity: 0.0
doppler_bin: 8
bearing: -1.87520623207
intensity: 31.8269996643
---
header: 
  seq: 1521138
  stamp: 
    secs: 1561865853
    nsecs: 419138022
  frame_id: "ti_mmwave"
point_id: 14
x: 0.009765625
y: 0.03125
z: 0.025390625
range: 0.0435769706964
velocity: 0.0
doppler_bin: 8
bearing: 72.6459732056
intensity: 29.3043956757
---
header: 
  seq: 1521139
  stamp: 
    secs: 1561865853
    nsecs: 419150414
  frame_id: "ti_mmwave"
point_id: 15
x: 0.041015625
y: -0.033203125
z: 0.0625
range: 0.0871539413929
velocity: 0.0
doppler_bin: 8
bearing: -38.9909973145
intensity: 30.0902576447
---
header: 
  seq: 1521140
  stamp: 
    secs: 1561865853
    nsecs: 419159131
  frame_id: "ti_mmwave"
point_id: 16
x: 0.046875
y: -0.046875
z: 0.103515625
range: 0.130730912089
velocity: 0.0
doppler_bin: 8
bearing: -45.0
intensity: 28.9872512817
---
header: 
  seq: 1521141
  stamp: 
    secs: 1561865853
    nsecs: 477509477
  frame_id: "ti_mmwave"
point_id: 0
x: 0.01171875
y: -0.0390625
z: -0.0078125
range: 0.0435769706964
velocity: 0.0
doppler_bin: 8
bearing: -73.3007583618
intensity: 30.6445808411
---
header: 
  seq: 1521142
  stamp: 
    secs: 1561865853
    nsecs: 477598662
  frame_id: "ti_mmwave"
point_id: 1
x: 0.017578125
y: -0.080078125
z: -0.0078125
range: 0.0871539413929
velocity: 0.0
doppler_bin: 8
bearing: -77.6192398071
intensity: 31.9005146027
---
header: 
  seq: 1521143
  stamp: 
    secs: 1561865853
    nsecs: 477620467
  frame_id: "ti_mmwave"
point_id: 2
x: 0.029296875
y: -0.119140625
z: -0.005859375
range: 0.130730912089
velocity: 0.0
doppler_bin: 8
bearing: -76.1849746704
intensity: 30.1367969513
---
header: 
  seq: 1521144
  stamp: 
    secs: 1561865853
    nsecs: 477633488
  frame_id: "ti_mmwave"
point_id: 3
x: 0.056640625
y: -0.154296875
z: 0.005859375
range: 0.174307882786
velocity: 0.0
doppler_bin: 8
bearing: -69.8423843384
intensity: 25.4406795502
---
header: 
  seq: 1521145
  stamp: 
    secs: 1561865853
    nsecs: 477646345
  frame_id: "ti_mmwave"
point_id: 4
x: 1.052734375
y: -0.099609375
z: -0.11328125
range: 1.13300120831
velocity: 0.0
doppler_bin: 8
bearing: -5.40521526337
intensity: 25.9769515991
---
header: 
  seq: 1521146
  stamp: 
    secs: 1561865853
    nsecs: 477659091
  frame_id: "ti_mmwave"
point_id: 5
x: 1.09765625
y: -0.103515625
z: -0.0625
range: 1.1765781641
velocity: 0.0
doppler_bin: 8
bearing: -5.38740539551
intensity: 30.5269393921
---
header: 
  seq: 1521147
  stamp: 
    secs: 1561865853
    nsecs: 477755413
  frame_id: "ti_mmwave"
point_id: 6
x: 1.142578125
y: -0.072265625
z: -0.029296875
range: 1.22015523911
velocity: 0.0
doppler_bin: 8
bearing: -3.61901545525
intensity: 31.344959259
---
header: 
  seq: 1521148
  stamp: 
    secs: 1561865853
    nsecs: 477772533
  frame_id: "ti_mmwave"
point_id: 7
x: 1.173828125
y: -0.1484375
z: 0.09765625
range: 1.2637321949
velocity: 0.0
doppler_bin: 8
bearing: -7.2071352005
intensity: 28.2865982056
---
header: 
  seq: 1521149
  stamp: 
    secs: 1561865853
    nsecs: 477786700
  frame_id: "ti_mmwave"
point_id: 8
x: 1.212890625
y: 0.19140625
z: 0.013671875
range: 1.3073091507
velocity: 0.0
doppler_bin: 8
bearing: 8.96788883209
intensity: 24.2324581146
---
header: 
  seq: 1521150
  stamp: 
    secs: 1561865853
    nsecs: 477798194
  frame_id: "ti_mmwave"
point_id: 9
x: 2.619140625
y: -0.17578125
z: 1.0390625
range: 3.00681090355
velocity: 0.0
doppler_bin: 8
bearing: -3.83959650993
intensity: 29.3043956757
---
header: 
  seq: 1521151
  stamp: 
    secs: 1561865853
    nsecs: 477808824
  frame_id: "ti_mmwave"
point_id: 10
x: 2.693359375
y: -0.08984375
z: 0.966796875
range: 3.05038785934
velocity: 0.0
doppler_bin: 8
bearing: -1.91053581238
intensity: 32.5478973389
---
header: 
  seq: 1521152
  stamp: 
    secs: 1561865853
    nsecs: 477819564
  frame_id: "ti_mmwave"
point_id: 11
x: 2.73828125
y: -0.181640625
z: 0.94921875
range: 3.09396481514
velocity: 0.0
doppler_bin: 8
bearing: -3.79508757591
intensity: 31.6967449188
---
header: 
  seq: 1521153
  stamp: 
    secs: 1561865853
    nsecs: 477832174
  frame_id: "ti_mmwave"
point_id: 12
x: 1.224609375
y: 0.080078125
z: 0.322265625
range: 1.35088610649
velocity: -0.614668667316
doppler_bin: 7
bearing: 3.74128770828
intensity: 22.3552837372
---
header: 
  seq: 1521154
  stamp: 
    secs: 1561865853
    nsecs: 477844016
  frame_id: "ti_mmwave"
point_id: 13
x: 1.171875
y: 0.08203125
z: 0.576171875
range: 1.39446306229
velocity: -0.614668667316
doppler_bin: 7
bearing: 4.00417280197
intensity: 25.3781909943
---
header: 
  seq: 1521155
  stamp: 
    secs: 1561865853
    nsecs: 477855440
  frame_id: "ti_mmwave"
point_id: 14
x: 0.009765625
y: 0.03125
z: 0.025390625
range: 0.0435769706964
velocity: 0.0
doppler_bin: 8
bearing: 72.6459732056
intensity: 29.2992954254
---
header: 
  seq: 1521156
  stamp: 
    secs: 1561865853
    nsecs: 477868462
  frame_id: "ti_mmwave"
point_id: 15
x: 0.041015625
y: -0.033203125
z: 0.0625
range: 0.0871539413929
velocity: 0.0
doppler_bin: 8
bearing: -38.9909973145
intensity: 30.0860023499
---
header: 
  seq: 1521157
  stamp: 
    secs: 1561865853
    nsecs: 477879673
  frame_id: "ti_mmwave"
point_id: 16
x: 0.044921875
y: -0.046875
z: 0.103515625
range: 0.130730912089
velocity: 0.0
doppler_bin: 8
bearing: -46.218875885
intensity: 28.9817657471
---
header: 
  seq: 1521158
  stamp: 
    secs: 1561865853
    nsecs: 477892587
  frame_id: "ti_mmwave"
point_id: 18
x: 0.837890625
y: -0.267578125
z: -0.85546875
range: 1.3073091507
velocity: 0.0
doppler_bin: 8
bearing: -17.7107429504
intensity: 22.9885311127
---
header: 
  seq: 1521159
  stamp: 
    secs: 1561865853
    nsecs: 477900673
  frame_id: "ti_mmwave"
point_id: 19
x: 2.779296875
y: -0.0
z: 0.845703125
range: 3.09396481514
velocity: 0.0
doppler_bin: 8
bearing: -0.0
intensity: 31.6524429321
---
header: 
  seq: 1521160
  stamp: 
    secs: 1561865853
    nsecs: 477935178
  frame_id: "ti_mmwave"
point_id: 20
x: 1.1640625
y: -0.31640625
z: -0.388671875
range: 1.35088610649
velocity: -0.614668667316
doppler_bin: 7
bearing: -15.2063007355
intensity: 20.0432128906
---
header: 
  seq: 1521161
  stamp: 
    secs: 1561865853
    nsecs: 477957898
  frame_id: "ti_mmwave"
point_id: 21
x: 1.1875
y: -0.408203125
z: -0.3671875
range: 1.39446306229
velocity: -0.614668667316
doppler_bin: 7
bearing: -18.970407486
intensity: 22.810333252
---
header: 
  seq: 1521162
  stamp: 
    secs: 1561865853
    nsecs: 478917261
  frame_id: "ti_mmwave"
point_id: 0
x: 0.01171875
y: -0.0390625
z: -0.0078125
range: 0.0435769706964
velocity: 0.0
doppler_bin: 8
bearing: -73.3007583618
intensity: 30.6445808411
---
header: 
  seq: 1521163
  stamp: 
    secs: 1561865853
    nsecs: 478976854
  frame_id: "ti_mmwave"
point_id: 1
x: 0.017578125
y: -0.080078125
z: -0.0078125
range: 0.0871539413929
velocity: 0.0
doppler_bin: 8
bearing: -77.6192398071
intensity: 31.8977088928
---
header: 
  seq: 1521164
  stamp: 
    secs: 1561865853
    nsecs: 478994886
  frame_id: "ti_mmwave"
point_id: 2
x: 0.029296875
y: -0.119140625
z: -0.005859375
range: 0.130730912089
velocity: 0.0
doppler_bin: 8
bearing: -76.1849746704
intensity: 30.1325874329
---
header: 
  seq: 1521165
  stamp: 
    secs: 1561865853
    nsecs: 479007814
  frame_id: "ti_mmwave"
point_id: 3
x: 0.056640625
y: -0.154296875
z: 0.005859375
range: 0.174307882786
velocity: 0.0
doppler_bin: 8
bearing: -69.8423843384
intensity: 25.4406795502
---
header: 
  seq: 1521166
  stamp: 
    secs: 1561865853
    nsecs: 479019923
  frame_id: "ti_mmwave"
point_id: 4
x: 1.056640625
y: 0.033203125
z: -0.115234375
range: 1.13300120831
velocity: 0.0
doppler_bin: 8
bearing: 1.79982960224
intensity: 25.8883171082
---
header: 
  seq: 1521167
  stamp: 
    secs: 1561865853
    nsecs: 479132011
  frame_id: "ti_mmwave"
point_id: 5
x: 1.09765625
y: 0.03515625
z: -0.1171875
range: 1.1765781641
velocity: 0.0
doppler_bin: 8
bearing: 1.83446907997
intensity: 31.4767627716
---
header: 
  seq: 1521168
  stamp: 
    secs: 1561865853
    nsecs: 479150147
  frame_id: "ti_mmwave"
point_id: 6
x: 1.13671875
y: 0.03515625
z: -0.140625
range: 1.22015523911
velocity: 0.0
doppler_bin: 8
bearing: 1.77146971226
intensity: 32.9490699768
---
header: 
  seq: 1521169
  stamp: 
    secs: 1561865853
    nsecs: 479160444
  frame_id: "ti_mmwave"
point_id: 7
x: 1.166015625
y: 0.037109375
z: -0.2109375
range: 1.2637321949
velocity: 0.0
doppler_bin: 8
bearing: 1.82286846638
intensity: 30.4453983307
---
header: 
  seq: 1521170
  stamp: 
    secs: 1561865853
    nsecs: 479168736
  frame_id: "ti_mmwave"
point_id: 8
x: 1.18359375
y: -0.154296875
z: 0.283203125
range: 1.3073091507
velocity: 0.0
doppler_bin: 8
bearing: -7.42736530304
intensity: 24.3296928406
---
header: 
  seq: 1521171
  stamp: 
    secs: 1561865853
    nsecs: 479176653
  frame_id: "ti_mmwave"
point_id: 9
x: 0.935546875
y: -0.08203125
z: 0.912109375
range: 1.39446306229
velocity: 0.0
doppler_bin: 8
bearing: -5.01103115082
intensity: 26.6464195251
---
header: 
  seq: 1521172
  stamp: 
    secs: 1561865853
    nsecs: 479184266
  frame_id: "ti_mmwave"
point_id: 10
x: 2.619140625
y: -0.17578125
z: 1.037109375
range: 3.00681090355
velocity: 0.0
doppler_bin: 8
bearing: -3.83959650993
intensity: 28.5612449646
---
header: 
  seq: 1521173
  stamp: 
    secs: 1561865853
    nsecs: 479192272
  frame_id: "ti_mmwave"
point_id: 11
x: 2.689453125
y: -0.08984375
z: 0.98046875
range: 3.05038785934
velocity: 0.0
doppler_bin: 8
bearing: -1.91330885887
intensity: 31.8469142914
---
header: 
  seq: 1521174
  stamp: 
    secs: 1561865853
    nsecs: 479200712
  frame_id: "ti_mmwave"
point_id: 12
x: 2.765625
y: -0.0
z: 0.884765625
range: 3.09396481514
velocity: 0.0
doppler_bin: 8
bearing: -0.0
intensity: 30.7845687866
---
header: 
  seq: 1521175
  stamp: 
    secs: 1561865853
    nsecs: 479221285
  frame_id: "ti_mmwave"
point_id: 13
x: 1.23828125
y: -0.080078125
z: 0.263671875
range: 1.35088610649
velocity: -0.614668667316
doppler_bin: 7
bearing: -3.70009541512
intensity: 27.0156803131
---
header: 
  seq: 1521176
  stamp: 
    secs: 1561865853
    nsecs: 479240832
  frame_id: "ti_mmwave"
point_id: 14
x: 0.009765625
y: 0.03125
z: 0.025390625
range: 0.0435769706964
velocity: 0.0
doppler_bin: 8
bearing: 72.6459732056
intensity: 29.2992954254
---
header: 
  seq: 1521177
  stamp: 
    secs: 1561865853
    nsecs: 479251523
  frame_id: "ti_mmwave"
point_id: 15
x: 0.041015625
y: -0.033203125
z: 0.0625
range: 0.0871539413929
velocity: 0.0
doppler_bin: 8
bearing: -38.9909973145
intensity: 30.0902576447
---
header: 
  seq: 1521178
  stamp: 
    secs: 1561865853
    nsecs: 479338204
  frame_id: "ti_mmwave"
point_id: 16
x: 0.044921875
y: -0.046875
z: 0.103515625
range: 0.130730912089
velocity: 0.0
doppler_bin: 8
bearing: -46.218875885
intensity: 28.9872512817
---
header: 
  seq: 1521179
  stamp: 
    secs: 1561865853
    nsecs: 479361636
  frame_id: "ti_mmwave"
point_id: 18
x: 1.078125
y: 0.267578125
z: -0.521484375
range: 1.3073091507
velocity: 0.0
doppler_bin: 8
bearing: 13.9385108948
intensity: 22.1218757629
---
header: 
  seq: 1521180
  stamp: 
    secs: 1561865853
    nsecs: 537495600
  frame_id: "ti_mmwave"
point_id: 0
x: 0.01171875
y: -0.0390625
z: -0.0078125
range: 0.0435769706964
velocity: 0.0
doppler_bin: 8
bearing: -73.3007583618
intensity: 30.6520614624
---
header: 
  seq: 1521181
  stamp: 
    secs: 1561865853
    nsecs: 537602695
  frame_id: "ti_mmwave"
point_id: 1
x: 0.017578125
y: -0.080078125
z: -0.0078125
range: 0.0871539413929
velocity: 0.0
doppler_bin: 8
bearing: -77.6192398071
intensity: 31.9033164978
---
header: 
  seq: 1521182
  stamp: 
    secs: 1561865853
    nsecs: 537618508
  frame_id: "ti_mmwave"
point_id: 2
x: 0.029296875
y: -0.119140625
z: -0.005859375
range: 0.130730912089
velocity: 0.0
doppler_bin: 8
bearing: -76.1849746704
intensity: 30.1367969513
---
header: 
  seq: 1521183
  stamp: 
    secs: 1561865853
    nsecs: 537627403
  frame_id: "ti_mmwave"
point_id: 3
x: 0.056640625
y: -0.154296875
z: 0.005859375
range: 0.174307882786
velocity: 0.0
doppler_bin: 8
bearing: -69.8423843384
intensity: 25.4406795502
---
header: 
  seq: 1521184
  stamp: 
    secs: 1561865853
    nsecs: 537636309
  frame_id: "ti_mmwave"
point_id: 4
x: 1.048828125
y: -0.0
z: -0.17578125
range: 1.13300120831
velocity: 0.0
doppler_bin: 8
bearing: -0.0
intensity: 24.7712116241
---
header: 
  seq: 1521185
  stamp: 
    secs: 1561865853
    nsecs: 537644452
  frame_id: "ti_mmwave"
point_id: 5
x: 1.091796875
y: -0.0
z: -0.1640625
range: 1.1765781641
velocity: 0.0
doppler_bin: 8
bearing: -0.0
intensity: 29.7635002136
---
header: 
  seq: 1521186
  stamp: 
    secs: 1561865853
    nsecs: 537666460
  frame_id: "ti_mmwave"
point_id: 6
x: 1.13671875
y: -0.0
z: -0.140625
range: 1.22015523911
velocity: 0.0
doppler_bin: 8
bearing: -0.0
intensity: 31.5563964844
---
header: 
  seq: 1521187
  stamp: 
    secs: 1561865853
    nsecs: 537675629
  frame_id: "ti_mmwave"
point_id: 7
x: 1.18359375
y: -0.0
z: -0.0859375
range: 1.2637321949
velocity: 0.0
doppler_bin: 8
bearing: -0.0
intensity: 30.8421859741
---
header: 
  seq: 1521188
  stamp: 
    secs: 1561865853
    nsecs: 537683653
  frame_id: "ti_mmwave"
point_id: 8
x: 1.2265625
y: 0.0390625
z: 0.0234375
range: 1.3073091507
velocity: 0.0
doppler_bin: 8
bearing: 1.82409000397
intensity: 28.4010601044
---
header: 
  seq: 1521189
  stamp: 
    secs: 1561865853
    nsecs: 537692820
  frame_id: "ti_mmwave"
point_id: 9
x: 1.064453125
y: -0.0
z: 0.689453125
range: 1.35088610649
velocity: 0.0
doppler_bin: 8
bearing: -0.0
intensity: 26.3748970032
---
header: 
  seq: 1521190
  stamp: 
    secs: 1561865853
    nsecs: 537868059
  frame_id: "ti_mmwave"
point_id: 10
x: 0.767578125
y: -0.041015625
z: -1.060546875
range: 1.39446306229
velocity: 0.0
doppler_bin: 8
bearing: -3.05869746208
intensity: 26.1384181976
---
header: 
  seq: 1521191
  stamp: 
    secs: 1561865853
    nsecs: 537886509
  frame_id: "ti_mmwave"
point_id: 11
x: 2.626953125
y: -0.17578125
z: 1.017578125
range: 3.00681090355
velocity: 0.0
doppler_bin: 8
bearing: -3.82821130753
intensity: 29.2427921295
---
header: 
  seq: 1521192
  stamp: 
    secs: 1561865853
    nsecs: 537897043
  frame_id: "ti_mmwave"
point_id: 12
x: 2.693359375
y: -0.08984375
z: 0.966796875
range: 3.05038785934
velocity: 0.0
doppler_bin: 8
bearing: -1.91053581238
intensity: 32.3248786926
---
header: 
  seq: 1521193
  stamp: 
    secs: 1561865853
    nsecs: 537905376
  frame_id: "ti_mmwave"
point_id: 13
x: 2.76953125
y: -0.0
z: 0.87109375
range: 3.09396481514
velocity: 0.0
doppler_bin: 8
bearing: -0.0
intensity: 31.2287101746
---
header: 
  seq: 1521194
  stamp: 
    secs: 1561865853
    nsecs: 537913496
  frame_id: "ti_mmwave"
point_id: 14
x: 0.009765625
y: 0.03125
z: 0.025390625
range: 0.0435769706964
velocity: 0.0
doppler_bin: 8
bearing: 72.6459732056
intensity: 29.2992954254
---
header: 
  seq: 1521195
  stamp: 
    secs: 1561865853
    nsecs: 537921675
  frame_id: "ti_mmwave"
point_id: 15
x: 0.041015625
y: -0.033203125
z: 0.0625
range: 0.0871539413929
velocity: 0.0
doppler_bin: 8
bearing: -38.9909973145
intensity: 30.0902576447
---
header: 
  seq: 1521196
  stamp: 
    secs: 1561865853
    nsecs: 537931626
  frame_id: "ti_mmwave"
point_id: 16
x: 0.044921875
y: -0.046875
z: 0.103515625
range: 0.130730912089
velocity: 0.0
doppler_bin: 8
bearing: -46.218875885
intensity: 28.9872512817
---
header: 
  seq: 1521197
  stamp: 
    secs: 1561865853
    nsecs: 538826291
  frame_id: "ti_mmwave"
point_id: 0
x: 0.01171875
y: -0.0390625
z: -0.0078125
range: 0.0435769706964
velocity: 0.0
doppler_bin: 8
bearing: -73.3007583618
intensity: 30.6445808411
---
header: 
  seq: 1521198
  stamp: 
    secs: 1561865853
    nsecs: 538864771
  frame_id: "ti_mmwave"
point_id: 1
x: 0.017578125
y: -0.080078125
z: -0.0078125
range: 0.0871539413929
velocity: 0.0
doppler_bin: 8
bearing: -77.6192398071
intensity: 31.8977088928
---
header: 
  seq: 1521199
  stamp: 
    secs: 1561865853
    nsecs: 538875919
  frame_id: "ti_mmwave"
point_id: 2
x: 0.029296875
y: -0.119140625
z: -0.005859375
range: 0.130730912089
velocity: 0.0
doppler_bin: 8
bearing: -76.1849746704
intensity: 30.1325874329
---
header: 
  seq: 1521200
  stamp: 
    secs: 1561865853
    nsecs: 538886755
  frame_id: "ti_mmwave"
point_id: 3
x: 0.056640625
y: -0.154296875
z: 0.005859375
range: 0.174307882786
velocity: 0.0
doppler_bin: 8
bearing: -69.8423843384
intensity: 25.4282550812
---
header: 
  seq: 1521201
  stamp: 
    secs: 1561865853
    nsecs: 538895475
  frame_id: "ti_mmwave"
point_id: 4
x: 1.060546875
y: -0.0
z: -0.08984375
range: 1.13300120831
velocity: 0.0
doppler_bin: 8
bearing: -0.0
intensity: 27.8532981873
---
header: 
  seq: 1521202
  stamp: 
    secs: 1561865853
    nsecs: 538904980
  frame_id: "ti_mmwave"
point_id: 5
x: 1.095703125
y: -0.0
z: -0.138671875
range: 1.1765781641
velocity: 0.0
doppler_bin: 8
bearing: -0.0
intensity: 32.716091156
---
header: 
  seq: 1521203
  stamp: 
    secs: 1561865853
    nsecs: 538922225
  frame_id: "ti_mmwave"
point_id: 6
x: 1.130859375
y: -0.03515625
z: -0.173828125
range: 1.22015523911
velocity: 0.0
doppler_bin: 8
bearing: -1.78064239025
intensity: 33.9410133362
---
header: 
  seq: 1521204
  stamp: 
    secs: 1561865853
    nsecs: 538932689
  frame_id: "ti_mmwave"
point_id: 7
x: 1.17578125
y: -0.0
z: -0.158203125
range: 1.2637321949
velocity: 0.0
doppler_bin: 8
bearing: -0.0
intensity: 32.4378204346
---
header: 
  seq: 1521205
  stamp: 
    secs: 1561865853
    nsecs: 538991118
  frame_id: "ti_mmwave"
point_id: 8
x: 1.2265625
y: -0.0
z: -0.01171875
range: 1.3073091507
velocity: 0.0
doppler_bin: 8
bearing: -0.0
intensity: 29.1381378174
---
header: 
  seq: 1521206
  stamp: 
    secs: 1561865853
    nsecs: 538999873
  frame_id: "ti_mmwave"
point_id: 9
x: 1.01953125
y: -0.080078125
z: 0.75
range: 1.35088610649
velocity: 0.0
doppler_bin: 8
bearing: -4.49102258682
intensity: 26.2634029388
---
header: 
  seq: 1521207
  stamp: 
    secs: 1561865853
    nsecs: 539008397
  frame_id: "ti_mmwave"
point_id: 10
x: 0.7265625
y: -0.041015625
z: 1.087890625
range: 1.39446306229
velocity: 0.0
doppler_bin: 8
bearing: -3.23100996017
intensity: 24.2324581146
---
header: 
  seq: 1521208
  stamp: 
    secs: 1561865853
    nsecs: 539018000
  frame_id: "ti_mmwave"
point_id: 11
x: 2.6171875
y: -0.17578125
z: 1.04296875
range: 3.00681090355
velocity: 0.0
doppler_bin: 8
bearing: -3.84245300293
intensity: 28.9042110443
---
header: 
  seq: 1521209
  stamp: 
    secs: 1561865853
    nsecs: 539027431
  frame_id: "ti_mmwave"
point_id: 12
x: 2.689453125
y: -0.08984375
z: 0.978515625
range: 3.05038785934
velocity: 0.0
doppler_bin: 8
bearing: -1.91330885887
intensity: 32.0844154358
---
header: 
  seq: 1521210
  stamp: 
    secs: 1561865853
    nsecs: 539035007
  frame_id: "ti_mmwave"
point_id: 13
x: 2.76953125
y: -0.0
z: 0.876953125
range: 3.09396481514
velocity: 0.0
doppler_bin: 8
bearing: -0.0
intensity: 30.9412155151
---
header: 
  seq: 1521211
  stamp: 
    secs: 1561865853
    nsecs: 539042410
  frame_id: "ti_mmwave"
point_id: 14
x: 0.009765625
y: 0.03125
z: 0.025390625
range: 0.0435769706964
velocity: 0.0
doppler_bin: 8
bearing: 72.6459732056
intensity: 29.3043956757
---
header: 
  seq: 1521212
  stamp: 
    secs: 1561865853
    nsecs: 539050021
  frame_id: "ti_mmwave"
point_id: 15
x: 0.041015625
y: -0.033203125
z: 0.0625
range: 0.0871539413929
velocity: 0.0
doppler_bin: 8
bearing: -38.9909973145
intensity: 30.0902576447
---
header: 
  seq: 1521213
  stamp: 
    secs: 1561865853
    nsecs: 539057539
  frame_id: "ti_mmwave"
point_id: 16
x: 0.044921875
y: -0.046875
z: 0.103515625
range: 0.130730912089
velocity: 0.0
doppler_bin: 8
bearing: -46.218875885
intensity: 28.9872512817
---
header: 
  seq: 1521214
  stamp: 
    secs: 1561865853
    nsecs: 539066809
  frame_id: "ti_mmwave"
point_id: 18
x: 2.72265625
y: -0.181640625
z: 0.99609375
range: 3.09396481514
velocity: 0.0
doppler_bin: 8
bearing: -3.8168027401
intensity: 30.9272060394
---
header: 
  seq: 1521215
  stamp: 
    secs: 1561865853
    nsecs: 597390841
  frame_id: "ti_mmwave"
point_id: 0
x: 0.01171875
y: -0.0390625
z: -0.0078125
range: 0.0435769706964
velocity: 0.0
doppler_bin: 8
bearing: -73.3007583618
intensity: 30.6483230591
---
header: 
  seq: 1521216
  stamp: 
    secs: 1561865853
    nsecs: 597491419
  frame_id: "ti_mmwave"
point_id: 1
x: 0.017578125
y: -0.080078125
z: -0.0078125
range: 0.0871539413929
velocity: 0.0
doppler_bin: 8
bearing: -77.6192398071
intensity: 31.9033164978
---
header: 
  seq: 1521217
  stamp: 
    secs: 1561865853
    nsecs: 597504047
  frame_id: "ti_mmwave"
point_id: 2
x: 0.029296875
y: -0.119140625
z: -0.005859375
range: 0.130730912089
velocity: 0.0
doppler_bin: 8
bearing: -76.1849746704
intensity: 30.1367969513
---
header: 
  seq: 1521218
  stamp: 
    secs: 1561865853
    nsecs: 597512924
  frame_id: "ti_mmwave"
point_id: 3
x: 0.056640625
y: -0.154296875
z: 0.005859375
range: 0.174307882786
velocity: 0.0
doppler_bin: 8
bearing: -69.8423843384
intensity: 25.4530715942
---
header: 
  seq: 1521219
  stamp: 
    secs: 1561865853
    nsecs: 597520856
  frame_id: "ti_mmwave"
point_id: 4
x: 1.05859375
y: -0.0
z: -0.091796875
range: 1.13300120831
velocity: 0.0
doppler_bin: 8
bearing: -0.0
intensity: 25.4406795502
---
header: 
  seq: 1521220
  stamp: 
    secs: 1561865853
    nsecs: 597528950
  frame_id: "ti_mmwave"
point_id: 5
x: 1.09765625
y: -0.0
z: -0.1171875
range: 1.1765781641
velocity: 0.0
doppler_bin: 8
bearing: -0.0
intensity: 29.9475688934
---
header: 
  seq: 1521221
  stamp: 
    secs: 1561865853
    nsecs: 597537231
  frame_id: "ti_mmwave"
point_id: 6
x: 1.13671875
y: -0.0
z: -0.134765625
range: 1.22015523911
velocity: 0.0
doppler_bin: 8
bearing: -0.0
intensity: 30.9201850891
---
header: 
  seq: 1521222
  stamp: 
    secs: 1561865853
    nsecs: 597548044
  frame_id: "ti_mmwave"
point_id: 7
x: 1.17578125
y: -0.0
z: -0.150390625
range: 1.2637321949
velocity: 0.0
doppler_bin: 8
bearing: -0.0
intensity: 28.1157493591
---
header: 
  seq: 1521223
  stamp: 
    secs: 1561865853
    nsecs: 597556486
  frame_id: "ti_mmwave"
point_id: 8
x: 1.2109375
y: 0.076171875
z: 0.1875
range: 1.3073091507
velocity: 0.0
doppler_bin: 8
bearing: 3.59934711456
intensity: 23.4242267609
---
header: 
  seq: 1521224
  stamp: 
    secs: 1561865853
    nsecs: 597565939
  frame_id: "ti_mmwave"
point_id: 9
x: 1.203125
y: -0.080078125
z: 0.392578125
range: 1.35088610649
velocity: 0.0
doppler_bin: 8
bearing: -3.80790138245
intensity: 24.1497325897
---
header: 
  seq: 1521225
  stamp: 
    secs: 1561865853
    nsecs: 597573932
  frame_id: "ti_mmwave"
point_id: 10
x: 2.61328125
y: -0.17578125
z: 1.05078125
range: 3.00681090355
velocity: 0.0
doppler_bin: 8
bearing: -3.84817934036
intensity: 29.0955600739
---
header: 
  seq: 1521226
  stamp: 
    secs: 1561865853
    nsecs: 597581765
  frame_id: "ti_mmwave"
point_id: 11
x: 2.6875
y: -0.08984375
z: 0.982421875
range: 3.05038785934
velocity: 0.0
doppler_bin: 8
bearing: -1.91469812393
intensity: 32.3121452332
---
header: 
  seq: 1521227
  stamp: 
    secs: 1561865853
    nsecs: 597616705
  frame_id: "ti_mmwave"
point_id: 12
x: 2.724609375
y: -0.181640625
z: 0.986328125
range: 3.09396481514
velocity: 0.0
doppler_bin: 8
bearing: -3.81407499313
intensity: 31.332195282
---
header: 
  seq: 1521228
  stamp: 
    secs: 1561865853
    nsecs: 597624818
  frame_id: "ti_mmwave"
point_id: 13
x: 0.009765625
y: 0.03125
z: 0.025390625
range: 0.0435769706964
velocity: 0.0
doppler_bin: 8
bearing: 72.6459732056
intensity: 29.2992954254
---
header: 
  seq: 1521229
  stamp: 
    secs: 1561865853
    nsecs: 597812669
  frame_id: "ti_mmwave"
point_id: 14
x: 0.041015625
y: -0.033203125
z: 0.0625
range: 0.0871539413929
velocity: 0.0
doppler_bin: 8
bearing: -38.9909973145
intensity: 30.0860023499
---
header: 
  seq: 1521230
  stamp: 
    secs: 1561865853
    nsecs: 597832206
  frame_id: "ti_mmwave"
point_id: 15
x: 0.046875
y: -0.046875
z: 0.103515625
range: 0.130730912089
velocity: 0.0
doppler_bin: 8
bearing: -45.0
intensity: 28.9817657471
---
header: 
  seq: 1521231
  stamp: 
    secs: 1561865853
    nsecs: 597882849
  frame_id: "ti_mmwave"
point_id: 17
x: 2.767578125
y: -0.0
z: 0.8828125
range: 3.09396481514
velocity: 0.0
doppler_bin: 8
bearing: -0.0
intensity: 31.3225975037
---
header: 
  seq: 1521232
  stamp: 
    secs: 1561865853
    nsecs: 598814777
  frame_id: "ti_mmwave"
point_id: 0
x: 0.01171875
y: -0.0390625
z: -0.0078125
range: 0.0435769706964
velocity: 0.0
doppler_bin: 8
bearing: -73.3007583618
intensity: 30.6408348083
---
header: 
  seq: 1521233
  stamp: 
    secs: 1561865853
    nsecs: 598874353
  frame_id: "ti_mmwave"
point_id: 1
x: 0.017578125
y: -0.080078125
z: -0.0078125
range: 0.0871539413929
velocity: 0.0
doppler_bin: 8
bearing: -77.6192398071
intensity: 31.8977088928
---
header: 
  seq: 1521234
  stamp: 
    secs: 1561865853
    nsecs: 598893285
  frame_id: "ti_mmwave"
point_id: 2
x: 0.029296875
y: -0.119140625
z: -0.005859375
range: 0.130730912089
velocity: 0.0
doppler_bin: 8
bearing: -76.1849746704
intensity: 30.1367969513
---
header: 
  seq: 1521235
  stamp: 
    secs: 1561865853
    nsecs: 598914728
  frame_id: "ti_mmwave"
point_id: 3
x: 0.056640625
y: -0.154296875
z: 0.005859375
range: 0.174307882786
velocity: 0.0
doppler_bin: 8
bearing: -69.8423843384
intensity: 25.4406795502
---
header: 
  seq: 1521236
  stamp: 
    secs: 1561865853
    nsecs: 598975898
  frame_id: "ti_mmwave"
point_id: 4
x: 1.193359375
y: 0.076171875
z: -0.275390625
range: 1.3073091507
velocity: 0.0
doppler_bin: 8
bearing: 3.65222287178
intensity: 22.900346756
---
header: 
  seq: 1521237
  stamp: 
    secs: 1561865853
    nsecs: 598992844
  frame_id: "ti_mmwave"
point_id: 5
x: 0.451171875
y: -0.158203125
z: 1.173828125
range: 1.35088610649
velocity: 0.0
doppler_bin: 8
bearing: -19.323184967
intensity: 22.8555736542
---
header: 
  seq: 1521238
  stamp: 
    secs: 1561865853
    nsecs: 599005514
  frame_id: "ti_mmwave"
point_id: 6
x: 0.69140625
y: -0.1640625
z: -1.099609375
range: 1.39446306229
velocity: 0.0
doppler_bin: 8
bearing: -13.3487272263
intensity: 25.6937389374
---
header: 
  seq: 1521239
  stamp: 
    secs: 1561865853
    nsecs: 599018486
  frame_id: "ti_mmwave"
point_id: 7
x: 1.068359375
y: -0.2109375
z: -0.796875
range: 1.43804001808
velocity: 0.0
doppler_bin: 8
bearing: -11.1688594818
intensity: 25.9328613281
---
header: 
  seq: 1521240
  stamp: 
    secs: 1561865853
    nsecs: 599034420
  frame_id: "ti_mmwave"
point_id: 8
x: 2.609375
y: -0.17578125
z: 1.060546875
range: 3.00681090355
velocity: 0.0
doppler_bin: 8
bearing: -3.85392260551
intensity: 28.8309345245
---
header: 
  seq: 1521241
  stamp: 
    secs: 1561865853
    nsecs: 599050092
  frame_id: "ti_mmwave"
point_id: 9
x: 2.685546875
y: -0.08984375
z: 0.990234375
range: 3.05038785934
velocity: 0.0
doppler_bin: 8
bearing: -1.91608965397
intensity: 32.0411987305
---
header: 
  seq: 1521242
  stamp: 
    secs: 1561865853
    nsecs: 599104748
  frame_id: "ti_mmwave"
point_id: 10
x: 2.76171875
y: -0.0
z: 0.896484375
range: 3.09396481514
velocity: 0.0
doppler_bin: 8
bearing: -0.0
intensity: 30.9516925812
---
header: 
  seq: 1521243
  stamp: 
    secs: 1561865853
    nsecs: 599119258
  frame_id: "ti_mmwave"
point_id: 11
x: 1.041015625
y: 0.06640625
z: -0.212890625
range: 1.13300120831
velocity: -0.614668667316
doppler_bin: 7
bearing: 3.64994478226
intensity: 25.5144996643
---
header: 
  seq: 1521244
  stamp: 
    secs: 1561865853
    nsecs: 599133827
  frame_id: "ti_mmwave"
point_id: 12
x: 1.083984375
y: 0.03515625
z: -0.20703125
range: 1.1765781641
velocity: -0.614668667316
doppler_bin: 7
bearing: 1.85759031773
intensity: 29.7034683228
---
header: 
  seq: 1521245
  stamp: 
    secs: 1561865853
    nsecs: 599147610
  frame_id: "ti_mmwave"
point_id: 13
x: 1.126953125
y: 0.03515625
z: -0.201171875
range: 1.22015523911
velocity: -0.614668667316
doppler_bin: 7
bearing: 1.78681051731
intensity: 30.4766426086
---
header: 
  seq: 1521246
  stamp: 
    secs: 1561865853
    nsecs: 599159795
  frame_id: "ti_mmwave"
point_id: 14
x: 1.16796875
y: 0.037109375
z: -0.201171875
range: 1.2637321949
velocity: -0.614668667316
doppler_bin: 7
bearing: 1.8198223114
intensity: 28.0277366638
---
header: 
  seq: 1521247
  stamp: 
    secs: 1561865853
    nsecs: 599172086
  frame_id: "ti_mmwave"
point_id: 15
x: 0.009765625
y: 0.03125
z: 0.025390625
range: 0.0435769706964
velocity: 0.0
doppler_bin: 8
bearing: 72.6459732056
intensity: 29.2992954254
---
header: 
  seq: 1521248
  stamp: 
    secs: 1561865853
    nsecs: 599187606
  frame_id: "ti_mmwave"
point_id: 16
x: 0.041015625
y: -0.033203125
z: 0.0625
range: 0.0871539413929
velocity: 0.0
doppler_bin: 8
bearing: -38.9909973145
intensity: 30.0902576447
---
header: 
  seq: 1521249
  stamp: 
    secs: 1561865853
    nsecs: 599203617
  frame_id: "ti_mmwave"
point_id: 17
x: 0.046875
y: -0.046875
z: 0.103515625
range: 0.130730912089
velocity: 0.0
doppler_bin: 8
bearing: -45.0
intensity: 28.9872512817
---
header: 
  seq: 1521250
  stamp: 
    secs: 1561865853
    nsecs: 599217842
  frame_id: "ti_mmwave"
point_id: 19
x: 1.095703125
y: 0.158203125
z: -0.619140625
range: 1.35088610649
velocity: 0.0
doppler_bin: 8
bearing: 8.21587371826
intensity: 22.8330116272
---
header: 
  seq: 1521251
  stamp: 
    secs: 1561865853
    nsecs: 599273258
  frame_id: "ti_mmwave"
point_id: 20
x: 2.71875
y: -0.181640625
z: 1.0078125
range: 3.09396481514
velocity: 0.0
doppler_bin: 8
bearing: -3.82227087021
intensity: 30.934217453
---
header: 
  seq: 1521252
  stamp: 
    secs: 1561865853
    nsecs: 658311596
  frame_id: "ti_mmwave"
point_id: 0
x: 0.01171875
y: -0.0390625
z: -0.0078125
range: 0.0435769706964
velocity: 0.0
doppler_bin: 8
bearing: -73.3007583618
intensity: 30.6520614624
---
header: 
  seq: 1521253
  stamp: 
    secs: 1561865853
    nsecs: 658407770
  frame_id: "ti_mmwave"
point_id: 1
x: 0.017578125
y: -0.080078125
z: -0.0078125
range: 0.0871539413929
velocity: 0.0
doppler_bin: 8
bearing: -77.6192398071
intensity: 31.9005146027
---
header: 
  seq: 1521254
  stamp: 
    secs: 1561865853
    nsecs: 658424998
  frame_id: "ti_mmwave"
point_id: 2
x: 0.029296875
y: -0.119140625
z: -0.005859375
range: 0.130730912089
velocity: 0.0
doppler_bin: 8
bearing: -76.1849746704
intensity: 30.1367969513
---
header: 
  seq: 1521255
  stamp: 
    secs: 1561865853
    nsecs: 658441873
  frame_id: "ti_mmwave"
point_id: 3
x: 0.056640625
y: -0.154296875
z: 0.005859375
range: 0.174307882786
velocity: 0.0
doppler_bin: 8
bearing: -69.8423843384
intensity: 25.4406795502
---
header: 
  seq: 1521256
  stamp: 
    secs: 1561865853
    nsecs: 658457582
  frame_id: "ti_mmwave"
point_id: 4
x: 1.091796875
y: -0.068359375
z: -0.154296875
range: 1.1765781641
velocity: 0.0
doppler_bin: 8
bearing: -3.58271503448
intensity: 30.7114524841
---
header: 
  seq: 1521257
  stamp: 
    secs: 1561865853
    nsecs: 658472021
  frame_id: "ti_mmwave"
point_id: 5
x: 1.140625
y: -0.072265625
z: -0.06640625
range: 1.22015523911
velocity: 0.0
doppler_bin: 8
bearing: -3.62519550323
intensity: 30.293838501
---
header: 
  seq: 1521258
  stamp: 
    secs: 1561865853
    nsecs: 658486388
  frame_id: "ti_mmwave"
point_id: 6
x: 1.181640625
y: -0.07421875
z: 0.08203125
range: 1.2637321949
velocity: 0.0
doppler_bin: 8
bearing: -3.59402155876
intensity: 29.5760726929
---
header: 
  seq: 1521259
  stamp: 
    secs: 1561865853
    nsecs: 658505070
  frame_id: "ti_mmwave"
point_id: 7
x: 1.21875
y: -0.0390625
z: 0.13671875
range: 1.3073091507
velocity: 0.0
doppler_bin: 8
bearing: -1.83577489853
intensity: 29.3348731995
---
header: 
  seq: 1521260
  stamp: 
    secs: 1561865853
    nsecs: 658581928
  frame_id: "ti_mmwave"
point_id: 8
x: 1.240234375
y: -0.0390625
z: 0.263671875
range: 1.35088610649
velocity: 0.0
doppler_bin: 8
bearing: -1.80399513245
intensity: 28.1358089447
---
header: 
  seq: 1521261
  stamp: 
    secs: 1561865853
    nsecs: 658596226
  frame_id: "ti_mmwave"
point_id: 9
x: 1.23046875
y: -0.408203125
z: -0.18359375
range: 1.39446306229
velocity: 0.0
doppler_bin: 8
bearing: -18.3530597687
intensity: 26.6745300293
---
header: 
  seq: 1521262
  stamp: 
    secs: 1561865853
    nsecs: 658611847
  frame_id: "ti_mmwave"
point_id: 10
x: 2.619140625
y: -0.17578125
z: 1.0390625
range: 3.00681090355
velocity: 0.0
doppler_bin: 8
bearing: -3.83959650993
intensity: 29.3298072815
---
header: 
  seq: 1521263
  stamp: 
    secs: 1561865853
    nsecs: 658625108
  frame_id: "ti_mmwave"
point_id: 11
x: 2.69140625
y: -0.08984375
z: 0.974609375
range: 3.05038785934
velocity: 0.0
doppler_bin: 8
bearing: -1.91192126274
intensity: 32.474822998
---
header: 
  seq: 1521264
  stamp: 
    secs: 1561865853
    nsecs: 658638987
  frame_id: "ti_mmwave"
point_id: 12
x: 2.732421875
y: -0.181640625
z: 0.966796875
range: 3.09396481514
velocity: 0.0
doppler_bin: 8
bearing: -3.80320167542
intensity: 31.4798526764
---
header: 
  seq: 1521265
  stamp: 
    secs: 1561865853
    nsecs: 658652608
  frame_id: "ti_mmwave"
point_id: 13
x: 0.98828125
y: -0.064453125
z: -0.25390625
range: 1.08942425251
velocity: -0.614668667316
doppler_bin: 7
bearing: -3.73139691353
intensity: 21.875207901
---
header: 
  seq: 1521266
  stamp: 
    secs: 1561865853
    nsecs: 658665428
  frame_id: "ti_mmwave"
point_id: 14
x: 1.03515625
y: -0.06640625
z: -0.236328125
range: 1.13300120831
velocity: -0.614668667316
doppler_bin: 7
bearing: -3.67054867744
intensity: 28.4571800232
---
header: 
  seq: 1521267
  stamp: 
    secs: 1561865853
    nsecs: 658674500
  frame_id: "ti_mmwave"
point_id: 15
x: 0.009765625
y: 0.03125
z: 0.025390625
range: 0.0435769706964
velocity: 0.0
doppler_bin: 8
bearing: 72.6459732056
intensity: 29.2992954254
---
header: 
  seq: 1521268
  stamp: 
    secs: 1561865853
    nsecs: 658699692
  frame_id: "ti_mmwave"
point_id: 16
x: 0.041015625
y: -0.033203125
z: 0.0625
range: 0.0871539413929
velocity: 0.0
doppler_bin: 8
bearing: -38.9909973145
intensity: 30.0902576447
---
header: 
  seq: 1521269
  stamp: 
    secs: 1561865853
    nsecs: 658763415
  frame_id: "ti_mmwave"
point_id: 17
x: 0.044921875
y: -0.046875
z: 0.103515625
range: 0.130730912089
velocity: 0.0
doppler_bin: 8
bearing: -46.218875885
intensity: 28.9872512817
---
header: 
  seq: 1521270
  stamp: 
    secs: 1561865853
    nsecs: 658781476
  frame_id: "ti_mmwave"
point_id: 19
x: 1.134765625
y: -0.0
z: 0.65234375
range: 1.39446306229
velocity: 0.0
doppler_bin: 8
bearing: -0.0
intensity: 26.4246444702
---
header: 
  seq: 1521271
  stamp: 
    secs: 1561865853
    nsecs: 658794516
  frame_id: "ti_mmwave"
point_id: 20
x: 2.771484375
y: -0.0
z: 0.8671875
range: 3.09396481514
velocity: 0.0
doppler_bin: 8
bearing: -0.0
intensity: 31.4736709595
---
header: 
  seq: 1521272
  stamp: 
    secs: 1561865853
    nsecs: 717497890
  frame_id: "ti_mmwave"
point_id: 0
x: 0.01171875
y: -0.0390625
z: -0.0078125
range: 0.0435769706964
velocity: 0.0
doppler_bin: 8
bearing: -73.3007583618
intensity: 30.6483230591
---
header: 
  seq: 1521273
  stamp: 
    secs: 1561865853
    nsecs: 717576002
  frame_id: "ti_mmwave"
point_id: 1
x: 0.017578125
y: -0.080078125
z: -0.0078125
range: 0.0871539413929
velocity: 0.0
doppler_bin: 8
bearing: -77.6192398071
intensity: 31.9005146027
---
header: 
  seq: 1521274
  stamp: 
    secs: 1561865853
    nsecs: 717593039
  frame_id: "ti_mmwave"
point_id: 2
x: 0.029296875
y: -0.119140625
z: -0.005859375
range: 0.130730912089
velocity: 0.0
doppler_bin: 8
bearing: -76.1849746704
intensity: 30.1367969513
---
header: 
  seq: 1521275
  stamp: 
    secs: 1561865853
    nsecs: 717609284
  frame_id: "ti_mmwave"
point_id: 3
x: 0.056640625
y: -0.154296875
z: 0.0078125
range: 0.174307882786
velocity: 0.0
doppler_bin: 8
bearing: -69.8423843384
intensity: 25.4530715942
---
header: 
  seq: 1521276
  stamp: 
    secs: 1561865853
    nsecs: 717622605
  frame_id: "ti_mmwave"
point_id: 4
x: 1.03515625
y: 0.033203125
z: -0.240234375
range: 1.13300120831
velocity: 0.0
doppler_bin: 8
bearing: 1.83715927601
intensity: 23.7839794159
---
header: 
  seq: 1521277
  stamp: 
    secs: 1561865853
    nsecs: 717647472
  frame_id: "ti_mmwave"
point_id: 5
x: 1.091796875
y: 0.068359375
z: -0.158203125
range: 1.1765781641
velocity: 0.0
doppler_bin: 8
bearing: 3.58271503448
intensity: 23.4044418335
---
header: 
  seq: 1521278
  stamp: 
    secs: 1561865853
    nsecs: 717666443
  frame_id: "ti_mmwave"
point_id: 6
x: 1.138671875
y: -0.185546875
z: -0.27734375
range: 1.2637321949
velocity: 0.0
doppler_bin: 8
bearing: -9.25501918793
intensity: 22.5767860413
---
header: 
  seq: 1521279
  stamp: 
    secs: 1561865853
    nsecs: 717751821
  frame_id: "ti_mmwave"
point_id: 7
x: 1.15234375
y: -0.306640625
z: -0.2890625
range: 1.3073091507
velocity: 0.0
doppler_bin: 8
bearing: -14.9011917114
intensity: 25.3275432587
---
header: 
  seq: 1521280
  stamp: 
    secs: 1561865853
    nsecs: 717769373
  frame_id: "ti_mmwave"
point_id: 8
x: 1.2109375
y: -0.357421875
z: -0.119140625
range: 1.35088610649
velocity: 0.0
doppler_bin: 8
bearing: -16.4445590973
intensity: 27.4585514069
---
header: 
  seq: 1521281
  stamp: 
    secs: 1561865853
    nsecs: 717781164
  frame_id: "ti_mmwave"
point_id: 9
x: 1.267578125
y: -0.328125
z: -0.0234375
range: 1.39446306229
velocity: 0.0
doppler_bin: 8
bearing: -14.5130062103
intensity: 28.3186969757
---
header: 
  seq: 1521282
