header: 
  seq: 1668856
  stamp: 
    secs: 1561868849
    nsecs:  96245052
  frame_id: "ti_mmwave"
point_id: 0
x: 0.01171875
y: -0.0390625
z: -0.0078125
range: 0.0435769706964
velocity: 0.0
doppler_bin: 8
bearing: -73.3007583618
intensity: 30.6370849609
---
header: 
  seq: 1668857
  stamp: 
    secs: 1561868849
    nsecs:  96317579
  frame_id: "ti_mmwave"
point_id: 1
x: 0.017578125
y: -0.080078125
z: -0.0078125
range: 0.0871539413929
velocity: 0.0
doppler_bin: 8
bearing: -77.6192398071
intensity: 31.894903183
---
header: 
  seq: 1668858
  stamp: 
    secs: 1561868849
    nsecs:  96337903
  frame_id: "ti_mmwave"
point_id: 2
x: 0.029296875
y: -0.119140625
z: -0.005859375
range: 0.130730912089
velocity: 0.0
doppler_bin: 8
bearing: -76.1849746704
intensity: 30.1114730835
---
header: 
  seq: 1668859
  stamp: 
    secs: 1561868849
    nsecs:  96353094
  frame_id: "ti_mmwave"
point_id: 3
x: 0.056640625
y: -0.154296875
z: 0.005859375
range: 0.174307882786
velocity: 0.0
doppler_bin: 8
bearing: -69.8423843384
intensity: 25.4406795502
---
header: 
  seq: 1668860
  stamp: 
    secs: 1561868849
    nsecs:  96366932
  frame_id: "ti_mmwave"
point_id: 4
x: 0.14453125
y: -0.080078125
z: 1.2578125
range: 1.35088610649
velocity: 0.0
doppler_bin: 8
bearing: -28.9888248444
intensity: 23.138671875
---
header: 
  seq: 1668861
  stamp: 
    secs: 1561868849
    nsecs:  96383195
  frame_id: "ti_mmwave"
point_id: 6
x: 0.431640625
y: -0.083984375
z: -1.275390625
range: 1.43804001808
velocity: 0.0
doppler_bin: 8
bearing: -11.0104799271
intensity: 23.1175384521
---
header: 
  seq: 1668862
  stamp: 
    secs: 1561868849
    nsecs:  96395690
  frame_id: "ti_mmwave"
point_id: 7
x: 0.587890625
y: -0.04296875
z: -1.259765625
range: 1.48161697388
velocity: 0.0
doppler_bin: 8
bearing: -4.1802983284
intensity: 21.7318630219
---
header: 
  seq: 1668863
  stamp: 
    secs: 1561868849
    nsecs:  96407861
  frame_id: "ti_mmwave"
point_id: 8
x: 1.583984375
y: 0.05078125
z: -0.177734375
range: 1.69950187206
velocity: 0.0
doppler_bin: 8
bearing: 1.83622694016
intensity: 27.2427577972
---
header: 
  seq: 1668864
  stamp: 
    secs: 1561868849
    nsecs:  96479677
  frame_id: "ti_mmwave"
point_id: 9
x: 1.626953125
y: 0.05078125
z: -0.16796875
range: 1.74307882786
velocity: 0.0
doppler_bin: 8
bearing: 1.78776311874
intensity: 30.3782482147
---
header: 
  seq: 1668865
  stamp: 
    secs: 1561868849
    nsecs:  96495723
  frame_id: "ti_mmwave"
point_id: 10
x: 1.671875
y: 0.052734375
z: -0.123046875
range: 1.78665578365
velocity: 0.0
doppler_bin: 8
bearing: 1.8066277504
intensity: 30.5766601562
---
header: 
  seq: 1668866
  stamp: 
    secs: 1561868849
    nsecs:  96528745
  frame_id: "ti_mmwave"
point_id: 11
x: 1.712890625
y: 0.107421875
z: -0.08203125
range: 1.83023273945
velocity: 0.0
doppler_bin: 8
bearing: 3.58853602409
intensity: 28.8309345245
---
header: 
  seq: 1668867
  stamp: 
    secs: 1561868849
    nsecs:  96545873
  frame_id: "ti_mmwave"
point_id: 12
x: 1.75390625
y: 0.109375
z: -0.064453125
range: 1.87380969524
velocity: 0.0
doppler_bin: 8
bearing: 3.56838989258
intensity: 26.3748970032
---
header: 
  seq: 1668868
  stamp: 
    secs: 1561868849
    nsecs:  96558511
  frame_id: "ti_mmwave"
point_id: 13
x: 2.61328125
y: -0.17578125
z: 1.05078125
range: 3.00681090355
velocity: 0.0
doppler_bin: 8
bearing: -3.84817934036
intensity: 29.1062431335
---
header: 
  seq: 1668869
  stamp: 
    secs: 1561868849
    nsecs:  96570528
  frame_id: "ti_mmwave"
point_id: 14
x: 2.6875
y: -0.08984375
z: 0.982421875
range: 3.05038785934
velocity: 0.0
doppler_bin: 8
bearing: -1.91469812393
intensity: 32.2036972046
---
header: 
  seq: 1668870
  stamp: 
    secs: 1561868849
    nsecs:  96582469
  frame_id: "ti_mmwave"
point_id: 15
x: 2.748046875
y: -0.08984375
z: 0.935546875
range: 3.09396481514
velocity: 0.0
doppler_bin: 8
bearing: -1.8725425005
intensity: 31.2319812775
---
header: 
  seq: 1668871
  stamp: 
    secs: 1561868849
    nsecs:  96594965
  frame_id: "ti_mmwave"
point_id: 16
x: 4.412109375
y: -0.142578125
z: 1.060546875
range: 4.83704376221
velocity: 0.0
doppler_bin: 8
bearing: -1.85087943077
intensity: 28.8986167908
---
header: 
  seq: 1668872
  stamp: 
    secs: 1561868849
    nsecs:  96607116
  frame_id: "ti_mmwave"
point_id: 17
x: 4.421875
y: -0.142578125
z: 1.193359375
range: 4.88062095642
velocity: 0.0
doppler_bin: 8
bearing: -1.84679484367
intensity: 32.1906051636
---
header: 
  seq: 1668873
  stamp: 
    secs: 1561868849
    nsecs:  96616851
  frame_id: "ti_mmwave"
point_id: 18
x: 4.45703125
y: -0.14453125
z: 1.220703125
range: 4.9241976738
velocity: 0.0
doppler_bin: 8
bearing: -1.8573192358
intensity: 31.5289955139
---
header: 
  seq: 1668874
  stamp: 
    secs: 1561868849
    nsecs:  96680245
  frame_id: "ti_mmwave"
point_id: 19
x: 4.810546875
y: -0.154296875
z: 0.96484375
range: 5.22923660278
velocity: 0.0
doppler_bin: 8
bearing: -1.83711528778
intensity: 30.3742656708
---
header: 
  seq: 1668875
  stamp: 
    secs: 1561868849
    nsecs:  96697437
  frame_id: "ti_mmwave"
point_id: 20
x: 4.876953125
y: -0.30859375
z: 0.78125
range: 5.27281332016
velocity: 0.0
doppler_bin: 8
bearing: -3.62061715126
intensity: 31.383026123
---
header: 
  seq: 1668876
  stamp: 
    secs: 1561868849
    nsecs:  96710598
  frame_id: "ti_mmwave"
point_id: 21
x: 4.94921875
y: -0.623046875
z: 0.12109375
range: 5.31639051437
velocity: 0.0
doppler_bin: 8
bearing: -7.17510271072
intensity: 29.7589111328
---
header: 
  seq: 1668877
  stamp: 
    secs: 1561868849
    nsecs:  96725717
  frame_id: "ti_mmwave"
point_id: 23
x: 0.041015625
y: -0.033203125
z: 0.0625
range: 0.0871539413929
velocity: 0.0
doppler_bin: 8
bearing: -38.9909973145
intensity: 30.081741333
---
header: 
  seq: 1668878
  stamp: 
    secs: 1561868849
    nsecs:  96737881
  frame_id: "ti_mmwave"
point_id: 24
x: 0.044921875
y: -0.046875
z: 0.103515625
range: 0.130730912089
velocity: 0.0
doppler_bin: 8
bearing: -46.218875885
intensity: 28.9982051849
---
header: 
  seq: 1668879
  stamp: 
    secs: 1561868849
    nsecs: 156067350
  frame_id: "ti_mmwave"
point_id: 0
x: 0.01171875
y: -0.0390625
z: -0.0078125
range: 0.0435769706964
velocity: 0.0
doppler_bin: 8
bearing: -73.3007583618
intensity: 30.6445808411
---
header: 
  seq: 1668880
  stamp: 
    secs: 1561868849
    nsecs: 156167987
  frame_id: "ti_mmwave"
point_id: 1
x: 0.017578125
y: -0.080078125
z: -0.0078125
range: 0.0871539413929
velocity: 0.0
doppler_bin: 8
bearing: -77.6192398071
intensity: 31.8977088928
---
header: 
  seq: 1668881
  stamp: 
    secs: 1561868849
    nsecs: 156191556
  frame_id: "ti_mmwave"
point_id: 2
x: 0.029296875
y: -0.119140625
z: -0.005859375
range: 0.130730912089
velocity: 0.0
doppler_bin: 8
bearing: -76.1849746704
intensity: 30.1114730835
---
header: 
  seq: 1668882
  stamp: 
    secs: 1561868849
    nsecs: 156203687
  frame_id: "ti_mmwave"
point_id: 3
x: 0.056640625
y: -0.154296875
z: 0.005859375
range: 0.174307882786
velocity: 0.0
doppler_bin: 8
bearing: -69.8423843384
intensity: 25.4406795502
---
header: 
  seq: 1668883
  stamp: 
    secs: 1561868849
    nsecs: 156216800
  frame_id: "ti_mmwave"
point_id: 4
x: 0.123046875
y: -0.080078125
z: 1.259765625
range: 1.35088610649
velocity: 0.0
doppler_bin: 8
bearing: -33.0558242798
intensity: 23.138671875
---
header: 
  seq: 1668884
  stamp: 
    secs: 1561868849
    nsecs: 156230892
  frame_id: "ti_mmwave"
point_id: 6
x: 0.419921875
y: -0.083984375
z: -1.279296875
range: 1.43804001808
velocity: 0.0
doppler_bin: 8
bearing: -11.3099327087
intensity: 23.0749607086
---
header: 
  seq: 1668885
  stamp: 
    secs: 1561868849
    nsecs: 156242819
  frame_id: "ti_mmwave"
point_id: 7
x: 0.58203125
y: -0.04296875
z: -1.263671875
range: 1.48161697388
velocity: 0.0
doppler_bin: 8
bearing: -4.22222995758
intensity: 21.7318630219
---
header: 
  seq: 1668886
  stamp: 
    secs: 1561868849
    nsecs: 156257597
  frame_id: "ti_mmwave"
point_id: 8
x: 1.623046875
y: 0.154296875
z: -0.138671875
range: 1.74307882786
velocity: 0.0
doppler_bin: 8
bearing: 5.43057060242
intensity: 27.2345561981
---
header: 
  seq: 1668887
  stamp: 
    secs: 1561868849
    nsecs: 156270664
  frame_id: "ti_mmwave"
point_id: 9
x: 1.662109375
y: 0.10546875
z: -0.1953125
range: 1.78665578365
velocity: 0.0
doppler_bin: 8
bearing: 3.6308221817
intensity: 27.7670116425
---
header: 
  seq: 1668888
  stamp: 
    secs: 1561868849
    nsecs: 156284921
  frame_id: "ti_mmwave"
point_id: 10
x: 2.623046875
y: -0.17578125
z: 1.029296875
range: 3.00681090355
velocity: 0.0
doppler_bin: 8
bearing: -3.83389568329
intensity: 28.8817958832
---
header: 
  seq: 1668889
  stamp: 
    secs: 1561868849
    nsecs: 156308112
  frame_id: "ti_mmwave"
point_id: 11
x: 2.6640625
y: -0.1796875
z: 1.037109375
range: 3.05038785934
velocity: 0.0
doppler_bin: 8
bearing: -3.85868024826
intensity: 32.0357666016
---
header: 
  seq: 1668890
  stamp: 
    secs: 1561868849
    nsecs: 156394933
  frame_id: "ti_mmwave"
point_id: 12
x: 2.7578125
y: -0.08984375
z: 0.904296875
range: 3.09396481514
velocity: 0.0
doppler_bin: 8
bearing: -1.86591637135
intensity: 31.0243377686
---
header: 
  seq: 1668891
  stamp: 
    secs: 1561868849
    nsecs: 156411963
  frame_id: "ti_mmwave"
point_id: 13
x: 4.41015625
y: -0.142578125
z: 1.068359375
range: 4.83704376221
velocity: 0.0
doppler_bin: 8
bearing: -1.85169863701
intensity: 28.8081359863
---
header: 
  seq: 1668892
  stamp: 
    secs: 1561868849
    nsecs: 156425177
  frame_id: "ti_mmwave"
point_id: 14
x: 4.40625
y: -0.287109375
z: 1.21875
range: 4.88062095642
velocity: 0.0
doppler_bin: 8
bearing: -3.72809815407
intensity: 32.0167007446
---
header: 
  seq: 1668893
  stamp: 
    secs: 1561868849
    nsecs: 156440271
  frame_id: "ti_mmwave"
point_id: 15
x: 4.455078125
y: -0.14453125
z: 1.224609375
range: 4.9241976738
velocity: 0.0
doppler_bin: 8
bearing: -1.85813295841
intensity: 31.5654907227
---
header: 
  seq: 1668894
  stamp: 
    secs: 1561868849
    nsecs: 156452357
  frame_id: "ti_mmwave"
point_id: 16
x: 4.791015625
y: -0.154296875
z: 1.056640625
range: 5.22923660278
velocity: 0.0
doppler_bin: 8
bearing: -1.8445994854
intensity: 30.0259799957
---
header: 
  seq: 1668895
  stamp: 
    secs: 1561868849
    nsecs: 156464909
  frame_id: "ti_mmwave"
point_id: 17
x: 4.87890625
y: -0.30859375
z: 0.76953125
range: 5.27281332016
velocity: 0.0
doppler_bin: 8
bearing: -3.61917114258
intensity: 31.5896530151
---
header: 
  seq: 1668896
  stamp: 
    secs: 1561868849
    nsecs: 156477139
  frame_id: "ti_mmwave"
point_id: 18
x: 4.966796875
y: -0.46875
z: 0.15234375
range: 5.31639051437
velocity: 0.0
doppler_bin: 8
bearing: -5.39141845703
intensity: 29.9651165009
---
header: 
  seq: 1668897
  stamp: 
    secs: 1561868849
    nsecs: 156492315
  frame_id: "ti_mmwave"
point_id: 20
x: 0.041015625
y: -0.033203125
z: 0.0625
range: 0.0871539413929
velocity: 0.0
doppler_bin: 8
bearing: -38.9909973145
intensity: 30.0902576447
---
header: 
  seq: 1668898
  stamp: 
    secs: 1561868849
    nsecs: 156506076
  frame_id: "ti_mmwave"
point_id: 21
x: 0.044921875
y: -0.046875
z: 0.103515625
range: 0.130730912089
velocity: 0.0
doppler_bin: 8
bearing: -46.218875885
intensity: 29.0091304779
---
header: 
  seq: 1668899
  stamp: 
    secs: 1561868849
    nsecs: 157763502
  frame_id: "ti_mmwave"
point_id: 0
x: 0.01171875
y: -0.0390625
z: -0.0078125
range: 0.0435769706964
velocity: 0.0
doppler_bin: 8
bearing: -73.3007583618
intensity: 30.6408348083
---
header: 
  seq: 1668900
  stamp: 
    secs: 1561868849
    nsecs: 157822521
  frame_id: "ti_mmwave"
point_id: 1
x: 0.017578125
y: -0.080078125
z: -0.0078125
range: 0.0871539413929
velocity: 0.0
doppler_bin: 8
bearing: -77.6192398071
intensity: 31.8977088928
---
header: 
  seq: 1668901
  stamp: 
    secs: 1561868849
    nsecs: 157838392
  frame_id: "ti_mmwave"
point_id: 2
x: 0.029296875
y: -0.119140625
z: -0.005859375
range: 0.130730912089
velocity: 0.0
doppler_bin: 8
bearing: -76.1849746704
intensity: 30.1072387695
---
header: 
  seq: 1668902
  stamp: 
    secs: 1561868849
    nsecs: 157852654
  frame_id: "ti_mmwave"
point_id: 3
x: 0.056640625
y: -0.154296875
z: 0.005859375
range: 0.174307882786
velocity: 0.0
doppler_bin: 8
bearing: -69.8423843384
intensity: 25.4282550812
---
header: 
  seq: 1668903
  stamp: 
    secs: 1561868849
    nsecs: 157865475
  frame_id: "ti_mmwave"
point_id: 4
x: 0.158203125
y: -0.080078125
z: 1.255859375
range: 1.35088610649
velocity: 0.0
doppler_bin: 8
bearing: -26.8472938538
intensity: 23.1175384521
---
header: 
  seq: 1668904
  stamp: 
    secs: 1561868849
    nsecs: 157877374
  frame_id: "ti_mmwave"
point_id: 5
x: 0.06640625
y: -0.08203125
z: 1.3046875
range: 1.39446306229
velocity: 0.0
doppler_bin: 8
bearing: -51.0090065002
intensity: 24.6389293671
---
header: 
  seq: 1668905
  stamp: 
    secs: 1561868849
    nsecs: 157889171
  frame_id: "ti_mmwave"
point_id: 6
x: 0.39453125
y: -0.083984375
z: -1.287109375
range: 1.43804001808
velocity: 0.0
doppler_bin: 8
bearing: -12.0172519684
intensity: 23.0963020325
---
header: 
  seq: 1668906
  stamp: 
    secs: 1561868849
    nsecs: 157901600
  frame_id: "ti_mmwave"
point_id: 7
x: 0.55078125
y: -0.04296875
z: -1.275390625
range: 1.48161697388
velocity: 0.0
doppler_bin: 8
bearing: -4.46084880829
intensity: 21.7318630219
---
header: 
  seq: 1668907
  stamp: 
    secs: 1561868849
    nsecs: 157919054
  frame_id: "ti_mmwave"
point_id: 8
x: 1.591796875
y: 0.099609375
z: -0.0546875
range: 1.69950187206
velocity: 0.0
doppler_bin: 8
bearing: 3.58071136475
intensity: 28.7332057953
---
header: 
  seq: 1668908
  stamp: 
    secs: 1561868849
    nsecs: 157994903
  frame_id: "ti_mmwave"
point_id: 9
x: 1.630859375
y: 0.1015625
z: -0.0703125
range: 1.74307882786
velocity: 0.0
doppler_bin: 8
bearing: 3.56351852417
intensity: 32.645816803
---
header: 
  seq: 1668909
  stamp: 
    secs: 1561868849
    nsecs: 158008892
  frame_id: "ti_mmwave"
point_id: 10
x: 1.671875
y: 0.052734375
z: -0.12109375
range: 1.78665578365
velocity: 0.0
doppler_bin: 8
bearing: 1.8066277504
intensity: 32.8126068115
---
header: 
  seq: 1668910
  stamp: 
    secs: 1561868849
    nsecs: 158022325
  frame_id: "ti_mmwave"
point_id: 11
x: 1.697265625
y: 0.052734375
z: -0.265625
range: 1.83023273945
velocity: 0.0
doppler_bin: 8
bearing: 1.77961862087
intensity: 29.4596061707
---
header: 
  seq: 1668911
  stamp: 
    secs: 1561868849
    nsecs: 158034997
  frame_id: "ti_mmwave"
point_id: 12
x: 2.625
y: -0.17578125
z: 1.0234375
range: 3.00681090355
velocity: 0.0
doppler_bin: 8
bearing: -3.83105134964
intensity: 28.9762706757
---
header: 
  seq: 1668912
  stamp: 
    secs: 1561868849
    nsecs: 158046701
  frame_id: "ti_mmwave"
point_id: 13
x: 2.693359375
y: -0.08984375
z: 0.96875
range: 3.05038785934
velocity: 0.0
doppler_bin: 8
bearing: -1.91053581238
intensity: 32.2814369202
---
header: 
  seq: 1668913
  stamp: 
    secs: 1561868849
    nsecs: 158057824
  frame_id: "ti_mmwave"
point_id: 14
x: 2.732421875
y: -0.181640625
z: 0.96484375
range: 3.09396481514
velocity: 0.0
doppler_bin: 8
bearing: -3.80320167542
intensity: 31.3767051697
---
header: 
  seq: 1668914
  stamp: 
    secs: 1561868849
    nsecs: 158086896
  frame_id: "ti_mmwave"
point_id: 15
x: 4.40234375
y: -0.0
z: 1.109375
range: 4.83704376221
velocity: 0.0
doppler_bin: 8
bearing: -0.0
intensity: 28.8366146088
---
header: 
  seq: 1668915
  stamp: 
    secs: 1561868849
    nsecs: 158106151
  frame_id: "ti_mmwave"
point_id: 16
x: 4.41796875
y: -0.142578125
z: 1.205078125
range: 4.88062095642
velocity: 0.0
doppler_bin: 8
bearing: -1.84842634201
intensity: 32.2167510986
---
header: 
  seq: 1668916
  stamp: 
    secs: 1561868849
    nsecs: 158125475
  frame_id: "ti_mmwave"
point_id: 17
x: 4.458984375
y: -0.14453125
z: 1.212890625
range: 4.9241976738
velocity: 0.0
doppler_bin: 8
bearing: -1.85650622845
intensity: 31.6435279846
---
header: 
  seq: 1668917
  stamp: 
    secs: 1561868849
    nsecs: 158143194
  frame_id: "ti_mmwave"
point_id: 18
x: 4.7578125
y: -0.154296875
z: 1.1953125
range: 5.22923660278
velocity: 0.0
doppler_bin: 8
bearing: -1.85746335983
intensity: 30.4571399689
---
header: 
  seq: 1668918
  stamp: 
    secs: 1561868849
    nsecs: 158160821
  frame_id: "ti_mmwave"
point_id: 19
x: 4.86328125
y: -0.30859375
z: 0.86328125
range: 5.27281332016
velocity: 0.0
doppler_bin: 8
bearing: -3.63076806068
intensity: 32.3729248047
---
header: 
  seq: 1668919
  stamp: 
    secs: 1561868849
    nsecs: 158179600
  frame_id: "ti_mmwave"
point_id: 20
x: 4.953125
y: -0.46875
z: 0.380859375
range: 5.31639051437
velocity: 0.0
doppler_bin: 8
bearing: -5.40621232986
intensity: 30.7954292297
---
header: 
  seq: 1668920
  stamp: 
    secs: 1561868849
    nsecs: 158201789
  frame_id: "ti_mmwave"
point_id: 22
x: 0.041015625
y: -0.033203125
z: 0.0625
range: 0.0871539413929
velocity: 0.0
doppler_bin: 8
bearing: -38.9909973145
intensity: 30.0945091248
---
header: 
  seq: 1668921
  stamp: 
    secs: 1561868849
    nsecs: 158376127
  frame_id: "ti_mmwave"
point_id: 23
x: 0.044921875
y: -0.046875
z: 0.103515625
range: 0.130730912089
velocity: 0.0
doppler_bin: 8
bearing: -46.218875885
intensity: 29.0091304779
---
header: 
  seq: 1668922
  stamp: 
    secs: 1561868849
    nsecs: 158398767
  frame_id: "ti_mmwave"
point_id: 25
x: 2.7734375
y: -0.0
z: 0.859375
range: 3.09396481514
velocity: 0.0
doppler_bin: 8
bearing: -0.0
intensity: 31.344959259
---
header: 
  seq: 1668923
  stamp: 
    secs: 1561868849
    nsecs: 158410705
  frame_id: "ti_mmwave"
point_id: 26
x: 4.384765625
y: -0.283203125
z: 1.14453125
range: 4.83704376221
velocity: 0.0
doppler_bin: 8
bearing: -3.69548535347
intensity: 28.8081359863
---
header: 
  seq: 1668924
  stamp: 
    secs: 1561868849
    nsecs: 215922957
  frame_id: "ti_mmwave"
point_id: 0
x: 0.01171875
y: -0.0390625
z: -0.0078125
range: 0.0435769706964
velocity: 0.0
doppler_bin: 8
bearing: -73.3007583618
intensity: 30.6370849609
---
header: 
  seq: 1668925
  stamp: 
    secs: 1561868849
    nsecs: 216053323
  frame_id: "ti_mmwave"
point_id: 1
x: 0.017578125
y: -0.080078125
z: -0.0078125
range: 0.0871539413929
velocity: 0.0
doppler_bin: 8
bearing: -77.6192398071
intensity: 31.894903183
---
header: 
  seq: 1668926
  stamp: 
    secs: 1561868849
    nsecs: 216069224
  frame_id: "ti_mmwave"
point_id: 2
x: 0.029296875
y: -0.119140625
z: -0.005859375
range: 0.130730912089
velocity: 0.0
doppler_bin: 8
bearing: -76.1849746704
intensity: 30.1114730835
---
header: 
  seq: 1668927
  stamp: 
    secs: 1561868849
    nsecs: 216077830
  frame_id: "ti_mmwave"
point_id: 3
x: 0.056640625
y: -0.154296875
z: 0.005859375
range: 0.174307882786
velocity: 0.0
doppler_bin: 8
bearing: -69.8423843384
intensity: 25.4406795502
---
header: 
  seq: 1668928
  stamp: 
    secs: 1561868849
    nsecs: 216086519
  frame_id: "ti_mmwave"
point_id: 4
x: 0.18359375
y: -0.080078125
z: 1.251953125
range: 1.35088610649
velocity: 0.0
doppler_bin: 8
bearing: -23.5653953552
intensity: 23.1597042084
---
header: 
  seq: 1668929
  stamp: 
    secs: 1561868849
    nsecs: 216096014
  frame_id: "ti_mmwave"
point_id: 5
x: 0.111328125
y: -0.08203125
z: 1.30078125
range: 1.39446306229
velocity: 0.0
doppler_bin: 8
bearing: -36.3843536377
intensity: 24.6686763763
---
header: 
  seq: 1668930
  stamp: 
    secs: 1561868849
    nsecs: 216106331
  frame_id: "ti_mmwave"
point_id: 6
x: 0.38671875
y: -0.083984375
z: -1.291015625
range: 1.43804001808
velocity: 0.0
doppler_bin: 8
bearing: -12.2527589798
intensity: 23.1597042084
---
header: 
  seq: 1668931
  stamp: 
    secs: 1561868849
    nsecs: 216114908
  frame_id: "ti_mmwave"
point_id: 7
x: 0.548828125
y: -0.04296875
z: -1.27734375
range: 1.48161697388
velocity: 0.0
doppler_bin: 8
bearing: -4.47665882111
intensity: 21.7609119415
---
header: 
  seq: 1668932
  stamp: 
    secs: 1561868849
    nsecs: 216123340
  frame_id: "ti_mmwave"
point_id: 8
x: 1.59375
y: 0.05078125
z: -0.05078125
range: 1.69950187206
velocity: 0.0
doppler_bin: 8
bearing: 1.82498347759
intensity: 27.6566848755
---
header: 
  seq: 1668933
  stamp: 
    secs: 1561868849
    nsecs: 216133606
  frame_id: "ti_mmwave"
point_id: 9
x: 1.6328125
y: 0.05078125
z: -0.087890625
range: 1.74307882786
velocity: 0.0
doppler_bin: 8
bearing: 1.78135192394
intensity: 30.6032009125
---
header: 
  seq: 1668934
  stamp: 
    secs: 1561868849
    nsecs: 216142173
  frame_id: "ti_mmwave"
point_id: 10
x: 1.66796875
y: 0.10546875
z: -0.140625
range: 1.78665578365
velocity: 0.0
doppler_bin: 8
bearing: 3.61810112
intensity: 31.1126251221
---
header: 
  seq: 1668935
  stamp: 
    secs: 1561868849
    nsecs: 216149956
  frame_id: "ti_mmwave"
point_id: 11
x: 1.705078125
y: 0.107421875
z: -0.185546875
range: 1.83023273945
velocity: 0.0
doppler_bin: 8
bearing: 3.60493540764
intensity: 28.9817657471
---
header: 
  seq: 1668936
  stamp: 
    secs: 1561868849
    nsecs: 216362140
  frame_id: "ti_mmwave"
point_id: 12
x: 2.6015625
y: -0.17578125
z: 1.08203125
range: 3.00681090355
velocity: 0.0
doppler_bin: 8
bearing: -3.86546111107
intensity: 28.7215633392
---
header: 
  seq: 1668937
  stamp: 
    secs: 1561868849
    nsecs: 216406027
  frame_id: "ti_mmwave"
point_id: 13
x: 2.685546875
y: -0.08984375
z: 0.9921875
range: 3.05038785934
velocity: 0.0
doppler_bin: 8
bearing: -1.91608965397
intensity: 32.0057678223
---
header: 
  seq: 1668938
  stamp: 
    secs: 1561868849
    nsecs: 216433179
  frame_id: "ti_mmwave"
point_id: 14
x: 2.751953125
y: -0.08984375
z: 0.92578125
range: 3.09396481514
velocity: 0.0
doppler_bin: 8
bearing: -1.86988639832
intensity: 31.1594314575
---
header: 
  seq: 1668939
  stamp: 
    secs: 1561868849
    nsecs: 216447956
  frame_id: "ti_mmwave"
point_id: 15
x: 4.376953125
y: -0.283203125
z: 1.171875
range: 4.83704376221
velocity: 0.0
doppler_bin: 8
bearing: -3.70206284523
intensity: 28.5491294861
---
header: 
  seq: 1668940
  stamp: 
    secs: 1561868849
    nsecs: 216467944
  frame_id: "ti_mmwave"
point_id: 16
x: 4.41015625
y: -0.142578125
z: 1.23046875
range: 4.88062095642
velocity: 0.0
doppler_bin: 8
bearing: -1.85169863701
intensity: 32.0520439148
---
header: 
  seq: 1668941
  stamp: 
    secs: 1561868849
    nsecs: 216487622
  frame_id: "ti_mmwave"
point_id: 17
x: 4.447265625
y: -0.14453125
z: 1.251953125
range: 4.9241976738
velocity: 0.0
doppler_bin: 8
bearing: -1.86139500141
intensity: 31.5956726074
---
header: 
  seq: 1668942
  stamp: 
    secs: 1561868849
    nsecs: 216508348
  frame_id: "ti_mmwave"
point_id: 18
x: 4.845703125
y: -0.154296875
z: 0.99609375
range: 5.27281332016
velocity: 0.0
doppler_bin: 8
bearing: -1.82379603386
intensity: 31.0105934143
---
header: 
  seq: 1668943
  stamp: 
    secs: 1561868849
    nsecs: 216579444
  frame_id: "ti_mmwave"
point_id: 19
x: 4.95703125
y: -0.46875
z: 0.345703125
range: 5.31639051437
velocity: 0.0
doppler_bin: 8
bearing: -5.40197753906
intensity: 28.9872512817
---
header: 
  seq: 1668944
  stamp: 
    secs: 1561868849
    nsecs: 216598003
  frame_id: "ti_mmwave"
point_id: 21
x: 0.041015625
y: -0.033203125
z: 0.0625
range: 0.0871539413929
velocity: 0.0
doppler_bin: 8
bearing: -38.9909973145
intensity: 30.081741333
---
header: 
  seq: 1668945
  stamp: 
    secs: 1561868849
    nsecs: 216609902
  frame_id: "ti_mmwave"
point_id: 22
x: 0.044921875
y: -0.046875
z: 0.103515625
range: 0.130730912089
velocity: 0.0
doppler_bin: 8
bearing: -46.218875885
intensity: 28.9982051849
---
header: 
  seq: 1668946
  stamp: 
    secs: 1561868849
    nsecs: 216627743
  frame_id: "ti_mmwave"
point_id: 24
x: 4.396484375
y: -0.0
z: 1.13671875
range: 4.83704376221
velocity: 0.0
doppler_bin: 8
bearing: -0.0
intensity: 28.5308952332
---
header: 
  seq: 1668947
  stamp: 
    secs: 1561868849
    nsecs: 217281753
  frame_id: "ti_mmwave"
point_id: 0
x: 0.01171875
y: -0.0390625
z: -0.0078125
range: 0.0435769706964
velocity: 0.0
doppler_bin: 8
bearing: -73.3007583618
intensity: 30.6370849609
---
header: 
  seq: 1668948
  stamp: 
    secs: 1561868849
    nsecs: 217338835
  frame_id: "ti_mmwave"
point_id: 1
x: 0.017578125
y: -0.080078125
z: -0.0078125
range: 0.0871539413929
velocity: 0.0
doppler_bin: 8
bearing: -77.6192398071
intensity: 31.8977088928
---
header: 
  seq: 1668949
  stamp: 
    secs: 1561868849
    nsecs: 217360827
  frame_id: "ti_mmwave"
point_id: 2
x: 0.029296875
y: -0.119140625
z: -0.005859375
range: 0.130730912089
velocity: 0.0
doppler_bin: 8
bearing: -76.1849746704
intensity: 30.1114730835
---
header: 
  seq: 1668950
  stamp: 
    secs: 1561868849
    nsecs: 217421460
  frame_id: "ti_mmwave"
point_id: 3
x: 0.056640625
y: -0.154296875
z: 0.0078125
range: 0.174307882786
velocity: 0.0
doppler_bin: 8
bearing: -69.8423843384
intensity: 25.4406795502
---
header: 
  seq: 1668951
  stamp: 
    secs: 1561868849
    nsecs: 217436581
  frame_id: "ti_mmwave"
point_id: 4
x: 0.115234375
y: -0.080078125
z: 1.259765625
range: 1.35088610649
velocity: 0.0
doppler_bin: 8
bearing: -34.7960281372
intensity: 23.1175384521
---
header: 
  seq: 1668952
  stamp: 
    secs: 1561868849
    nsecs: 217449611
  frame_id: "ti_mmwave"
point_id: 5
x: 0.03125
y: -0.08203125
z: -1.306640625
range: 1.39446306229
velocity: 0.0
doppler_bin: 8
bearing: -69.1455459595
intensity: 24.6239795685
---
header: 
  seq: 1668953
  stamp: 
    secs: 1561868849
    nsecs: 217462545
  frame_id: "ti_mmwave"
point_id: 6
x: 0.439453125
y: -0.083984375
z: -1.2734375
range: 1.43804001808
velocity: 0.0
doppler_bin: 8
bearing: -10.81939888
intensity: 23.0963020325
---
header: 
  seq: 1668954
  stamp: 
    secs: 1561868849
    nsecs: 217473853
  frame_id: "ti_mmwave"
point_id: 7
x: 0.576171875
y: -0.04296875
z: -1.265625
range: 1.48161697388
velocity: 0.0
doppler_bin: 8
bearing: -4.2650103569
intensity: 21.7318630219
---
header: 
  seq: 1668955
  stamp: 
    secs: 1561868849
    nsecs: 217486153
  frame_id: "ti_mmwave"
point_id: 8
x: 1.6171875
y: -0.0
z: -0.25390625
range: 1.74307882786
velocity: 0.0
doppler_bin: 8
bearing: -0.0
intensity: 29.0794849396
---
header: 
  seq: 1668956
  stamp: 
    secs: 1561868849
    nsecs: 217534007
  frame_id: "ti_mmwave"
point_id: 9
x: 1.6640625
y: 0.10546875
z: -0.1875
range: 1.78665578365
velocity: 0.0
doppler_bin: 8
bearing: 3.62657165527
intensity: 29.2992954254
---
header: 
  seq: 1668957
  stamp: 
    secs: 1561868849
    nsecs: 217547802
  frame_id: "ti_mmwave"
point_id: 10
x: 1.70703125
y: 0.16015625
z: -0.09765625
range: 1.83023273945
velocity: 0.0
doppler_bin: 8
bearing: 5.35988664627
intensity: 28.9982051849
---
header: 
  seq: 1668958
  stamp: 
    secs: 1561868849
    nsecs: 217559011
  frame_id: "ti_mmwave"
point_id: 11
x: 2.611328125
y: -0.17578125
z: 1.056640625
range: 3.00681090355
velocity: 0.0
doppler_bin: 8
bearing: -3.85104894638
intensity: 28.7737140656
---
header: 
  seq: 1668959
  stamp: 
    secs: 1561868849
    nsecs: 217569710
  frame_id: "ti_mmwave"
point_id: 12
x: 2.662109375
y: -0.1796875
z: 1.037109375
range: 3.05038785934
velocity: 0.0
doppler_bin: 8
bearing: -3.86150240898
intensity: 31.9672870636
---
header: 
  seq: 1668960
  stamp: 
    secs: 1561868849
    nsecs: 217582965
  frame_id: "ti_mmwave"
point_id: 13
x: 2.7578125
y: -0.08984375
z: 0.90625
range: 3.09396481514
velocity: 0.0
doppler_bin: 8
bearing: -1.86591637135
intensity: 30.9586639404
---
header: 
  seq: 1668961
  stamp: 
    secs: 1561868849
    nsecs: 217595377
  frame_id: "ti_mmwave"
point_id: 14
x: 4.380859375
y: -0.283203125
z: 1.162109375
range: 4.83704376221
velocity: 0.0
doppler_bin: 8
bearing: -3.69877147675
intensity: 28.6687774658
---
header: 
  seq: 1668962
  stamp: 
    secs: 1561868849
    nsecs: 217618492
  frame_id: "ti_mmwave"
point_id: 15
x: 4.408203125
y: -0.142578125
z: 1.23828125
range: 4.88062095642
velocity: 0.0
doppler_bin: 8
bearing: -1.85251843929
intensity: 32.0030326843
---
header: 
  seq: 1668963
  stamp: 
    secs: 1561868849
    nsecs: 217686386
  frame_id: "ti_mmwave"
point_id: 16
x: 4.44921875
y: -0.14453125
z: 1.244140625
range: 4.9241976738
velocity: 0.0
doppler_bin: 8
bearing: -1.86057829857
intensity: 31.4488544464
---
header: 
  seq: 1668964
  stamp: 
    secs: 1561868849
    nsecs: 217703950
  frame_id: "ti_mmwave"
point_id: 18
x: 0.041015625
y: -0.033203125
z: 0.0625
range: 0.0871539413929
velocity: 0.0
doppler_bin: 8
bearing: -38.9909973145
intensity: 30.0902576447
---
header: 
  seq: 1668965
  stamp: 
    secs: 1561868849
    nsecs: 217716419
  frame_id: "ti_mmwave"
point_id: 19
x: 0.044921875
y: -0.046875
z: 0.103515625
range: 0.130730912089
velocity: 0.0
doppler_bin: 8
bearing: -46.218875885
intensity: 29.0036716461
---
header: 
  seq: 1668966
  stamp: 
    secs: 1561868849
    nsecs: 217729920
  frame_id: "ti_mmwave"
point_id: 21
x: 0.693359375
y: -0.4296875
z: -1.51171875
range: 1.83023273945
velocity: 0.0
doppler_bin: 8
bearing: -31.7872524261
intensity: 26.4542236328
---
header: 
  seq: 1668967
  stamp: 
    secs: 1561868849
    nsecs: 275983123
  frame_id: "ti_mmwave"
point_id: 0
x: 0.01171875
y: -0.0390625
z: -0.0078125
range: 0.0435769706964
velocity: 0.0
doppler_bin: 8
bearing: -73.3007583618
intensity: 30.6333332062
---
header: 
  seq: 1668968
  stamp: 
    secs: 1561868849
    nsecs: 276109361
  frame_id: "ti_mmwave"
point_id: 1
x: 0.017578125
y: -0.080078125
z: -0.0078125
range: 0.0871539413929
velocity: 0.0
doppler_bin: 8
bearing: -77.6192398071
intensity: 31.894903183
---
header: 
  seq: 1668969
  stamp: 
    secs: 1561868849
    nsecs: 276129268
  frame_id: "ti_mmwave"
point_id: 2
x: 0.029296875
y: -0.119140625
z: -0.005859375
range: 0.130730912089
velocity: 0.0
doppler_bin: 8
bearing: -76.1849746704
intensity: 30.1114730835
---
header: 
  seq: 1668970
  stamp: 
    secs: 1561868849
    nsecs: 276144146
  frame_id: "ti_mmwave"
point_id: 3
x: 0.056640625
y: -0.154296875
z: 0.0078125
range: 0.174307882786
velocity: 0.0
doppler_bin: 8
bearing: -69.8423843384
intensity: 25.4406795502
---
header: 
  seq: 1668971
  stamp: 
    secs: 1561868849
    nsecs: 276159776
  frame_id: "ti_mmwave"
point_id: 4
x: 0.1015625
y: -0.080078125
z: 1.26171875
range: 1.35088610649
velocity: 0.0
doppler_bin: 8
bearing: -38.2544212341
intensity: 23.1175384521
---
header: 
  seq: 1668972
  stamp: 
    secs: 1561868849
    nsecs: 276201153
  frame_id: "ti_mmwave"
point_id: 6
x: 0.4140625
y: -0.083984375
z: -1.28125
range: 1.43804001808
velocity: 0.0
doppler_bin: 8
bearing: -11.4657688141
intensity: 23.0749607086
---
header: 
  seq: 1668973
  stamp: 
    secs: 1561868849
    nsecs: 276231991
  frame_id: "ti_mmwave"
point_id: 7
x: 0.568359375
y: -0.04296875
z: -1.267578125
range: 1.48161697388
velocity: 0.0
doppler_bin: 8
bearing: -4.32341527939
intensity: 21.6731739044
---
header: 
  seq: 1668974
  stamp: 
    secs: 1561868849
    nsecs: 276341311
  frame_id: "ti_mmwave"
point_id: 8
x: 1.62109375
y: 0.05078125
z: -0.21875
range: 1.74307882786
velocity: 0.0
doppler_bin: 8
bearing: 1.79422092438
intensity: 28.0277366638
---
header: 
  seq: 1668975
  stamp: 
    secs: 1561868849
    nsecs: 276362082
  frame_id: "ti_mmwave"
point_id: 9
x: 1.634765625
y: 0.10546875
z: -0.357421875
range: 1.78665578365
velocity: 0.0
doppler_bin: 8
bearing: 3.69138598442
intensity: 30.5037975311
---
header: 
  seq: 1668976
  stamp: 
    secs: 1561868849
    nsecs: 276383764
  frame_id: "ti_mmwave"
point_id: 10
x: 1.6796875
y: 0.107421875
z: -0.34375
range: 1.83023273945
velocity: 0.0
doppler_bin: 8
bearing: 3.65928149223
intensity: 30.4296913147
---
header: 
  seq: 1668977
  stamp: 
    secs: 1561868849
    nsecs: 276399290
  frame_id: "ti_mmwave"
point_id: 11
x: 1.748046875
y: 0.109375
z: -0.15625
range: 1.87380969524
velocity: 0.0
doppler_bin: 8
bearing: 3.58032011986
intensity: 27.4973640442
---
header: 
  seq: 1668978
  stamp: 
    secs: 1561868849
    nsecs: 276428889
  frame_id: "ti_mmwave"
point_id: 12
x: 1.716796875
y: 0.517578125
z: 0.4140625
range: 1.96096372604
velocity: 0.0
doppler_bin: 8
bearing: 16.7769546509
intensity: 25.5266819
---
header: 
  seq: 1668979
  stamp: 
    secs: 1561868849
    nsecs: 276479412
  frame_id: "ti_mmwave"
point_id: 13
x: 1.7578125
y: 0.587890625
z: 0.330078125
range: 2.00454068184
velocity: 0.0
doppler_bin: 8
bearing: 18.492225647
intensity: 26.0638141632
---
header: 
  seq: 1668980
  stamp: 
    secs: 1561868849
    nsecs: 276496046
  frame_id: "ti_mmwave"
point_id: 14
x: 2.62109375
y: -0.17578125
z: 1.033203125
range: 3.00681090355
velocity: 0.0
doppler_bin: 8
bearing: -3.83674383163
intensity: 28.8138465881
---
header: 
  seq: 1668981
  stamp: 
    secs: 1561868849
    nsecs: 276509050
  frame_id: "ti_mmwave"
point_id: 15
x: 2.662109375
y: -0.1796875
z: 1.041015625
range: 3.05038785934
velocity: 0.0
doppler_bin: 8
bearing: -3.86150240898
intensity: 31.9479179382
---
header: 
  seq: 1668982
  stamp: 
    secs: 1561868849
    nsecs: 276526919
  frame_id: "ti_mmwave"
point_id: 16
x: 2.755859375
y: -0.08984375
z: 0.9140625
range: 3.09396481514
velocity: 0.0
doppler_bin: 8
bearing: -1.86723792553
intensity: 30.8707122803
---
header: 
  seq: 1668983
  stamp: 
    secs: 1561868849
    nsecs: 276550908
  frame_id: "ti_mmwave"
point_id: 17
x: 4.37890625
y: -0.142578125
z: 1.19140625
range: 4.83704376221
velocity: 0.0
doppler_bin: 8
bearing: -1.86490392685
intensity: 28.5793533325
---
header: 
  seq: 1668984
  stamp: 
    secs: 1561868849
    nsecs: 276624498
  frame_id: "ti_mmwave"
point_id: 18
x: 4.404296875
y: -0.142578125
z: 1.251953125
range: 4.88062095642
velocity: 0.0
doppler_bin: 8
bearing: -1.85416030884
intensity: 31.7983894348
---
header: 
  seq: 1668985
  stamp: 
    secs: 1561868849
    nsecs: 276643945
  frame_id: "ti_mmwave"
point_id: 19
x: 4.451171875
y: -0.14453125
z: 1.240234375
range: 4.9241976738
velocity: 0.0
doppler_bin: 8
bearing: -1.8597625494
intensity: 31.427022934
---
header: 
  seq: 1668986
  stamp: 
    secs: 1561868849
    nsecs: 276658717
  frame_id: "ti_mmwave"
point_id: 20
x: 4.779296875
y: -0.30078125
z: -0.607421875
range: 5.14208269119
velocity: 0.0
doppler_bin: 8
bearing: -3.60111522675
intensity: 30.1911621094
---
header: 
  seq: 1668987
  stamp: 
    secs: 1561868849
    nsecs: 276729096
  frame_id: "ti_mmwave"
point_id: 21
x: 1.896484375
y: -0.30078125
z: 0.111328125
range: 2.04811763763
velocity: 1.22933733463
doppler_bin: 10
bearing: -9.01201248169
intensity: 23.0535144806
---
header: 
  seq: 1668988
  stamp: 
    secs: 1561868849
    nsecs: 276744992
  frame_id: "ti_mmwave"
point_id: 22
x: 1.93359375
y: -0.24609375
z: 0.23828125
range: 2.09169459343
velocity: 1.22933733463
doppler_bin: 10
bearing: -7.25319480896
intensity: 24.5024909973
---
header: 
  seq: 1668989
  stamp: 
    secs: 1561868849
    nsecs: 276763367
  frame_id: "ti_mmwave"
point_id: 24
x: 0.041015625
y: -0.033203125
z: 0.0625
range: 0.0871539413929
velocity: 0.0
doppler_bin: 8
bearing: -38.9909973145
intensity: 30.0860023499
---
header: 
  seq: 1668990
  stamp: 
    secs: 1561868849
    nsecs: 276776383
  frame_id: "ti_mmwave"
point_id: 25
x: 0.046875
y: -0.046875
z: 0.103515625
range: 0.130730912089
velocity: 0.0
doppler_bin: 8
bearing: -45.0
intensity: 29.0036716461
---
header: 
  seq: 1668991
  stamp: 
    secs: 1561868849
    nsecs: 276792749
  frame_id: "ti_mmwave"
point_id: 27
x: 1.6796875
y: -0.4609375
z: 0.59765625
range: 1.96096372604
velocity: 0.0
doppler_bin: 8
bearing: -15.3452768326
intensity: 24.563659668
---
header: 
  seq: 1668992
  stamp: 
    secs: 1561868849
    nsecs: 276860033
  frame_id: "ti_mmwave"
point_id: 28
x: 1.767578125
y: -0.470703125
z: 0.439453125
range: 2.00454068184
velocity: 0.0
doppler_bin: 8
bearing: -14.9117136002
intensity: 25.0785579681
---
header: 
  seq: 1668993
  stamp: 
    secs: 1561868849
    nsecs: 276874638
  frame_id: "ti_mmwave"
point_id: 29
x: 0.501953125
y: -0.900390625
z: -1.623046875
range: 2.04811763763
velocity: 1.22933733463
doppler_bin: 10
bearing: -60.8610420227
intensity: 22.7875366211
---
header: 
  seq: 1668994
  stamp: 
    secs: 1561868849
    nsecs: 276888425
  frame_id: "ti_mmwave"
point_id: 30
x: 0.49609375
y: -0.919921875
z: -1.662109375
range: 2.09169459343
velocity: 1.22933733463
doppler_bin: 10
bearing: -61.6629829407
intensity: 23.7657699585
---
header: 
  seq: 1668995
  stamp: 
    secs: 1561868849
    nsecs: 277472145
  frame_id: "ti_mmwave"
point_id: 0
x: 0.01171875
y: -0.0390625
z: -0.0078125
range: 0.0435769706964
velocity: 0.0
doppler_bin: 8
bearing: -73.3007583618
intensity: 30.6370849609
---
header: 
  seq: 1668996
  stamp: 
    secs: 1561868849
    nsecs: 277525011
  frame_id: "ti_mmwave"
point_id: 1
x: 0.017578125
y: -0.080078125
z: -0.0078125
range: 0.0871539413929
velocity: 0.0
doppler_bin: 8
bearing: -77.6192398071
intensity: 31.8977088928
---
header: 
  seq: 1668997
  stamp: 
    secs: 1561868849
    nsecs: 277541408
  frame_id: "ti_mmwave"
point_id: 2
x: 0.029296875
y: -0.119140625
z: -0.005859375
range: 0.130730912089
velocity: 0.0
doppler_bin: 8
bearing: -76.1849746704
intensity: 30.1072387695
---
header: 
  seq: 1668998
  stamp: 
    secs: 1561868849
    nsecs: 277556017
  frame_id: "ti_mmwave"
point_id: 3
x: 0.056640625
y: -0.154296875
z: 0.005859375
range: 0.174307882786
velocity: 0.0
doppler_bin: 8
bearing: -69.8423843384
intensity: 25.4282550812
---
header: 
  seq: 1668999
  stamp: 
    secs: 1561868849
    nsecs: 277621920
  frame_id: "ti_mmwave"
point_id: 4
x: 0.171875
y: -0.080078125
z: 1.25390625
range: 1.35088610649
velocity: 0.0
doppler_bin: 8
bearing: -24.9812393188
intensity: 23.2014636993
---
header: 
  seq: 1669000
  stamp: 
    secs: 1561868849
    nsecs: 277636670
  frame_id: "ti_mmwave"
point_id: 5
x: 0.078125
y: -0.08203125
z: 1.3046875
range: 1.39446306229
velocity: 0.0
doppler_bin: 8
bearing: -46.3971824646
intensity: 24.6982192993
---
header: 
  seq: 1669001
  stamp: 
    secs: 1561868849
    nsecs: 277648945
  frame_id: "ti_mmwave"
point_id: 6
x: 0.388671875
y: -0.083984375
z: -1.2890625
range: 1.43804001808
velocity: 0.0
doppler_bin: 8
bearing: -12.1930341721
intensity: 23.1597042084
---
header: 
  seq: 1669002
  stamp: 
    secs: 1561868849
    nsecs: 277660234
  frame_id: "ti_mmwave"
point_id: 7
x: 0.5703125
y: -0.04296875
z: -1.267578125
range: 1.48161697388
velocity: 0.0
doppler_bin: 8
bearing: -4.30866527557
intensity: 21.7318630219
---
header: 
  seq: 1669003
  stamp: 
    secs: 1561868849
    nsecs: 277672070
  frame_id: "ti_mmwave"
point_id: 8
x: 1.58984375
y: -0.0
z: -0.126953125
range: 1.69950187206
velocity: 0.0
doppler_bin: 8
bearing: -0.0
intensity: 28.1090431213
---
header: 
  seq: 1669004
  stamp: 
    secs: 1561868849
    nsecs: 277684237
  frame_id: "ti_mmwave"
point_id: 9
x: 1.634765625
y: 0.05078125
z: -0.0703125
range: 1.74307882786
velocity: 0.0
doppler_bin: 8
bearing: 1.77922511101
intensity: 29.5999488831
---
header: 
  seq: 1669005
  stamp: 
    secs: 1561868849
    nsecs: 277697312
  frame_id: "ti_mmwave"
point_id: 10
x: 1.619140625
y: -0.0
z: -0.572265625
range: 1.83023273945
velocity: 0.0
doppler_bin: 8
bearing: -0.0
intensity: 29.5760726929
---
header: 
  seq: 1669006
  stamp: 
    secs: 1561868849
    nsecs: 277789570
  frame_id: "ti_mmwave"
point_id: 11
x: 1.677734375
y: 0.0546875
z: -0.529296875
range: 1.87380969524
velocity: 0.0
doppler_bin: 8
bearing: 1.86695456505
intensity: 28.3947811127
---
header: 
  seq: 1669007
  stamp: 
    secs: 1561868849
    nsecs: 277820020
  frame_id: "ti_mmwave"
point_id: 12
x: 1.763671875
y: 0.4609375
z: 0.251953125
range: 1.96096372604
velocity: 0.0
doppler_bin: 8
bearing: 14.6466999054
intensity: 28.9265098572
---
header: 
  seq: 1669008
  stamp: 
    secs: 1561868849
    nsecs: 277834487
  frame_id: "ti_mmwave"
point_id: 13
x: 1.79296875
y: 0.529296875
z: 0.20703125
range: 2.00454068184
velocity: 0.0
doppler_bin: 8
bearing: 16.4469680786
intensity: 29.6614170074
---
header: 
  seq: 1669009
  stamp: 
    secs: 1561868849
    nsecs: 277858679
  frame_id: "ti_mmwave"
point_id: 14
x: 1.818359375
y: 0.6015625
z: 0.177734375
range: 2.04811763763
velocity: 0.0
doppler_bin: 8
bearing: 18.3056125641
intensity: 27.1432971954
---
header: 
  seq: 1669010
  stamp: 
    secs: 1561868849
    nsecs: 277873003
  frame_id: "ti_mmwave"
point_id: 15
x: 2.65234375
y: -0.1796875
z: 1.064453125
range: 3.05038785934
velocity: 0.0
doppler_bin: 8
bearing: -3.87567687035
intensity: 31.8155784607
---
header: 
  seq: 1669011
  stamp: 
    secs: 1561868849
    nsecs: 277895599
  frame_id: "ti_mmwave"
point_id: 16
x: 2.751953125
y: -0.08984375
z: 0.92578125
range: 3.09396481514
velocity: 0.0
doppler_bin: 8
bearing: -1.86988639832
intensity: 30.8919830322
---
header: 
  seq: 1669012
  stamp: 
    secs: 1561868849
    nsecs: 277968638
  frame_id: "ti_mmwave"
point_id: 17
x: 4.3828125
y: -0.142578125
z: 1.177734375
range: 4.83704376221
velocity: 0.0
doppler_bin: 8
bearing: -1.86324298382
intensity: 28.5733242035
---
header: 
  seq: 1669013
  stamp: 
    secs: 1561868849
    nsecs: 277983492
  frame_id: "ti_mmwave"
point_id: 18
x: 4.400390625
y: -0.142578125
z: 1.26953125
range: 4.88062095642
velocity: 0.0
doppler_bin: 8
bearing: -1.85580503941
intensity: 31.8892841339
---
header: 
  seq: 1669014
  stamp: 
    secs: 1561868849
    nsecs: 277998962
  frame_id: "ti_mmwave"
point_id: 19
x: 4.4375
y: -0.14453125
z: 1.2890625
range: 4.9241976738
velocity: 0.0
doppler_bin: 8
bearing: -1.86548817158
intensity: 31.5411949158
---
header: 
  seq: 1669015
  stamp: 
    secs: 1561868849
    nsecs: 278017625
  frame_id: "ti_mmwave"
point_id: 20
x: 4.775390625
y: -0.30078125
z: -0.634765625
range: 5.14208269119
velocity: 0.0
doppler_bin: 8
bearing: -3.60405302048
intensity: 30.1828422546
---
header: 
  seq: 1669016
  stamp: 
    secs: 1561868849
    nsecs: 278073395
  frame_id: "ti_mmwave"
point_id: 22
x: 0.041015625
y: -0.033203125
z: 0.0625
range: 0.0871539413929
velocity: 0.0
doppler_bin: 8
bearing: -38.9909973145
intensity: 30.0902576447
---
header: 
  seq: 1669017
  stamp: 
    secs: 1561868849
    nsecs: 278088103
  frame_id: "ti_mmwave"
point_id: 23
x: 0.044921875
y: -0.046875
z: 0.103515625
range: 0.130730912089
velocity: 0.0
doppler_bin: 8
bearing: -46.218875885
intensity: 29.0036716461
---
header: 
  seq: 1669018
  stamp: 
    secs: 1561868849
    nsecs: 336008650
  frame_id: "ti_mmwave"
point_id: 0
x: 0.01171875
y: -0.0390625
z: -0.0078125
range: 0.0435769706964
velocity: 0.0
doppler_bin: 8
bearing: -73.3007583618
intensity: 30.6408348083
---
header: 
  seq: 1669019
  stamp: 
    secs: 1561868849
    nsecs: 336092409
  frame_id: "ti_mmwave"
point_id: 1
x: 0.017578125
y: -0.080078125
z: -0.0078125
range: 0.0871539413929
velocity: 0.0
doppler_bin: 8
bearing: -77.6192398071
intensity: 31.8977088928
---
header: 
  seq: 1669020
  stamp: 
    secs: 1561868849
    nsecs: 336104183
  frame_id: "ti_mmwave"
point_id: 2
x: 0.029296875
y: -0.119140625
z: -0.005859375
range: 0.130730912089
velocity: 0.0
doppler_bin: 8
bearing: -76.1849746704
intensity: 30.1157035828
---
header: 
  seq: 1669021
  stamp: 
    secs: 1561868849
    nsecs: 336113122
  frame_id: "ti_mmwave"
point_id: 3
x: 0.056640625
y: -0.154296875
z: 0.0078125
range: 0.174307882786
velocity: 0.0
doppler_bin: 8
bearing: -69.8423843384
intensity: 25.4406795502
---
header: 
  seq: 1669022
  stamp: 
    secs: 1561868849
    nsecs: 336126021
  frame_id: "ti_mmwave"
point_id: 4
x: 0.142578125
y: -0.080078125
z: 1.2578125
range: 1.35088610649
velocity: 0.0
doppler_bin: 8
bearing: -29.3204746246
intensity: 23.1175384521
---
header: 
  seq: 1669023
  stamp: 
    secs: 1561868849
    nsecs: 336136889
  frame_id: "ti_mmwave"
point_id: 6
x: 0.42578125
y: -0.083984375
z: -1.279296875
range: 1.43804001808
velocity: 0.0
doppler_bin: 8
bearing: -11.1582231522
intensity: 23.0963020325
---
header: 
  seq: 1669024
  stamp: 
    secs: 1561868849
    nsecs: 336145880
  frame_id: "ti_mmwave"
point_id: 7
x: 0.591796875
y: -0.04296875
z: -1.2578125
range: 1.48161697388
velocity: 0.0
doppler_bin: 8
bearing: -4.15280246735
intensity: 21.6731739044
---
header: 
  seq: 1669025
  stamp: 
    secs: 1561868849
    nsecs: 336172097
  frame_id: "ti_mmwave"
point_id: 8
x: 1.625
y: 0.05078125
z: -0.177734375
range: 1.74307882786
velocity: 0.0
doppler_bin: 8
bearing: 1.7899106741
intensity: 30.6707077026
---
header: 
  seq: 1669026
  stamp: 
    secs: 1561868849
    nsecs: 336186922
  frame_id: "ti_mmwave"
point_id: 9
x: 1.666015625
y: 0.10546875
z: -0.16796875
range: 1.78665578365
velocity: 0.0
doppler_bin: 8
bearing: 3.62233185768
intensity: 31.455072403
---
header: 
  seq: 1669027
  stamp: 
    secs: 1561868849
    nsecs: 336200951
  frame_id: "ti_mmwave"
point_id: 10
x: 1.712890625
y: 0.107421875
z: -0.068359375
range: 1.83023273945
velocity: 0.0
doppler_bin: 8
bearing: 3.58853602409
intensity: 30.2694168091
---
header: 
  seq: 1669028
  stamp: 
    secs: 1561868849
    nsecs: 336214893
  frame_id: "ti_mmwave"
point_id: 11
x: 1.73046875
y: 0.1640625
z: 0.271484375
range: 1.87380969524
velocity: 0.0
doppler_bin: 8
bearing: 5.41591691971
intensity: 28.4135951996
---
header: 
  seq: 1669029
  stamp: 
    secs: 1561868849
    nsecs: 336378451
  frame_id: "ti_mmwave"
point_id: 12
x: 1.716796875
y: 0.11328125
z: 0.529296875
range: 1.91738677025
velocity: 0.0
doppler_bin: 8
bearing: 3.77513599396
intensity: 27.5966777802
---
header: 
  seq: 1669030
  stamp: 
    secs: 1561868849
    nsecs: 336399159
  frame_id: "ti_mmwave"
point_id: 13
x: 2.62109375
y: -0.17578125
z: 1.03125
range: 3.00681090355
velocity: 0.0
doppler_bin: 8
bearing: -3.83674383163
intensity: 28.9817657471
---
header: 
  seq: 1669031
  stamp: 
    secs: 1561868849
    nsecs: 336407781
  frame_id: "ti_mmwave"
point_id: 14
x: 2.66796875
y: -0.1796875
z: 1.0234375
range: 3.05038785934
velocity: 0.0
doppler_bin: 8
bearing: -3.85304760933
intensity: 32.2193565369
---
header: 
  seq: 1669032
  stamp: 
    secs: 1561868849
    nsecs: 336416076
  frame_id: "ti_mmwave"
point_id: 15
x: 2.759765625
y: -0.08984375
z: 0.8984375
range: 3.09396481514
velocity: 0.0
doppler_bin: 8
bearing: -1.86459684372
intensity: 31.3640346527
---
header: 
  seq: 1669033
  stamp: 
    secs: 1561868849
    nsecs: 336421401
  frame_id: "ti_mmwave"
point_id: 16
x: 4.345703125
y: -0.0
z: 1.318359375
range: 4.83704376221
velocity: 0.0
doppler_bin: 8
bearing: -0.0
intensity: 29.0036716461
---
header: 
  seq: 1669034
  stamp: 
    secs: 1561868849
    nsecs: 336464038
  frame_id: "ti_mmwave"
point_id: 17
x: 4.392578125
y: -0.142578125
z: 1.294921875
range: 4.88062095642
velocity: 0.0
doppler_bin: 8
bearing: -1.85910367966
intensity: 32.4029960632
---
header: 
  seq: 1669035
  stamp: 
    secs: 1561868849
    nsecs: 336474843
  frame_id: "ti_mmwave"
point_id: 18
x: 4.44140625
y: -0.14453125
z: 1.26953125
range: 4.9241976738
velocity: 0.0
doppler_bin: 8
bearing: -1.86384868622
intensity: 31.9312458038
---
header: 
  seq: 1669036
  stamp: 
    secs: 1561868849
    nsecs: 336485113
  frame_id: "ti_mmwave"
point_id: 20
x: 0.041015625
y: -0.033203125
z: 0.0625
range: 0.0871539413929
velocity: 0.0
doppler_bin: 8
bearing: -38.9909973145
intensity: 30.0860023499
---
header: 
  seq: 1669037
  stamp: 
    secs: 1561868849
    nsecs: 336493378
  frame_id: "ti_mmwave"
point_id: 21
x: 0.044921875
y: -0.046875
z: 0.103515625
range: 0.130730912089
velocity: 0.0
doppler_bin: 8
bearing: -46.218875885
intensity: 29.0036716461
---
header: 
  seq: 1669038
  stamp: 
    secs: 1561868849
    nsecs: 337266460
  frame_id: "ti_mmwave"
point_id: 0
x: 0.01171875
y: -0.0390625
z: -0.0078125
range: 0.0435769706964
velocity: 0.0
doppler_bin: 8
bearing: -73.3007583618
intensity: 30.6408348083
---
header: 
  seq: 1669039
  stamp: 
    secs: 1561868849
    nsecs: 337321003
  frame_id: "ti_mmwave"
point_id: 1
x: 0.017578125
y: -0.080078125
z: -0.0078125
range: 0.0871539413929
velocity: 0.0
doppler_bin: 8
bearing: -77.6192398071
intensity: 31.8977088928
---
header: 
  seq: 1669040
  stamp: 
    secs: 1561868849
    nsecs: 337342201
  frame_id: "ti_mmwave"
point_id: 2
x: 0.029296875
y: -0.119140625
z: -0.005859375
range: 0.130730912089
velocity: 0.0
doppler_bin: 8
bearing: -76.1849746704
intensity: 30.1157035828
---
header: 
  seq: 1669041
  stamp: 
    secs: 1561868849
    nsecs: 337354758
  frame_id: "ti_mmwave"
point_id: 3
x: 0.056640625
y: -0.154296875
z: 0.005859375
range: 0.174307882786
velocity: 0.0
doppler_bin: 8
bearing: -69.8423843384
intensity: 25.4406795502
---
header: 
  seq: 1669042
  stamp: 
    secs: 1561868849
    nsecs: 337456360
  frame_id: "ti_mmwave"
point_id: 4
x: 0.12109375
y: -0.080078125
z: 1.259765625
range: 1.35088610649
velocity: 0.0
doppler_bin: 8
bearing: -33.4762802124
intensity: 23.138671875
---
header: 
  seq: 1669043
  stamp: 
    secs: 1561868849
    nsecs: 337488129
  frame_id: "ti_mmwave"
point_id: 6
x: 0.431640625
y: -0.083984375
z: -1.27734375
range: 1.43804001808
velocity: 0.0
doppler_bin: 8
bearing: -11.0104799271
intensity: 23.0963020325
---
header: 
  seq: 1669044
  stamp: 
    secs: 1561868849
    nsecs: 337502788
  frame_id: "ti_mmwave"
point_id: 7
x: 0.578125
y: -0.04296875
z: -1.263671875
range: 1.48161697388
velocity: 0.0
doppler_bin: 8
bearing: -4.25065469742
intensity: 21.7026176453
---
header: 
  seq: 1669045
  stamp: 
    secs: 1561868849
    nsecs: 337511666
  frame_id: "ti_mmwave"
point_id: 8
x: 2.689453125
y: -0.08984375
z: 0.98046875
range: 3.05038785934
velocity: 0.0
doppler_bin: 8
bearing: -1.91330885887
intensity: 32.0897865295
---
header: 
  seq: 1669046
  stamp: 
    secs: 1561868849
    nsecs: 337536519
  frame_id: "ti_mmwave"
point_id: 9
x: 2.755859375
y: -0.08984375
z: 0.912109375
range: 3.09396481514
velocity: 0.0
doppler_bin: 8
bearing: -1.86723792553
intensity: 31.25806427
---
header: 
  seq: 1669047
  stamp: 
    secs: 1561868849
    nsecs: 337598306
  frame_id: "ti_mmwave"
point_id: 10
x: 4.3828125
y: -0.142578125
z: 1.177734375
range: 4.83704376221
velocity: 0.0
doppler_bin: 8
bearing: -1.86324298382
intensity: 29.1960105896
---
header: 
  seq: 1669048
  stamp: 
    secs: 1561868849
    nsecs: 337616451
  frame_id: "ti_mmwave"
point_id: 11
x: 4.40234375
y: -0.142578125
z: 1.26171875
range: 4.88062095642
velocity: 0.0
doppler_bin: 8
bearing: -1.85498249531
intensity: 32.5695800781
---
header: 
  seq: 1669049
  stamp: 
    secs: 1561868849
    nsecs: 337630208
  frame_id: "ti_mmwave"
point_id: 12
x: 4.439453125
y: -0.14453125
z: 1.28125
range: 4.9241976738
velocity: 0.0
doppler_bin: 8
bearing: -1.86466813087
intensity: 32.1774711609
---
header: 
  seq: 1669050
  stamp: 
    secs: 1561868849
    nsecs: 337642920
  frame_id: "ti_mmwave"
point_id: 13
x: 4.88671875
y: -0.30859375
z: 0.724609375
range: 5.27281332016
velocity: 0.0
doppler_bin: 8
bearing: -3.61340069771
intensity: 30.1325874329
---
header: 
  seq: 1669051
  stamp: 
    secs: 1561868849
    nsecs: 337666072
  frame_id: "ti_mmwave"
point_id: 14
x: 4.951171875
y: -0.623046875
z: -0.060546875
range: 5.31639051437
velocity: 0.0
doppler_bin: 8
bearing: -7.17230129242
intensity: 29.0363254547
---
header: 
  seq: 1669052
  stamp: 
    secs: 1561868849
    nsecs: 337717628
  frame_id: "ti_mmwave"
point_id: 15
x: 1.724609375
y: 0.0546875
z: 0.345703125
range: 1.87380969524
velocity: -0.614668667316
doppler_bin: 7
bearing: 1.81624531746
intensity: 27.3559894562
---
header: 
  seq: 1669053
  stamp: 
    secs: 1561868849
    nsecs: 337735639
  frame_id: "ti_mmwave"
point_id: 16
x: 1.755859375
y: 0.056640625
z: 0.39453125
range: 1.91738677025
velocity: -0.614668667316
doppler_bin: 7
bearing: 1.847610116
intensity: 26.4443855286
---
header: 
  seq: 1669054
  stamp: 
    secs: 1561868849
    nsecs: 337753331
  frame_id: "ti_mmwave"
point_id: 18
x: 0.041015625
y: -0.033203125
z: 0.0625
range: 0.0871539413929
velocity: 0.0
doppler_bin: 8
bearing: -38.9909973145
intensity: 30.0860023499
---
header: 
  seq: 1669055
  stamp: 
    secs: 1561868849
    nsecs: 337762456
  frame_id: "ti_mmwave"
point_id: 19
x: 0.044921875
y: -0.046875
z: 0.103515625
range: 0.130730912089
velocity: 0.0
doppler_bin: 8
bearing: -46.218875885
intensity: 29.0036716461
---
header: 
  seq: 1669056
  stamp: 
    secs: 1561868849
    nsecs: 395927218
  frame_id: "ti_mmwave"
point_id: 0
x: 0.01171875
y: -0.0390625
z: -0.0078125
range: 0.0435769706964
velocity: 0.0
doppler_bin: 8
bearing: -73.3007583618
intensity: 30.6408348083
---
header: 
  seq: 1669057
  stamp: 
    secs: 1561868849
    nsecs: 396024662
  frame_id: "ti_mmwave"
point_id: 1
x: 0.017578125
y: -0.080078125
z: -0.0078125
range: 0.0871539413929
velocity: 0.0
doppler_bin: 8
bearing: -77.6192398071
intensity: 31.8977088928
---
header: 
  seq: 1669058
  stamp: 
    secs: 1561868849
    nsecs: 396038907
  frame_id: "ti_mmwave"
point_id: 2
x: 0.029296875
y: -0.119140625
z: -0.005859375
range: 0.130730912089
velocity: 0.0
doppler_bin: 8
bearing: -76.1849746704
intensity: 30.1114730835
---
header: 
  seq: 1669059
  stamp: 
    secs: 1561868849
    nsecs: 396047573
  frame_id: "ti_mmwave"
point_id: 3
x: 0.056640625
y: -0.154296875
z: 0.005859375
range: 0.174307882786
velocity: 0.0
doppler_bin: 8
bearing: -69.8423843384
intensity: 25.4406795502
---
header: 
  seq: 1669060
  stamp: 
    secs: 1561868849
    nsecs: 396057950
  frame_id: "ti_mmwave"
point_id: 4
x: 0.14453125
y: -0.080078125
z: 1.2578125
range: 1.35088610649
velocity: 0.0
doppler_bin: 8
bearing: -28.9888248444
intensity: 23.138671875
---
header: 
  seq: 1669061
  stamp: 
    secs: 1561868849
    nsecs: 396068581
  frame_id: "ti_mmwave"
point_id: 6
x: 0.41015625
y: -0.083984375
z: -1.283203125
range: 1.43804001808
velocity: 0.0
doppler_bin: 8
bearing: -11.5720338821
intensity: 23.0749607086
---
header: 
  seq: 1669062
  stamp: 
    secs: 1561868849
    nsecs: 396077236
  frame_id: "ti_mmwave"
point_id: 7
x: 0.560546875
y: -0.04296875
z: -1.271484375
range: 1.48161697388
velocity: 0.0
doppler_bin: 8
bearing: -4.38343858719
intensity: 21.7026176453
---
header: 
  seq: 1669063
  stamp: 
    secs: 1561868849
    nsecs: 396094281
  frame_id: "ti_mmwave"
point_id: 8
x: 2.6328125
y: -0.17578125
z: 1.0
range: 3.00681090355
velocity: 0.0
doppler_bin: 8
bearing: -3.81971669197
intensity: 29.127532959
---
header: 
  seq: 1669064
  stamp: 
    secs: 1561868849
    nsecs: 396107691
  frame_id: "ti_mmwave"
point_id: 9
x: 2.662109375
y: -0.1796875
z: 1.0390625
range: 3.05038785934
velocity: 0.0
doppler_bin: 8
bearing: -3.86150240898
intensity: 32.1378326416
---
header: 
  seq: 1669065
  stamp: 
    secs: 1561868849
    nsecs: 396115703
  frame_id: "ti_mmwave"
point_id: 10
x: 2.755859375
y: -0.08984375
z: 0.912109375
range: 3.09396481514
velocity: 0.0
doppler_bin: 8
bearing: -1.86723792553
intensity: 30.934217453
---
header: 
  seq: 1669066
  stamp: 
    secs: 1561868849
    nsecs: 396281279
  frame_id: "ti_mmwave"
point_id: 11
x: 4.388671875
y: -0.142578125
z: 1.154296875
range: 4.83704376221
velocity: 0.0
doppler_bin: 8
bearing: -1.86075723171
intensity: 29.2116603851
---
header: 
  seq: 1669067
  stamp: 
    secs: 1561868849
    nsecs: 396313748
  frame_id: "ti_mmwave"
point_id: 12
x: 4.408203125
y: -0.142578125
z: 1.240234375
range: 4.88062095642
velocity: 0.0
doppler_bin: 8
bearing: -1.85251843929
intensity: 32.4895362854
---
header: 
  seq: 1669068
  stamp: 
    secs: 1561868849
    nsecs: 396327290
  frame_id: "ti_mmwave"
point_id: 13
x: 4.447265625
y: -0.14453125
z: 1.25
range: 4.9241976738
velocity: 0.0
doppler_bin: 8
bearing: -1.86139500141
intensity: 32.0628585815
---
header: 
  seq: 1669069
  stamp: 
    secs: 1561868849
    nsecs: 396354765
  frame_id: "ti_mmwave"
point_id: 14
x: 4.88671875
y: -0.154296875
z: 0.7734375
range: 5.27281332016
velocity: 0.0
doppler_bin: 8
bearing: -1.80849850178
intensity: 31.4050807953
---
header: 
  seq: 1669070
  stamp: 
    secs: 1561868849
    nsecs: 396370748
  frame_id: "ti_mmwave"
point_id: 15
x: 4.966796875
y: -0.46875
z: 0.1015625
range: 5.31639051437
velocity: 0.0
doppler_bin: 8
bearing: -5.39141845703
intensity: 29.7635002136
---
header: 
  seq: 1669071
  stamp: 
    secs: 1561868849
    nsecs: 396444140
  frame_id: "ti_mmwave"
point_id: 17
x: 0.041015625
y: -0.033203125
z: 0.0625
range: 0.0871539413929
velocity: 0.0
doppler_bin: 8
bearing: -38.9909973145
intensity: 30.0902576447
---
header: 
  seq: 1669072
  stamp: 
    secs: 1561868849
    nsecs: 396460801
  frame_id: "ti_mmwave"
point_id: 18
x: 0.044921875
y: -0.046875
z: 0.103515625
range: 0.130730912089
velocity: 0.0
doppler_bin: 8
bearing: -46.218875885
intensity: 29.0091304779
---
header: 
  seq: 1669073
  stamp: 
    secs: 1561868849
    nsecs: 456013146
  frame_id: "ti_mmwave"
point_id: 0
x: 0.01171875
y: -0.0390625
z: -0.0078125
range: 0.0435769706964
velocity: 0.0
doppler_bin: 8
bearing: -73.3007583618
intensity: 30.6370849609
---
header: 
  seq: 1669074
  stamp: 
    secs: 1561868849
    nsecs: 456082322
  frame_id: "ti_mmwave"
point_id: 1
x: 0.017578125
y: -0.080078125
z: -0.0078125
range: 0.0871539413929
velocity: 0.0
doppler_bin: 8
bearing: -77.6192398071
intensity: 31.8977088928
---
header: 
  seq: 1669075
  stamp: 
    secs: 1561868849
    nsecs: 456093267
  frame_id: "ti_mmwave"
point_id: 2
x: 0.029296875
y: -0.119140625
z: -0.005859375
range: 0.130730912089
velocity: 0.0
doppler_bin: 8
bearing: -76.1849746704
intensity: 30.1157035828
---
header: 
  seq: 1669076
  stamp: 
    secs: 1561868849
    nsecs: 456101959
  frame_id: "ti_mmwave"
point_id: 3
x: 0.056640625
y: -0.154296875
z: 0.0078125
range: 0.174307882786
velocity: 0.0
doppler_bin: 8
bearing: -69.8423843384
intensity: 25.4406795502
---
header: 
  seq: 1669077
  stamp: 
    secs: 1561868849
    nsecs: 456111249
  frame_id: "ti_mmwave"
point_id: 4
x: 0.1484375
y: -0.080078125
z: 1.255859375
range: 1.35088610649
velocity: 0.0
doppler_bin: 8
bearing: -28.3456954956
intensity: 23.1597042084
---
header: 
  seq: 1669078
  stamp: 
    secs: 1561868849
    nsecs: 456121754
  frame_id: "ti_mmwave"
point_id: 5
x: 0.09375
y: -0.08203125
z: 1.302734375
range: 1.39446306229
velocity: 0.0
doppler_bin: 8
bearing: -41.18592453
intensity: 24.683473587
---
header: 
  seq: 1669079
  stamp: 
    secs: 1561868849
    nsecs: 456130129
  frame_id: "ti_mmwave"
point_id: 6
x: 0.41796875
y: -0.083984375
z: -1.28125
range: 1.43804001808
velocity: 0.0
doppler_bin: 8
bearing: -11.3614110947
intensity: 23.138671875
---
header: 
  seq: 1669080
  stamp: 
    secs: 1561868849
    nsecs: 456141021
  frame_id: "ti_mmwave"
point_id: 7
x: 0.576171875
y: -0.04296875
z: -1.265625
range: 1.48161697388
velocity: 0.0
doppler_bin: 8
bearing: -4.2650103569
intensity: 21.7318630219
---
header: 
  seq: 1669081
  stamp: 
    secs: 1561868849
    nsecs: 456149781
  frame_id: "ti_mmwave"
point_id: 8
x: 1.619140625
y: 0.05078125
z: -0.234375
range: 1.74307882786
velocity: 0.0
doppler_bin: 8
bearing: 1.79638373852
intensity: 29.670797348
---
header: 
  seq: 1669082
  stamp: 
    secs: 1561868849
    nsecs: 456158383
  frame_id: "ti_mmwave"
point_id: 9
x: 1.66796875
y: 0.052734375
z: -0.16015625
range: 1.78665578365
velocity: 0.0
doppler_bin: 8
bearing: 1.81085586548
intensity: 31.6106834412
---
header: 
  seq: 1669083
  stamp: 
    secs: 1561868849
    nsecs: 456166616
  frame_id: "ti_mmwave"
point_id: 10
x: 1.71484375
y: 0.107421875
z: -0.037109375
range: 1.83023273945
velocity: 0.0
doppler_bin: 8
bearing: 3.58445930481
intensity: 30.2077541351
---
header: 
  seq: 1669084
  stamp: 
    secs: 1561868849
    nsecs: 456174960
  frame_id: "ti_mmwave"
point_id: 11
x: 1.71875
y: -0.39453125
z: 0.365234375
range: 1.91738677025
velocity: 0.0
doppler_bin: 8
bearing: -12.928027153
intensity: 28.2865982056
---
header: 
  seq: 1669085
  stamp: 
    secs: 1561868849
    nsecs: 456186622
  frame_id: "ti_mmwave"
point_id: 12
x: 1.748046875
y: -0.40234375
z: 0.416015625
range: 1.96096372604
velocity: 0.0
doppler_bin: 8
bearing: -12.9618844986
intensity: 30.5422992706
---
header: 
  seq: 1669086
  stamp: 
    secs: 1561868849
    nsecs: 456194496
  frame_id: "ti_mmwave"
point_id: 13
x: 1.8046875
y: -0.353515625
z: 0.396484375
range: 2.00454068184
velocity: 0.0
doppler_bin: 8
bearing: -11.0831851959
intensity: 28.9872512817
---
header: 
  seq: 1669087
  stamp: 
    secs: 1561868849
    nsecs: 456341254
  frame_id: "ti_mmwave"
point_id: 14
x: 2.607421875
y: -0.17578125
z: 1.068359375
range: 3.00681090355
velocity: 0.0
doppler_bin: 8
