header: 
  seq: 1506974
  stamp: 
    secs: 1561865831
    nsecs:  37471567
  frame_id: "ti_mmwave"
point_id: 0
x: 0.01171875
y: -0.0390625
z: -0.0078125
range: 0.0435769706964
velocity: 0.0
doppler_bin: 8
bearing: -73.3007583618
intensity: 30.6408348083
---
header: 
  seq: 1506975
  stamp: 
    secs: 1561865831
    nsecs:  37554558
  frame_id: "ti_mmwave"
point_id: 1
x: 0.017578125
y: -0.080078125
z: -0.0078125
range: 0.0871539413929
velocity: 0.0
doppler_bin: 8
bearing: -77.6192398071
intensity: 31.9033164978
---
header: 
  seq: 1506976
  stamp: 
    secs: 1561865831
    nsecs:  37574141
  frame_id: "ti_mmwave"
point_id: 2
x: 0.029296875
y: -0.119140625
z: -0.005859375
range: 0.130730912089
velocity: 0.0
doppler_bin: 8
bearing: -76.1849746704
intensity: 30.141002655
---
header: 
  seq: 1506977
  stamp: 
    secs: 1561865831
    nsecs:  37587002
  frame_id: "ti_mmwave"
point_id: 3
x: 0.056640625
y: -0.154296875
z: 0.005859375
range: 0.174307882786
velocity: 0.0
doppler_bin: 8
bearing: -69.8423843384
intensity: 25.4530715942
---
header: 
  seq: 1506978
  stamp: 
    secs: 1561865831
    nsecs:  37600491
  frame_id: "ti_mmwave"
point_id: 4
x: 1.154296875
y: -0.0390625
z: -0.416015625
range: 1.3073091507
velocity: 0.0
doppler_bin: 8
bearing: -1.93820381165
intensity: 21.3353881836
---
header: 
  seq: 1506979
  stamp: 
    secs: 1561865831
    nsecs:  37614942
  frame_id: "ti_mmwave"
point_id: 5
x: 1.251953125
y: -0.0390625
z: -0.201171875
range: 1.35088610649
velocity: 0.0
doppler_bin: 8
bearing: -1.78711998463
intensity: 26.4738292694
---
header: 
  seq: 1506980
  stamp: 
    secs: 1561865831
    nsecs:  37627133
  frame_id: "ti_mmwave"
point_id: 6
x: 1.3046875
y: -0.08203125
z: -0.068359375
range: 1.39446306229
velocity: 0.0
doppler_bin: 8
bearing: -3.59769320488
intensity: 30.0346050262
---
header: 
  seq: 1506981
  stamp: 
    secs: 1561865831
    nsecs:  37638362
  frame_id: "ti_mmwave"
point_id: 7
x: 1.34765625
y: -0.083984375
z: 0.01953125
range: 1.43804001808
velocity: 0.0
doppler_bin: 8
bearing: -3.56599473953
intensity: 30.2897777557
---
header: 
  seq: 1506982
  stamp: 
    secs: 1561865831
    nsecs:  37649204
  frame_id: "ti_mmwave"
point_id: 8
x: 1.3515625
y: -0.130859375
z: 0.298828125
range: 1.48161697388
velocity: 0.0
doppler_bin: 8
bearing: -5.5301861763
intensity: 27.5127906799
---
header: 
  seq: 1506983
  stamp: 
    secs: 1561865831
    nsecs:  37660427
  frame_id: "ti_mmwave"
point_id: 9
x: 1.421875
y: -0.275390625
z: 0.265625
range: 1.56877088547
velocity: 0.0
doppler_bin: 8
bearing: -10.9614038467
intensity: 24.800069809
---
header: 
  seq: 1506984
  stamp: 
    secs: 1561865831
    nsecs:  37673027
  frame_id: "ti_mmwave"
point_id: 10
x: 2.611328125
y: -0.17578125
z: 1.0546875
range: 3.00681090355
velocity: 0.0
doppler_bin: 8
bearing: -3.85104894638
intensity: 29.0363254547
---
header: 
  seq: 1506985
  stamp: 
    secs: 1561865831
    nsecs:  37760433
  frame_id: "ti_mmwave"
point_id: 11
x: 2.6875
y: -0.08984375
z: 0.982421875
range: 3.05038785934
velocity: 0.0
doppler_bin: 8
bearing: -1.91469812393
intensity: 32.1404876709
---
header: 
  seq: 1506986
  stamp: 
    secs: 1561865831
    nsecs:  37780778
  frame_id: "ti_mmwave"
point_id: 12
x: 2.728515625
y: -0.181640625
z: 0.9765625
range: 3.09396481514
velocity: 0.0
doppler_bin: 8
bearing: -3.80863046646
intensity: 31.0619087219
---
header: 
  seq: 1506987
  stamp: 
    secs: 1561865831
    nsecs:  37792433
  frame_id: "ti_mmwave"
point_id: 13
x: 1.171875
y: -0.671875
z: -0.474609375
range: 1.52519392967
velocity: 0.614668667316
doppler_bin: 9
bearing: -29.8270835876
intensity: 26.2324924469
---
header: 
  seq: 1506988
  stamp: 
    secs: 1561865831
    nsecs:  37802366
  frame_id: "ti_mmwave"
point_id: 14
x: 0.009765625
y: 0.03125
z: 0.025390625
range: 0.0435769706964
velocity: 0.0
doppler_bin: 8
bearing: 72.6459732056
intensity: 29.3043956757
---
header: 
  seq: 1506989
  stamp: 
    secs: 1561865831
    nsecs:  37812683
  frame_id: "ti_mmwave"
point_id: 15
x: 0.041015625
y: -0.033203125
z: 0.0625
range: 0.0871539413929
velocity: 0.0
doppler_bin: 8
bearing: -38.9909973145
intensity: 30.0987567902
---
header: 
  seq: 1506990
  stamp: 
    secs: 1561865831
    nsecs:  37822959
  frame_id: "ti_mmwave"
point_id: 16
x: 0.044921875
y: -0.046875
z: 0.103515625
range: 0.130730912089
velocity: 0.0
doppler_bin: 8
bearing: -46.218875885
intensity: 28.9927310944
---
header: 
  seq: 1506991
  stamp: 
    secs: 1561865831
    nsecs:  37835705
  frame_id: "ti_mmwave"
point_id: 18
x: 0.923828125
y: -0.65234375
z: -0.80859375
range: 1.48161697388
velocity: 0.0
doppler_bin: 8
bearing: -35.227104187
intensity: 25.8433113098
---
header: 
  seq: 1506992
  stamp: 
    secs: 1561865831
    nsecs:  37846513
  frame_id: "ti_mmwave"
point_id: 19
x: 2.76953125
y: -0.0
z: 0.873046875
range: 3.09396481514
velocity: 0.0
doppler_bin: 8
bearing: -0.0
intensity: 31.058506012
---
header: 
  seq: 1506993
  stamp: 
    secs: 1561865831
    nsecs:  37859300
  frame_id: "ti_mmwave"
point_id: 20
x: 1.23828125
y: -0.1796875
z: 0.697265625
range: 1.52519392967
velocity: 0.614668667316
doppler_bin: 9
bearing: -8.25658321381
intensity: 24.5788192749
---
header: 
  seq: 1506994
  stamp: 
    secs: 1561865831
    nsecs:  39029192
  frame_id: "ti_mmwave"
point_id: 0
x: 0.01171875
y: -0.0390625
z: -0.0078125
range: 0.0435769706964
velocity: 0.0
doppler_bin: 8
bearing: -73.3007583618
intensity: 30.6445808411
---
header: 
  seq: 1506995
  stamp: 
    secs: 1561865831
    nsecs:  39085475
  frame_id: "ti_mmwave"
point_id: 1
x: 0.017578125
y: -0.080078125
z: -0.0078125
range: 0.0871539413929
velocity: 0.0
doppler_bin: 8
bearing: -77.6192398071
intensity: 31.9033164978
---
header: 
  seq: 1506996
  stamp: 
    secs: 1561865831
    nsecs:  39102767
  frame_id: "ti_mmwave"
point_id: 2
x: 0.029296875
y: -0.119140625
z: -0.005859375
range: 0.130730912089
velocity: 0.0
doppler_bin: 8
bearing: -76.1849746704
intensity: 30.141002655
---
header: 
  seq: 1506997
  stamp: 
    secs: 1561865831
    nsecs:  39115772
  frame_id: "ti_mmwave"
point_id: 3
x: 0.056640625
y: -0.154296875
z: 0.005859375
range: 0.174307882786
velocity: 0.0
doppler_bin: 8
bearing: -69.8423843384
intensity: 25.4406795502
---
header: 
  seq: 1506998
  stamp: 
    secs: 1561865831
    nsecs:  39311789
  frame_id: "ti_mmwave"
point_id: 4
x: 1.20703125
y: -0.076171875
z: 0.203125
range: 1.3073091507
velocity: 0.0
doppler_bin: 8
bearing: -3.61096477509
intensity: 21.205739975
---
header: 
  seq: 1506999
  stamp: 
    secs: 1561865831
    nsecs:  39364146
  frame_id: "ti_mmwave"
point_id: 5
x: 1.2265625
y: -0.0390625
z: 0.318359375
range: 1.35088610649
velocity: 0.0
doppler_bin: 8
bearing: -1.82409000397
intensity: 27.1683769226
---
header: 
  seq: 1507000
  stamp: 
    secs: 1561865831
    nsecs:  39475177
  frame_id: "ti_mmwave"
point_id: 6
x: 1.125
y: -0.041015625
z: 0.669921875
range: 1.39446306229
velocity: 0.0
doppler_bin: 8
bearing: -2.08798360825
intensity: 27.9657440186
---
header: 
  seq: 1507001
  stamp: 
    secs: 1561865831
    nsecs:  39505047
  frame_id: "ti_mmwave"
point_id: 7
x: 1.31640625
y: -0.083984375
z: 0.287109375
range: 1.43804001808
velocity: 0.0
doppler_bin: 8
bearing: -3.650421381
intensity: 28.0888595581
---
header: 
  seq: 1507002
  stamp: 
    secs: 1561865831
    nsecs:  39520867
  frame_id: "ti_mmwave"
point_id: 8
x: 1.380859375
y: -0.04296875
z: 0.166015625
range: 1.48161697388
velocity: 0.0
doppler_bin: 8
bearing: -1.78232049942
intensity: 27.3479976654
---
header: 
  seq: 1507003
  stamp: 
    secs: 1561865831
    nsecs:  39533172
  frame_id: "ti_mmwave"
point_id: 9
x: 1.431640625
y: -0.0
z: -0.03515625
range: 1.52519392967
velocity: 0.0
doppler_bin: 8
bearing: -0.0
intensity: 25.6584777832
---
header: 
  seq: 1507004
  stamp: 
    secs: 1561865831
    nsecs:  39580433
  frame_id: "ti_mmwave"
point_id: 10
x: 1.42578125
y: -0.3671875
z: 0.037109375
range: 1.56877088547
velocity: 0.0
doppler_bin: 8
bearing: -14.4418048859
intensity: 26.6651802063
---
header: 
  seq: 1507005
  stamp: 
    secs: 1561865831
    nsecs:  39594187
  frame_id: "ti_mmwave"
point_id: 11
x: 1.4765625
y: -0.33203125
z: -0.046875
range: 1.61234796047
velocity: 0.0
doppler_bin: 8
bearing: -12.6731700897
intensity: 26.3144378662
---
header: 
  seq: 1507006
  stamp: 
    secs: 1561865831
    nsecs:  39608084
  frame_id: "ti_mmwave"
point_id: 12
x: 2.60546875
y: -0.17578125
z: 1.0703125
range: 3.00681090355
velocity: 0.0
doppler_bin: 8
bearing: -3.85968351364
intensity: 28.9376182556
---
header: 
  seq: 1507007
  stamp: 
    secs: 1561865831
    nsecs:  39621371
  frame_id: "ti_mmwave"
point_id: 13
x: 2.654296875
y: -0.1796875
z: 1.060546875
range: 3.05038785934
velocity: 0.0
doppler_bin: 8
bearing: -3.87283420563
intensity: 32.1351776123
---
header: 
  seq: 1507008
  stamp: 
    secs: 1561865831
    nsecs:  39634554
  frame_id: "ti_mmwave"
point_id: 14
x: 2.748046875
y: -0.08984375
z: 0.9375
range: 3.09396481514
velocity: 0.0
doppler_bin: 8
bearing: -1.8725425005
intensity: 31.1360912323
---
header: 
  seq: 1507009
  stamp: 
    secs: 1561865831
    nsecs:  39646528
  frame_id: "ti_mmwave"
point_id: 15
x: 1.26171875
y: -0.671875
z: 0.07421875
range: 1.52519392967
velocity: 1.84400606155
doppler_bin: 11
bearing: -28.0356445312
intensity: 23.2014636993
---
header: 
  seq: 1507010
  stamp: 
    secs: 1561865831
    nsecs:  39656190
  frame_id: "ti_mmwave"
point_id: 16
x: 1.298828125
y: -0.689453125
z: 0.068359375
range: 1.56877088547
velocity: 1.84400606155
doppler_bin: 11
bearing: -27.9605712891
intensity: 20.2118930817
---
header: 
  seq: 1507011
  stamp: 
    secs: 1561865831
    nsecs:  39675159
  frame_id: "ti_mmwave"
point_id: 17
x: 0.009765625
y: 0.03125
z: 0.025390625
range: 0.0435769706964
velocity: 0.0
doppler_bin: 8
bearing: 72.6459732056
intensity: 29.2992954254
---
header: 
  seq: 1507012
  stamp: 
    secs: 1561865831
    nsecs:  39767771
  frame_id: "ti_mmwave"
point_id: 18
x: 0.041015625
y: -0.033203125
z: 0.0625
range: 0.0871539413929
velocity: 0.0
doppler_bin: 8
bearing: -38.9909973145
intensity: 30.0902576447
---
header: 
  seq: 1507013
  stamp: 
    secs: 1561865831
    nsecs:  39792517
  frame_id: "ti_mmwave"
point_id: 19
x: 0.046875
y: -0.046875
z: 0.103515625
range: 0.130730912089
velocity: 0.0
doppler_bin: 8
bearing: -45.0
intensity: 28.9872512817
---
header: 
  seq: 1507014
  stamp: 
    secs: 1561865831
    nsecs:  39806653
  frame_id: "ti_mmwave"
point_id: 21
x: 1.21875
y: -0.447265625
z: 0.603515625
range: 1.52519392967
velocity: 0.0
doppler_bin: 8
bearing: -20.1524887085
intensity: 24.3775062561
---
header: 
  seq: 1507015
  stamp: 
    secs: 1561865831
    nsecs:  97418707
  frame_id: "ti_mmwave"
point_id: 0
x: 0.01171875
y: -0.0390625
z: -0.0078125
range: 0.0435769706964
velocity: 0.0
doppler_bin: 8
bearing: -73.3007583618
intensity: 30.6445808411
---
header: 
  seq: 1507016
  stamp: 
    secs: 1561865831
    nsecs:  97508718
  frame_id: "ti_mmwave"
point_id: 1
x: 0.017578125
y: -0.080078125
z: -0.0078125
range: 0.0871539413929
velocity: 0.0
doppler_bin: 8
bearing: -77.6192398071
intensity: 31.9033164978
---
header: 
  seq: 1507017
  stamp: 
    secs: 1561865831
    nsecs:  97528391
  frame_id: "ti_mmwave"
point_id: 2
x: 0.029296875
y: -0.119140625
z: -0.005859375
range: 0.130730912089
velocity: 0.0
doppler_bin: 8
bearing: -76.1849746704
intensity: 30.141002655
---
header: 
  seq: 1507018
  stamp: 
    secs: 1561865831
    nsecs:  97542779
  frame_id: "ti_mmwave"
point_id: 3
x: 0.056640625
y: -0.154296875
z: 0.005859375
range: 0.174307882786
velocity: 0.0
doppler_bin: 8
bearing: -69.8423843384
intensity: 25.4406795502
---
header: 
  seq: 1507019
  stamp: 
    secs: 1561865831
    nsecs:  97556413
  frame_id: "ti_mmwave"
point_id: 4
x: 1.15625
y: -0.076171875
z: -0.404296875
range: 1.3073091507
velocity: 0.0
doppler_bin: 8
bearing: -3.76910662651
intensity: 23.4635295868
---
header: 
  seq: 1507020
  stamp: 
    secs: 1561865831
    nsecs:  97567314
  frame_id: "ti_mmwave"
point_id: 5
x: 1.2265625
y: -0.080078125
z: -0.3125
range: 1.35088610649
velocity: 0.0
doppler_bin: 8
bearing: -3.73534679413
intensity: 29.8136558533
---
header: 
  seq: 1507021
  stamp: 
    secs: 1561865831
    nsecs:  97578632
  frame_id: "ti_mmwave"
point_id: 6
x: 1.2890625
y: -0.041015625
z: -0.2265625
range: 1.39446306229
velocity: 0.0
doppler_bin: 8
bearing: -1.82243251801
intensity: 32.1351776123
---
header: 
  seq: 1507022
  stamp: 
    secs: 1561865831
    nsecs:  97589486
  frame_id: "ti_mmwave"
point_id: 7
x: 1.341796875
y: -0.04296875
z: -0.146484375
range: 1.43804001808
velocity: 0.0
doppler_bin: 8
bearing: -1.83417236805
intensity: 31.0380363464
---
header: 
  seq: 1507023
  stamp: 
    secs: 1561865831
    nsecs:  97600502
  frame_id: "ti_mmwave"
point_id: 8
x: 1.388671875
y: -0.04296875
z: 0.041015625
range: 1.48161697388
velocity: 0.0
doppler_bin: 8
bearing: -1.77229964733
intensity: 26.5513839722
---
header: 
  seq: 1507024
  stamp: 
    secs: 1561865831
    nsecs:  97611139
  frame_id: "ti_mmwave"
point_id: 9
x: 1.30859375
y: 0.1796875
z: 0.552734375
range: 1.52519392967
velocity: 0.0
doppler_bin: 8
bearing: 7.81858491898
intensity: 25.5630245209
---
header: 
  seq: 1507025
  stamp: 
    secs: 1561865831
    nsecs:  97622290
  frame_id: "ti_mmwave"
point_id: 10
x: 1.44140625
y: 0.18359375
z: 0.232421875
range: 1.56877088547
velocity: 0.0
doppler_bin: 8
bearing: 7.25875043869
intensity: 28.9431610107
---
header: 
  seq: 1507026
  stamp: 
    secs: 1561865831
    nsecs:  97716882
  frame_id: "ti_mmwave"
point_id: 11
x: 1.494140625
y: 0.189453125
z: 0.16015625
range: 1.61234796047
velocity: 0.0
doppler_bin: 8
bearing: 7.22639226913
intensity: 29.1645393372
---
header: 
  seq: 1507027
  stamp: 
    secs: 1561865831
    nsecs:  97733029
  frame_id: "ti_mmwave"
point_id: 12
x: 2.60546875
y: -0.17578125
z: 1.0703125
range: 3.00681090355
velocity: 0.0
doppler_bin: 8
bearing: -3.85968351364
intensity: 28.6391735077
---
header: 
  seq: 1507028
  stamp: 
    secs: 1561865831
    nsecs:  97744606
  frame_id: "ti_mmwave"
point_id: 13
x: 2.6875
y: -0.08984375
z: 0.984375
range: 3.05038785934
velocity: 0.0
doppler_bin: 8
bearing: -1.91469812393
intensity: 31.8155784607
---
header: 
  seq: 1507029
  stamp: 
    secs: 1561865831
    nsecs:  97755724
  frame_id: "ti_mmwave"
point_id: 14
x: 2.7734375
y: -0.0
z: 0.861328125
range: 3.09396481514
velocity: 0.0
doppler_bin: 8
bearing: -0.0
intensity: 30.7151374817
---
header: 
  seq: 1507030
  stamp: 
    secs: 1561865831
    nsecs:  97767276
  frame_id: "ti_mmwave"
point_id: 15
x: 1.26171875
y: -0.671875
z: 0.080078125
range: 1.52519392967
velocity: 1.22933733463
doppler_bin: 10
bearing: -28.0356445312
intensity: 24.6239795685
---
header: 
  seq: 1507031
  stamp: 
    secs: 1561865831
    nsecs:  97778380
  frame_id: "ti_mmwave"
point_id: 16
x: 0.009765625
y: 0.03125
z: 0.025390625
range: 0.0435769706964
velocity: 0.0
doppler_bin: 8
bearing: 72.6459732056
intensity: 29.2992954254
---
header: 
  seq: 1507032
  stamp: 
    secs: 1561865831
    nsecs:  97789698
  frame_id: "ti_mmwave"
point_id: 17
x: 0.041015625
y: -0.033203125
z: 0.0625
range: 0.0871539413929
velocity: 0.0
doppler_bin: 8
bearing: -38.9909973145
intensity: 30.0945091248
---
header: 
  seq: 1507033
  stamp: 
    secs: 1561865831
    nsecs:  97804056
  frame_id: "ti_mmwave"
point_id: 18
x: 0.046875
y: -0.046875
z: 0.103515625
range: 0.130730912089
velocity: 0.0
doppler_bin: 8
bearing: -45.0
intensity: 28.9927310944
---
header: 
  seq: 1507034
  stamp: 
    secs: 1561865831
    nsecs:  98832873
  frame_id: "ti_mmwave"
point_id: 0
x: 0.01171875
y: -0.0390625
z: -0.0078125
range: 0.0435769706964
velocity: 0.0
doppler_bin: 8
bearing: -73.3007583618
intensity: 30.6445808411
---
header: 
  seq: 1507035
  stamp: 
    secs: 1561865831
    nsecs:  98896373
  frame_id: "ti_mmwave"
point_id: 1
x: 0.017578125
y: -0.080078125
z: -0.0078125
range: 0.0871539413929
velocity: 0.0
doppler_bin: 8
bearing: -77.6192398071
intensity: 31.9033164978
---
header: 
  seq: 1507036
  stamp: 
    secs: 1561865831
    nsecs:  98916997
  frame_id: "ti_mmwave"
point_id: 2
x: 0.029296875
y: -0.119140625
z: -0.005859375
range: 0.130730912089
velocity: 0.0
doppler_bin: 8
bearing: -76.1849746704
intensity: 30.1452045441
---
header: 
  seq: 1507037
  stamp: 
    secs: 1561865831
    nsecs:  98930235
  frame_id: "ti_mmwave"
point_id: 3
x: 0.056640625
y: -0.154296875
z: 0.005859375
range: 0.174307882786
velocity: 0.0
doppler_bin: 8
bearing: -69.8423843384
intensity: 25.4654273987
---
header: 
  seq: 1507038
  stamp: 
    secs: 1561865831
    nsecs:  98943279
  frame_id: "ti_mmwave"
point_id: 4
x: 1.189453125
y: -0.115234375
z: -0.28125
range: 1.3073091507
velocity: 0.0
doppler_bin: 8
bearing: -5.53355312347
intensity: 22.7646179199
---
header: 
  seq: 1507039
  stamp: 
    secs: 1561865831
    nsecs:  99072122
  frame_id: "ti_mmwave"
point_id: 5
x: 1.205078125
y: -0.080078125
z: -0.384765625
range: 1.35088610649
velocity: 0.0
doppler_bin: 8
bearing: -3.80174779892
intensity: 29.3601074219
---
header: 
  seq: 1507040
  stamp: 
    secs: 1561865831
    nsecs:  99088873
  frame_id: "ti_mmwave"
point_id: 6
x: 1.236328125
y: -0.123046875
z: -0.41015625
range: 1.39446306229
velocity: 0.0
doppler_bin: 8
bearing: -5.68370628357
intensity: 31.1958580017
---
header: 
  seq: 1507041
  stamp: 
    secs: 1561865831
    nsecs:  99097439
  frame_id: "ti_mmwave"
point_id: 7
x: 1.279296875
y: -0.126953125
z: -0.4140625
range: 1.43804001808
velocity: 0.0
doppler_bin: 8
bearing: -5.66728591919
intensity: 29.4939002991
---
header: 
  seq: 1507042
  stamp: 
    secs: 1561865831
    nsecs:  99106169
  frame_id: "ti_mmwave"
point_id: 8
x: 1.373046875
y: -0.04296875
z: 0.212890625
range: 1.48161697388
velocity: 0.0
doppler_bin: 8
bearing: -1.79245507717
intensity: 27.2997436523
---
header: 
  seq: 1507043
  stamp: 
    secs: 1561865831
    nsecs:  99113606
  frame_id: "ti_mmwave"
point_id: 9
x: 1.41015625
y: 0.044921875
z: 0.23828125
range: 1.52519392967
velocity: 0.0
doppler_bin: 8
bearing: 1.8245947361
intensity: 29.6520175934
---
header: 
  seq: 1507044
  stamp: 
    secs: 1561865831
    nsecs:  99121314
  frame_id: "ti_mmwave"
point_id: 10
x: 1.447265625
y: 0.091796875
z: 0.251953125
range: 1.56877088547
velocity: 0.0
doppler_bin: 8
bearing: 3.62928342819
intensity: 30.4257545471
---
header: 
  seq: 1507045
  stamp: 
    secs: 1561865831
    nsecs:  99125981
  frame_id: "ti_mmwave"
point_id: 11
x: 1.490234375
y: 0.142578125
z: 0.2265625
range: 1.61234796047
velocity: 0.0
doppler_bin: 8
bearing: 5.46513700485
intensity: 29.5375976562
---
header: 
  seq: 1507046
  stamp: 
    secs: 1561865831
    nsecs:  99149410
  frame_id: "ti_mmwave"
point_id: 12
x: 1.521484375
y: 0.193359375
z: 0.251953125
range: 1.65592491627
velocity: 0.0
doppler_bin: 8
bearing: 7.24266672134
intensity: 25.9988307953
---
header: 
  seq: 1507047
  stamp: 
    secs: 1561865831
    nsecs:  99169539
  frame_id: "ti_mmwave"
point_id: 13
x: 2.615234375
y: -0.17578125
z: 1.048828125
range: 3.00681090355
velocity: 0.0
doppler_bin: 8
bearing: -3.84531402588
intensity: 28.6153450012
---
header: 
  seq: 1507048
  stamp: 
    secs: 1561865831
    nsecs:  99183279
  frame_id: "ti_mmwave"
point_id: 14
x: 2.68359375
y: -0.08984375
z: 0.994140625
range: 3.05038785934
velocity: 0.0
doppler_bin: 8
bearing: -1.91748321056
intensity: 31.9089164734
---
header: 
  seq: 1507049
  stamp: 
    secs: 1561865831
    nsecs:  99207331
  frame_id: "ti_mmwave"
point_id: 15
x: 2.7578125
y: -0.0
z: 0.912109375
range: 3.09396481514
velocity: 0.0
doppler_bin: 8
bearing: -0.0
intensity: 30.9166698456
---
header: 
  seq: 1507050
  stamp: 
    secs: 1561865831
    nsecs:  99228147
  frame_id: "ti_mmwave"
point_id: 16
x: 0.009765625
y: 0.03125
z: 0.025390625
range: 0.0435769706964
velocity: 0.0
doppler_bin: 8
bearing: 72.6459732056
intensity: 29.3043956757
---
header: 
  seq: 1507051
  stamp: 
    secs: 1561865831
    nsecs:  99247803
  frame_id: "ti_mmwave"
point_id: 17
x: 0.041015625
y: -0.033203125
z: 0.0625
range: 0.0871539413929
velocity: 0.0
doppler_bin: 8
bearing: -38.9909973145
intensity: 30.0945091248
---
header: 
  seq: 1507052
  stamp: 
    secs: 1561865831
    nsecs:  99339031
  frame_id: "ti_mmwave"
point_id: 18
x: 0.046875
y: -0.046875
z: 0.103515625
range: 0.130730912089
velocity: 0.0
doppler_bin: 8
bearing: -45.0
intensity: 28.9872512817
---
header: 
  seq: 1507053
  stamp: 
    secs: 1561865831
    nsecs: 158477518
  frame_id: "ti_mmwave"
point_id: 0
x: 0.01171875
y: -0.0390625
z: -0.0078125
range: 0.0435769706964
velocity: 0.0
doppler_bin: 8
bearing: -73.3007583618
intensity: 30.6520614624
---
header: 
  seq: 1507054
  stamp: 
    secs: 1561865831
    nsecs: 158552688
  frame_id: "ti_mmwave"
point_id: 1
x: 0.017578125
y: -0.080078125
z: -0.0078125
range: 0.0871539413929
velocity: 0.0
doppler_bin: 8
bearing: -77.6192398071
intensity: 31.9061183929
---
header: 
  seq: 1507055
  stamp: 
    secs: 1561865831
    nsecs: 158563653
  frame_id: "ti_mmwave"
point_id: 2
x: 0.029296875
y: -0.119140625
z: -0.005859375
range: 0.130730912089
velocity: 0.0
doppler_bin: 8
bearing: -76.1849746704
intensity: 30.1452045441
---
header: 
  seq: 1507056
  stamp: 
    secs: 1561865831
    nsecs: 158572719
  frame_id: "ti_mmwave"
point_id: 3
x: 0.056640625
y: -0.154296875
z: 0.005859375
range: 0.174307882786
velocity: 0.0
doppler_bin: 8
bearing: -69.8423843384
intensity: 25.4654273987
---
header: 
  seq: 1507057
  stamp: 
    secs: 1561865831
    nsecs: 158580657
  frame_id: "ti_mmwave"
point_id: 4
x: 1.240234375
y: -0.0
z: -0.263671875
range: 1.35088610649
velocity: 0.0
doppler_bin: 8
bearing: -0.0
intensity: 25.9217681885
---
header: 
  seq: 1507058
  stamp: 
    secs: 1561865831
    nsecs: 158592861
  frame_id: "ti_mmwave"
point_id: 5
x: 1.302734375
y: -0.041015625
z: -0.123046875
range: 1.39446306229
velocity: 0.0
doppler_bin: 8
bearing: -1.80331933498
intensity: 29.8989448547
---
header: 
  seq: 1507059
  stamp: 
    secs: 1561865831
    nsecs: 158602929
  frame_id: "ti_mmwave"
point_id: 6
x: 1.34765625
y: -0.04296875
z: -0.072265625
range: 1.43804001808
velocity: 0.0
doppler_bin: 8
bearing: -1.82620322704
intensity: 29.5664863586
---
header: 
  seq: 1507060
  stamp: 
    secs: 1561865831
    nsecs: 158611247
  frame_id: "ti_mmwave"
point_id: 7
x: 1.296875
y: -0.130859375
z: -0.482421875
range: 1.48161697388
velocity: 0.0
doppler_bin: 8
bearing: -5.76184940338
intensity: 21.8184356689
---
header: 
  seq: 1507061
  stamp: 
    secs: 1561865831
    nsecs: 158621456
  frame_id: "ti_mmwave"
point_id: 8
x: 1.4296875
y: -0.0
z: 0.068359375
range: 1.52519392967
velocity: 0.0
doppler_bin: 8
bearing: -0.0
intensity: 26.1595001221
---
header: 
  seq: 1507062
  stamp: 
    secs: 1561865831
    nsecs: 158629949
  frame_id: "ti_mmwave"
point_id: 9
x: 1.361328125
y: -0.322265625
z: -0.458984375
range: 1.56877088547
velocity: 0.0
doppler_bin: 8
bearing: -13.3183860779
intensity: 24.7856655121
---
header: 
  seq: 1507063
  stamp: 
    secs: 1561865831
    nsecs: 158639124
  frame_id: "ti_mmwave"
point_id: 10
x: 2.615234375
y: -0.17578125
z: 1.046875
range: 3.00681090355
velocity: 0.0
doppler_bin: 8
bearing: -3.84531402588
intensity: 29.2220630646
---
header: 
  seq: 1507064
  stamp: 
    secs: 1561865831
    nsecs: 158653116
  frame_id: "ti_mmwave"
point_id: 11
x: 2.69140625
y: -0.08984375
z: 0.9765625
range: 3.05038785934
velocity: 0.0
doppler_bin: 8
bearing: -1.91192126274
intensity: 32.2968177795
---
header: 
  seq: 1507065
  stamp: 
    secs: 1561865831
    nsecs: 158861588
  frame_id: "ti_mmwave"
point_id: 12
x: 2.7265625
y: -0.181640625
z: 0.982421875
range: 3.09396481514
velocity: 0.0
doppler_bin: 8
bearing: -3.81135106087
intensity: 31.2385158539
---
header: 
  seq: 1507066
  stamp: 
    secs: 1561865831
    nsecs: 158884748
  frame_id: "ti_mmwave"
point_id: 13
x: 1.396484375
y: -0.568359375
z: 0.1328125
range: 1.61234796047
velocity: 0.614668667316
doppler_bin: 9
bearing: -22.145980835
intensity: 27.9587993622
---
header: 
  seq: 1507067
  stamp: 
    secs: 1561865831
    nsecs: 158893878
  frame_id: "ti_mmwave"
point_id: 14
x: 1.439453125
y: -0.58203125
z: 0.041015625
range: 1.65592491627
velocity: 0.614668667316
doppler_bin: 9
bearing: -22.0155487061
intensity: 26.8304710388
---
header: 
  seq: 1507068
  stamp: 
    secs: 1561865831
    nsecs: 158902456
  frame_id: "ti_mmwave"
point_id: 15
x: 0.009765625
y: 0.03125
z: 0.025390625
range: 0.0435769706964
velocity: 0.0
doppler_bin: 8
bearing: 72.6459732056
intensity: 29.3094902039
---
header: 
  seq: 1507069
  stamp: 
    secs: 1561865831
    nsecs: 158910831
  frame_id: "ti_mmwave"
point_id: 16
x: 0.041015625
y: -0.033203125
z: 0.0625
range: 0.0871539413929
velocity: 0.0
doppler_bin: 8
bearing: -38.9909973145
intensity: 30.0902576447
---
header: 
  seq: 1507070
  stamp: 
    secs: 1561865831
    nsecs: 158919092
  frame_id: "ti_mmwave"
point_id: 17
x: 0.044921875
y: -0.046875
z: 0.103515625
range: 0.130730912089
velocity: 0.0
doppler_bin: 8
bearing: -46.218875885
intensity: 28.9872512817
---
header: 
  seq: 1507071
  stamp: 
    secs: 1561865831
    nsecs: 158929361
  frame_id: "ti_mmwave"
point_id: 19
x: 0.703125
y: -0.609375
z: 1.03515625
range: 1.48161697388
velocity: 0.0
doppler_bin: 8
bearing: -40.9143829346
intensity: 21.3033370972
---
header: 
  seq: 1507072
  stamp: 
    secs: 1561865831
    nsecs: 158937283
  frame_id: "ti_mmwave"
point_id: 20
x: 1.447265625
y: 0.18359375
z: 0.205078125
range: 1.56877088547
velocity: 0.0
doppler_bin: 8
bearing: 7.22967433929
intensity: 24.0823993683
---
header: 
  seq: 1507073
  stamp: 
    secs: 1561865831
    nsecs: 158947706
  frame_id: "ti_mmwave"
point_id: 21
x: 2.76953125
y: -0.0
z: 0.875
range: 3.09396481514
velocity: 0.0
doppler_bin: 8
bearing: -0.0
intensity: 31.2024478912
---
header: 
  seq: 1507074
  stamp: 
    secs: 1561865831
    nsecs: 217591467
  frame_id: "ti_mmwave"
point_id: 0
x: 0.01171875
y: -0.0390625
z: -0.0078125
range: 0.0435769706964
velocity: 0.0
doppler_bin: 8
bearing: -73.3007583618
intensity: 30.6483230591
---
header: 
  seq: 1507075
  stamp: 
    secs: 1561865831
    nsecs: 217666249
  frame_id: "ti_mmwave"
point_id: 1
x: 0.017578125
y: -0.080078125
z: -0.0078125
range: 0.0871539413929
velocity: 0.0
doppler_bin: 8
bearing: -77.6192398071
intensity: 31.9061183929
---
header: 
  seq: 1507076
  stamp: 
    secs: 1561865831
    nsecs: 217677666
  frame_id: "ti_mmwave"
point_id: 2
x: 0.029296875
y: -0.119140625
z: -0.005859375
range: 0.130730912089
velocity: 0.0
doppler_bin: 8
bearing: -76.1849746704
intensity: 30.141002655
---
header: 
  seq: 1507077
  stamp: 
    secs: 1561865831
    nsecs: 217686550
  frame_id: "ti_mmwave"
point_id: 3
x: 0.056640625
y: -0.154296875
z: 0.0078125
range: 0.174307882786
velocity: 0.0
doppler_bin: 8
bearing: -69.8423843384
intensity: 25.4406795502
---
header: 
  seq: 1507078
  stamp: 
    secs: 1561865831
    nsecs: 217694675
  frame_id: "ti_mmwave"
point_id: 4
x: 1.251953125
y: 0.197265625
z: -0.060546875
range: 1.35088610649
velocity: 0.0
doppler_bin: 8
bearing: 8.95426654816
intensity: 19.4448261261
---
header: 
  seq: 1507079
  stamp: 
    secs: 1561865831
    nsecs: 217705143
  frame_id: "ti_mmwave"
point_id: 5
x: 1.306640625
y: -0.041015625
z: 0.046875
range: 1.39446306229
velocity: 0.0
doppler_bin: 8
bearing: -1.79793179035
intensity: 23.7291202545
---
header: 
  seq: 1507080
  stamp: 
    secs: 1561865831
    nsecs: 217713337
  frame_id: "ti_mmwave"
point_id: 6
x: 1.341796875
y: -0.126953125
z: 0.08203125
range: 1.43804001808
velocity: 0.0
doppler_bin: 8
bearing: -5.40490818024
intensity: 25.5990657806
---
header: 
  seq: 1507081
  stamp: 
    secs: 1561865831
    nsecs: 217721565
  frame_id: "ti_mmwave"
point_id: 7
x: 1.34765625
y: -0.357421875
z: 0.328125
range: 1.52519392967
velocity: 0.0
doppler_bin: 8
bearing: -14.8538646698
intensity: 25.9439258575
---
header: 
  seq: 1507082
  stamp: 
    secs: 1561865831
    nsecs: 217733164
  frame_id: "ti_mmwave"
point_id: 8
x: 1.427734375
y: -0.322265625
z: 0.1640625
range: 1.56877088547
velocity: 0.0
doppler_bin: 8
bearing: -12.7195444107
intensity: 28.55519104
---
header: 
  seq: 1507083
  stamp: 
    secs: 1561865831
    nsecs: 217741698
  frame_id: "ti_mmwave"
point_id: 9
x: 1.44140625
y: -0.33203125
z: 0.32421875
range: 1.61234796047
velocity: 0.0
doppler_bin: 8
bearing: -12.9719333649
intensity: 27.7815132141
---
header: 
  seq: 1507084
  stamp: 
    secs: 1561865831
    nsecs: 217749468
  frame_id: "ti_mmwave"
point_id: 10
x: 2.619140625
y: -0.17578125
z: 1.0390625
range: 3.00681090355
velocity: 0.0
doppler_bin: 8
bearing: -3.83959650993
intensity: 28.9872512817
---
header: 
  seq: 1507085
  stamp: 
    secs: 1561865831
    nsecs: 217757352
  frame_id: "ti_mmwave"
point_id: 11
x: 2.69140625
y: -0.08984375
z: 0.97265625
range: 3.05038785934
velocity: 0.0
doppler_bin: 8
bearing: -1.91192126274
intensity: 32.1879806519
---
header: 
  seq: 1507086
  stamp: 
    secs: 1561865831
    nsecs: 217924026
  frame_id: "ti_mmwave"
point_id: 12
x: 2.73046875
y: -0.181640625
z: 0.97265625
range: 3.09396481514
velocity: 0.0
doppler_bin: 8
bearing: -3.80591416359
intensity: 31.1826477051
---
header: 
  seq: 1507087
  stamp: 
    secs: 1561865831
    nsecs: 217942593
  frame_id: "ti_mmwave"
point_id: 13
x: 1.408203125
y: -0.58203125
z: 0.3046875
range: 1.65592491627
velocity: 0.614668667316
doppler_bin: 9
bearing: -22.456035614
intensity: 25.965970993
---
header: 
  seq: 1507088
  stamp: 
    secs: 1561865831
    nsecs: 217951218
  frame_id: "ti_mmwave"
point_id: 14
x: 1.384765625
y: -0.087890625
z: -0.091796875
range: 1.48161697388
velocity: -0.614668667316
doppler_bin: 7
bearing: -3.63167357445
intensity: 23.2014636993
---
header: 
  seq: 1507089
  stamp: 
    secs: 1561865831
    nsecs: 217959455
  frame_id: "ti_mmwave"
point_id: 15
x: 0.009765625
y: 0.03125
z: 0.025390625
range: 0.0435769706964
velocity: 0.0
doppler_bin: 8
bearing: 72.6459732056
intensity: 29.3043956757
---
header: 
  seq: 1507090
  stamp: 
    secs: 1561865831
    nsecs: 217971046
  frame_id: "ti_mmwave"
point_id: 16
x: 0.041015625
y: -0.033203125
z: 0.0625
range: 0.0871539413929
velocity: 0.0
doppler_bin: 8
bearing: -38.9909973145
intensity: 30.0902576447
---
header: 
  seq: 1507091
  stamp: 
    secs: 1561865831
    nsecs: 217979041
  frame_id: "ti_mmwave"
point_id: 17
x: 0.044921875
y: -0.046875
z: 0.103515625
range: 0.130730912089
velocity: 0.0
doppler_bin: 8
bearing: -46.218875885
intensity: 28.9872512817
---
header: 
  seq: 1507092
  stamp: 
    secs: 1561865831
    nsecs: 217988789
  frame_id: "ti_mmwave"
point_id: 19
x: 0.958984375
y: -0.5546875
z: 0.619140625
range: 1.35088610649
velocity: 0.0
doppler_bin: 8
bearing: -30.0455780029
intensity: 17.3239383698
---
header: 
  seq: 1507093
  stamp: 
    secs: 1561865831
    nsecs: 217998884
  frame_id: "ti_mmwave"
point_id: 20
x: 1.419921875
y: 0.08984375
z: -0.154296875
range: 1.52519392967
velocity: 0.0
doppler_bin: 8
bearing: 3.62049126625
intensity: 24.8429985046
---
header: 
  seq: 1507094
  stamp: 
    secs: 1561865831
    nsecs: 218006997
  frame_id: "ti_mmwave"
point_id: 21
x: 1.337890625
y: 0.18359375
z: 0.5859375
range: 1.56877088547
velocity: 0.0
doppler_bin: 8
bearing: 7.8136844635
intensity: 26.2736587524
---
header: 
  seq: 1507095
  stamp: 
    secs: 1561865831
    nsecs: 218014634
  frame_id: "ti_mmwave"
point_id: 22
x: 1.361328125
y: 0.236328125
z: 0.6171875
range: 1.61234796047
velocity: 0.0
doppler_bin: 8
bearing: 9.84846115112
intensity: 26.0745506287
---
header: 
  seq: 1507096
  stamp: 
    secs: 1561865831
    nsecs: 219314872
  frame_id: "ti_mmwave"
point_id: 0
x: 0.01171875
y: -0.0390625
z: -0.0078125
range: 0.0435769706964
velocity: 0.0
doppler_bin: 8
bearing: -73.3007583618
intensity: 30.6408348083
---
header: 
  seq: 1507097
  stamp: 
    secs: 1561865831
    nsecs: 219382093
  frame_id: "ti_mmwave"
point_id: 1
x: 0.017578125
y: -0.080078125
z: -0.0078125
range: 0.0871539413929
velocity: 0.0
doppler_bin: 8
bearing: -77.6192398071
intensity: 31.9033164978
---
header: 
  seq: 1507098
  stamp: 
    secs: 1561865831
    nsecs: 219400133
  frame_id: "ti_mmwave"
point_id: 2
x: 0.029296875
y: -0.119140625
z: -0.005859375
range: 0.130730912089
velocity: 0.0
doppler_bin: 8
bearing: -76.1849746704
intensity: 30.141002655
---
header: 
  seq: 1507099
  stamp: 
    secs: 1561865831
    nsecs: 219416378
  frame_id: "ti_mmwave"
point_id: 3
x: 0.056640625
y: -0.154296875
z: 0.0078125
range: 0.174307882786
velocity: 0.0
doppler_bin: 8
bearing: -69.8423843384
intensity: 25.4406795502
---
header: 
  seq: 1507100
  stamp: 
    secs: 1561865831
    nsecs: 219477956
  frame_id: "ti_mmwave"
point_id: 4
x: 1.130859375
y: -0.0390625
z: -0.4765625
range: 1.3073091507
velocity: 0.0
doppler_bin: 8
bearing: -1.97834229469
intensity: 22.8780174255
---
header: 
  seq: 1507101
  stamp: 
    secs: 1561865831
    nsecs: 219492038
  frame_id: "ti_mmwave"
point_id: 5
x: 1.2265625
y: -0.0390625
z: -0.322265625
range: 1.35088610649
velocity: 0.0
doppler_bin: 8
bearing: -1.82409000397
intensity: 30.4375514984
---
header: 
  seq: 1507102
  stamp: 
    secs: 1561865831
    nsecs: 219505051
  frame_id: "ti_mmwave"
point_id: 6
x: 1.287109375
y: -0.041015625
z: -0.23046875
range: 1.39446306229
velocity: 0.0
doppler_bin: 8
bearing: -1.82519626617
intensity: 33.8703384399
---
header: 
  seq: 1507103
  stamp: 
    secs: 1561865831
    nsecs: 219518192
  frame_id: "ti_mmwave"
point_id: 7
x: 1.337890625
y: -0.04296875
z: -0.177734375
range: 1.43804001808
velocity: 0.0
doppler_bin: 8
bearing: -1.8395242691
intensity: 33.5044174194
---
header: 
  seq: 1507104
  stamp: 
    secs: 1561865831
    nsecs: 219546855
  frame_id: "ti_mmwave"
point_id: 8
x: 1.375
y: -0.04296875
z: -0.201171875
range: 1.48161697388
velocity: 0.0
doppler_bin: 8
bearing: -1.7899106741
intensity: 29.1009063721
---
header: 
  seq: 1507105
  stamp: 
    secs: 1561865831
    nsecs: 219568513
  frame_id: "ti_mmwave"
point_id: 9
x: 1.408203125
y: -0.08984375
z: -0.24609375
range: 1.52519392967
velocity: 0.0
doppler_bin: 8
bearing: -3.65053892136
intensity: 25.8433113098
---
header: 
  seq: 1507106
  stamp: 
    secs: 1561865831
    nsecs: 219592764
  frame_id: "ti_mmwave"
point_id: 10
x: 1.435546875
y: -0.275390625
z: 0.173828125
range: 1.56877088547
velocity: 0.0
doppler_bin: 8
bearing: -10.8595027924
intensity: 26.180480957
---
header: 
  seq: 1507107
  stamp: 
    secs: 1561865831
    nsecs: 219613561
  frame_id: "ti_mmwave"
point_id: 11
x: 2.62109375
y: -0.17578125
z: 1.033203125
range: 3.00681090355
velocity: 0.0
doppler_bin: 8
bearing: -3.83674383163
intensity: 29.1169013977
---
header: 
  seq: 1507108
  stamp: 
    secs: 1561865831
    nsecs: 219634701
  frame_id: "ti_mmwave"
point_id: 12
x: 2.689453125
y: -0.08984375
z: 0.9765625
range: 3.05038785934
velocity: 0.0
doppler_bin: 8
bearing: -1.91330885887
intensity: 32.3578071594
---
header: 
  seq: 1507109
  stamp: 
    secs: 1561865831
    nsecs: 219654956
  frame_id: "ti_mmwave"
point_id: 13
x: 2.728515625
y: -0.181640625
z: 0.9765625
range: 3.09396481514
velocity: 0.0
doppler_bin: 8
bearing: -3.80863046646
intensity: 31.3924922943
---
header: 
  seq: 1507110
  stamp: 
    secs: 1561865831
    nsecs: 219676639
  frame_id: "ti_mmwave"
point_id: 14
x: 1.443359375
y: 0.37890625
z: 0.2578125
range: 1.61234796047
velocity: -0.614668667316
doppler_bin: 7
bearing: 14.7092103958
intensity: 25.3781909943
---
header: 
  seq: 1507111
  stamp: 
    secs: 1561865831
    nsecs: 219777421
  frame_id: "ti_mmwave"
point_id: 15
x: 1.4765625
y: 0.388671875
z: 0.2890625
range: 1.65592491627
velocity: -0.614668667316
doppler_bin: 7
bearing: 14.7472934723
intensity: 29.7451171875
---
header: 
  seq: 1507112
  stamp: 
    secs: 1561865831
    nsecs: 219793284
  frame_id: "ti_mmwave"
point_id: 16
x: 1.515625
y: 0.3984375
z: 0.298828125
range: 1.69950187206
velocity: -0.614668667316
doppler_bin: 7
bearing: 14.7290229797
intensity: 29.9299507141
---
header: 
  seq: 1507113
  stamp: 
    secs: 1561865831
    nsecs: 219808333
  frame_id: "ti_mmwave"
point_id: 17
x: 1.54296875
y: 0.408203125
z: 0.35546875
range: 1.74307882786
velocity: -0.614668667316
doppler_bin: 7
bearing: 14.8185071945
intensity: 26.0422611237
---
header: 
  seq: 1507114
  stamp: 
    secs: 1561865831
    nsecs: 219824272
  frame_id: "ti_mmwave"
point_id: 18
x: 0.009765625
y: 0.03125
z: 0.025390625
range: 0.0435769706964
velocity: 0.0
doppler_bin: 8
bearing: 72.6459732056
intensity: 29.3043956757
---
header: 
  seq: 1507115
  stamp: 
    secs: 1561865831
    nsecs: 219837936
  frame_id: "ti_mmwave"
point_id: 19
x: 0.041015625
y: -0.033203125
z: 0.0625
range: 0.0871539413929
velocity: 0.0
doppler_bin: 8
bearing: -38.9909973145
intensity: 30.0987567902
---
header: 
  seq: 1507116
  stamp: 
    secs: 1561865831
    nsecs: 219851176
  frame_id: "ti_mmwave"
point_id: 20
x: 0.044921875
y: -0.046875
z: 0.103515625
range: 0.130730912089
velocity: 0.0
doppler_bin: 8
bearing: -46.218875885
intensity: 28.9982051849
---
header: 
  seq: 1507117
  stamp: 
    secs: 1561865831
    nsecs: 219868103
  frame_id: "ti_mmwave"
point_id: 22
x: 1.41015625
y: -0.1796875
z: -0.1640625
range: 1.52519392967
velocity: 0.0
doppler_bin: 8
bearing: -7.26171350479
intensity: 25.7978363037
---
header: 
  seq: 1507118
  stamp: 
    secs: 1561865831
    nsecs: 219877170
  frame_id: "ti_mmwave"
point_id: 23
x: 2.76953125
y: -0.0
z: 0.876953125
range: 3.09396481514
velocity: 0.0
doppler_bin: 8
bearing: -0.0
intensity: 31.3672065735
---
header: 
  seq: 1507119
  stamp: 
    secs: 1561865831
    nsecs: 219926779
  frame_id: "ti_mmwave"
point_id: 24
x: 1.462890625
y: -0.189453125
z: 0.33984375
range: 1.61234796047
velocity: -0.614668667316
doppler_bin: 7
bearing: -7.3790769577
intensity: 24.9554424286
---
header: 
  seq: 1507120
  stamp: 
    secs: 1561865831
    nsecs: 277636531
  frame_id: "ti_mmwave"
point_id: 0
x: 0.01171875
y: -0.0390625
z: -0.0078125
range: 0.0435769706964
velocity: 0.0
doppler_bin: 8
bearing: -73.3007583618
intensity: 30.6408348083
---
header: 
  seq: 1507121
  stamp: 
    secs: 1561865831
    nsecs: 277727510
  frame_id: "ti_mmwave"
point_id: 1
x: 0.017578125
y: -0.080078125
z: -0.0078125
range: 0.0871539413929
velocity: 0.0
doppler_bin: 8
bearing: -77.6192398071
intensity: 31.9005146027
---
header: 
  seq: 1507122
  stamp: 
    secs: 1561865831
    nsecs: 277748884
  frame_id: "ti_mmwave"
point_id: 2
x: 0.029296875
y: -0.119140625
z: -0.005859375
range: 0.130730912089
velocity: 0.0
doppler_bin: 8
bearing: -76.1849746704
intensity: 30.1367969513
---
header: 
  seq: 1507123
  stamp: 
    secs: 1561865831
    nsecs: 277762727
  frame_id: "ti_mmwave"
point_id: 3
x: 0.056640625
y: -0.154296875
z: 0.005859375
range: 0.174307882786
velocity: 0.0
doppler_bin: 8
bearing: -69.8423843384
intensity: 25.4406795502
---
header: 
  seq: 1507124
  stamp: 
    secs: 1561865831
    nsecs: 277776965
  frame_id: "ti_mmwave"
point_id: 4
x: 1.2578125
y: -0.0390625
z: -0.162109375
range: 1.35088610649
velocity: 0.0
doppler_bin: 8
bearing: -1.77880036831
intensity: 28.7506122589
---
header: 
  seq: 1507125
  stamp: 
    secs: 1561865831
    nsecs: 277792147
  frame_id: "ti_mmwave"
point_id: 5
x: 1.287109375
y: -0.0
z: -0.23828125
range: 1.39446306229
velocity: 0.0
doppler_bin: 8
bearing: -0.0
intensity: 31.7580165863
---
header: 
  seq: 1507126
  stamp: 
    secs: 1561865831
    nsecs: 277809274
  frame_id: "ti_mmwave"
point_id: 6
x: 1.2890625
y: -0.0
z: -0.400390625
range: 1.43804001808
velocity: 0.0
doppler_bin: 8
bearing: -0.0
intensity: 30.4610481262
---
header: 
  seq: 1507127
  stamp: 
    secs: 1561865831
    nsecs: 277820692
  frame_id: "ti_mmwave"
point_id: 7
x: 1.388671875
y: -0.224609375
z: 0.263671875
range: 1.52519392967
velocity: 0.0
doppler_bin: 8
bearing: -9.18768215179
intensity: 29.609462738
---
header: 
  seq: 1507128
  stamp: 
    secs: 1561865831
    nsecs: 277834328
  frame_id: "ti_mmwave"
point_id: 8
x: 1.439453125
y: -0.275390625
z: 0.14453125
range: 1.56877088547
velocity: 0.0
doppler_bin: 8
bearing: -10.8307313919
intensity: 29.4448261261
---
header: 
  seq: 1507129
  stamp: 
    secs: 1561865831
    nsecs: 277922639
  frame_id: "ti_mmwave"
point_id: 9
x: 1.453125
y: -0.37890625
z: 0.1953125
range: 1.61234796047
velocity: 0.0
doppler_bin: 8
bearing: -14.6146039963
intensity: 26.6651802063
---
header: 
  seq: 1507130
  stamp: 
    secs: 1561865831
    nsecs: 277940002
  frame_id: "ti_mmwave"
point_id: 10
x: 2.630859375
y: -0.17578125
z: 1.005859375
range: 3.00681090355
velocity: 0.0
doppler_bin: 8
bearing: -3.82254433632
intensity: 29.1487178802
---
header: 
  seq: 1507131
  stamp: 
    secs: 1561865831
    nsecs: 277953490
  frame_id: "ti_mmwave"
point_id: 11
x: 2.697265625
y: -0.08984375
z: 0.958984375
range: 3.05038785934
velocity: 0.0
doppler_bin: 8
bearing: -1.90777087212
intensity: 32.263420105
---
header: 
  seq: 1507132
  stamp: 
    secs: 1561865831
    nsecs: 277967294
  frame_id: "ti_mmwave"
point_id: 12
x: 2.78125
y: -0.0
z: 0.83984375
range: 3.09396481514
velocity: 0.0
doppler_bin: 8
bearing: -0.0
intensity: 31.2417812347
---
header: 
  seq: 1507133
  stamp: 
    secs: 1561865831
    nsecs: 277982408
  frame_id: "ti_mmwave"
point_id: 13
x: 4.81640625
y: -1.248046875
z: -0.400390625
range: 5.31639051437
velocity: 0.0
doppler_bin: 8
bearing: -14.5271978378
intensity: 28.0821094513
---
header: 
  seq: 1507134
  stamp: 
    secs: 1561865831
    nsecs: 277995557
  frame_id: "ti_mmwave"
point_id: 14
x: 1.349609375
y: -0.173828125
z: 0.283203125
range: 1.48161697388
velocity: -0.614668667316
doppler_bin: 7
bearing: -7.33922433853
intensity: 27.4036273956
---
header: 
  seq: 1507135
  stamp: 
    secs: 1561865831
    nsecs: 278008744
  frame_id: "ti_mmwave"
point_id: 15
x: 1.4921875
y: 0.33984375
z: 0.2734375
range: 1.65592491627
velocity: -0.614668667316
doppler_bin: 7
bearing: 12.8301944733
intensity: 27.8103694916
---
header: 
  seq: 1507136
  stamp: 
    secs: 1561865831
    nsecs: 278018812
  frame_id: "ti_mmwave"
point_id: 16
x: 1.54296875
y: 0.298828125
z: 0.271484375
range: 1.69950187206
velocity: -0.614668667316
doppler_bin: 7
bearing: 10.9608278275
intensity: 26.0422611237
---
header: 
  seq: 1507137
  stamp: 
    secs: 1561865831
    nsecs: 278044808
  frame_id: "ti_mmwave"
point_id: 17
x: 0.009765625
y: 0.03125
z: 0.025390625
range: 0.0435769706964
velocity: 0.0
doppler_bin: 8
bearing: 72.6459732056
intensity: 29.2992954254
---
header: 
  seq: 1507138
  stamp: 
    secs: 1561865831
    nsecs: 278110816
  frame_id: "ti_mmwave"
point_id: 18
x: 0.041015625
y: -0.033203125
z: 0.0625
range: 0.0871539413929
velocity: 0.0
doppler_bin: 8
bearing: -38.9909973145
intensity: 30.0945091248
---
header: 
  seq: 1507139
  stamp: 
    secs: 1561865831
    nsecs: 278127676
  frame_id: "ti_mmwave"
point_id: 19
x: 0.044921875
y: -0.046875
z: 0.103515625
range: 0.130730912089
velocity: 0.0
doppler_bin: 8
bearing: -46.218875885
intensity: 28.9872512817
---
header: 
  seq: 1507140
  stamp: 
    secs: 1561865831
    nsecs: 278148787
  frame_id: "ti_mmwave"
point_id: 21
x: 2.7421875
y: -0.181640625
z: 0.9375
range: 3.09396481514
velocity: 0.0
doppler_bin: 8
bearing: -3.78969717026
intensity: 31.2287101746
---
header: 
  seq: 1507141
  stamp: 
    secs: 1561865831
    nsecs: 278163120
  frame_id: "ti_mmwave"
point_id: 22
x: 0.89453125
y: -0.25
z: -1.296875
range: 1.69950187206
velocity: -0.614668667316
doppler_bin: 7
bearing: -15.6144018173
intensity: 23.8021125793
---
header: 
  seq: 1507142
  stamp: 
    secs: 1561865831
    nsecs: 279156910
  frame_id: "ti_mmwave"
point_id: 0
x: 0.01171875
y: -0.0390625
z: -0.0078125
range: 0.0435769706964
velocity: 0.0
doppler_bin: 8
bearing: -73.3007583618
intensity: 30.6520614624
---
header: 
  seq: 1507143
  stamp: 
    secs: 1561865831
    nsecs: 279210723
  frame_id: "ti_mmwave"
point_id: 1
x: 0.017578125
y: -0.080078125
z: -0.0078125
range: 0.0871539413929
velocity: 0.0
doppler_bin: 8
bearing: -77.6192398071
intensity: 31.9061183929
---
header: 
  seq: 1507144
  stamp: 
    secs: 1561865831
    nsecs: 279227652
  frame_id: "ti_mmwave"
point_id: 2
x: 0.029296875
y: -0.119140625
z: -0.005859375
range: 0.130730912089
velocity: 0.0
doppler_bin: 8
bearing: -76.1849746704
intensity: 30.1452045441
---
header: 
  seq: 1507145
  stamp: 
    secs: 1561865831
    nsecs: 279239894
  frame_id: "ti_mmwave"
point_id: 3
x: 0.056640625
y: -0.154296875
z: 0.005859375
range: 0.174307882786
velocity: 0.0
doppler_bin: 8
bearing: -69.8423843384
intensity: 25.4530715942
---
header: 
  seq: 1507146
  stamp: 
    secs: 1561865831
    nsecs: 279303552
  frame_id: "ti_mmwave"
point_id: 4
x: 1.189453125
y: -0.0
z: -0.439453125
range: 1.35088610649
velocity: 0.0
doppler_bin: 8
bearing: -0.0
intensity: 26.294095993
---
header: 
  seq: 1507147
  stamp: 
    secs: 1561865831
    nsecs: 279317797
  frame_id: "ti_mmwave"
point_id: 5
x: 1.283203125
y: -0.0
z: -0.259765625
range: 1.39446306229
velocity: 0.0
doppler_bin: 8
bearing: -0.0
intensity: 29.2531204224
---
header: 
  seq: 1507148
  stamp: 
    secs: 1561865831
    nsecs: 279329472
  frame_id: "ti_mmwave"
point_id: 6
x: 1.349609375
y: -0.04296875
z: -0.03515625
range: 1.43804001808
velocity: 0.0
doppler_bin: 8
bearing: -1.82356238365
intensity: 30.3702793121
---
header: 
  seq: 1507149
  stamp: 
    secs: 1561865831
    nsecs: 279341074
  frame_id: "ti_mmwave"
point_id: 7
x: 1.38671875
y: -0.04296875
z: 0.09765625
range: 1.48161697388
velocity: 0.0
doppler_bin: 8
bearing: -1.77479434013
intensity: 29.609462738
---
header: 
  seq: 1507150
  stamp: 
    secs: 1561865831
    nsecs: 279352683
  frame_id: "ti_mmwave"
point_id: 8
x: 1.41796875
y: -0.1796875
z: 0.07421875
range: 1.52519392967
velocity: 0.0
doppler_bin: 8
bearing: -7.22212839127
intensity: 28.4757270813
---
header: 
  seq: 1507151
  stamp: 
    secs: 1561865831
    nsecs: 279362990
  frame_id: "ti_mmwave"
point_id: 9
x: 1.455078125
y: -0.138671875
z: 0.18359375
range: 1.56877088547
velocity: 0.0
doppler_bin: 8
bearing: -5.44396114349
intensity: 27.9239177704
---
header: 
  seq: 1507152
  stamp: 
    secs: 1561865831
    nsecs: 279375790
  frame_id: "ti_mmwave"
point_id: 10
x: 1.42578125
y: 0.046875
z: 0.50390625
range: 1.61234796047
velocity: 0.0
doppler_bin: 8
bearing: 1.88301849365
intensity: 26.9722938538
---
header: 
  seq: 1507153
  stamp: 
    secs: 1561865831
    nsecs: 279390086
  frame_id: "ti_mmwave"
point_id: 11
x: 1.486328125
y: -0.4375
z: -0.119140625
range: 1.65592491627
velocity: 0.0
doppler_bin: 8
bearing: -16.4017677307
intensity: 26.9983768463
---
header: 
  seq: 1507154
  stamp: 
    secs: 1561865831
    nsecs: 279449294
  frame_id: "ti_mmwave"
point_id: 12
x: 2.61328125
y: -0.17578125
z: 1.05078125
range: 3.00681090355
velocity: 0.0
doppler_bin: 8
bearing: -3.84817934036
intensity: 28.9817657471
---
header: 
  seq: 1507155
  stamp: 
    secs: 1561865831
    nsecs: 279465198
  frame_id: "ti_mmwave"
point_id: 13
x: 2.681640625
y: -0.08984375
z: 1.0
range: 3.05038785934
velocity: 0.0
doppler_bin: 8
bearing: -1.91887867451
intensity: 32.1378326416
---
header: 
  seq: 1507156
  stamp: 
    secs: 1561865831
    nsecs: 279478206
  frame_id: "ti_mmwave"
point_id: 14
x: 2.7578125
y: -0.0
z: 0.912109375
range: 3.09396481514
velocity: 0.0
doppler_bin: 8
bearing: -0.0
intensity: 31.0105934143
---
header: 
  seq: 1507157
  stamp: 
    secs: 1561865831
    nsecs: 279490066
  frame_id: "ti_mmwave"
point_id: 15
x: 0.009765625
y: 0.03125
z: 0.025390625
range: 0.0435769706964
velocity: 0.0
doppler_bin: 8
bearing: 72.6459732056
intensity: 29.3043956757
---
header: 
  seq: 1507158
  stamp: 
    secs: 1561865831
    nsecs: 279503944
  frame_id: "ti_mmwave"
point_id: 16
x: 0.041015625
y: -0.033203125
z: 0.0625
range: 0.0871539413929
velocity: 0.0
doppler_bin: 8
bearing: -38.9909973145
intensity: 30.0902576447
---
header: 
  seq: 1507159
  stamp: 
    secs: 1561865831
    nsecs: 279516361
  frame_id: "ti_mmwave"
point_id: 17
x: 0.044921875
y: -0.046875
z: 0.103515625
range: 0.130730912089
velocity: 0.0
doppler_bin: 8
bearing: -46.218875885
intensity: 28.9872512817
---
header: 
  seq: 1507160
  stamp: 
    secs: 1561865831
    nsecs: 279531615
  frame_id: "ti_mmwave"
point_id: 19
x: 1.423828125
y: -0.47265625
z: -0.1953125
range: 1.61234796047
velocity: 0.0
doppler_bin: 8
bearing: -18.3641853333
intensity: 26.8484535217
---
header: 
  seq: 1507161
  stamp: 
    secs: 1561865831
    nsecs: 279582831
  frame_id: "ti_mmwave"
point_id: 20
x: 1.419921875
y: 0.09765625
z: 0.625
range: 1.65592491627
velocity: 0.0
doppler_bin: 8
bearing: 3.93436694145
intensity: 25.5266819
---
header: 
  seq: 1507162
  stamp: 
    secs: 1561865831
    nsecs: 337495925
  frame_id: "ti_mmwave"
point_id: 0
x: 0.01171875
y: -0.0390625
z: -0.0078125
range: 0.0435769706964
velocity: 0.0
doppler_bin: 8
bearing: -73.3007583618
intensity: 30.6557979584
---
header: 
  seq: 1507163
  stamp: 
    secs: 1561865831
    nsecs: 337590163
  frame_id: "ti_mmwave"
point_id: 1
x: 0.017578125
y: -0.080078125
z: -0.0078125
range: 0.0871539413929
velocity: 0.0
doppler_bin: 8
bearing: -77.6192398071
intensity: 31.9061183929
---
header: 
  seq: 1507164
  stamp: 
    secs: 1561865831
    nsecs: 337607483
  frame_id: "ti_mmwave"
point_id: 2
x: 0.029296875
y: -0.119140625
z: -0.005859375
range: 0.130730912089
velocity: 0.0
doppler_bin: 8
bearing: -76.1849746704
intensity: 30.141002655
---
header: 
  seq: 1507165
  stamp: 
    secs: 1561865831
    nsecs: 337620834
  frame_id: "ti_mmwave"
point_id: 3
x: 0.056640625
y: -0.154296875
z: 0.005859375
range: 0.174307882786
velocity: 0.0
doppler_bin: 8
bearing: -69.8423843384
intensity: 25.4406795502
---
header: 
  seq: 1507166
  stamp: 
    secs: 1561865831
    nsecs: 337637941
  frame_id: "ti_mmwave"
point_id: 4
x: 1.2265625
y: -0.119140625
z: 0.302734375
range: 1.35088610649
velocity: 0.0
doppler_bin: 8
bearing: -5.54794979095
intensity: 25.6229286194
---
header: 
  seq: 1507167
  stamp: 
    secs: 1561865831
    nsecs: 337651484
  frame_id: "ti_mmwave"
point_id: 5
x: 1.30078125
y: -0.08203125
z: 0.1171875
range: 1.39446306229
velocity: 0.0
doppler_bin: 8
bearing: -3.60846877098
intensity: 29.5375976562
---
header: 
  seq: 1507168
  stamp: 
    secs: 1561865831
    nsecs: 337738212
  frame_id: "ti_mmwave"
point_id: 6
x: 1.34765625
y: -0.083984375
z: 0.005859375
range: 1.43804001808
velocity: 0.0
doppler_bin: 8
bearing: -3.56599473953
intensity: 29.5520648956
---
header: 
  seq: 1507169
  stamp: 
    secs: 1561865831
    nsecs: 337754129
  frame_id: "ti_mmwave"
point_id: 7
x: 1.38671875
y: -0.04296875
z: -0.09375
range: 1.48161697388
velocity: 0.0
doppler_bin: 8
bearing: -1.77479434013
intensity: 27.2997436523
---
header: 
  seq: 1507170
  stamp: 
    secs: 1561865831
    nsecs: 337768353
  frame_id: "ti_mmwave"
point_id: 8
x: 1.42578125
y: 0.134765625
z: -0.025390625
range: 1.52519392967
velocity: 0.0
doppler_bin: 8
bearing: 5.39958620071
intensity: 27.5891189575
---
header: 
  seq: 1507171
  stamp: 
    secs: 1561865831
    nsecs: 337781328
  frame_id: "ti_mmwave"
point_id: 9
x: 1.478515625
y: 0.142578125
z: 0.291015625
range: 1.61234796047
velocity: 0.0
doppler_bin: 8
bearing: 5.50818872452
intensity: 29.5616836548
---
header: 
  seq: 1507172
  stamp: 
    secs: 1561865831
    nsecs: 337794425
  frame_id: "ti_mmwave"
point_id: 10
x: 1.5078125
y: 0.193359375
z: 0.3203125
range: 1.65592491627
velocity: 0.0
doppler_bin: 8
bearing: 7.30763149261
intensity: 30.8062648773
---
header: 
  seq: 1507173
  stamp: 
    secs: 1561865831
    nsecs: 337809453
  frame_id: "ti_mmwave"
point_id: 11
x: 1.55078125
y: 0.19921875
z: 0.314453125
range: 1.69950187206
velocity: 0.0
doppler_bin: 8
bearing: 7.32032203674
intensity: 27.3878059387
---
header: 
  seq: 1507174
  stamp: 
    secs: 1561865831
    nsecs: 337822355
  frame_id: "ti_mmwave"
point_id: 12
x: 2.6328125
y: -0.17578125
z: 1.001953125
range: 3.00681090355
velocity: 0.0
doppler_bin: 8
bearing: -3.81971669197
intensity: 29.0794849396
---
header: 
  seq: 1507175
  stamp: 
    secs: 1561865831
    nsecs: 337835239
  frame_id: "ti_mmwave"
point_id: 13
x: 2.6640625
y: -0.1796875
z: 1.033203125
range: 3.05038785934
velocity: 0.0
doppler_bin: 8
bearing: -3.85868024826
intensity: 32.263420105
---
header: 
  seq: 1507176
  stamp: 
    secs: 1561865831
    nsecs: 337848100
  frame_id: "ti_mmwave"
point_id: 14
x: 2.77734375
y: -0.0
z: 0.849609375
range: 3.09396481514
velocity: 0.0
doppler_bin: 8
bearing: -0.0
intensity: 31.2548122406
---
header: 
  seq: 1507177
  stamp: 
    secs: 1561865831
    nsecs: 337860886
  frame_id: "ti_mmwave"
point_id: 15
x: 4.86328125
y: -1.091796875
z: -0.255859375
range: 5.31639051437
velocity: 0.0
doppler_bin: 8
bearing: -12.653002739
intensity: 29.2839584351
---
header: 
  seq: 1507178
  stamp: 
    secs: 1561865831
    nsecs: 337895525
  frame_id: "ti_mmwave"
point_id: 16
x: 1.435546875
y: 0.18359375
z: -0.2734375
range: 1.56877088547
velocity: -0.614668667316
doppler_bin: 7
bearing: 7.28806018829
intensity: 25.1719589233
---
header: 
  seq: 1507179
  stamp: 
    secs: 1561865831
    nsecs: 337917306
  frame_id: "ti_mmwave"
point_id: 17
x: 0.009765625
y: 0.03125
z: 0.025390625
range: 0.0435769706964
velocity: 0.0
doppler_bin: 8
bearing: 72.6459732056
intensity: 29.3094902039
---
header: 
  seq: 1507180
  stamp: 
    secs: 1561865831
    nsecs: 337940099
  frame_id: "ti_mmwave"
point_id: 18
x: 0.041015625
y: -0.033203125
z: 0.0625
range: 0.0871539413929
velocity: 0.0
doppler_bin: 8
bearing: -38.9909973145
intensity: 30.0945091248
---
header: 
  seq: 1507181
  stamp: 
    secs: 1561865831
    nsecs: 338017133
  frame_id: "ti_mmwave"
point_id: 19
x: 0.044921875
y: -0.046875
z: 0.103515625
range: 0.130730912089
velocity: 0.0
doppler_bin: 8
bearing: -46.218875885
intensity: 28.9982051849
---
header: 
  seq: 1507182
  stamp: 
    secs: 1561865831
    nsecs: 338035116
  frame_id: "ti_mmwave"
point_id: 21
x: 1.3515625
y: -0.357421875
z: -0.310546875
range: 1.52519392967
velocity: 0.0
doppler_bin: 8
bearing: -14.8128261566
intensity: 25.7170886993
---
header: 
  seq: 1507183
  stamp: 
    secs: 1561865831
    nsecs: 338050031
  frame_id: "ti_mmwave"
point_id: 22
x: 1.39453125
y: -0.42578125
z: 0.408203125
range: 1.61234796047
velocity: 0.0
doppler_bin: 8
bearing: -16.9785900116
intensity: 28.3632411957
---
header: 
  seq: 1507184
  stamp: 
    secs: 1561865831
    nsecs: 338064229
  frame_id: "ti_mmwave"
point_id: 23
x: 1.3046875
y: -0.388671875
z: -0.748046875
range: 1.65592491627
velocity: 0.0
doppler_bin: 8
bearing: -16.5890140533
intensity: 29.6047077179
---
header: 
  seq: 1507185
  stamp: 
    secs: 1561865831
    nsecs: 338077592
  frame_id: "ti_mmwave"
point_id: 24
x: 1.34765625
y: -0.3984375
z: -0.755859375
range: 1.69950187206
velocity: 0.0
doppler_bin: 8
bearing: -16.4704284668
intensity: 27.2672729492
---
header: 
  seq: 1507186
  stamp: 
    secs: 1561865831
    nsecs: 338091995
  frame_id: "ti_mmwave"
point_id: 25
x: 2.740234375
y: -0.181640625
z: 0.947265625
range: 3.09396481514
velocity: 0.0
doppler_bin: 8
bearing: -3.79239034653
intensity: 31.235250473
---
header: 
  seq: 1507187
  stamp: 
    secs: 1561865831
    nsecs: 338106491
  frame_id: "ti_mmwave"
point_id: 26
x: 1.41796875
y: -0.3671875
z: -0.150390625
range: 1.56877088547
velocity: -0.614668667316
doppler_bin: 7
bearing: -14.5180196762
intensity: 23.6735591888
---
header: 
  seq: 1507188
  stamp: 
    secs: 1561865831
    nsecs: 338863989
  frame_id: "ti_mmwave"
point_id: 0
x: 0.01171875
y: -0.0390625
z: -0.0078125
range: 0.0435769706964
velocity: 0.0
doppler_bin: 8
bearing: -73.3007583618
intensity: 30.6483230591
---
header: 
  seq: 1507189
  stamp: 
    secs: 1561865831
    nsecs: 338920591
  frame_id: "ti_mmwave"
point_id: 1
x: 0.017578125
y: -0.080078125
z: -0.0078125
range: 0.0871539413929
velocity: 0.0
doppler_bin: 8
bearing: -77.6192398071
intensity: 31.9033164978
---
header: 
  seq: 1507190
  stamp: 
    secs: 1561865831
    nsecs: 338937164
  frame_id: "ti_mmwave"
point_id: 2
x: 0.029296875
y: -0.119140625
z: -0.005859375
range: 0.130730912089
velocity: 0.0
doppler_bin: 8
bearing: -76.1849746704
intensity: 30.141002655
---
header: 
  seq: 1507191
  stamp: 
    secs: 1561865831
    nsecs: 338951317
  frame_id: "ti_mmwave"
point_id: 3
x: 0.056640625
y: -0.154296875
z: 0.005859375
range: 0.174307882786
velocity: 0.0
doppler_bin: 8
bearing: -69.8423843384
intensity: 25.4530715942
---
header: 
  seq: 1507192
  stamp: 
    secs: 1561865831
    nsecs: 338968783
  frame_id: "ti_mmwave"
point_id: 4
x: 1.150390625
y: -0.158203125
z: 0.509765625
range: 1.35088610649
velocity: 0.0
doppler_bin: 8
bearing: -7.83026981354
intensity: 22.810333252
---
header: 
  seq: 1507193
  stamp: 
    secs: 1561865831
    nsecs: 339042670
  frame_id: "ti_mmwave"
point_id: 5
x: 1.220703125
y: -0.1640625
z: 0.4453125
range: 1.39446306229
velocity: 0.0
doppler_bin: 8
bearing: -7.65468263626
intensity: 26.981004715
---
header: 
  seq: 1507194
  stamp: 
    secs: 1561865831
    nsecs: 339052995
  frame_id: "ti_mmwave"
point_id: 6
x: 1.310546875
y: -0.126953125
z: 0.298828125
range: 1.43804001808
velocity: 0.0
doppler_bin: 8
bearing: -5.53299808502
intensity: 27.3798732758
---
header: 
  seq: 1507195
  stamp: 
    secs: 1561865831
    nsecs: 339060913
  frame_id: "ti_mmwave"
point_id: 7
x: 1.38671875
y: -0.04296875
z: -0.09765625
range: 1.48161697388
velocity: 0.0
doppler_bin: 8
bearing: -1.77479434013
intensity: 26.6275787354
---
header: 
  seq: 1507196
  stamp: 
    secs: 1561865831
    nsecs: 339070388
  frame_id: "ti_mmwave"
point_id: 8
x: 1.427734375
y: 0.08984375
z: -0.060546875
range: 1.52519392967
velocity: 0.0
doppler_bin: 8
bearing: 3.60073232651
intensity: 27.9518451691
---
header: 
  seq: 1507197
  stamp: 
    secs: 1561865831
    nsecs: 339082651
  frame_id: "ti_mmwave"
point_id: 9
x: 1.33203125
y: 0.091796875
z: -0.62109375
range: 1.56877088547
velocity: 0.0
doppler_bin: 8
bearing: 3.94230318069
intensity: 24.8287353516
---
header: 
  seq: 1507198
  stamp: 
    secs: 1561865831
    nsecs: 339093497
  frame_id: "ti_mmwave"
point_id: 10
x: 2.609375
y: -0.17578125
z: 1.0625
range: 3.00681090355
velocity: 0.0
doppler_bin: 8
bearing: -3.85392260551
intensity: 28.9486961365
---
header: 
  seq: 1507199
  stamp: 
    secs: 1561865831
    nsecs: 339106706
  frame_id: "ti_mmwave"
point_id: 11
x: 2.6875
y: -0.08984375
z: 0.986328125
range: 3.05038785934
velocity: 0.0
doppler_bin: 8
bearing: -1.91469812393
intensity: 32.1272010803
---
header: 
  seq: 1507200
  stamp: 
    secs: 1561865831
    nsecs: 339164177
  frame_id: "ti_mmwave"
point_id: 12
x: 2.765625
y: -0.0
z: 0.884765625
range: 3.09396481514
velocity: 0.0
doppler_bin: 8
bearing: -0.0
intensity: 31.0687046051
---
header: 
  seq: 1507201
  stamp: 
    secs: 1561865831
    nsecs: 339183212
  frame_id: "ti_mmwave"
point_id: 13
x: 1.439453125
y: 0.189453125
z: 0.4296875
range: 1.61234796047
velocity: 0.614668667316
doppler_bin: 9
bearing: 7.4978685379
intensity: 30.8134727478
---
header: 
  seq: 1507202
  stamp: 
    secs: 1561865831
    nsecs: 339197210
  frame_id: "ti_mmwave"
point_id: 14
x: 1.486328125
y: 0.193359375
z: 0.408203125
range: 1.65592491627
velocity: 0.614668667316
doppler_bin: 9
bearing: 7.41209459305
intensity: 32.0520439148
---
header: 
  seq: 1507203
  stamp: 
    secs: 1561865831
    nsecs: 339209886
  frame_id: "ti_mmwave"
point_id: 15
x: 1.541015625
y: 0.150390625
z: 0.3828125
range: 1.69950187206
velocity: 0.614668667316
doppler_bin: 9
bearing: 5.57395267487
intensity: 29.0363254547
---
header: 
  seq: 1507204
  stamp: 
    secs: 1561865831
    nsecs: 339222962
  frame_id: "ti_mmwave"
point_id: 16
x: 0.009765625
y: 0.03125
z: 0.025390625
range: 0.0435769706964
velocity: 0.0
doppler_bin: 8
bearing: 72.6459732056
intensity: 29.3043956757
---
header: 
  seq: 1507205
  stamp: 
    secs: 1561865831
    nsecs: 339235827
  frame_id: "ti_mmwave"
point_id: 17
x: 0.041015625
y: -0.033203125
z: 0.0625
range: 0.0871539413929
velocity: 0.0
doppler_bin: 8
