header: 
  seq: 29291
  stamp: 
    secs: 1561869361
    nsecs: 165651718
  frame_id: "ti_mmwave"
point_id: 0
x: 0.01171875
y: -0.0390625
z: -0.0078125
range: 0.0435769706964
velocity: 0.0
doppler_bin: 8
bearing: -73.3007583618
intensity: 30.6445808411
---
header: 
  seq: 29292
  stamp: 
    secs: 1561869361
    nsecs: 165731626
  frame_id: "ti_mmwave"
point_id: 1
x: 0.017578125
y: -0.080078125
z: -0.0078125
range: 0.0871539413929
velocity: 0.0
doppler_bin: 8
bearing: -77.6192398071
intensity: 31.9005146027
---
header: 
  seq: 29293
  stamp: 
    secs: 1561869361
    nsecs: 165748534
  frame_id: "ti_mmwave"
point_id: 2
x: 0.029296875
y: -0.119140625
z: -0.005859375
range: 0.130730912089
velocity: 0.0
doppler_bin: 8
bearing: -76.1849746704
intensity: 30.1199302673
---
header: 
  seq: 29294
  stamp: 
    secs: 1561869361
    nsecs: 165763117
  frame_id: "ti_mmwave"
point_id: 3
x: 0.056640625
y: -0.154296875
z: 0.005859375
range: 0.174307882786
velocity: 0.0
doppler_bin: 8
bearing: -69.8423843384
intensity: 25.4530715942
---
header: 
  seq: 29295
  stamp: 
    secs: 1561869361
    nsecs: 165776563
  frame_id: "ti_mmwave"
point_id: 4
x: 0.140625
y: -0.080078125
z: 1.2578125
range: 1.35088610649
velocity: 0.0
doppler_bin: 8
bearing: -29.6591091156
intensity: 23.138671875
---
header: 
  seq: 29296
  stamp: 
    secs: 1561869361
    nsecs: 165790501
  frame_id: "ti_mmwave"
point_id: 5
x: 0.09375
y: -0.08203125
z: 1.302734375
range: 1.39446306229
velocity: 0.0
doppler_bin: 8
bearing: -41.18592453
intensity: 24.6389293671
---
header: 
  seq: 29297
  stamp: 
    secs: 1561869361
    nsecs: 165806814
  frame_id: "ti_mmwave"
point_id: 6
x: 0.4140625
y: -0.083984375
z: -1.28125
range: 1.43804001808
velocity: 0.0
doppler_bin: 8
bearing: -11.4657688141
intensity: 23.0963020325
---
header: 
  seq: 29298
  stamp: 
    secs: 1561869361
    nsecs: 165821573
  frame_id: "ti_mmwave"
point_id: 7
x: 0.56640625
y: -0.04296875
z: -1.26953125
range: 1.48161697388
velocity: 0.0
doppler_bin: 8
bearing: -4.33826684952
intensity: 21.7026176453
---
header: 
  seq: 29299
  stamp: 
    secs: 1561869361
    nsecs: 165841618
  frame_id: "ti_mmwave"
point_id: 8
x: 1.794921875
y: 0.11328125
z: -0.05859375
range: 1.91738677025
velocity: 0.0
doppler_bin: 8
bearing: 3.61126613617
intensity: 27.6267852783
---
header: 
  seq: 29300
  stamp: 
    secs: 1561869361
    nsecs: 165912251
  frame_id: "ti_mmwave"
point_id: 9
x: 1.830078125
y: 0.056640625
z: -0.1953125
range: 1.96096372604
velocity: 0.0
doppler_bin: 8
bearing: 1.77272939682
intensity: 29.4939002991
---
header: 
  seq: 29301
  stamp: 
    secs: 1561869361
    nsecs: 165927679
  frame_id: "ti_mmwave"
point_id: 10
x: 1.8671875
y: 0.05859375
z: -0.23046875
range: 2.00454068184
velocity: 0.0
doppler_bin: 8
bearing: 1.79739499092
intensity: 29.4694328308
---
header: 
  seq: 29302
  stamp: 
    secs: 1561869361
    nsecs: 165940012
  frame_id: "ti_mmwave"
point_id: 11
x: 2.62890625
y: -0.17578125
z: 1.01171875
range: 3.00681090355
velocity: 0.0
doppler_bin: 8
bearing: -3.82537555695
intensity: 29.0741138458
---
header: 
  seq: 29303
  stamp: 
    secs: 1561869361
    nsecs: 165953292
  frame_id: "ti_mmwave"
point_id: 12
x: 2.697265625
y: -0.08984375
z: 0.958984375
range: 3.05038785934
velocity: 0.0
doppler_bin: 8
bearing: -1.90777087212
intensity: 32.2193565369
---
header: 
  seq: 29304
  stamp: 
    secs: 1561869361
    nsecs: 165968623
  frame_id: "ti_mmwave"
point_id: 13
x: 2.7578125
y: -0.08984375
z: 0.904296875
range: 3.09396481514
velocity: 0.0
doppler_bin: 8
bearing: -1.86591637135
intensity: 31.2188796997
---
header: 
  seq: 29305
  stamp: 
    secs: 1561869361
    nsecs: 165981647
  frame_id: "ti_mmwave"
point_id: 14
x: 4.3828125
y: -0.142578125
z: 1.17578125
range: 4.83704376221
velocity: 0.0
doppler_bin: 8
bearing: -1.86324298382
intensity: 28.5308952332
---
header: 
  seq: 29306
  stamp: 
    secs: 1561869361
    nsecs: 165994863
  frame_id: "ti_mmwave"
point_id: 15
x: 4.400390625
y: -0.142578125
z: 1.267578125
range: 4.88062095642
velocity: 0.0
doppler_bin: 8
bearing: -1.85580503941
intensity: 31.8836593628
---
header: 
  seq: 29307
  stamp: 
    secs: 1561869361
    nsecs: 166010455
  frame_id: "ti_mmwave"
point_id: 16
x: 4.427734375
y: -0.14453125
z: 1.3203125
range: 4.9241976738
velocity: 0.0
doppler_bin: 8
bearing: -1.86959993839
intensity: 31.4767627716
---
header: 
  seq: 29308
  stamp: 
    secs: 1561869361
    nsecs: 166023631
  frame_id: "ti_mmwave"
point_id: 17
x: 4.75
y: -0.298828125
z: -0.49609375
range: 5.09850549698
velocity: 0.0
doppler_bin: 8
bearing: -3.59980130196
intensity: 32.0439147949
---
header: 
  seq: 29309
  stamp: 
    secs: 1561869361
    nsecs: 166036069
  frame_id: "ti_mmwave"
point_id: 18
x: 4.791015625
y: -0.30078125
z: -0.51171875
range: 5.14208269119
velocity: 0.0
doppler_bin: 8
bearing: -3.59232997894
intensity: 32.7783851624
---
header: 
  seq: 29310
  stamp: 
    secs: 1561869361
    nsecs: 166050163
  frame_id: "ti_mmwave"
point_id: 19
x: 4.873046875
y: -0.46484375
z: 0.736328125
range: 5.27281332016
velocity: 0.0
doppler_bin: 8
bearing: -5.44900131226
intensity: 29.8362636566
---
header: 
  seq: 29311
  stamp: 
    secs: 1561869361
    nsecs: 166060839
  frame_id: "ti_mmwave"
point_id: 20
x: 4.9296875
y: -0.779296875
z: -0.044921875
range: 5.31639051437
velocity: 0.0
doppler_bin: 8
bearing: -8.98311805725
intensity: 28.8930168152
---
header: 
  seq: 29312
  stamp: 
    secs: 1561869361
    nsecs: 166091860
  frame_id: "ti_mmwave"
point_id: 22
x: 0.041015625
y: -0.033203125
z: 0.0625
range: 0.0871539413929
velocity: 0.0
doppler_bin: 8
bearing: -38.9909973145
intensity: 30.0945091248
---
header: 
  seq: 29313
  stamp: 
    secs: 1561869361
    nsecs: 166210730
  frame_id: "ti_mmwave"
point_id: 23
x: 0.044921875
y: -0.046875
z: 0.103515625
range: 0.130730912089
velocity: 0.0
doppler_bin: 8
bearing: -46.218875885
intensity: 29.0091304779
---
header: 
  seq: 29314
  stamp: 
    secs: 1561869361
    nsecs: 225764893
  frame_id: "ti_mmwave"
point_id: 0
x: 0.01171875
y: -0.0390625
z: -0.0078125
range: 0.0435769706964
velocity: 0.0
doppler_bin: 8
bearing: -73.3007583618
intensity: 30.6445808411
---
header: 
  seq: 29315
  stamp: 
    secs: 1561869361
    nsecs: 225838532
  frame_id: "ti_mmwave"
point_id: 1
x: 0.017578125
y: -0.080078125
z: -0.0078125
range: 0.0871539413929
velocity: 0.0
doppler_bin: 8
bearing: -77.6192398071
intensity: 31.9033164978
---
header: 
  seq: 29316
  stamp: 
    secs: 1561869361
    nsecs: 225851798
  frame_id: "ti_mmwave"
point_id: 2
x: 0.029296875
y: -0.119140625
z: -0.005859375
range: 0.130730912089
velocity: 0.0
doppler_bin: 8
bearing: -76.1849746704
intensity: 30.1199302673
---
header: 
  seq: 29317
  stamp: 
    secs: 1561869361
    nsecs: 225866456
  frame_id: "ti_mmwave"
point_id: 3
x: 0.056640625
y: -0.154296875
z: 0.005859375
range: 0.174307882786
velocity: 0.0
doppler_bin: 8
bearing: -69.8423843384
intensity: 25.4654273987
---
header: 
  seq: 29318
  stamp: 
    secs: 1561869361
    nsecs: 225881328
  frame_id: "ti_mmwave"
point_id: 4
x: 0.158203125
y: -0.080078125
z: 1.255859375
range: 1.35088610649
velocity: 0.0
doppler_bin: 8
bearing: -26.8472938538
intensity: 23.138671875
---
header: 
  seq: 29319
  stamp: 
    secs: 1561869361
    nsecs: 225891983
  frame_id: "ti_mmwave"
point_id: 6
x: 0.41796875
y: -0.083984375
z: -1.28125
range: 1.43804001808
velocity: 0.0
doppler_bin: 8
bearing: -11.3614110947
intensity: 23.1175384521
---
header: 
  seq: 29320
  stamp: 
    secs: 1561869361
    nsecs: 225903381
  frame_id: "ti_mmwave"
point_id: 7
x: 0.580078125
y: -0.04296875
z: -1.263671875
range: 1.48161697388
velocity: 0.0
doppler_bin: 8
bearing: -4.2363948822
intensity: 21.7318630219
---
header: 
  seq: 29321
  stamp: 
    secs: 1561869361
    nsecs: 225911787
  frame_id: "ti_mmwave"
point_id: 8
x: 1.748046875
y: 0.11328125
z: -0.412109375
range: 1.91738677025
velocity: 0.0
doppler_bin: 8
bearing: 3.70783829689
intensity: 28.0277366638
---
header: 
  seq: 29322
  stamp: 
    secs: 1561869361
    nsecs: 225923444
  frame_id: "ti_mmwave"
point_id: 9
x: 1.744140625
y: 0.115234375
z: -0.580078125
range: 1.96096372604
velocity: 0.0
doppler_bin: 8
bearing: 3.78000593185
intensity: 28.6033802032
---
header: 
  seq: 29323
  stamp: 
    secs: 1561869361
    nsecs: 226027048
  frame_id: "ti_mmwave"
point_id: 10
x: 1.82421875
y: 0.05859375
z: -0.455078125
range: 2.00454068184
velocity: 0.0
doppler_bin: 8
bearing: 1.83970308304
intensity: 25.3019962311
---
header: 
  seq: 29324
  stamp: 
    secs: 1561869361
    nsecs: 226044665
  frame_id: "ti_mmwave"
point_id: 11
x: 2.6171875
y: -0.17578125
z: 1.04296875
range: 3.00681090355
velocity: 0.0
doppler_bin: 8
bearing: -3.84245300293
intensity: 29.0633506775
---
header: 
  seq: 29325
  stamp: 
    secs: 1561869361
    nsecs: 226055704
  frame_id: "ti_mmwave"
point_id: 12
x: 2.693359375
y: -0.08984375
z: 0.966796875
range: 3.05038785934
velocity: 0.0
doppler_bin: 8
bearing: -1.91053581238
intensity: 32.240146637
---
header: 
  seq: 29326
  stamp: 
    secs: 1561869361
    nsecs: 226063065
  frame_id: "ti_mmwave"
point_id: 13
x: 2.759765625
y: -0.08984375
z: 0.8984375
range: 3.09396481514
velocity: 0.0
doppler_bin: 8
bearing: -1.86459684372
intensity: 31.3257980347
---
header: 
  seq: 29327
  stamp: 
    secs: 1561869361
    nsecs: 226070861
  frame_id: "ti_mmwave"
point_id: 14
x: 4.40234375
y: -0.142578125
z: 1.263671875
range: 4.88062095642
velocity: 0.0
doppler_bin: 8
bearing: -1.85498249531
intensity: 31.4643821716
---
header: 
  seq: 29328
  stamp: 
    secs: 1561869361
    nsecs: 226079310
  frame_id: "ti_mmwave"
point_id: 15
x: 4.4140625
y: -0.14453125
z: 1.3671875
range: 4.9241976738
velocity: 0.0
doppler_bin: 8
bearing: -1.87538659573
intensity: 31.0243377686
---
header: 
  seq: 29329
  stamp: 
    secs: 1561869361
    nsecs: 226087108
  frame_id: "ti_mmwave"
point_id: 16
x: 4.75
y: -0.298828125
z: -0.501953125
range: 5.09850549698
velocity: 0.0
doppler_bin: 8
bearing: -3.59980130196
intensity: 33.2695007324
---
header: 
  seq: 29330
  stamp: 
    secs: 1561869361
    nsecs: 226094814
  frame_id: "ti_mmwave"
point_id: 17
x: 4.791015625
y: -0.30078125
z: -0.505859375
range: 5.14208269119
velocity: 0.0
doppler_bin: 8
bearing: -3.59232997894
intensity: 33.8147621155
---
header: 
  seq: 29331
  stamp: 
    secs: 1561869361
    nsecs: 226103532
  frame_id: "ti_mmwave"
point_id: 18
x: 4.8203125
y: -0.15234375
z: -0.658203125
range: 5.18565940857
velocity: 0.0
doppler_bin: 8
bearing: -1.81020414829
intensity: 30.5690479279
---
header: 
  seq: 29332
  stamp: 
    secs: 1561869361
    nsecs: 226111410
  frame_id: "ti_mmwave"
point_id: 19
x: 4.8984375
y: -0.46484375
z: 0.5390625
range: 5.27281332016
velocity: 0.0
doppler_bin: 8
bearing: -5.42092561722
intensity: 29.4939002991
---
header: 
  seq: 29333
  stamp: 
    secs: 1561869361
    nsecs: 226122744
  frame_id: "ti_mmwave"
point_id: 21
x: 0.041015625
y: -0.033203125
z: 0.0625
range: 0.0871539413929
velocity: 0.0
doppler_bin: 8
bearing: -38.9909973145
intensity: 30.0945091248
---
header: 
  seq: 29334
  stamp: 
    secs: 1561869361
    nsecs: 226128202
  frame_id: "ti_mmwave"
point_id: 22
x: 0.044921875
y: -0.046875
z: 0.103515625
range: 0.130730912089
velocity: 0.0
doppler_bin: 8
bearing: -46.218875885
intensity: 29.0145835876
---
header: 
  seq: 29335
  stamp: 
    secs: 1561869361
    nsecs: 227031053
  frame_id: "ti_mmwave"
point_id: 0
x: 0.01171875
y: -0.0390625
z: -0.0078125
range: 0.0435769706964
velocity: 0.0
doppler_bin: 8
bearing: -73.3007583618
intensity: 30.6445808411
---
header: 
  seq: 29336
  stamp: 
    secs: 1561869361
    nsecs: 227103112
  frame_id: "ti_mmwave"
point_id: 1
x: 0.017578125
y: -0.080078125
z: -0.0078125
range: 0.0871539413929
velocity: 0.0
doppler_bin: 8
bearing: -77.6192398071
intensity: 31.9033164978
---
header: 
  seq: 29337
  stamp: 
    secs: 1561869361
    nsecs: 227121635
  frame_id: "ti_mmwave"
point_id: 2
x: 0.029296875
y: -0.119140625
z: -0.005859375
range: 0.130730912089
velocity: 0.0
doppler_bin: 8
bearing: -76.1849746704
intensity: 30.1199302673
---
header: 
  seq: 29338
  stamp: 
    secs: 1561869361
    nsecs: 227137680
  frame_id: "ti_mmwave"
point_id: 3
x: 0.056640625
y: -0.154296875
z: 0.005859375
range: 0.174307882786
velocity: 0.0
doppler_bin: 8
bearing: -69.8423843384
intensity: 25.4530715942
---
header: 
  seq: 29339
  stamp: 
    secs: 1561869361
    nsecs: 227158344
  frame_id: "ti_mmwave"
point_id: 4
x: 0.18359375
y: -0.080078125
z: 1.251953125
range: 1.35088610649
velocity: 0.0
doppler_bin: 8
bearing: -23.5653953552
intensity: 23.1597042084
---
header: 
  seq: 29340
  stamp: 
    secs: 1561869361
    nsecs: 227268650
  frame_id: "ti_mmwave"
point_id: 5
x: 0.07421875
y: -0.08203125
z: 1.3046875
range: 1.39446306229
velocity: 0.0
doppler_bin: 8
bearing: -47.8624038696
intensity: 24.6686763763
---
header: 
  seq: 29341
  stamp: 
    secs: 1561869361
    nsecs: 227297024
  frame_id: "ti_mmwave"
point_id: 6
x: 0.41015625
y: -0.083984375
z: -1.283203125
range: 1.43804001808
velocity: 0.0
doppler_bin: 8
bearing: -11.5720338821
intensity: 23.138671875
---
header: 
  seq: 29342
  stamp: 
    secs: 1561869361
    nsecs: 227307524
  frame_id: "ti_mmwave"
point_id: 7
x: 1.796875
y: 0.056640625
z: -0.0859375
range: 1.91738677025
velocity: 0.0
doppler_bin: 8
bearing: 1.80546462536
intensity: 28.4757270813
---
header: 
  seq: 29343
  stamp: 
    secs: 1561869361
    nsecs: 227331298
  frame_id: "ti_mmwave"
point_id: 8
x: 1.837890625
y: 0.056640625
z: -0.064453125
range: 1.96096372604
velocity: 0.0
doppler_bin: 8
bearing: 1.76519858837
intensity: 29.0417442322
---
header: 
  seq: 29344
  stamp: 
    secs: 1561869361
    nsecs: 227351893
  frame_id: "ti_mmwave"
point_id: 9
x: 1.880859375
y: 0.05859375
z: 0.01171875
range: 2.00454068184
velocity: 0.0
doppler_bin: 8
bearing: 1.78433823586
intensity: 27.9587993622
---
header: 
  seq: 29345
  stamp: 
    secs: 1561869361
    nsecs: 227371982
  frame_id: "ti_mmwave"
point_id: 10
x: 2.619140625
y: -0.17578125
z: 1.037109375
range: 3.00681090355
velocity: 0.0
doppler_bin: 8
bearing: -3.83959650993
intensity: 29.0955600739
---
header: 
  seq: 29346
  stamp: 
    secs: 1561869361
    nsecs: 227393023
  frame_id: "ti_mmwave"
point_id: 11
x: 2.69140625
y: -0.08984375
z: 0.97265625
range: 3.05038785934
velocity: 0.0
doppler_bin: 8
bearing: -1.91192126274
intensity: 32.2219619751
---
header: 
  seq: 29347
  stamp: 
    secs: 1561869361
    nsecs: 227502540
  frame_id: "ti_mmwave"
point_id: 12
x: 2.75
y: -0.08984375
z: 0.927734375
range: 3.09396481514
velocity: 0.0
doppler_bin: 8
bearing: -1.87121355534
intensity: 31.2287101746
---
header: 
  seq: 29348
  stamp: 
    secs: 1561869361
    nsecs: 227531298
  frame_id: "ti_mmwave"
point_id: 13
x: 4.388671875
y: -0.142578125
z: 1.3046875
range: 4.88062095642
velocity: 0.0
doppler_bin: 8
bearing: -1.86075723171
intensity: 31.1859531403
---
header: 
  seq: 29349
  stamp: 
    secs: 1561869361
    nsecs: 227549690
  frame_id: "ti_mmwave"
point_id: 14
x: 4.412109375
y: -0.14453125
z: 1.369140625
range: 4.9241976738
velocity: 0.0
doppler_bin: 8
bearing: -1.87621605396
intensity: 30.7481651306
---
header: 
  seq: 29350
  stamp: 
    secs: 1561869361
    nsecs: 227595891
  frame_id: "ti_mmwave"
point_id: 15
x: 4.748046875
y: -0.298828125
z: -0.51953125
range: 5.09850549698
velocity: 0.0
doppler_bin: 8
bearing: -3.60127830505
intensity: 33.13022995
---
header: 
  seq: 29351
  stamp: 
    secs: 1561869361
    nsecs: 227607154
  frame_id: "ti_mmwave"
point_id: 16
x: 4.791015625
y: -0.30078125
z: -0.501953125
range: 5.14208269119
velocity: 0.0
doppler_bin: 8
bearing: -3.59232997894
intensity: 33.6903038025
---
header: 
  seq: 29352
  stamp: 
    secs: 1561869361
    nsecs: 227612732
  frame_id: "ti_mmwave"
point_id: 17
x: 4.822265625
y: -0.3046875
z: -0.595703125
range: 5.18565940857
velocity: 0.0
doppler_bin: 8
bearing: -3.61534047127
intensity: 30.3901729584
---
header: 
  seq: 29353
  stamp: 
    secs: 1561869361
    nsecs: 227649612
  frame_id: "ti_mmwave"
point_id: 19
x: 0.041015625
y: -0.033203125
z: 0.0625
range: 0.0871539413929
velocity: 0.0
doppler_bin: 8
bearing: -38.9909973145
intensity: 30.0945091248
---
header: 
  seq: 29354
  stamp: 
    secs: 1561869361
    nsecs: 227658940
  frame_id: "ti_mmwave"
point_id: 20
x: 0.046875
y: -0.046875
z: 0.103515625
range: 0.130730912089
velocity: 0.0
doppler_bin: 8
bearing: -45.0
intensity: 29.0091304779
---
header: 
  seq: 29355
  stamp: 
    secs: 1561869361
    nsecs: 285782595
  frame_id: "ti_mmwave"
point_id: 0
x: 0.01171875
y: -0.0390625
z: -0.0078125
range: 0.0435769706964
velocity: 0.0
doppler_bin: 8
bearing: -73.3007583618
intensity: 30.6445808411
---
header: 
  seq: 29356
  stamp: 
    secs: 1561869361
    nsecs: 285862159
  frame_id: "ti_mmwave"
point_id: 1
x: 0.017578125
y: -0.080078125
z: -0.0078125
range: 0.0871539413929
velocity: 0.0
doppler_bin: 8
bearing: -77.6192398071
intensity: 31.9005146027
---
header: 
  seq: 29357
  stamp: 
    secs: 1561869361
    nsecs: 285878820
  frame_id: "ti_mmwave"
point_id: 2
x: 0.029296875
y: -0.119140625
z: -0.005859375
range: 0.130730912089
velocity: 0.0
doppler_bin: 8
bearing: -76.1849746704
intensity: 30.1157035828
---
header: 
  seq: 29358
  stamp: 
    secs: 1561869361
    nsecs: 285893752
  frame_id: "ti_mmwave"
point_id: 3
x: 0.056640625
y: -0.154296875
z: 0.005859375
range: 0.174307882786
velocity: 0.0
doppler_bin: 8
bearing: -69.8423843384
intensity: 25.4406795502
---
header: 
  seq: 29359
  stamp: 
    secs: 1561869361
    nsecs: 285905154
  frame_id: "ti_mmwave"
point_id: 4
x: 0.16015625
y: -0.080078125
z: 1.255859375
range: 1.35088610649
velocity: 0.0
doppler_bin: 8
bearing: -26.5650501251
intensity: 23.1175384521
---
header: 
  seq: 29360
  stamp: 
    secs: 1561869361
    nsecs: 285978122
  frame_id: "ti_mmwave"
point_id: 5
x: 0.03125
y: -0.08203125
z: 1.306640625
range: 1.39446306229
velocity: 0.0
doppler_bin: 8
bearing: -69.1455459595
intensity: 24.6389293671
---
header: 
  seq: 29361
  stamp: 
    secs: 1561869361
    nsecs: 285991161
  frame_id: "ti_mmwave"
point_id: 6
x: 0.400390625
y: -0.083984375
z: -1.287109375
range: 1.43804001808
velocity: 0.0
doppler_bin: 8
bearing: -11.8463935852
intensity: 23.0535144806
---
header: 
  seq: 29362
  stamp: 
    secs: 1561869361
    nsecs: 286002213
  frame_id: "ti_mmwave"
point_id: 7
x: 0.55859375
y: -0.04296875
z: -1.2734375
range: 1.48161697388
velocity: 0.0
doppler_bin: 8
bearing: -4.39870548248
intensity: 21.6731739044
---
header: 
  seq: 29363
  stamp: 
    secs: 1561869361
    nsecs: 286015795
  frame_id: "ti_mmwave"
point_id: 8
x: 1.75390625
y: 0.109375
z: -0.083984375
range: 1.87380969524
velocity: 0.0
doppler_bin: 8
bearing: 3.56838989258
intensity: 30.0518054962
---
header: 
  seq: 29364
  stamp: 
    secs: 1561869361
    nsecs: 286026774
  frame_id: "ti_mmwave"
point_id: 9
x: 1.79296875
y: 0.11328125
z: -0.103515625
range: 1.91738677025
velocity: 0.0
doppler_bin: 8
bearing: 3.61518931389
intensity: 31.7435054779
---
header: 
  seq: 29365
  stamp: 
    secs: 1561869361
    nsecs: 286037353
  frame_id: "ti_mmwave"
point_id: 10
x: 1.828125
y: 0.115234375
z: -0.173828125
range: 1.96096372604
velocity: 0.0
doppler_bin: 8
bearing: 3.60682106018
intensity: 30.7335166931
---
header: 
  seq: 29366
  stamp: 
    secs: 1561869361
    nsecs: 286047929
  frame_id: "ti_mmwave"
point_id: 11
x: 1.853515625
y: 0.1171875
z: -0.30078125
range: 2.00454068184
velocity: 0.0
doppler_bin: 8
bearing: 3.61767888069
intensity: 27.2916469574
---
header: 
  seq: 29367
  stamp: 
    secs: 1561869361
    nsecs: 286059808
  frame_id: "ti_mmwave"
point_id: 12
x: 2.619140625
y: -0.17578125
z: 1.0390625
range: 3.00681090355
velocity: 0.0
doppler_bin: 8
bearing: -3.83959650993
intensity: 29.1009063721
---
header: 
  seq: 29368
  stamp: 
    secs: 1561869361
    nsecs: 286071045
  frame_id: "ti_mmwave"
point_id: 13
x: 2.662109375
y: -0.1796875
z: 1.037109375
range: 3.05038785934
velocity: 0.0
doppler_bin: 8
bearing: -3.86150240898
intensity: 32.2245635986
---
header: 
  seq: 29369
  stamp: 
    secs: 1561869361
    nsecs: 286084179
  frame_id: "ti_mmwave"
point_id: 14
x: 2.755859375
y: -0.08984375
z: 0.91015625
range: 3.09396481514
velocity: 0.0
doppler_bin: 8
bearing: -1.86723792553
intensity: 31.3161869049
---
header: 
  seq: 29370
  stamp: 
    secs: 1561869361
    nsecs: 286098131
  frame_id: "ti_mmwave"
point_id: 15
x: 4.380859375
y: -0.287109375
z: 1.3125
range: 4.88062095642
velocity: 0.0
doppler_bin: 8
bearing: -3.7496445179
intensity: 30.7298469543
---
header: 
  seq: 29371
  stamp: 
    secs: 1561869361
    nsecs: 286123519
  frame_id: "ti_mmwave"
point_id: 16
x: 4.400390625
y: -0.14453125
z: 1.408203125
range: 4.9241976738
velocity: 0.0
doppler_bin: 8
bearing: -1.88120913506
intensity: 30.1745071411
---
header: 
  seq: 29372
  stamp: 
    secs: 1561869361
    nsecs: 286142108
  frame_id: "ti_mmwave"
point_id: 17
x: 4.74609375
y: -0.298828125
z: -0.544921875
range: 5.09850549698
velocity: 0.0
doppler_bin: 8
bearing: -3.60275626183
intensity: 33.2939796448
---
header: 
  seq: 29373
  stamp: 
    secs: 1561869361
    nsecs: 286209813
  frame_id: "ti_mmwave"
point_id: 18
x: 4.7890625
y: -0.150390625
z: -0.587890625
range: 5.14208269119
velocity: 0.0
doppler_bin: 8
bearing: -1.79866480827
intensity: 33.787612915
---
header: 
  seq: 29374
  stamp: 
    secs: 1561869361
    nsecs: 286226206
  frame_id: "ti_mmwave"
point_id: 19
x: 4.80078125
y: -0.15234375
z: -0.787109375
range: 5.18565940857
velocity: 0.0
doppler_bin: 8
bearing: -1.81756365299
intensity: 30.3941402435
---
header: 
  seq: 29375
  stamp: 
    secs: 1561869361
    nsecs: 286240815
  frame_id: "ti_mmwave"
point_id: 20
x: 4.89453125
y: -0.46484375
z: 0.576171875
range: 5.27281332016
velocity: 0.0
doppler_bin: 8
bearing: -5.42522668839
intensity: 29.6661090851
---
header: 
  seq: 29376
  stamp: 
    secs: 1561869361
    nsecs: 286253971
  frame_id: "ti_mmwave"
point_id: 21
x: 4.90234375
y: -0.935546875
z: 0.017578125
range: 5.31639051437
velocity: 0.0
doppler_bin: 8
bearing: -10.8042259216
intensity: 28.8252449036
---
header: 
  seq: 29377
  stamp: 
    secs: 1561869361
    nsecs: 286270789
  frame_id: "ti_mmwave"
point_id: 23
x: 0.041015625
y: -0.033203125
z: 0.0625
range: 0.0871539413929
velocity: 0.0
doppler_bin: 8
bearing: -38.9909973145
intensity: 30.0945091248
---
header: 
  seq: 29378
  stamp: 
    secs: 1561869361
    nsecs: 286284742
  frame_id: "ti_mmwave"
point_id: 24
x: 0.044921875
y: -0.046875
z: 0.103515625
range: 0.130730912089
velocity: 0.0
doppler_bin: 8
bearing: -46.218875885
intensity: 29.0145835876
---
header: 
  seq: 29379
  stamp: 
    secs: 1561869361
    nsecs: 286300769
  frame_id: "ti_mmwave"
point_id: 26
x: 4.951171875
y: -0.623046875
z: 0.013671875
range: 5.31639051437
velocity: 0.0
doppler_bin: 8
bearing: -7.17230129242
intensity: 28.7794704437
---
header: 
  seq: 29380
  stamp: 
    secs: 1561869361
    nsecs: 287276947
  frame_id: "ti_mmwave"
point_id: 0
x: 0.01171875
y: -0.0390625
z: -0.0078125
range: 0.0435769706964
velocity: 0.0
doppler_bin: 8
bearing: -73.3007583618
intensity: 30.6483230591
---
header: 
  seq: 29381
  stamp: 
    secs: 1561869361
    nsecs: 287332484
  frame_id: "ti_mmwave"
point_id: 1
x: 0.017578125
y: -0.080078125
z: -0.0078125
range: 0.0871539413929
velocity: 0.0
doppler_bin: 8
bearing: -77.6192398071
intensity: 31.9033164978
---
header: 
  seq: 29382
  stamp: 
    secs: 1561869361
    nsecs: 287343843
  frame_id: "ti_mmwave"
point_id: 2
x: 0.029296875
y: -0.119140625
z: -0.005859375
range: 0.130730912089
velocity: 0.0
doppler_bin: 8
bearing: -76.1849746704
intensity: 30.1157035828
---
header: 
  seq: 29383
  stamp: 
    secs: 1561869361
    nsecs: 287357700
  frame_id: "ti_mmwave"
point_id: 3
x: 0.056640625
y: -0.154296875
z: 0.005859375
range: 0.174307882786
velocity: 0.0
doppler_bin: 8
bearing: -69.8423843384
intensity: 25.4406795502
---
header: 
  seq: 29384
  stamp: 
    secs: 1561869361
    nsecs: 287396712
  frame_id: "ti_mmwave"
point_id: 4
x: 0.138671875
y: -0.080078125
z: 1.2578125
range: 1.35088610649
velocity: 0.0
doppler_bin: 8
bearing: -30.0049190521
intensity: 23.1597042084
---
header: 
  seq: 29385
  stamp: 
    secs: 1561869361
    nsecs: 287408075
  frame_id: "ti_mmwave"
point_id: 6
x: 0.431640625
y: -0.083984375
z: -1.275390625
range: 1.43804001808
velocity: 0.0
doppler_bin: 8
bearing: -11.0104799271
intensity: 23.138671875
---
header: 
  seq: 29386
  stamp: 
    secs: 1561869361
    nsecs: 287415683
  frame_id: "ti_mmwave"
point_id: 7
x: 0.55078125
y: -0.04296875
z: -1.275390625
range: 1.48161697388
velocity: 0.0
doppler_bin: 8
bearing: -4.46084880829
intensity: 21.7318630219
---
header: 
  seq: 29387
  stamp: 
    secs: 1561869361
    nsecs: 287425565
  frame_id: "ti_mmwave"
point_id: 8
x: 1.787109375
y: 0.11328125
z: -0.189453125
range: 1.91738677025
velocity: 0.0
doppler_bin: 8
bearing: 3.62701106071
intensity: 27.8031730652
---
header: 
  seq: 29388
  stamp: 
    secs: 1561869361
    nsecs: 287438273
  frame_id: "ti_mmwave"
point_id: 9
x: 2.615234375
y: -0.17578125
z: 1.046875
range: 3.00681090355
velocity: 0.0
doppler_bin: 8
bearing: -3.84531402588
intensity: 28.9927310944
---
header: 
  seq: 29389
  stamp: 
    secs: 1561869361
    nsecs: 287447159
  frame_id: "ti_mmwave"
point_id: 10
x: 2.66015625
y: -0.1796875
z: 1.044921875
range: 3.05038785934
velocity: 0.0
doppler_bin: 8
bearing: -3.86432933807
intensity: 32.0951499939
---
header: 
  seq: 29390
  stamp: 
    secs: 1561869361
    nsecs: 287486341
  frame_id: "ti_mmwave"
point_id: 11
x: 2.7578125
y: -0.08984375
z: 0.90625
range: 3.09396481514
velocity: 0.0
doppler_bin: 8
bearing: -1.86591637135
intensity: 31.0856494904
---
header: 
  seq: 29391
  stamp: 
    secs: 1561869361
    nsecs: 287504254
  frame_id: "ti_mmwave"
point_id: 12
x: 4.365234375
y: -0.287109375
z: 1.36328125
range: 4.88062095642
velocity: 0.0
doppler_bin: 8
bearing: -3.76302742958
intensity: 29.8989448547
---
header: 
  seq: 29392
  stamp: 
    secs: 1561869361
    nsecs: 287516883
  frame_id: "ti_mmwave"
point_id: 13
x: 4.361328125
y: -0.14453125
z: 1.5234375
range: 4.9241976738
velocity: 0.0
doppler_bin: 8
bearing: -1.89804601669
intensity: 29.1697998047
---
header: 
  seq: 29393
  stamp: 
    secs: 1561869361
    nsecs: 287537695
  frame_id: "ti_mmwave"
point_id: 14
x: 4.716796875
y: -0.296875
z: -0.4296875
range: 5.0549287796
velocity: 0.0
doppler_bin: 8
bearing: -3.60144305229
intensity: 29.1009063721
---
header: 
  seq: 29394
  stamp: 
    secs: 1561869361
    nsecs: 287583778
  frame_id: "ti_mmwave"
point_id: 15
x: 4.748046875
y: -0.298828125
z: -0.513671875
range: 5.09850549698
velocity: 0.0
doppler_bin: 8
bearing: -3.60127830505
intensity: 33.6660957336
---
header: 
  seq: 29395
  stamp: 
    secs: 1561869361
    nsecs: 287600063
  frame_id: "ti_mmwave"
point_id: 16
x: 4.791015625
y: -0.30078125
z: -0.51171875
range: 5.14208269119
velocity: 0.0
doppler_bin: 8
bearing: -3.59232997894
intensity: 34.2553405762
---
header: 
  seq: 29396
  stamp: 
    secs: 1561869361
    nsecs: 287613622
  frame_id: "ti_mmwave"
point_id: 17
x: 4.8125
y: -0.3046875
z: -0.666015625
range: 5.18565940857
velocity: 0.0
doppler_bin: 8
bearing: -3.62265729904
intensity: 30.7040729523
---
header: 
  seq: 29397
  stamp: 
    secs: 1561869361
    nsecs: 287629762
  frame_id: "ti_mmwave"
point_id: 18
x: 4.884765625
y: -0.46484375
z: 0.646484375
range: 5.27281332016
velocity: 0.0
doppler_bin: 8
bearing: -5.43600749969
intensity: 29.8721923828
---
header: 
  seq: 29398
  stamp: 
    secs: 1561869361
    nsecs: 287653576
  frame_id: "ti_mmwave"
point_id: 19
x: 4.90234375
y: -0.935546875
z: 0.03515625
range: 5.31639051437
velocity: 0.0
doppler_bin: 8
bearing: -10.8042259216
intensity: 29.4987773895
---
header: 
  seq: 29399
  stamp: 
    secs: 1561869361
    nsecs: 287679387
  frame_id: "ti_mmwave"
point_id: 21
x: 0.041015625
y: -0.033203125
z: 0.0625
range: 0.0871539413929
velocity: 0.0
doppler_bin: 8
bearing: -38.9909973145
intensity: 30.0945091248
---
header: 
  seq: 29400
  stamp: 
    secs: 1561869361
    nsecs: 287724572
  frame_id: "ti_mmwave"
point_id: 22
x: 0.044921875
y: -0.046875
z: 0.103515625
range: 0.130730912089
velocity: 0.0
doppler_bin: 8
bearing: -46.218875885
intensity: 29.0091304779
---
header: 
  seq: 29401
  stamp: 
    secs: 1561869361
    nsecs: 345644049
  frame_id: "ti_mmwave"
point_id: 0
x: 0.01171875
y: -0.0390625
z: -0.0078125
range: 0.0435769706964
velocity: 0.0
doppler_bin: 8
bearing: -73.3007583618
intensity: 30.6445808411
---
header: 
  seq: 29402
  stamp: 
    secs: 1561869361
    nsecs: 345715014
  frame_id: "ti_mmwave"
point_id: 1
x: 0.017578125
y: -0.080078125
z: -0.0078125
range: 0.0871539413929
velocity: 0.0
doppler_bin: 8
bearing: -77.6192398071
intensity: 31.9005146027
---
header: 
  seq: 29403
  stamp: 
    secs: 1561869361
    nsecs: 345728081
  frame_id: "ti_mmwave"
point_id: 2
x: 0.029296875
y: -0.119140625
z: -0.005859375
range: 0.130730912089
velocity: 0.0
doppler_bin: 8
bearing: -76.1849746704
intensity: 30.1157035828
---
header: 
  seq: 29404
  stamp: 
    secs: 1561869361
    nsecs: 345736878
  frame_id: "ti_mmwave"
point_id: 3
x: 0.056640625
y: -0.154296875
z: 0.005859375
range: 0.174307882786
velocity: 0.0
doppler_bin: 8
bearing: -69.8423843384
intensity: 25.4530715942
---
header: 
  seq: 29405
  stamp: 
    secs: 1561869361
    nsecs: 345745634
  frame_id: "ti_mmwave"
point_id: 4
x: 0.126953125
y: -0.080078125
z: 1.259765625
range: 1.35088610649
velocity: 0.0
doppler_bin: 8
bearing: -32.2424697876
intensity: 23.1175384521
---
header: 
  seq: 29406
  stamp: 
    secs: 1561869361
    nsecs: 345755789
  frame_id: "ti_mmwave"
point_id: 6
x: 0.423828125
y: -0.083984375
z: -1.279296875
range: 1.43804001808
velocity: 0.0
doppler_bin: 8
bearing: -11.2083444595
intensity: 23.1175384521
---
header: 
  seq: 29407
  stamp: 
    secs: 1561869361
    nsecs: 345765272
  frame_id: "ti_mmwave"
point_id: 7
x: 0.564453125
y: -0.04296875
z: -1.26953125
range: 1.48161697388
velocity: 0.0
doppler_bin: 8
bearing: -4.35321998596
intensity: 21.6731739044
---
header: 
  seq: 29408
  stamp: 
    secs: 1561869361
    nsecs: 345773123
  frame_id: "ti_mmwave"
point_id: 8
x: 1.736328125
y: 0.0546875
z: -0.2734375
range: 1.87380969524
velocity: 0.0
doppler_bin: 8
bearing: 1.80399513245
intensity: 28.3186969757
---
header: 
  seq: 29409
  stamp: 
    secs: 1561869361
    nsecs: 345781698
  frame_id: "ti_mmwave"
point_id: 9
x: 1.763671875
y: 0.11328125
z: -0.33984375
range: 1.91738677025
velocity: 0.0
doppler_bin: 8
bearing: 3.6750793457
intensity: 29.925535202
---
header: 
  seq: 29410
  stamp: 
    secs: 1561869361
    nsecs: 345790915
  frame_id: "ti_mmwave"
point_id: 10
x: 2.6015625
y: -0.17578125
z: 1.08203125
range: 3.00681090355
velocity: 0.0
doppler_bin: 8
bearing: -3.86546111107
intensity: 28.7737140656
---
header: 
  seq: 29411
  stamp: 
    secs: 1561869361
    nsecs: 345801773
  frame_id: "ti_mmwave"
point_id: 11
x: 2.68359375
y: -0.08984375
z: 0.994140625
range: 3.05038785934
velocity: 0.0
doppler_bin: 8
bearing: -1.91748321056
intensity: 32.0736503601
---
header: 
  seq: 29412
  stamp: 
    secs: 1561869361
    nsecs: 345810025
  frame_id: "ti_mmwave"
point_id: 12
x: 2.75
y: -0.08984375
z: 0.9296875
range: 3.09396481514
velocity: 0.0
doppler_bin: 8
bearing: -1.87121355534
intensity: 31.1260509491
---
header: 
  seq: 29413
  stamp: 
    secs: 1561869361
    nsecs: 345818201
  frame_id: "ti_mmwave"
point_id: 13
x: 4.404296875
y: -0.142578125
z: 1.25390625
range: 4.88062095642
velocity: 0.0
doppler_bin: 8
bearing: -1.85416030884
intensity: 30.4020671844
---
header: 
  seq: 29414
  stamp: 
    secs: 1561869361
    nsecs: 345827417
  frame_id: "ti_mmwave"
point_id: 14
x: 4.40234375
y: -0.2890625
z: 1.37890625
range: 4.9241976738
velocity: 0.0
doppler_bin: 8
bearing: -3.75670814514
intensity: 29.9122600555
---
header: 
  seq: 29415
  stamp: 
    secs: 1561869361
    nsecs: 345836424
  frame_id: "ti_mmwave"
point_id: 15
x: 4.7421875
y: -0.298828125
z: -0.568359375
range: 5.09850549698
velocity: 0.0
doppler_bin: 8
bearing: -3.60571622849
intensity: 33.3925247192
---
header: 
  seq: 29416
  stamp: 
    secs: 1561869361
    nsecs: 345845314
  frame_id: "ti_mmwave"
point_id: 16
x: 4.783203125
y: -0.30078125
z: -0.572265625
range: 5.14208269119
velocity: 0.0
doppler_bin: 8
bearing: -3.59818196297
intensity: 33.988079071
---
header: 
  seq: 29417
  stamp: 
    secs: 1561869361
    nsecs: 345854093
  frame_id: "ti_mmwave"
point_id: 17
x: 4.80859375
y: -0.15234375
z: -0.7421875
range: 5.18565940857
velocity: 0.0
doppler_bin: 8
bearing: -1.81461262703
intensity: 30.5153846741
---
header: 
  seq: 29418
  stamp: 
    secs: 1561869361
    nsecs: 345874606
  frame_id: "ti_mmwave"
point_id: 18
x: 4.890625
y: -0.30859375
z: 0.6953125
range: 5.27281332016
velocity: 0.0
doppler_bin: 8
bearing: -3.61052203178
intensity: 30.8026561737
---
header: 
  seq: 29419
  stamp: 
    secs: 1561869361
    nsecs: 345885292
  frame_id: "ti_mmwave"
point_id: 19
x: 4.951171875
y: -0.623046875
z: 0.044921875
range: 5.31639051437
velocity: 0.0
doppler_bin: 8
bearing: -7.17230129242
intensity: 29.4939002991
---
header: 
  seq: 29420
  stamp: 
    secs: 1561869361
    nsecs: 346056685
  frame_id: "ti_mmwave"
point_id: 20
x: 1.80078125
y: 0.115234375
z: -0.36328125
range: 1.96096372604
velocity: 0.614668667316
doppler_bin: 9
bearing: 3.66144037247
intensity: 28.5733242035
---
header: 
  seq: 29421
  stamp: 
    secs: 1561869361
    nsecs: 346079202
  frame_id: "ti_mmwave"
point_id: 21
x: 1.822265625
y: 0.17578125
z: -0.435546875
range: 2.00454068184
velocity: 0.614668667316
doppler_bin: 9
bearing: 5.50987625122
intensity: 25.7403125763
---
header: 
  seq: 29422
  stamp: 
    secs: 1561869361
    nsecs: 346089326
  frame_id: "ti_mmwave"
point_id: 22
x: 1.87109375
y: 0.552734375
z: 0.23046875
range: 2.09169459343
velocity: -0.614668667316
doppler_bin: 7
bearing: 16.4575138092
intensity: 25.8546066284
---
header: 
  seq: 29423
  stamp: 
    secs: 1561869361
    nsecs: 346097893
  frame_id: "ti_mmwave"
point_id: 23
x: 1.90234375
y: 0.564453125
z: 0.28125
range: 2.13527154922
velocity: -0.614668667316
doppler_bin: 7
bearing: 16.5263900757
intensity: 27.0500793457
---
header: 
  seq: 29424
  stamp: 
    secs: 1561869361
    nsecs: 346108148
  frame_id: "ti_mmwave"
point_id: 25
x: 0.041015625
y: -0.033203125
z: 0.0625
range: 0.0871539413929
velocity: 0.0
doppler_bin: 8
bearing: -38.9909973145
intensity: 30.0902576447
---
header: 
  seq: 29425
  stamp: 
    secs: 1561869361
    nsecs: 346131672
  frame_id: "ti_mmwave"
point_id: 26
x: 0.044921875
y: -0.046875
z: 0.103515625
range: 0.130730912089
velocity: 0.0
doppler_bin: 8
bearing: -46.218875885
intensity: 29.0036716461
---
header: 
  seq: 29426
  stamp: 
    secs: 1561869361
    nsecs: 347054877
  frame_id: "ti_mmwave"
point_id: 0
x: 0.01171875
y: -0.0390625
z: -0.0078125
range: 0.0435769706964
velocity: 0.0
doppler_bin: 8
bearing: -73.3007583618
intensity: 30.6483230591
---
header: 
  seq: 29427
  stamp: 
    secs: 1561869361
    nsecs: 347116897
  frame_id: "ti_mmwave"
point_id: 1
x: 0.017578125
y: -0.080078125
z: -0.0078125
range: 0.0871539413929
velocity: 0.0
doppler_bin: 8
bearing: -77.6192398071
intensity: 31.9033164978
---
header: 
  seq: 29428
  stamp: 
    secs: 1561869361
    nsecs: 347137523
  frame_id: "ti_mmwave"
point_id: 2
x: 0.029296875
y: -0.119140625
z: -0.005859375
range: 0.130730912089
velocity: 0.0
doppler_bin: 8
bearing: -76.1849746704
intensity: 30.1199302673
---
header: 
  seq: 29429
  stamp: 
    secs: 1561869361
    nsecs: 347153487
  frame_id: "ti_mmwave"
point_id: 3
x: 0.056640625
y: -0.154296875
z: 0.0078125
range: 0.174307882786
velocity: 0.0
doppler_bin: 8
bearing: -69.8423843384
intensity: 25.4530715942
---
header: 
  seq: 29430
  stamp: 
    secs: 1561869361
    nsecs: 347232993
  frame_id: "ti_mmwave"
point_id: 4
x: 0.142578125
y: -0.080078125
z: 1.2578125
range: 1.35088610649
velocity: 0.0
doppler_bin: 8
bearing: -29.3204746246
intensity: 23.138671875
---
header: 
  seq: 29431
  stamp: 
    secs: 1561869361
    nsecs: 347244071
  frame_id: "ti_mmwave"
point_id: 5
x: 0.025390625
y: -0.08203125
z: 1.306640625
range: 1.39446306229
velocity: 0.0
doppler_bin: 8
bearing: -72.8014526367
intensity: 24.6389293671
---
header: 
  seq: 29432
  stamp: 
    secs: 1561869361
    nsecs: 347252685
  frame_id: "ti_mmwave"
point_id: 6
x: 0.4140625
y: -0.083984375
z: -1.28125
range: 1.43804001808
velocity: 0.0
doppler_bin: 8
bearing: -11.4657688141
intensity: 23.0749607086
---
header: 
  seq: 29433
  stamp: 
    secs: 1561869361
    nsecs: 347264794
  frame_id: "ti_mmwave"
point_id: 7
x: 0.57421875
y: -0.04296875
z: -1.265625
range: 1.48161697388
velocity: 0.0
doppler_bin: 8
bearing: -4.27946329117
intensity: 21.6435279846
---
header: 
  seq: 29434
  stamp: 
    secs: 1561869361
    nsecs: 347277516
  frame_id: "ti_mmwave"
point_id: 8
x: 1.798828125
y: 0.056640625
z: 0.01953125
range: 1.91738677025
velocity: 0.0
doppler_bin: 8
bearing: 1.8035056591
intensity: 27.8247261047
---
header: 
  seq: 29435
  stamp: 
    secs: 1561869361
    nsecs: 347291099
  frame_id: "ti_mmwave"
point_id: 9
x: 1.837890625
y: 0.056640625
z: 0.07421875
range: 1.96096372604
velocity: 0.0
doppler_bin: 8
bearing: 1.76519858837
intensity: 28.2347431183
---
header: 
  seq: 29436
  stamp: 
    secs: 1561869361
    nsecs: 347302738
  frame_id: "ti_mmwave"
point_id: 10
x: 2.62109375
y: -0.17578125
z: 1.033203125
range: 3.00681090355
velocity: 0.0
doppler_bin: 8
bearing: -3.83674383163
intensity: 28.9817657471
---
header: 
  seq: 29437
  stamp: 
    secs: 1561869361
    nsecs: 347315648
  frame_id: "ti_mmwave"
point_id: 11
x: 2.693359375
y: -0.08984375
z: 0.970703125
range: 3.05038785934
velocity: 0.0
doppler_bin: 8
bearing: -1.91053581238
intensity: 32.1695709229
---
header: 
  seq: 29438
  stamp: 
    secs: 1561869361
    nsecs: 347328275
  frame_id: "ti_mmwave"
point_id: 12
x: 2.75390625
y: -0.08984375
z: 0.919921875
range: 3.09396481514
velocity: 0.0
doppler_bin: 8
bearing: -1.86856126785
intensity: 31.1925582886
---
header: 
  seq: 29439
  stamp: 
    secs: 1561869361
    nsecs: 347384327
  frame_id: "ti_mmwave"
point_id: 13
x: 4.38671875
y: -0.287109375
z: 1.2890625
range: 4.88062095642
velocity: 0.0
doppler_bin: 8
bearing: -3.74464988708
intensity: 30.2242832184
---
header: 
  seq: 29440
  stamp: 
    secs: 1561869361
    nsecs: 347395202
  frame_id: "ti_mmwave"
point_id: 14
x: 4.412109375
y: -0.14453125
z: 1.37109375
range: 4.9241976738
velocity: 0.0
doppler_bin: 8
bearing: -1.87621605396
intensity: 29.4349460602
---
header: 
  seq: 29441
  stamp: 
    secs: 1561869361
    nsecs: 347403647
  frame_id: "ti_mmwave"
point_id: 15
x: 4.740234375
y: -0.298828125
z: -0.58984375
range: 5.09850549698
velocity: 0.0
doppler_bin: 8
bearing: -3.60719799995
intensity: 33.0813751221
---
header: 
  seq: 29442
  stamp: 
    secs: 1561869361
    nsecs: 347412981
  frame_id: "ti_mmwave"
point_id: 16
x: 4.78125
y: -0.30078125
z: -0.58203125
range: 5.14208269119
velocity: 0.0
doppler_bin: 8
bearing: -3.59964799881
intensity: 33.571723938
---
header: 
  seq: 29443
  stamp: 
    secs: 1561869361
    nsecs: 347421056
  frame_id: "ti_mmwave"
point_id: 17
x: 4.8125
y: -0.3046875
z: -0.666015625
range: 5.18565940857
velocity: 0.0
doppler_bin: 8
bearing: -3.62265729904
intensity: 30.1994667053
---
header: 
  seq: 29444
  stamp: 
    secs: 1561869361
    nsecs: 347429077
  frame_id: "ti_mmwave"
point_id: 18
x: 1.8359375
y: 0.419921875
z: 0.3828125
range: 2.04811763763
velocity: -0.614668667316
doppler_bin: 7
bearing: 12.8832769394
intensity: 24.8287353516
---
header: 
  seq: 29445
  stamp: 
    secs: 1561869361
    nsecs: 347437915
  frame_id: "ti_mmwave"
point_id: 19
x: 1.849609375
y: 0.490234375
z: 0.439453125
range: 2.09169459343
velocity: -0.614668667316
doppler_bin: 7
bearing: 14.8447704315
intensity: 28.6093654633
---
header: 
  seq: 29446
  stamp: 
    secs: 1561869361
    nsecs: 347446147
  frame_id: "ti_mmwave"
point_id: 20
x: 1.87890625
y: 0.501953125
z: 0.482421875
range: 2.13527154922
velocity: -0.614668667316
doppler_bin: 7
bearing: 14.9573631287
intensity: 28.6033802032
---
header: 
  seq: 29447
  stamp: 
    secs: 1561869361
    nsecs: 347456507
  frame_id: "ti_mmwave"
point_id: 22
x: 0.041015625
y: -0.033203125
z: 0.0625
range: 0.0871539413929
velocity: 0.0
doppler_bin: 8
bearing: -38.9909973145
intensity: 30.0902576447
---
header: 
  seq: 29448
  stamp: 
    secs: 1561869361
    nsecs: 347464935
  frame_id: "ti_mmwave"
point_id: 23
x: 0.044921875
y: -0.046875
z: 0.103515625
range: 0.130730912089
velocity: 0.0
doppler_bin: 8
bearing: -46.218875885
intensity: 29.0091304779
---
header: 
  seq: 29449
  stamp: 
    secs: 1561869361
    nsecs: 405711765
  frame_id: "ti_mmwave"
point_id: 0
x: 0.01171875
y: -0.0390625
z: -0.0078125
range: 0.0435769706964
velocity: 0.0
doppler_bin: 8
bearing: -73.3007583618
intensity: 30.6483230591
---
header: 
  seq: 29450
  stamp: 
    secs: 1561869361
    nsecs: 405782433
  frame_id: "ti_mmwave"
point_id: 1
x: 0.017578125
y: -0.080078125
z: -0.0078125
range: 0.0871539413929
velocity: 0.0
doppler_bin: 8
bearing: -77.6192398071
intensity: 31.9005146027
---
header: 
  seq: 29451
  stamp: 
    secs: 1561869361
    nsecs: 405794511
  frame_id: "ti_mmwave"
point_id: 2
x: 0.029296875
y: -0.119140625
z: -0.005859375
range: 0.130730912089
velocity: 0.0
doppler_bin: 8
bearing: -76.1849746704
intensity: 30.1157035828
---
header: 
  seq: 29452
  stamp: 
    secs: 1561869361
    nsecs: 405806638
  frame_id: "ti_mmwave"
point_id: 3
x: 0.056640625
y: -0.154296875
z: 0.0078125
range: 0.174307882786
velocity: 0.0
doppler_bin: 8
bearing: -69.8423843384
intensity: 25.4406795502
---
header: 
  seq: 29453
  stamp: 
    secs: 1561869361
    nsecs: 405822131
  frame_id: "ti_mmwave"
point_id: 4
x: 0.173828125
y: -0.080078125
z: 1.25390625
range: 1.35088610649
velocity: 0.0
doppler_bin: 8
bearing: -24.7343044281
intensity: 23.0963020325
---
header: 
  seq: 29454
  stamp: 
    secs: 1561869361
    nsecs: 405831156
  frame_id: "ti_mmwave"
point_id: 5
x: 0.07421875
y: -0.08203125
z: 1.3046875
range: 1.39446306229
velocity: 0.0
doppler_bin: 8
bearing: -47.8624038696
intensity: 24.6538276672
---
header: 
  seq: 29455
  stamp: 
    secs: 1561869361
    nsecs: 405839449
  frame_id: "ti_mmwave"
point_id: 6
x: 0.431640625
y: -0.083984375
z: -1.27734375
range: 1.43804001808
velocity: 0.0
doppler_bin: 8
bearing: -11.0104799271
intensity: 23.1175384521
---
header: 
  seq: 29456
  stamp: 
    secs: 1561869361
    nsecs: 405847469
  frame_id: "ti_mmwave"
point_id: 7
x: 0.576171875
y: -0.04296875
z: -1.265625
range: 1.48161697388
velocity: 0.0
doppler_bin: 8
bearing: -4.2650103569
intensity: 21.7026176453
---
header: 
  seq: 29457
  stamp: 
    secs: 1561869361
    nsecs: 405855349
  frame_id: "ti_mmwave"
point_id: 8
x: 1.798828125
y: 0.056640625
z: -0.02734375
range: 1.91738677025
velocity: 0.0
doppler_bin: 8
bearing: 1.8035056591
intensity: 31.1494445801
---
header: 
  seq: 29458
  stamp: 
    secs: 1561869361
    nsecs: 405865274
  frame_id: "ti_mmwave"
point_id: 9
x: 1.83984375
y: 0.056640625
z: -0.021484375
range: 1.96096372604
velocity: 0.0
doppler_bin: 8
bearing: 1.76332592964
intensity: 31.5715446472
---
header: 
  seq: 29459
  stamp: 
    secs: 1561869361
    nsecs: 405873899
  frame_id: "ti_mmwave"
point_id: 10
x: 1.876953125
y: 0.1171875
z: -0.05859375
range: 2.00454068184
velocity: 0.0
doppler_bin: 8
bearing: 3.57262253761
intensity: 28.4260921478
---
header: 
  seq: 29460
  stamp: 
    secs: 1561869361
    nsecs: 405883133
  frame_id: "ti_mmwave"
point_id: 11
x: 2.623046875
y: -0.17578125
z: 1.025390625
range: 3.00681090355
velocity: 0.0
doppler_bin: 8
bearing: -3.83389568329
intensity: 29.1115760803
---
header: 
  seq: 29461
  stamp: 
    secs: 1561869361
    nsecs: 405891899
  frame_id: "ti_mmwave"
point_id: 12
x: 2.6953125
y: -0.08984375
z: 0.9609375
range: 3.05038785934
velocity: 0.0
doppler_bin: 8
bearing: -1.90915250778
intensity: 32.1695709229
---
header: 
  seq: 29462
  stamp: 
    secs: 1561869361
    nsecs: 405900158
  frame_id: "ti_mmwave"
point_id: 13
x: 2.759765625
y: -0.08984375
z: 0.8984375
range: 3.09396481514
velocity: 0.0
doppler_bin: 8
bearing: -1.86459684372
intensity: 31.1892566681
---
header: 
  seq: 29463
  stamp: 
    secs: 1561869361
    nsecs: 405907925
  frame_id: "ti_mmwave"
point_id: 14
x: 4.7109375
y: -0.4453125
z: -0.357421875
range: 5.0549287796
velocity: 0.0
doppler_bin: 8
bearing: -5.39997339249
intensity: 28.8366146088
---
header: 
  seq: 29464
  stamp: 
    secs: 1561869361
    nsecs: 405997253
  frame_id: "ti_mmwave"
point_id: 15
x: 4.75390625
y: -0.298828125
z: -0.462890625
range: 5.09850549698
velocity: 0.0
doppler_bin: 8
bearing: -3.59685111046
intensity: 33.3203430176
---
header: 
  seq: 29465
  stamp: 
    secs: 1561869361
    nsecs: 406012388
  frame_id: "ti_mmwave"
point_id: 16
x: 4.79296875
y: -0.30078125
z: -0.4921875
range: 5.14208269119
velocity: 0.0
doppler_bin: 8
bearing: -3.59086942673
intensity: 33.8327674866
---
header: 
  seq: 29466
  stamp: 
    secs: 1561869361
    nsecs: 406024915
  frame_id: "ti_mmwave"
point_id: 17
x: 4.833984375
y: -0.15234375
z: -0.552734375
range: 5.18565940857
velocity: 0.0
doppler_bin: 8
bearing: -1.80508768559
intensity: 30.3742656708
---
header: 
  seq: 29467
  stamp: 
    secs: 1561869361
    nsecs: 406038248
  frame_id: "ti_mmwave"
point_id: 18
x: 4.900390625
y: -0.30859375
z: 0.6171875
range: 5.27281332016
velocity: 0.0
doppler_bin: 8
bearing: -3.60334610939
intensity: 30.9864368439
---
header: 
  seq: 29468
  stamp: 
    secs: 1561869361
    nsecs: 406046386
  frame_id: "ti_mmwave"
point_id: 19
x: 1.8984375
y: 0.30078125
z: -0.03125
range: 2.04811763763
velocity: -0.614668667316
doppler_bin: 7
bearing: 9.00289344788
intensity: 26.4147415161
---
header: 
  seq: 29469
  stamp: 
    secs: 1561869361
    nsecs: 406054535
  frame_id: "ti_mmwave"
point_id: 20
x: 1.94921875
y: 0.18359375
z: 0.158203125
range: 2.09169459343
velocity: -0.614668667316
doppler_bin: 7
bearing: 5.3807220459
intensity: 26.8214511871
---
header: 
  seq: 29470
  stamp: 
    secs: 1561869361
    nsecs: 406066520
  frame_id: "ti_mmwave"
point_id: 22
x: 0.041015625
y: -0.033203125
z: 0.0625
range: 0.0871539413929
velocity: 0.0
doppler_bin: 8
bearing: -38.9909973145
intensity: 30.0902576447
---
header: 
  seq: 29471
  stamp: 
    secs: 1561869361
    nsecs: 406078601
  frame_id: "ti_mmwave"
point_id: 23
x: 0.044921875
y: -0.046875
z: 0.103515625
range: 0.130730912089
velocity: 0.0
doppler_bin: 8
bearing: -46.218875885
intensity: 29.0091304779
---
header: 
  seq: 29472
  stamp: 
    secs: 1561869361
    nsecs: 406092487
  frame_id: "ti_mmwave"
point_id: 25
x: 1.75390625
y: -0.240234375
z: 0.75
range: 2.04811763763
velocity: -0.614668667316
doppler_bin: 7
bearing: -7.79932975769
intensity: 25.5022830963
---
header: 
  seq: 29473
  stamp: 
    secs: 1561869361
    nsecs: 406105962
  frame_id: "ti_mmwave"
point_id: 26
x: 1.861328125
y: -0.18359375
z: 0.599609375
range: 2.09169459343
velocity: -0.614668667316
doppler_bin: 7
bearing: -5.6331987381
intensity: 26.4836006165
---
header: 
  seq: 29474
  stamp: 
    secs: 1561869361
    nsecs: 407153582
  frame_id: "ti_mmwave"
point_id: 0
x: 0.01171875
y: -0.0390625
z: -0.0078125
range: 0.0435769706964
velocity: 0.0
doppler_bin: 8
bearing: -73.3007583618
intensity: 30.6483230591
---
header: 
  seq: 29475
  stamp: 
    secs: 1561869361
    nsecs: 407224778
  frame_id: "ti_mmwave"
point_id: 1
x: 0.017578125
y: -0.080078125
z: -0.0078125
range: 0.0871539413929
velocity: 0.0
doppler_bin: 8
bearing: -77.6192398071
intensity: 31.9033164978
---
header: 
  seq: 29476
  stamp: 
    secs: 1561869361
    nsecs: 407238437
  frame_id: "ti_mmwave"
point_id: 2
x: 0.029296875
y: -0.119140625
z: -0.005859375
range: 0.130730912089
velocity: 0.0
doppler_bin: 8
bearing: -76.1849746704
intensity: 30.1157035828
---
header: 
  seq: 29477
  stamp: 
    secs: 1561869361
    nsecs: 407256254
  frame_id: "ti_mmwave"
point_id: 3
x: 0.056640625
y: -0.154296875
z: 0.0078125
range: 0.174307882786
velocity: 0.0
doppler_bin: 8
bearing: -69.8423843384
intensity: 25.4406795502
---
header: 
  seq: 29478
  stamp: 
    secs: 1561869361
    nsecs: 407271372
  frame_id: "ti_mmwave"
point_id: 4
x: 0.107421875
y: -0.080078125
z: 1.26171875
range: 1.35088610649
velocity: 0.0
doppler_bin: 8
bearing: -36.7028541565
intensity: 23.0963020325
---
header: 
  seq: 29479
  stamp: 
    secs: 1561869361
    nsecs: 407312431
  frame_id: "ti_mmwave"
point_id: 6
x: 0.41796875
y: -0.083984375
z: -1.28125
range: 1.43804001808
velocity: 0.0
doppler_bin: 8
bearing: -11.3614110947
intensity: 23.1175384521
---
header: 
  seq: 29480
  stamp: 
    secs: 1561869361
    nsecs: 407322630
  frame_id: "ti_mmwave"
point_id: 7
x: 0.5703125
y: -0.04296875
z: -1.267578125
range: 1.48161697388
velocity: 0.0
doppler_bin: 8
bearing: -4.30866527557
intensity: 21.7609119415
---
header: 
  seq: 29481
  stamp: 
    secs: 1561869361
    nsecs: 407330696
  frame_id: "ti_mmwave"
point_id: 8
x: 2.625
y: -0.17578125
z: 1.021484375
range: 3.00681090355
velocity: 0.0
doppler_bin: 8
bearing: -3.83105134964
intensity: 28.8874092102
---
header: 
  seq: 29482
  stamp: 
    secs: 1561869361
    nsecs: 407338509
  frame_id: "ti_mmwave"
point_id: 9
x: 2.693359375
y: -0.08984375
z: 0.966796875
range: 3.05038785934
velocity: 0.0
doppler_bin: 8
bearing: -1.91053581238
intensity: 32.1192092896
---
header: 
  seq: 29483
  stamp: 
    secs: 1561869361
    nsecs: 407346278
  frame_id: "ti_mmwave"
point_id: 10
x: 2.75
y: -0.08984375
z: 0.931640625
range: 3.09396481514
velocity: 0.0
doppler_bin: 8
bearing: -1.87121355534
intensity: 31.1826477051
---
header: 
  seq: 29484
  stamp: 
    secs: 1561869361
    nsecs: 407354034
  frame_id: "ti_mmwave"
point_id: 11
x: 4.4140625
y: -0.142578125
z: 1.220703125
range: 4.88062095642
velocity: 0.0
doppler_bin: 8
bearing: -1.850061059
intensity: 30.1114730835
---
header: 
  seq: 29485
  stamp: 
    secs: 1561869361
    nsecs: 407362781
  frame_id: "ti_mmwave"
point_id: 12
x: 4.4296875
y: -0.14453125
z: 1.310546875
range: 4.9241976738
velocity: 0.0
doppler_bin: 8
bearing: -1.86877608299
intensity: 29.9299507141
---
header: 
  seq: 29486
  stamp: 
    secs: 1561869361
    nsecs: 407371737
  frame_id: "ti_mmwave"
point_id: 13
x: 4.74609375
y: -0.298828125
z: -0.544921875
range: 5.09850549698
velocity: 0.0
doppler_bin: 8
bearing: -3.60275626183
intensity: 33.1848068237
---
header: 
  seq: 29487
  stamp: 
    secs: 1561869361
    nsecs: 407380557
  frame_id: "ti_mmwave"
point_id: 14
x: 4.783203125
y: -0.30078125
z: -0.57421875
range: 5.14208269119
velocity: 0.0
doppler_bin: 8
bearing: -3.59818196297
intensity: 33.6735610962
---
header: 
  seq: 29488
  stamp: 
    secs: 1561869361
    nsecs: 407421026
  frame_id: "ti_mmwave"
point_id: 15
x: 4.806640625
y: -0.3046875
z: -0.701171875
range: 5.18565940857
velocity: 0.0
doppler_bin: 8
bearing: -3.62706184387
intensity: 30.6220588684
---
header: 
  seq: 29489
  stamp: 
    secs: 1561869361
    nsecs: 407430500
  frame_id: "ti_mmwave"
point_id: 16
x: 1.873046875
y: -0.17578125
z: 0.060546875
range: 2.00454068184
velocity: -0.614668667316
doppler_bin: 7
bearing: -5.36137771606
intensity: 25.550945282
---
header: 
  seq: 29490
  stamp: 
    secs: 1561869361
    nsecs: 407438520
  frame_id: "ti_mmwave"
point_id: 17
x: 1.908203125
y: -0.1796875
z: 0.162109375
range: 2.04811763763
velocity: -0.614668667316
doppler_bin: 7
bearing: -5.37944126129
intensity: 29.3601074219
---
header: 
  seq: 29491
  stamp: 
    secs: 1561869361
    nsecs: 407446583
  frame_id: "ti_mmwave"
point_id: 18
x: 1.9453125
y: -0.123046875
z: 0.23046875
range: 2.09169459343
velocity: -0.614668667316
doppler_bin: 7
bearing: -3.61930918694
intensity: 29.7358970642
---
header: 
  seq: 29492
  stamp: 
    secs: 1561869361
    nsecs: 407456232
  frame_id: "ti_mmwave"
point_id: 19
x: 1.98046875
y: -0.0625
z: 0.30078125
range: 2.13527154922
velocity: -0.614668667316
doppler_bin: 7
bearing: -1.80755090714
intensity: 26.7486114502
---
header: 
  seq: 29493
  stamp: 
    secs: 1561869361
    nsecs: 407467323
  frame_id: "ti_mmwave"
point_id: 21
x: 0.041015625
y: -0.033203125
z: 0.0625
range: 0.0871539413929
velocity: 0.0
doppler_bin: 8
bearing: -38.9909973145
intensity: 30.0945091248
---
header: 
  seq: 29494
  stamp: 
    secs: 1561869361
    nsecs: 407475864
  frame_id: "ti_mmwave"
point_id: 22
x: 0.044921875
y: -0.046875
z: 0.103515625
range: 0.130730912089
velocity: 0.0
doppler_bin: 8
bearing: -46.218875885
intensity: 29.0091304779
---
header: 
  seq: 29495
  stamp: 
    secs: 1561869361
    nsecs: 465631650
  frame_id: "ti_mmwave"
point_id: 0
x: 0.01171875
y: -0.0390625
z: -0.0078125
range: 0.0435769706964
velocity: 0.0
doppler_bin: 8
bearing: -73.3007583618
intensity: 30.6520614624
---
header: 
  seq: 29496
  stamp: 
    secs: 1561869361
    nsecs: 465717267
  frame_id: "ti_mmwave"
point_id: 1
x: 0.017578125
y: -0.080078125
z: -0.0078125
range: 0.0871539413929
velocity: 0.0
doppler_bin: 8
bearing: -77.6192398071
intensity: 31.9061183929
---
header: 
  seq: 29497
  stamp: 
    secs: 1561869361
    nsecs: 465737375
  frame_id: "ti_mmwave"
point_id: 2
x: 0.029296875
y: -0.119140625
z: -0.005859375
range: 0.130730912089
velocity: 0.0
doppler_bin: 8
bearing: -76.1849746704
intensity: 30.1199302673
---
header: 
  seq: 29498
  stamp: 
    secs: 1561869361
    nsecs: 465752376
  frame_id: "ti_mmwave"
point_id: 3
x: 0.056640625
y: -0.154296875
z: 0.005859375
range: 0.174307882786
velocity: 0.0
doppler_bin: 8
bearing: -69.8423843384
intensity: 25.4530715942
---
header: 
  seq: 29499
  stamp: 
    secs: 1561869361
    nsecs: 465764255
  frame_id: "ti_mmwave"
point_id: 4
x: 0.1875
y: -0.080078125
z: 1.251953125
range: 1.35088610649
velocity: 0.0
doppler_bin: 8
bearing: -23.1265201569
intensity: 23.1806335449
---
header: 
  seq: 29500
  stamp: 
    secs: 1561869361
    nsecs: 465776414
  frame_id: "ti_mmwave"
point_id: 5
x: 0.044921875
y: -0.08203125
z: 1.3046875
range: 1.39446306229
velocity: 0.0
doppler_bin: 8
bearing: -61.2940483093
intensity: 24.6686763763
---
header: 
  seq: 29501
  stamp: 
    secs: 1561869361
    nsecs: 465792176
  frame_id: "ti_mmwave"
point_id: 6
x: 0.421875
y: -0.083984375
z: -1.279296875
range: 1.43804001808
velocity: 0.0
doppler_bin: 8
bearing: -11.2589120865
intensity: 23.138671875
---
header: 
  seq: 29502
  stamp: 
    secs: 1561869361
    nsecs: 465801338
  frame_id: "ti_mmwave"
point_id: 7
x: 0.564453125
y: -0.04296875
z: -1.26953125
range: 1.48161697388
velocity: 0.0
doppler_bin: 8
bearing: -4.35321998596
intensity: 21.7609119415
---
header: 
  seq: 29503
  stamp: 
    secs: 1561869361
    nsecs: 465809547
  frame_id: "ti_mmwave"
point_id: 8
x: 1.7890625
y: 0.171875
z: -0.400390625
range: 1.96096372604
velocity: 0.0
doppler_bin: 8
bearing: 5.48755693436
intensity: 27.8461723328
---
header: 
  seq: 29504
  stamp: 
    secs: 1561869361
    nsecs: 465819515
  frame_id: "ti_mmwave"
point_id: 9
x: 2.59765625
y: -0.17578125
z: 1.08984375
range: 3.00681090355
velocity: 0.0
doppler_bin: 8
bearing: -3.87125635147
intensity: 29.0091304779
---
header: 
  seq: 29505
  stamp: 
    secs: 1561869361
    nsecs: 465829523
  frame_id: "ti_mmwave"
point_id: 10
x: 2.68359375
y: -0.08984375
z: 0.99609375
range: 3.05038785934
velocity: 0.0
doppler_bin: 8
bearing: -1.91748321056
intensity: 32.1351776123
---
header: 
  seq: 29506
  stamp: 
    secs: 1561869361
    nsecs: 465838330
  frame_id: "ti_mmwave"
point_id: 11
x: 2.74609375
y: -0.08984375
z: 0.943359375
range: 3.09396481514
velocity: 0.0
doppler_bin: 8
bearing: -1.8738732338
intensity: 31.1693973541
---
header: 
  seq: 29507
  stamp: 
    secs: 1561869361
    nsecs: 465885938
  frame_id: "ti_mmwave"
point_id: 12
x: 4.3984375
y: -0.287109375
z: 1.248046875
range: 4.88062095642
velocity: 0.0
doppler_bin: 8
bearing: -3.73470139503
intensity: 30.8314418793
---
header: 
  seq: 29508
  stamp: 
    secs: 1561869361
    nsecs: 465910167
  frame_id: "ti_mmwave"
point_id: 13
x: 4.421875
y: -0.14453125
z: 1.33984375
range: 4.9241976738
velocity: 0.0
doppler_bin: 8
bearing: -1.87207520008
intensity: 30.3422718048
---
header: 
  seq: 29509
  stamp: 
    secs: 1561869361
    nsecs: 465930345
  frame_id: "ti_mmwave"
point_id: 14
x: 4.748046875
y: -0.298828125
z: -0.5234375
range: 5.09850549698
velocity: 0.0
doppler_bin: 8
bearing: -3.60127830505
intensity: 33.1764564514
---
header: 
  seq: 29510
  stamp: 
    secs: 1561869361
    nsecs: 465950144
  frame_id: "ti_mmwave"
point_id: 15
x: 4.791015625
y: -0.30078125
z: -0.505859375
range: 5.14208269119
velocity: 0.0
doppler_bin: 8
bearing: -3.59232997894
intensity: 33.632358551
---
header: 
  seq: 29511
  stamp: 
    secs: 1561869361
    nsecs: 466042609
  frame_id: "ti_mmwave"
point_id: 16
x: 4.830078125
y: -0.15234375
z: -0.580078125
range: 5.18565940857
velocity: 0.0
doppler_bin: 8
bearing: -1.80654656887
intensity: 30.6145248413
---
header: 
  seq: 29512
  stamp: 
    secs: 1561869361
    nsecs: 466060730
  frame_id: "ti_mmwave"
point_id: 17
x: 1.859375
y: -0.1171875
z: 0.259765625
range: 2.00454068184
velocity: -0.614668667316
doppler_bin: 7
bearing: -3.60630869865
intensity: 29.1855449677
---
header: 
  seq: 29513
  stamp: 
    secs: 1561869361
    nsecs: 466072529
  frame_id: "ti_mmwave"
point_id: 18
x: 1.88671875
y: -0.12109375
z: 0.34765625
range: 2.04811763763
velocity: -0.614668667316
doppler_bin: 7
bearing: -3.67233181
intensity: 31.4238948822
---
header: 
  seq: 29514
  stamp: 
    secs: 1561869361
    nsecs: 466083560
  frame_id: "ti_mmwave"
point_id: 19
x: 1.9296875
y: -0.060546875
z: 0.36328125
range: 2.09169459343
velocity: -0.614668667316
doppler_bin: 7
bearing: -1.79715251923
intensity: 30.2612457275
---
header: 
  seq: 29515
  stamp: 
    secs: 1561869361
    nsecs: 466097712
  frame_id: "ti_mmwave"
point_id: 21
x: 0.041015625
y: -0.033203125
z: 0.0625
range: 0.0871539413929
velocity: 0.0
doppler_bin: 8
bearing: -38.9909973145
intensity: 30.0987567902
---
header: 
  seq: 29516
  stamp: 
    secs: 1561869361
    nsecs: 466111588
  frame_id: "ti_mmwave"
point_id: 22
x: 0.046875
y: -0.046875
z: 0.103515625
range: 0.130730912089
velocity: 0.0
doppler_bin: 8
bearing: -45.0
intensity: 29.0091304779
---
header: 
  seq: 29517
  stamp: 
    secs: 1561869361
    nsecs: 525729873
  frame_id: "ti_mmwave"
point_id: 0
x: 0.01171875
y: -0.0390625
z: -0.0078125
range: 0.0435769706964
velocity: 0.0
doppler_bin: 8
bearing: -73.3007583618
intensity: 30.6520614624
---
header: 
  seq: 29518
  stamp: 
    secs: 1561869361
    nsecs: 525829820
  frame_id: "ti_mmwave"
point_id: 1
x: 0.017578125
y: -0.080078125
z: -0.0078125
range: 0.0871539413929
velocity: 0.0
doppler_bin: 8
bearing: -77.6192398071
intensity: 31.9061183929
---
header: 
  seq: 29519
  stamp: 
    secs: 1561869361
    nsecs: 525847650
  frame_id: "ti_mmwave"
point_id: 2
x: 0.029296875
y: -0.119140625
z: -0.005859375
range: 0.130730912089
velocity: 0.0
doppler_bin: 8
bearing: -76.1849746704
intensity: 30.1241531372
---
header: 
  seq: 29520
  stamp: 
    secs: 1561869361
    nsecs: 525861880
  frame_id: "ti_mmwave"
point_id: 3
x: 0.056640625
y: -0.154296875
z: 0.0078125
range: 0.174307882786
velocity: 0.0
doppler_bin: 8
bearing: -69.8423843384
intensity: 25.4654273987
---
header: 
  seq: 29521
  stamp: 
    secs: 1561869361
    nsecs: 525877207
  frame_id: "ti_mmwave"
point_id: 4
x: 0.109375
y: -0.080078125
z: 1.26171875
range: 1.35088610649
velocity: 0.0
doppler_bin: 8
bearing: -36.2094573975
intensity: 23.138671875
---
header: 
  seq: 29522
  stamp: 
    secs: 1561869361
    nsecs: 525891525
  frame_id: "ti_mmwave"
point_id: 5
x: 0.029296875
y: -0.08203125
z: 1.306640625
range: 1.39446306229
velocity: 0.0
doppler_bin: 8
bearing: -70.3461761475
intensity: 24.6538276672
---
header: 
  seq: 29523
  stamp: 
    secs: 1561869361
    nsecs: 525905944
  frame_id: "ti_mmwave"
point_id: 6
x: 0.41015625
