header: 
  seq: 35202
  stamp: 
    secs: 1561866138
    nsecs: 447285535
  frame_id: "ti_mmwave"
point_id: 0
x: 0.01171875
y: -0.0390625
z: -0.0078125
range: 0.0435769706964
velocity: 0.0
doppler_bin: 8
bearing: -73.3007583618
intensity: 30.6520614624
---
header: 
  seq: 35203
  stamp: 
    secs: 1561866138
    nsecs: 447450380
  frame_id: "ti_mmwave"
point_id: 1
x: 0.017578125
y: -0.080078125
z: -0.0078125
range: 0.0871539413929
velocity: 0.0
doppler_bin: 8
bearing: -77.6192398071
intensity: 31.9061183929
---
header: 
  seq: 35204
  stamp: 
    secs: 1561866138
    nsecs: 447464356
  frame_id: "ti_mmwave"
point_id: 2
x: 0.029296875
y: -0.119140625
z: -0.005859375
range: 0.130730912089
velocity: 0.0
doppler_bin: 8
bearing: -76.1849746704
intensity: 30.1452045441
---
header: 
  seq: 35205
  stamp: 
    secs: 1561866138
    nsecs: 447474153
  frame_id: "ti_mmwave"
point_id: 3
x: 0.056640625
y: -0.154296875
z: 0.005859375
range: 0.174307882786
velocity: 0.0
doppler_bin: 8
bearing: -69.8423843384
intensity: 25.4654273987
---
header: 
  seq: 35206
  stamp: 
    secs: 1561866138
    nsecs: 447483315
  frame_id: "ti_mmwave"
point_id: 4
x: 0.14453125
y: -0.080078125
z: 1.2578125
range: 1.35088610649
velocity: 0.0
doppler_bin: 8
bearing: -28.9888248444
intensity: 23.0749607086
---
header: 
  seq: 35207
  stamp: 
    secs: 1561866138
    nsecs: 447492884
  frame_id: "ti_mmwave"
point_id: 5
x: 0.08984375
y: -0.08203125
z: 1.302734375
range: 1.39446306229
velocity: 0.0
doppler_bin: 8
bearing: -42.3974380493
intensity: 24.6089782715
---
header: 
  seq: 35208
  stamp: 
    secs: 1561866138
    nsecs: 447501168
  frame_id: "ti_mmwave"
point_id: 6
x: 1.02734375
y: -0.04296875
z: -0.875
range: 1.43804001808
velocity: 0.0
doppler_bin: 8
bearing: -2.39500546455
intensity: 24.6089782715
---
header: 
  seq: 35209
  stamp: 
    secs: 1561866138
    nsecs: 447509769
  frame_id: "ti_mmwave"
point_id: 7
x: 1.318359375
y: -0.04296875
z: -0.44140625
range: 1.48161697388
velocity: 0.0
doppler_bin: 8
bearing: -1.86675703526
intensity: 26.7577838898
---
header: 
  seq: 35210
  stamp: 
    secs: 1561866138
    nsecs: 447518501
  frame_id: "ti_mmwave"
point_id: 8
x: 1.4140625
y: -0.044921875
z: -0.224609375
range: 1.52519392967
velocity: 0.0
doppler_bin: 8
bearing: -1.8195579052
intensity: 28.2930374146
---
header: 
  seq: 35211
  stamp: 
    secs: 1561866138
    nsecs: 447527430
  frame_id: "ti_mmwave"
point_id: 9
x: 1.46875
y: -0.091796875
z: -0.021484375
range: 1.56877088547
velocity: 0.0
doppler_bin: 8
bearing: -3.57633447647
intensity: 27.5127906799
---
header: 
  seq: 35212
  stamp: 
    secs: 1561866138
    nsecs: 447556289
  frame_id: "ti_mmwave"
point_id: 10
x: 1.505859375
y: -0.142578125
z: -0.060546875
range: 1.61234796047
velocity: 0.0
doppler_bin: 8
bearing: -5.4087677002
intensity: 25.5630245209
---
header: 
  seq: 35213
  stamp: 
    secs: 1561866138
    nsecs: 447565815
  frame_id: "ti_mmwave"
point_id: 11
x: 2.609375
y: -0.17578125
z: 1.060546875
range: 3.00681090355
velocity: 0.0
doppler_bin: 8
bearing: -3.85392260551
intensity: 28.9597473145
---
header: 
  seq: 35214
  stamp: 
    secs: 1561866138
    nsecs: 447574460
  frame_id: "ti_mmwave"
point_id: 12
x: 2.6875
y: -0.08984375
z: 0.984375
range: 3.05038785934
velocity: 0.0
doppler_bin: 8
bearing: -1.91469812393
intensity: 32.1165428162
---
header: 
  seq: 35215
  stamp: 
    secs: 1561866138
    nsecs: 447583697
  frame_id: "ti_mmwave"
point_id: 13
x: 2.724609375
y: -0.181640625
z: 0.98828125
range: 3.09396481514
velocity: 0.0
doppler_bin: 8
bearing: -3.81407499313
intensity: 31.0551013947
---
header: 
  seq: 35216
  stamp: 
    secs: 1561866138
    nsecs: 447594298
  frame_id: "ti_mmwave"
point_id: 15
x: 0.041015625
y: -0.033203125
z: 0.0625
range: 0.0871539413929
velocity: 0.0
doppler_bin: 8
bearing: -38.9909973145
intensity: 30.0945091248
---
header: 
  seq: 35217
  stamp: 
    secs: 1561866138
    nsecs: 447613993
  frame_id: "ti_mmwave"
point_id: 16
x: 0.044921875
y: -0.046875
z: 0.103515625
range: 0.130730912089
velocity: 0.0
doppler_bin: 8
bearing: -46.218875885
intensity: 28.9927310944
---
header: 
  seq: 35218
  stamp: 
    secs: 1561866138
    nsecs: 447630528
  frame_id: "ti_mmwave"
point_id: 18
x: 1.41796875
y: -0.134765625
z: -0.14453125
range: 1.52519392967
velocity: 0.0
doppler_bin: 8
bearing: -5.42915868759
intensity: 28.2542610168
---
header: 
  seq: 35219
  stamp: 
    secs: 1561866138
    nsecs: 447806759
  frame_id: "ti_mmwave"
point_id: 19
x: 2.767578125
y: -0.0
z: 0.87890625
range: 3.09396481514
velocity: 0.0
doppler_bin: 8
bearing: -0.0
intensity: 31.05169487
---
header: 
  seq: 35220
  stamp: 
    secs: 1561866138
    nsecs: 448620694
  frame_id: "ti_mmwave"
point_id: 0
x: 0.01171875
y: -0.0390625
z: -0.0078125
range: 0.0435769706964
velocity: 0.0
doppler_bin: 8
bearing: -73.3007583618
intensity: 30.6445808411
---
header: 
  seq: 35221
  stamp: 
    secs: 1561866138
    nsecs: 448678351
  frame_id: "ti_mmwave"
point_id: 1
x: 0.017578125
y: -0.080078125
z: -0.0078125
range: 0.0871539413929
velocity: 0.0
doppler_bin: 8
bearing: -77.6192398071
intensity: 31.9061183929
---
header: 
  seq: 35222
  stamp: 
    secs: 1561866138
    nsecs: 448693592
  frame_id: "ti_mmwave"
point_id: 2
x: 0.029296875
y: -0.119140625
z: -0.005859375
range: 0.130730912089
velocity: 0.0
doppler_bin: 8
bearing: -76.1849746704
intensity: 30.1452045441
---
header: 
  seq: 35223
  stamp: 
    secs: 1561866138
    nsecs: 448705847
  frame_id: "ti_mmwave"
point_id: 3
x: 0.056640625
y: -0.154296875
z: 0.0078125
range: 0.174307882786
velocity: 0.0
doppler_bin: 8
bearing: -69.8423843384
intensity: 25.4654273987
---
header: 
  seq: 35224
  stamp: 
    secs: 1561866138
    nsecs: 448719080
  frame_id: "ti_mmwave"
point_id: 4
x: 0.029296875
y: -0.080078125
z: 1.265625
range: 1.35088610649
velocity: 0.0
doppler_bin: 8
bearing: -69.9047698975
intensity: 23.1175384521
---
header: 
  seq: 35225
  stamp: 
    secs: 1561866138
    nsecs: 448731089
  frame_id: "ti_mmwave"
point_id: 5
x: 0.57421875
y: -0.08203125
z: -1.173828125
range: 1.39446306229
velocity: 0.0
doppler_bin: 8
bearing: -8.13010311127
intensity: 24.4715805054
---
header: 
  seq: 35226
  stamp: 
    secs: 1561866138
    nsecs: 448744710
  frame_id: "ti_mmwave"
point_id: 6
x: 1.298828125
y: 0.04296875
z: -0.36328125
range: 1.43804001808
velocity: 0.0
doppler_bin: 8
bearing: 1.89480829239
intensity: 23.8560619354
---
header: 
  seq: 35227
  stamp: 
    secs: 1561866138
    nsecs: 448757157
  frame_id: "ti_mmwave"
point_id: 7
x: 1.388671875
y: 0.04296875
z: -0.07421875
range: 1.48161697388
velocity: 0.0
doppler_bin: 8
bearing: 1.77229964733
intensity: 27.1933135986
---
header: 
  seq: 35228
  stamp: 
    secs: 1561866138
    nsecs: 448770082
  frame_id: "ti_mmwave"
point_id: 8
x: 1.431640625
y: 0.044921875
z: -0.01171875
range: 1.52519392967
velocity: 0.0
doppler_bin: 8
bearing: 1.79723155499
intensity: 27.1432971954
---
header: 
  seq: 35229
  stamp: 
    secs: 1561866138
    nsecs: 448783965
  frame_id: "ti_mmwave"
point_id: 9
x: 1.533203125
y: 0.306640625
z: -0.482421875
range: 1.74307882786
velocity: 0.0
doppler_bin: 8
bearing: 11.3099327087
intensity: 26.0852603912
---
header: 
  seq: 35230
  stamp: 
    secs: 1561866138
    nsecs: 448797261
  frame_id: "ti_mmwave"
point_id: 10
x: 2.615234375
y: -0.17578125
z: 1.048828125
range: 3.00681090355
velocity: 0.0
doppler_bin: 8
bearing: -3.84531402588
intensity: 28.9542255402
---
header: 
  seq: 35231
  stamp: 
    secs: 1561866138
    nsecs: 448812154
  frame_id: "ti_mmwave"
point_id: 11
x: 2.689453125
y: -0.08984375
z: 0.978515625
range: 3.05038785934
velocity: 0.0
doppler_bin: 8
bearing: -1.91330885887
intensity: 32.1351776123
---
header: 
  seq: 35232
  stamp: 
    secs: 1561866138
    nsecs: 448825596
  frame_id: "ti_mmwave"
point_id: 12
x: 2.7734375
y: -0.0
z: 0.86328125
range: 3.09396481514
velocity: 0.0
doppler_bin: 8
bearing: -0.0
intensity: 31.0448703766
---
header: 
  seq: 35233
  stamp: 
    secs: 1561866138
    nsecs: 448838457
  frame_id: "ti_mmwave"
point_id: 13
x: 1.4921875
y: -0.142578125
z: 0.203125
range: 1.61234796047
velocity: -0.614668667316
doppler_bin: 7
bearing: -5.45802688599
intensity: 25.8433113098
---
header: 
  seq: 35234
  stamp: 
    secs: 1561866138
    nsecs: 448852737
  frame_id: "ti_mmwave"
point_id: 14
x: 0.009765625
y: 0.03125
z: 0.025390625
range: 0.0435769706964
velocity: 0.0
doppler_bin: 8
bearing: 72.6459732056
intensity: 29.2941894531
---
header: 
  seq: 35235
  stamp: 
    secs: 1561866138
    nsecs: 448866701
  frame_id: "ti_mmwave"
point_id: 15
x: 0.041015625
y: -0.033203125
z: 0.0625
range: 0.0871539413929
velocity: 0.0
doppler_bin: 8
bearing: -38.9909973145
intensity: 30.0902576447
---
header: 
  seq: 35236
  stamp: 
    secs: 1561866138
    nsecs: 448880065
  frame_id: "ti_mmwave"
point_id: 16
x: 0.044921875
y: -0.046875
z: 0.103515625
range: 0.130730912089
velocity: 0.0
doppler_bin: 8
bearing: -46.218875885
intensity: 28.9927310944
---
header: 
  seq: 35237
  stamp: 
    secs: 1561866138
    nsecs: 448900065
  frame_id: "ti_mmwave"
point_id: 18
x: 1.5546875
y: 0.205078125
z: -0.46875
range: 1.74307882786
velocity: 0.0
doppler_bin: 8
bearing: 7.51447677612
intensity: 26.0530509949
---
header: 
  seq: 35238
  stamp: 
    secs: 1561866138
    nsecs: 448928653
  frame_id: "ti_mmwave"
point_id: 19
x: 2.732421875
y: -0.181640625
z: 0.96875
range: 3.09396481514
velocity: 0.0
doppler_bin: 8
bearing: -3.80320167542
intensity: 31.0346164703
---
header: 
  seq: 35239
  stamp: 
    secs: 1561866138
    nsecs: 507294174
  frame_id: "ti_mmwave"
point_id: 0
x: 0.01171875
y: -0.0390625
z: -0.0078125
range: 0.0435769706964
velocity: 0.0
doppler_bin: 8
bearing: -73.3007583618
intensity: 30.6483230591
---
header: 
  seq: 35240
  stamp: 
    secs: 1561866138
    nsecs: 507403716
  frame_id: "ti_mmwave"
point_id: 1
x: 0.017578125
y: -0.080078125
z: -0.0078125
range: 0.0871539413929
velocity: 0.0
doppler_bin: 8
bearing: -77.6192398071
intensity: 31.9061183929
---
header: 
  seq: 35241
  stamp: 
    secs: 1561866138
    nsecs: 507418391
  frame_id: "ti_mmwave"
point_id: 2
x: 0.029296875
y: -0.119140625
z: -0.005859375
range: 0.130730912089
velocity: 0.0
doppler_bin: 8
bearing: -76.1849746704
intensity: 30.141002655
---
header: 
  seq: 35242
  stamp: 
    secs: 1561866138
    nsecs: 507427316
  frame_id: "ti_mmwave"
point_id: 3
x: 0.056640625
y: -0.154296875
z: 0.005859375
range: 0.174307882786
velocity: 0.0
doppler_bin: 8
bearing: -69.8423843384
intensity: 25.4530715942
---
header: 
  seq: 35243
  stamp: 
    secs: 1561866138
    nsecs: 507436107
  frame_id: "ti_mmwave"
point_id: 4
x: 0.1328125
y: -0.080078125
z: 1.2578125
range: 1.35088610649
velocity: 0.0
doppler_bin: 8
bearing: -31.0875034332
intensity: 23.1175384521
---
header: 
  seq: 35244
  stamp: 
    secs: 1561866138
    nsecs: 507444696
  frame_id: "ti_mmwave"
point_id: 5
x: 0.486328125
y: -0.08203125
z: -1.212890625
range: 1.39446306229
velocity: 0.0
doppler_bin: 8
bearing: -9.57422828674
intensity: 25.0379066467
---
header: 
  seq: 35245
  stamp: 
    secs: 1561866138
    nsecs: 507453233
  frame_id: "ti_mmwave"
point_id: 6
x: 1.060546875
y: -0.083984375
z: -0.83203125
range: 1.43804001808
velocity: 0.0
doppler_bin: 8
bearing: -4.52778625488
intensity: 25.4157924652
---
header: 
  seq: 35246
  stamp: 
    secs: 1561866138
    nsecs: 507461595
  frame_id: "ti_mmwave"
point_id: 7
x: 1.27734375
y: -0.130859375
z: -0.533203125
range: 1.48161697388
velocity: 0.0
doppler_bin: 8
bearing: -5.84934473038
intensity: 27.1096305847
---
header: 
  seq: 35247
  stamp: 
    secs: 1561866138
    nsecs: 507471703
  frame_id: "ti_mmwave"
point_id: 8
x: 1.38671875
y: -0.1796875
z: -0.30859375
range: 1.52519392967
velocity: 0.0
doppler_bin: 8
bearing: -7.38310337067
intensity: 27.2098579407
---
header: 
  seq: 35248
  stamp: 
    secs: 1561866138
    nsecs: 507502886
  frame_id: "ti_mmwave"
point_id: 9
x: 1.455078125
y: -0.138671875
z: -0.18359375
range: 1.56877088547
velocity: 0.0
doppler_bin: 8
bearing: -5.44396114349
intensity: 24.4870624542
---
header: 
  seq: 35249
  stamp: 
    secs: 1561866138
    nsecs: 507518279
  frame_id: "ti_mmwave"
point_id: 10
x: 2.623046875
y: -0.17578125
z: 1.02734375
range: 3.00681090355
velocity: 0.0
doppler_bin: 8
bearing: -3.83389568329
intensity: 28.9486961365
---
header: 
  seq: 35250
  stamp: 
    secs: 1561866138
    nsecs: 507531820
  frame_id: "ti_mmwave"
point_id: 11
x: 2.689453125
y: -0.08984375
z: 0.978515625
range: 3.05038785934
velocity: 0.0
doppler_bin: 8
bearing: -1.91330885887
intensity: 32.1537322998
---
header: 
  seq: 35251
  stamp: 
    secs: 1561866138
    nsecs: 507554811
  frame_id: "ti_mmwave"
point_id: 12
x: 2.767578125
y: -0.0
z: 0.880859375
range: 3.09396481514
velocity: 0.0
doppler_bin: 8
bearing: -0.0
intensity: 31.0856494904
---
header: 
  seq: 35252
  stamp: 
    secs: 1561866138
    nsecs: 507563126
  frame_id: "ti_mmwave"
point_id: 13
x: 4.419921875
y: -0.287109375
z: 1.171875
range: 4.88062095642
velocity: 0.0
doppler_bin: 8
bearing: -3.71659874916
intensity: 30.7918128967
---
header: 
  seq: 35253
  stamp: 
    secs: 1561866138
    nsecs: 507731924
  frame_id: "ti_mmwave"
point_id: 14
x: 4.466796875
y: -0.14453125
z: 1.1796875
range: 4.9241976738
velocity: 0.0
doppler_bin: 8
bearing: -1.85326147079
intensity: 30.5918464661
---
header: 
  seq: 35254
  stamp: 
    secs: 1561866138
    nsecs: 507754821
  frame_id: "ti_mmwave"
point_id: 16
x: 0.041015625
y: -0.033203125
z: 0.0625
range: 0.0871539413929
velocity: 0.0
doppler_bin: 8
bearing: -38.9909973145
intensity: 30.1029987335
---
header: 
  seq: 35255
  stamp: 
    secs: 1561866138
    nsecs: 507763674
  frame_id: "ti_mmwave"
point_id: 17
x: 0.046875
y: -0.046875
z: 0.103515625
range: 0.130730912089
velocity: 0.0
doppler_bin: 8
bearing: -45.0
intensity: 28.9982051849
---
header: 
  seq: 35256
  stamp: 
    secs: 1561866138
    nsecs: 507776154
  frame_id: "ti_mmwave"
point_id: 19
x: 2.724609375
y: -0.181640625
z: 0.986328125
range: 3.09396481514
velocity: 0.0
doppler_bin: 8
bearing: -3.81407499313
intensity: 31.0788803101
---
header: 
  seq: 35257
  stamp: 
    secs: 1561866138
    nsecs: 508912643
  frame_id: "ti_mmwave"
point_id: 0
x: 0.01171875
y: -0.0390625
z: -0.0078125
range: 0.0435769706964
velocity: 0.0
doppler_bin: 8
bearing: -73.3007583618
intensity: 30.6483230591
---
header: 
  seq: 35258
  stamp: 
    secs: 1561866138
    nsecs: 508969130
  frame_id: "ti_mmwave"
point_id: 1
x: 0.017578125
y: -0.080078125
z: -0.0078125
range: 0.0871539413929
velocity: 0.0
doppler_bin: 8
bearing: -77.6192398071
intensity: 31.9061183929
---
header: 
  seq: 35259
  stamp: 
    secs: 1561866138
    nsecs: 508981299
  frame_id: "ti_mmwave"
point_id: 2
x: 0.029296875
y: -0.119140625
z: -0.005859375
range: 0.130730912089
velocity: 0.0
doppler_bin: 8
bearing: -76.1849746704
intensity: 30.141002655
---
header: 
  seq: 35260
  stamp: 
    secs: 1561866138
    nsecs: 508990204
  frame_id: "ti_mmwave"
point_id: 3
x: 0.056640625
y: -0.154296875
z: 0.005859375
range: 0.174307882786
velocity: 0.0
doppler_bin: 8
bearing: -69.8423843384
intensity: 25.4530715942
---
header: 
  seq: 35261
  stamp: 
    secs: 1561866138
    nsecs: 509000713
  frame_id: "ti_mmwave"
point_id: 5
x: 0.591796875
y: -0.041015625
z: -1.166015625
range: 1.39446306229
velocity: 0.0
doppler_bin: 8
bearing: -3.96465492249
intensity: 23.8916606903
---
header: 
  seq: 35262
  stamp: 
    secs: 1561866138
    nsecs: 509009082
  frame_id: "ti_mmwave"
point_id: 6
x: 1.248046875
y: 0.04296875
z: -0.513671875
range: 1.43804001808
velocity: 0.0
doppler_bin: 8
bearing: 1.97184574604
intensity: 20.7554702759
---
header: 
  seq: 35263
  stamp: 
    secs: 1561866138
    nsecs: 509017591
  frame_id: "ti_mmwave"
point_id: 7
x: 1.388671875
y: -0.087890625
z: -0.021484375
range: 1.48161697388
velocity: 0.0
doppler_bin: 8
bearing: -3.62148451805
intensity: 25.1188335419
---
header: 
  seq: 35264
  stamp: 
    secs: 1561866138
    nsecs: 509031042
  frame_id: "ti_mmwave"
point_id: 8
x: 1.42578125
y: -0.134765625
z: -0.02734375
range: 1.52519392967
velocity: 0.0
doppler_bin: 8
bearing: -5.39958620071
intensity: 27.1516742706
---
header: 
  seq: 35265
  stamp: 
    secs: 1561866138
    nsecs: 509043695
  frame_id: "ti_mmwave"
point_id: 9
x: 1.46875
y: -0.091796875
z: -0.01171875
range: 1.56877088547
velocity: 0.0
doppler_bin: 8
bearing: -3.57633447647
intensity: 27.3878059387
---
header: 
  seq: 35266
  stamp: 
    secs: 1561866138
    nsecs: 509057431
  frame_id: "ti_mmwave"
point_id: 10
x: 1.509765625
y: -0.09375
z: 0.001953125
range: 1.61234796047
velocity: 0.0
doppler_bin: 8
bearing: -3.55326104164
intensity: 26.4933490753
---
header: 
  seq: 35267
  stamp: 
    secs: 1561866138
    nsecs: 509127255
  frame_id: "ti_mmwave"
point_id: 11
x: 2.615234375
y: -0.17578125
z: 1.046875
range: 3.00681090355
velocity: 0.0
doppler_bin: 8
bearing: -3.84531402588
intensity: 28.9762706757
---
header: 
  seq: 35268
  stamp: 
    secs: 1561866138
    nsecs: 509141251
  frame_id: "ti_mmwave"
point_id: 12
x: 2.689453125
y: -0.08984375
z: 0.978515625
range: 3.05038785934
velocity: 0.0
doppler_bin: 8
bearing: -1.91330885887
intensity: 32.156375885
---
header: 
  seq: 35269
  stamp: 
    secs: 1561866138
    nsecs: 509152368
  frame_id: "ti_mmwave"
point_id: 13
x: 2.767578125
y: -0.0
z: 0.87890625
range: 3.09396481514
velocity: 0.0
doppler_bin: 8
bearing: -0.0
intensity: 31.0720996857
---
header: 
  seq: 35270
  stamp: 
    secs: 1561866138
    nsecs: 509163166
  frame_id: "ti_mmwave"
point_id: 14
x: 4.408203125
y: -0.142578125
z: 1.08203125
range: 4.83704376221
velocity: 0.0
doppler_bin: 8
bearing: -1.85251843929
intensity: 28.5612449646
---
header: 
  seq: 35271
  stamp: 
    secs: 1561866138
    nsecs: 509176208
  frame_id: "ti_mmwave"
point_id: 15
x: 4.40625
y: -0.287109375
z: 1.21875
range: 4.88062095642
velocity: 0.0
doppler_bin: 8
bearing: -3.72809815407
intensity: 31.9340286255
---
header: 
  seq: 35272
  stamp: 
    secs: 1561866138
    nsecs: 509187275
  frame_id: "ti_mmwave"
point_id: 16
x: 4.45703125
y: -0.14453125
z: 1.21484375
range: 4.9241976738
velocity: 0.0
doppler_bin: 8
bearing: -1.8573192358
intensity: 31.6494731903
---
header: 
  seq: 35273
  stamp: 
    secs: 1561866138
    nsecs: 509200708
  frame_id: "ti_mmwave"
point_id: 17
x: 0.009765625
y: 0.03125
z: 0.025390625
range: 0.0435769706964
velocity: 0.0
doppler_bin: 8
bearing: 72.6459732056
intensity: 29.2992954254
---
header: 
  seq: 35274
  stamp: 
    secs: 1561866138
    nsecs: 509209107
  frame_id: "ti_mmwave"
point_id: 18
x: 0.041015625
y: -0.033203125
z: 0.0625
range: 0.0871539413929
velocity: 0.0
doppler_bin: 8
bearing: -38.9909973145
intensity: 30.0945091248
---
header: 
  seq: 35275
  stamp: 
    secs: 1561866138
    nsecs: 509216769
  frame_id: "ti_mmwave"
point_id: 19
x: 0.044921875
y: -0.046875
z: 0.103515625
range: 0.130730912089
velocity: 0.0
doppler_bin: 8
bearing: -46.218875885
intensity: 28.9872512817
---
header: 
  seq: 35276
  stamp: 
    secs: 1561866138
    nsecs: 509226049
  frame_id: "ti_mmwave"
point_id: 21
x: 0.953125
y: 0.505859375
z: 0.810546875
range: 1.43804001808
velocity: 0.0
doppler_bin: 8
bearing: 27.956577301
intensity: 19.3449840546
---
header: 
  seq: 35277
  stamp: 
    secs: 1561866138
    nsecs: 509233979
  frame_id: "ti_mmwave"
point_id: 22
x: 2.724609375
y: -0.181640625
z: 0.98828125
range: 3.09396481514
velocity: 0.0
doppler_bin: 8
bearing: -3.81407499313
intensity: 31.0619087219
---
header: 
  seq: 35278
  stamp: 
    secs: 1561866138
    nsecs: 567296888
  frame_id: "ti_mmwave"
point_id: 0
x: 0.01171875
y: -0.0390625
z: -0.0078125
range: 0.0435769706964
velocity: 0.0
doppler_bin: 8
bearing: -73.3007583618
intensity: 30.6445808411
---
header: 
  seq: 35279
  stamp: 
    secs: 1561866138
    nsecs: 567389960
  frame_id: "ti_mmwave"
point_id: 1
x: 0.017578125
y: -0.080078125
z: -0.0078125
range: 0.0871539413929
velocity: 0.0
doppler_bin: 8
bearing: -77.6192398071
intensity: 31.9061183929
---
header: 
  seq: 35280
  stamp: 
    secs: 1561866138
    nsecs: 567406568
  frame_id: "ti_mmwave"
point_id: 2
x: 0.029296875
y: -0.119140625
z: -0.005859375
range: 0.130730912089
velocity: 0.0
doppler_bin: 8
bearing: -76.1849746704
intensity: 30.1367969513
---
header: 
  seq: 35281
  stamp: 
    secs: 1561866138
    nsecs: 567420093
  frame_id: "ti_mmwave"
point_id: 3
x: 0.056640625
y: -0.154296875
z: 0.005859375
range: 0.174307882786
velocity: 0.0
doppler_bin: 8
bearing: -69.8423843384
intensity: 25.4406795502
---
header: 
  seq: 35282
  stamp: 
    secs: 1561866138
    nsecs: 567453982
  frame_id: "ti_mmwave"
point_id: 4
x: 0.17578125
y: -0.080078125
z: 1.25390625
range: 1.35088610649
velocity: 0.0
doppler_bin: 8
bearing: -24.4919013977
intensity: 23.0963020325
---
header: 
  seq: 35283
  stamp: 
    secs: 1561866138
    nsecs: 567467912
  frame_id: "ti_mmwave"
point_id: 5
x: 0.34765625
y: -0.08203125
z: 1.259765625
range: 1.39446306229
velocity: 0.0
doppler_bin: 8
bearing: -13.2763967514
intensity: 24.440448761
---
header: 
  seq: 35284
  stamp: 
    secs: 1561866138
    nsecs: 567481577
  frame_id: "ti_mmwave"
point_id: 6
x: 0.7265625
y: -0.04296875
z: 1.13671875
range: 1.43804001808
velocity: 0.0
doppler_bin: 8
bearing: -3.3845179081
intensity: 21.3353881836
---
header: 
  seq: 35285
  stamp: 
    secs: 1561866138
    nsecs: 567495013
  frame_id: "ti_mmwave"
point_id: 7
x: 1.373046875
y: -0.173828125
z: 0.126953125
range: 1.48161697388
velocity: 0.0
doppler_bin: 8
bearing: -7.21527671814
intensity: 25.550945282
---
header: 
  seq: 35286
  stamp: 
    secs: 1561866138
    nsecs: 567511655
  frame_id: "ti_mmwave"
point_id: 8
x: 1.423828125
y: -0.134765625
z: -0.0625
range: 1.52519392967
velocity: 0.0
doppler_bin: 8
bearing: -5.40694952011
intensity: 28.1023254395
---
header: 
  seq: 35287
  stamp: 
    secs: 1561866138
    nsecs: 567599267
  frame_id: "ti_mmwave"
point_id: 9
x: 1.458984375
y: -0.091796875
z: -0.17578125
range: 1.56877088547
velocity: 0.0
doppler_bin: 8
bearing: -3.60020971298
intensity: 27.2591171265
---
header: 
  seq: 35288
  stamp: 
    secs: 1561866138
    nsecs: 567614071
  frame_id: "ti_mmwave"
point_id: 10
x: 2.6171875
y: -0.17578125
z: 1.041015625
range: 3.00681090355
velocity: 0.0
doppler_bin: 8
bearing: -3.84245300293
intensity: 28.9927310944
---
header: 
  seq: 35289
  stamp: 
    secs: 1561866138
    nsecs: 567627350
  frame_id: "ti_mmwave"
point_id: 11
x: 2.69140625
y: -0.08984375
z: 0.970703125
range: 3.05038785934
velocity: 0.0
doppler_bin: 8
bearing: -1.91192126274
intensity: 32.2010803223
---
header: 
  seq: 35290
  stamp: 
    secs: 1561866138
    nsecs: 567640706
  frame_id: "ti_mmwave"
point_id: 12
x: 2.734375
y: -0.181640625
z: 0.962890625
range: 3.09396481514
velocity: 0.0
doppler_bin: 8
bearing: -3.80049324036
intensity: 31.1527767181
---
header: 
  seq: 35291
  stamp: 
    secs: 1561866138
    nsecs: 567653362
  frame_id: "ti_mmwave"
point_id: 13
x: 4.408203125
y: -0.142578125
z: 1.080078125
range: 4.83704376221
velocity: 0.0
doppler_bin: 8
bearing: -1.85251843929
intensity: 28.4695529938
---
header: 
  seq: 35292
  stamp: 
    secs: 1561866138
    nsecs: 567666810
  frame_id: "ti_mmwave"
point_id: 14
x: 4.404296875
y: -0.287109375
z: 1.23046875
range: 4.88062095642
velocity: 0.0
doppler_bin: 8
bearing: -3.72974681854
intensity: 31.7811317444
---
header: 
  seq: 35293
  stamp: 
    secs: 1561866138
    nsecs: 567683530
  frame_id: "ti_mmwave"
point_id: 15
x: 4.453125
y: -0.14453125
z: 1.234375
range: 4.9241976738
velocity: 0.0
doppler_bin: 8
bearing: -1.85894739628
intensity: 31.4395103455
---
header: 
  seq: 35294
  stamp: 
    secs: 1561866138
    nsecs: 567699441
  frame_id: "ti_mmwave"
point_id: 16
x: 0.009765625
y: 0.03125
z: 0.025390625
range: 0.0435769706964
velocity: 0.0
doppler_bin: 8
bearing: 72.6459732056
intensity: 29.2992954254
---
header: 
  seq: 35295
  stamp: 
    secs: 1561866138
    nsecs: 567730419
  frame_id: "ti_mmwave"
point_id: 17
x: 0.041015625
y: -0.033203125
z: 0.0625
range: 0.0871539413929
velocity: 0.0
doppler_bin: 8
bearing: -38.9909973145
intensity: 30.0945091248
---
header: 
  seq: 35296
  stamp: 
    secs: 1561866138
    nsecs: 567788651
  frame_id: "ti_mmwave"
point_id: 18
x: 0.044921875
y: -0.046875
z: 0.103515625
range: 0.130730912089
velocity: 0.0
doppler_bin: 8
bearing: -46.218875885
intensity: 28.9927310944
---
header: 
  seq: 35297
  stamp: 
    secs: 1561866138
    nsecs: 567807171
  frame_id: "ti_mmwave"
point_id: 20
x: 0.94921875
y: 0.505859375
z: 0.814453125
range: 1.43804001808
velocity: 0.0
doppler_bin: 8
bearing: 28.0541267395
intensity: 18.8081359863
---
header: 
  seq: 35298
  stamp: 
    secs: 1561866138
    nsecs: 567820405
  frame_id: "ti_mmwave"
point_id: 21
x: 2.7734375
y: -0.0
z: 0.861328125
range: 3.09396481514
velocity: 0.0
doppler_bin: 8
bearing: -0.0
intensity: 31.1394329071
---
header: 
  seq: 35299
  stamp: 
    secs: 1561866138
    nsecs: 569214423
  frame_id: "ti_mmwave"
point_id: 0
x: 0.01171875
y: -0.0390625
z: -0.0078125
range: 0.0435769706964
velocity: 0.0
doppler_bin: 8
bearing: -73.3007583618
intensity: 30.6483230591
---
header: 
  seq: 35300
  stamp: 
    secs: 1561866138
    nsecs: 569265335
  frame_id: "ti_mmwave"
point_id: 1
x: 0.017578125
y: -0.080078125
z: -0.0078125
range: 0.0871539413929
velocity: 0.0
doppler_bin: 8
bearing: -77.6192398071
intensity: 31.9061183929
---
header: 
  seq: 35301
  stamp: 
    secs: 1561866138
    nsecs: 569276031
  frame_id: "ti_mmwave"
point_id: 2
x: 0.029296875
y: -0.119140625
z: -0.005859375
range: 0.130730912089
velocity: 0.0
doppler_bin: 8
bearing: -76.1849746704
intensity: 30.1367969513
---
header: 
  seq: 35302
  stamp: 
    secs: 1561866138
    nsecs: 569286351
  frame_id: "ti_mmwave"
point_id: 3
x: 0.056640625
y: -0.154296875
z: 0.005859375
range: 0.174307882786
velocity: 0.0
doppler_bin: 8
bearing: -69.8423843384
intensity: 25.4406795502
---
header: 
  seq: 35303
  stamp: 
    secs: 1561866138
    nsecs: 569296930
  frame_id: "ti_mmwave"
point_id: 5
x: 0.408203125
y: -0.08203125
z: 1.2421875
range: 1.39446306229
velocity: 0.0
doppler_bin: 8
bearing: -11.3626432419
intensity: 24.7129173279
---
header: 
  seq: 35304
  stamp: 
    secs: 1561866138
    nsecs: 569355490
  frame_id: "ti_mmwave"
point_id: 6
x: 1.326171875
y: -0.083984375
z: 0.23828125
range: 1.43804001808
velocity: 0.0
doppler_bin: 8
bearing: -3.62361216545
intensity: 25.0650501251
---
header: 
  seq: 35305
  stamp: 
    secs: 1561866138
    nsecs: 569365102
  frame_id: "ti_mmwave"
point_id: 7
x: 1.384765625
y: -0.04296875
z: -0.115234375
range: 1.48161697388
velocity: 0.0
doppler_bin: 8
bearing: -1.77729594707
intensity: 29.0633506775
---
header: 
  seq: 35306
  stamp: 
    secs: 1561866138
    nsecs: 569374581
  frame_id: "ti_mmwave"
point_id: 8
x: 1.42578125
y: -0.044921875
z: -0.111328125
range: 1.52519392967
velocity: 0.0
doppler_bin: 8
bearing: -1.80461239815
intensity: 29.8362636566
---
header: 
  seq: 35307
  stamp: 
    secs: 1561866138
    nsecs: 569382354
  frame_id: "ti_mmwave"
point_id: 9
x: 1.470703125
y: -0.046875
z: -0.052734375
range: 1.56877088547
velocity: 0.0
doppler_bin: 8
bearing: -1.82554244995
intensity: 27.7815132141
---
header: 
  seq: 35308
  stamp: 
    secs: 1561866138
    nsecs: 569389934
  frame_id: "ti_mmwave"
point_id: 10
x: 1.5078125
y: -0.09375
z: 0.087890625
range: 1.61234796047
velocity: 0.0
doppler_bin: 8
bearing: -3.55785179138
intensity: 26.5224628448
---
header: 
  seq: 35309
  stamp: 
    secs: 1561866138
    nsecs: 569397651
  frame_id: "ti_mmwave"
point_id: 11
x: 2.6171875
y: -0.17578125
z: 1.04296875
range: 3.00681090355
velocity: 0.0
doppler_bin: 8
bearing: -3.84245300293
intensity: 28.9707698822
---
header: 
  seq: 35310
  stamp: 
    secs: 1561866138
    nsecs: 569406581
  frame_id: "ti_mmwave"
point_id: 12
x: 2.69140625
y: -0.08984375
z: 0.974609375
range: 3.05038785934
velocity: 0.0
doppler_bin: 8
bearing: -1.91192126274
intensity: 32.1906051636
---
header: 
  seq: 35311
  stamp: 
    secs: 1561866138
    nsecs: 569414006
  frame_id: "ti_mmwave"
point_id: 13
x: 2.73046875
y: -0.181640625
z: 0.974609375
range: 3.09396481514
velocity: 0.0
doppler_bin: 8
bearing: -3.80591416359
intensity: 31.1660766602
---
header: 
  seq: 35312
  stamp: 
    secs: 1561866138
    nsecs: 569421899
  frame_id: "ti_mmwave"
point_id: 14
x: 4.42578125
y: -0.142578125
z: 1.173828125
range: 4.88062095642
velocity: 0.0
doppler_bin: 8
bearing: -1.84516572952
intensity: 31.5866394043
---
header: 
  seq: 35313
  stamp: 
    secs: 1561866138
    nsecs: 569428102
  frame_id: "ti_mmwave"
point_id: 15
x: 4.46875
y: -0.14453125
z: 1.169921875
range: 4.9241976738
velocity: 0.0
doppler_bin: 8
bearing: -1.85245215893
intensity: 31.3289985657
---
header: 
  seq: 35314
  stamp: 
    secs: 1561866138
    nsecs: 569446043
  frame_id: "ti_mmwave"
point_id: 16
x: 0.009765625
y: 0.03125
z: 0.025390625
range: 0.0435769706964
velocity: 0.0
doppler_bin: 8
bearing: 72.6459732056
intensity: 29.2992954254
---
header: 
  seq: 35315
  stamp: 
    secs: 1561866138
    nsecs: 569454305
  frame_id: "ti_mmwave"
point_id: 17
x: 0.041015625
y: -0.033203125
z: 0.0625
range: 0.0871539413929
velocity: 0.0
doppler_bin: 8
bearing: -38.9909973145
intensity: 30.0902576447
---
header: 
  seq: 35316
  stamp: 
    secs: 1561866138
    nsecs: 569523704
  frame_id: "ti_mmwave"
point_id: 18
x: 0.044921875
y: -0.046875
z: 0.103515625
range: 0.130730912089
velocity: 0.0
doppler_bin: 8
bearing: -46.218875885
intensity: 28.9927310944
---
header: 
  seq: 35317
  stamp: 
    secs: 1561866138
    nsecs: 569540697
  frame_id: "ti_mmwave"
point_id: 20
x: 2.771484375
y: -0.0
z: 0.8671875
range: 3.09396481514
velocity: 0.0
doppler_bin: 8
bearing: -0.0
intensity: 31.1527767181
---
header: 
  seq: 35318
  stamp: 
    secs: 1561866138
    nsecs: 627210786
  frame_id: "ti_mmwave"
point_id: 0
x: 0.01171875
y: -0.0390625
z: -0.0078125
range: 0.0435769706964
velocity: 0.0
doppler_bin: 8
bearing: -73.3007583618
intensity: 30.6520614624
---
header: 
  seq: 35319
  stamp: 
    secs: 1561866138
    nsecs: 627285032
  frame_id: "ti_mmwave"
point_id: 1
x: 0.017578125
y: -0.080078125
z: -0.0078125
range: 0.0871539413929
velocity: 0.0
doppler_bin: 8
bearing: -77.6192398071
intensity: 31.9061183929
---
header: 
  seq: 35320
  stamp: 
    secs: 1561866138
    nsecs: 627296607
  frame_id: "ti_mmwave"
point_id: 2
x: 0.029296875
y: -0.119140625
z: -0.005859375
range: 0.130730912089
velocity: 0.0
doppler_bin: 8
bearing: -76.1849746704
intensity: 30.141002655
---
header: 
  seq: 35321
  stamp: 
    secs: 1561866138
    nsecs: 627304935
  frame_id: "ti_mmwave"
point_id: 3
x: 0.056640625
y: -0.154296875
z: 0.0078125
range: 0.174307882786
velocity: 0.0
doppler_bin: 8
bearing: -69.8423843384
intensity: 25.4530715942
---
header: 
  seq: 35322
  stamp: 
    secs: 1561866138
    nsecs: 627315567
  frame_id: "ti_mmwave"
point_id: 5
x: 0.5546875
y: -0.08203125
z: 1.181640625
range: 1.39446306229
velocity: 0.0
doppler_bin: 8
bearing: -8.41234493256
intensity: 23.7839794159
---
header: 
  seq: 35323
  stamp: 
    secs: 1561866138
    nsecs: 627325157
  frame_id: "ti_mmwave"
point_id: 6
x: 1.236328125
y: -0.083984375
z: 0.53515625
range: 1.43804001808
velocity: 0.0
doppler_bin: 8
bearing: -3.88615989685
intensity: 23.7839794159
---
header: 
  seq: 35324
  stamp: 
    secs: 1561866138
    nsecs: 627333712
  frame_id: "ti_mmwave"
point_id: 7
x: 1.1796875
y: -0.0
z: 0.736328125
range: 1.48161697388
velocity: 0.0
doppler_bin: 8
bearing: -0.0
intensity: 24.440448761
---
header: 
  seq: 35325
  stamp: 
    secs: 1561866138
    nsecs: 627342151
  frame_id: "ti_mmwave"
point_id: 8
x: 1.322265625
y: 0.044921875
z: -0.548828125
range: 1.52519392967
velocity: 0.0
doppler_bin: 8
bearing: 1.945784688
intensity: 24.9276046753
---
header: 
  seq: 35326
  stamp: 
    secs: 1561866138
    nsecs: 627351927
  frame_id: "ti_mmwave"
point_id: 9
x: 1.451171875
y: -0.046875
z: -0.2421875
range: 1.56877088547
velocity: 0.0
doppler_bin: 8
bearing: -1.85009527206
intensity: 25.1982803345
---
header: 
  seq: 35327
  stamp: 
    secs: 1561866138
    nsecs: 627359989
  frame_id: "ti_mmwave"
point_id: 10
x: 2.6015625
y: -0.17578125
z: 1.078125
range: 3.00681090355
velocity: 0.0
doppler_bin: 8
bearing: -3.86546111107
intensity: 28.9597473145
---
header: 
  seq: 35328
  stamp: 
    secs: 1561866138
    nsecs: 627522921
  frame_id: "ti_mmwave"
point_id: 11
x: 2.685546875
y: -0.08984375
z: 0.990234375
range: 3.05038785934
velocity: 0.0
doppler_bin: 8
bearing: -1.91608965397
intensity: 32.156375885
---
header: 
  seq: 35329
  stamp: 
    secs: 1561866138
    nsecs: 627542870
  frame_id: "ti_mmwave"
point_id: 12
x: 2.720703125
y: -0.181640625
z: 1.0
range: 3.09396481514
velocity: 0.0
doppler_bin: 8
bearing: -3.81953430176
intensity: 31.0788803101
---
header: 
  seq: 35330
  stamp: 
    secs: 1561866138
    nsecs: 627551256
  frame_id: "ti_mmwave"
point_id: 13
x: 0.009765625
y: 0.03125
z: 0.025390625
range: 0.0435769706964
velocity: 0.0
doppler_bin: 8
bearing: 72.6459732056
intensity: 29.2992954254
---
header: 
  seq: 35331
  stamp: 
    secs: 1561866138
    nsecs: 627561803
  frame_id: "ti_mmwave"
point_id: 14
x: 0.041015625
y: -0.033203125
z: 0.0625
range: 0.0871539413929
velocity: 0.0
doppler_bin: 8
bearing: -38.9909973145
intensity: 30.0860023499
---
header: 
  seq: 35332
  stamp: 
    secs: 1561866138
    nsecs: 627569740
  frame_id: "ti_mmwave"
point_id: 15
x: 0.044921875
y: -0.046875
z: 0.103515625
range: 0.130730912089
velocity: 0.0
doppler_bin: 8
bearing: -46.218875885
intensity: 28.9817657471
---
header: 
  seq: 35333
  stamp: 
    secs: 1561866138
    nsecs: 627581425
  frame_id: "ti_mmwave"
point_id: 17
x: 2.763671875
y: -0.0
z: 0.890625
range: 3.09396481514
velocity: 0.0
doppler_bin: 8
bearing: -0.0
intensity: 31.0687046051
---
header: 
  seq: 35334
  stamp: 
    secs: 1561866138
    nsecs: 687266654
  frame_id: "ti_mmwave"
point_id: 0
x: 0.01171875
y: -0.0390625
z: -0.0078125
range: 0.0435769706964
velocity: 0.0
doppler_bin: 8
bearing: -73.3007583618
intensity: 30.6408348083
---
header: 
  seq: 35335
  stamp: 
    secs: 1561866138
    nsecs: 687349338
  frame_id: "ti_mmwave"
point_id: 1
x: 0.017578125
y: -0.080078125
z: -0.0078125
range: 0.0871539413929
velocity: 0.0
doppler_bin: 8
bearing: -77.6192398071
intensity: 31.9033164978
---
header: 
  seq: 35336
  stamp: 
    secs: 1561866138
    nsecs: 687365708
  frame_id: "ti_mmwave"
point_id: 2
x: 0.029296875
y: -0.119140625
z: -0.005859375
range: 0.130730912089
velocity: 0.0
doppler_bin: 8
bearing: -76.1849746704
intensity: 30.1325874329
---
header: 
  seq: 35337
  stamp: 
    secs: 1561866138
    nsecs: 687375959
  frame_id: "ti_mmwave"
point_id: 3
x: 0.056640625
y: -0.154296875
z: 0.005859375
range: 0.174307882786
velocity: 0.0
doppler_bin: 8
bearing: -69.8423843384
intensity: 25.4406795502
---
header: 
  seq: 35338
  stamp: 
    secs: 1561866138
    nsecs: 687386012
  frame_id: "ti_mmwave"
point_id: 4
x: 0.1953125
y: -0.080078125
z: 1.25
range: 1.35088610649
velocity: 0.0
doppler_bin: 8
bearing: -22.2936286926
intensity: 23.1175384521
---
header: 
  seq: 35339
  stamp: 
    secs: 1561866138
    nsecs: 687398208
  frame_id: "ti_mmwave"
point_id: 5
x: 0.578125
y: -0.041015625
z: -1.173828125
range: 1.39446306229
velocity: 0.0
doppler_bin: 8
bearing: -4.05810403824
intensity: 24.7129173279
---
header: 
  seq: 35340
  stamp: 
    secs: 1561866138
    nsecs: 687417038
  frame_id: "ti_mmwave"
point_id: 6
x: 1.2734375
y: 0.083984375
z: -0.44140625
range: 1.43804001808
velocity: 0.0
doppler_bin: 8
bearing: 3.77324533463
intensity: 23.2014636993
---
header: 
  seq: 35341
  stamp: 
    secs: 1561866138
    nsecs: 687429088
  frame_id: "ti_mmwave"
point_id: 7
x: 1.3828125
y: -0.0
z: -0.146484375
range: 1.48161697388
velocity: 0.0
doppler_bin: 8
bearing: -0.0
intensity: 27.032913208
---
header: 
  seq: 35342
  stamp: 
    secs: 1561866138
    nsecs: 687604750
  frame_id: "ti_mmwave"
point_id: 8
x: 1.42578125
y: -0.0
z: -0.123046875
range: 1.52519392967
velocity: 0.0
doppler_bin: 8
bearing: -0.0
intensity: 27.2263393402
---
header: 
  seq: 35343
  stamp: 
    secs: 1561866138
    nsecs: 687633316
  frame_id: "ti_mmwave"
point_id: 9
x: 1.509765625
y: -0.298828125
z: -0.41796875
range: 1.69950187206
velocity: 0.0
doppler_bin: 8
bearing: -11.1958551407
intensity: 26.3346843719
---
header: 
  seq: 35344
  stamp: 
    secs: 1561866138
    nsecs: 687642775
  frame_id: "ti_mmwave"
point_id: 10
x: 1.513671875
y: -0.408203125
z: -0.46875
range: 1.74307882786
velocity: 0.0
doppler_bin: 8
bearing: -15.0923480988
intensity: 28.3378429413
---
header: 
  seq: 35345
  stamp: 
    secs: 1561866138
    nsecs: 687665147
  frame_id: "ti_mmwave"
point_id: 11
x: 1.552734375
y: -0.419921875
z: -0.47265625
range: 1.78665578365
velocity: 0.0
doppler_bin: 8
bearing: -15.1330833435
intensity: 28.2801513672
---
header: 
  seq: 35346
  stamp: 
    secs: 1561866138
    nsecs: 687682025
  frame_id: "ti_mmwave"
point_id: 12
x: 2.6171875
y: -0.17578125
z: 1.041015625
range: 3.00681090355
velocity: 0.0
doppler_bin: 8
bearing: -3.84245300293
intensity: 29.0633506775
---
header: 
  seq: 35347
  stamp: 
    secs: 1561866138
    nsecs: 687697744
  frame_id: "ti_mmwave"
point_id: 13
x: 2.6875
y: -0.08984375
z: 0.982421875
range: 3.05038785934
velocity: 0.0
doppler_bin: 8
bearing: -1.91469812393
intensity: 32.2036972046
---
header: 
  seq: 35348
  stamp: 
    secs: 1561866138
    nsecs: 687712183
  frame_id: "ti_mmwave"
point_id: 14
x: 2.7265625
y: -0.181640625
z: 0.984375
range: 3.09396481514
velocity: 0.0
doppler_bin: 8
bearing: -3.81135106087
intensity: 31.1394329071
---
header: 
  seq: 35349
  stamp: 
    secs: 1561866138
    nsecs: 687729225
  frame_id: "ti_mmwave"
point_id: 16
x: 0.041015625
y: -0.033203125
z: 0.0625
range: 0.0871539413929
velocity: 0.0
doppler_bin: 8
bearing: -38.9909973145
intensity: 30.0902576447
---
header: 
  seq: 35350
  stamp: 
    secs: 1561866138
    nsecs: 687799446
  frame_id: "ti_mmwave"
point_id: 17
x: 0.044921875
y: -0.046875
z: 0.103515625
range: 0.130730912089
velocity: 0.0
doppler_bin: 8
bearing: -46.218875885
intensity: 28.9927310944
---
header: 
  seq: 35351
  stamp: 
    secs: 1561866138
    nsecs: 687820638
  frame_id: "ti_mmwave"
point_id: 19
x: 0.73828125
y: -0.421875
z: 1.048828125
range: 1.43804001808
velocity: 0.0
doppler_bin: 8
bearing: -29.7448825836
intensity: 21.4921913147
---
header: 
  seq: 35352
  stamp: 
    secs: 1561866138
    nsecs: 687837343
  frame_id: "ti_mmwave"
point_id: 20
x: 0.587890625
y: 1.046875
z: -1.05078125
range: 1.69950187206
velocity: 0.0
doppler_bin: 8
bearing: 60.6828651428
intensity: 23.5410842896
---
header: 
  seq: 35353
  stamp: 
    secs: 1561866138
    nsecs: 687850924
  frame_id: "ti_mmwave"
point_id: 21
x: 2.76953125
y: -0.0
z: 0.876953125
range: 3.09396481514
velocity: 0.0
doppler_bin: 8
bearing: -0.0
intensity: 31.1294002533
---
header: 
  seq: 35354
  stamp: 
    secs: 1561866138
    nsecs: 688738927
  frame_id: "ti_mmwave"
point_id: 0
x: 0.01171875
y: -0.0390625
z: -0.0078125
range: 0.0435769706964
velocity: 0.0
doppler_bin: 8
bearing: -73.3007583618
intensity: 30.6370849609
---
header: 
  seq: 35355
  stamp: 
    secs: 1561866138
    nsecs: 688785733
  frame_id: "ti_mmwave"
point_id: 1
x: 0.017578125
y: -0.080078125
z: -0.0078125
range: 0.0871539413929
velocity: 0.0
doppler_bin: 8
bearing: -77.6192398071
intensity: 31.9005146027
---
header: 
  seq: 35356
  stamp: 
    secs: 1561866138
    nsecs: 688796217
  frame_id: "ti_mmwave"
point_id: 2
x: 0.029296875
y: -0.119140625
z: -0.005859375
range: 0.130730912089
velocity: 0.0
doppler_bin: 8
bearing: -76.1849746704
intensity: 30.1325874329
---
header: 
  seq: 35357
  stamp: 
    secs: 1561866138
    nsecs: 688805346
  frame_id: "ti_mmwave"
point_id: 3
x: 0.056640625
y: -0.154296875
z: 0.005859375
range: 0.174307882786
velocity: 0.0
doppler_bin: 8
bearing: -69.8423843384
intensity: 25.4406795502
---
header: 
  seq: 35358
  stamp: 
    secs: 1561866138
    nsecs: 688817887
  frame_id: "ti_mmwave"
point_id: 4
x: 0.177734375
y: -0.080078125
z: 1.25390625
range: 1.35088610649
velocity: 0.0
doppler_bin: 8
bearing: -24.2539196014
intensity: 23.1175384521
---
header: 
  seq: 35359
  stamp: 
    secs: 1561866138
    nsecs: 688857792
  frame_id: "ti_mmwave"
point_id: 5
x: 0.65625
y: -0.08203125
z: -1.12890625
range: 1.39446306229
velocity: 0.0
doppler_bin: 8
bearing: -7.12501621246
intensity: 26.0314445496
---
header: 
  seq: 35360
  stamp: 
    secs: 1561866138
    nsecs: 688866850
  frame_id: "ti_mmwave"
point_id: 6
x: 1.298828125
y: -0.083984375
z: -0.357421875
range: 1.43804001808
velocity: 0.0
doppler_bin: 8
bearing: -3.69968938828
intensity: 29.3043956757
---
header: 
  seq: 35361
  stamp: 
    secs: 1561866138
    nsecs: 688874525
  frame_id: "ti_mmwave"
point_id: 7
x: 1.365234375
y: -0.130859375
z: -0.23046875
range: 1.48161697388
velocity: 0.0
doppler_bin: 8
bearing: -5.47514343262
intensity: 31.4829406738
---
header: 
  seq: 35362
  stamp: 
    secs: 1561866138
    nsecs: 688882296
  frame_id: "ti_mmwave"
point_id: 8
x: 1.40234375
y: -0.08984375
z: -0.275390625
range: 1.52519392967
velocity: 0.0
doppler_bin: 8
bearing: -3.66575026512
intensity: 30.3502922058
---
header: 
  seq: 35363
  stamp: 
    secs: 1561866138
    nsecs: 688891143
  frame_id: "ti_mmwave"
point_id: 9
x: 1.3984375
y: 0.046875
z: -0.45703125
range: 1.56877088547
velocity: 0.0
doppler_bin: 8
bearing: 1.9198101759
intensity: 23.0102996826
---
header: 
  seq: 35364
  stamp: 
    secs: 1561866138
    nsecs: 688899233
  frame_id: "ti_mmwave"
point_id: 10
x: 1.505859375
y: 0.09375
z: -0.11328125
range: 1.61234796047
velocity: 0.0
doppler_bin: 8
bearing: 3.56245470047
intensity: 26.1066017151
---
header: 
  seq: 35365
  stamp: 
    secs: 1561866138
    nsecs: 688906737
  frame_id: "ti_mmwave"
point_id: 11
x: 1.548828125
y: 0.09765625
z: -0.080078125
range: 1.65592491627
velocity: 0.0
doppler_bin: 8
bearing: 3.60782027245
intensity: 26.7760696411
---
header: 
  seq: 35366
  stamp: 
    secs: 1561866138
    nsecs: 688924231
  frame_id: "ti_mmwave"
point_id: 12
x: 2.599609375
y: -0.17578125
z: 1.083984375
range: 3.00681090355
velocity: 0.0
doppler_bin: 8
bearing: -3.86835670471
intensity: 28.9320678711
---
header: 
  seq: 35367
  stamp: 
    secs: 1561866138
    nsecs: 688937698
  frame_id: "ti_mmwave"
point_id: 13
x: 2.6796875
y: -0.08984375
z: 1.00390625
range: 3.05038785934
velocity: 0.0
doppler_bin: 8
bearing: -1.92027628422
intensity: 32.1272010803
---
header: 
  seq: 35368
  stamp: 
    secs: 1561866138
    nsecs: 688951358
  frame_id: "ti_mmwave"
point_id: 14
x: 2.76171875
y: -0.0
z: 0.8984375
range: 3.09396481514
velocity: 0.0
doppler_bin: 8
bearing: -0.0
intensity: 31.0653076172
---
header: 
  seq: 35369
  stamp: 
    secs: 1561866138
    nsecs: 688964320
  frame_id: "ti_mmwave"
point_id: 15
x: 0.009765625
y: 0.03125
z: 0.025390625
range: 0.0435769706964
velocity: 0.0
doppler_bin: 8
bearing: 72.6459732056
intensity: 29.2992954254
---
header: 
  seq: 35370
  stamp: 
    secs: 1561866138
    nsecs: 688978356
  frame_id: "ti_mmwave"
point_id: 16
x: 0.041015625
y: -0.033203125
z: 0.0625
range: 0.0871539413929
velocity: 0.0
doppler_bin: 8
bearing: -38.9909973145
intensity: 30.0945091248
---
header: 
  seq: 35371
  stamp: 
    secs: 1561866138
    nsecs: 688994626
  frame_id: "ti_mmwave"
point_id: 17
x: 0.044921875
y: -0.046875
z: 0.103515625
range: 0.130730912089
velocity: 0.0
doppler_bin: 8
bearing: -46.218875885
intensity: 28.9927310944
---
header: 
  seq: 35372
  stamp: 
    secs: 1561866138
    nsecs: 689014254
  frame_id: "ti_mmwave"
point_id: 19
x: 1.369140625
y: -0.04296875
z: -0.240234375
range: 1.48161697388
velocity: 0.0
doppler_bin: 8
bearing: -1.79756581783
intensity: 31.47057724
---
header: 
  seq: 35373
  stamp: 
    secs: 1561866138
    nsecs: 689100233
  frame_id: "ti_mmwave"
point_id: 20
x: 0.93359375
y: -0.42578125
z: 1.11328125
range: 1.61234796047
velocity: 0.0
doppler_bin: 8
bearing: -24.516160965
intensity: 23.4635295868
---
header: 
  seq: 35374
  stamp: 
    secs: 1561866138
    nsecs: 689116911
  frame_id: "ti_mmwave"
point_id: 22
x: 2.71875
y: -0.181640625
z: 1.005859375
range: 3.09396481514
velocity: 0.0
doppler_bin: 8
bearing: -3.82227087021
intensity: 31.0653076172
---
header: 
  seq: 35375
  stamp: 
    secs: 1561866138
    nsecs: 747378416
  frame_id: "ti_mmwave"
point_id: 0
x: 0.01171875
y: -0.0390625
z: -0.0078125
range: 0.0435769706964
velocity: 0.0
doppler_bin: 8
bearing: -73.3007583618
intensity: 30.6445808411
---
header: 
  seq: 35376
  stamp: 
    secs: 1561866138
    nsecs: 747452272
  frame_id: "ti_mmwave"
point_id: 1
x: 0.017578125
y: -0.080078125
z: -0.0078125
range: 0.0871539413929
velocity: 0.0
doppler_bin: 8
bearing: -77.6192398071
intensity: 31.9033164978
---
header: 
  seq: 35377
  stamp: 
    secs: 1561866138
    nsecs: 747462989
  frame_id: "ti_mmwave"
point_id: 2
x: 0.029296875
y: -0.119140625
z: -0.005859375
range: 0.130730912089
velocity: 0.0
doppler_bin: 8
bearing: -76.1849746704
intensity: 30.1367969513
---
header: 
  seq: 35378
  stamp: 
    secs: 1561866138
    nsecs: 747474864
  frame_id: "ti_mmwave"
point_id: 3
x: 0.056640625
y: -0.154296875
z: 0.005859375
range: 0.174307882786
velocity: 0.0
doppler_bin: 8
bearing: -69.8423843384
intensity: 25.4530715942
---
header: 
  seq: 35379
  stamp: 
    secs: 1561866138
    nsecs: 747485793
  frame_id: "ti_mmwave"
point_id: 4
x: 0.2578125
y: -0.080078125
z: 1.23828125
range: 1.35088610649
velocity: 0.0
doppler_bin: 8
bearing: -17.255109787
intensity: 23.031961441
---
header: 
  seq: 35380
  stamp: 
    secs: 1561866138
    nsecs: 747494695
  frame_id: "ti_mmwave"
point_id: 5
x: 0.55078125
y: -0.08203125
z: 1.185546875
range: 1.39446306229
velocity: 0.0
doppler_bin: 8
bearing: -8.47114467621
intensity: 26.1278381348
---
header: 
  seq: 35381
  stamp: 
    secs: 1561866138
    nsecs: 747505089
  frame_id: "ti_mmwave"
point_id: 6
x: 1.337890625
y: -0.083984375
z: -0.15234375
range: 1.43804001808
velocity: 0.0
doppler_bin: 8
bearing: -3.59195590019
intensity: 29.9825935364
---
header: 
  seq: 35382
  stamp: 
    secs: 1561866138
    nsecs: 747514043
  frame_id: "ti_mmwave"
point_id: 7
x: 1.3828125
y: -0.04296875
z: -0.134765625
range: 1.48161697388
velocity: 0.0
doppler_bin: 8
bearing: -1.77980458736
intensity: 32.4179534912
---
header: 
  seq: 35383
  stamp: 
    secs: 1561866138
    nsecs: 747525172
  frame_id: "ti_mmwave"
point_id: 8
x: 1.4296875
y: -0.044921875
z: -0.078125
range: 1.52519392967
velocity: 0.0
doppler_bin: 8
bearing: -1.79968500137
intensity: 31.8808441162
---
header: 
  seq: 35384
  stamp: 
    secs: 1561866138
    nsecs: 747676476
  frame_id: "ti_mmwave"
point_id: 9
x: 1.46875
y: -0.046875
z: 0.08203125
range: 1.56877088547
velocity: 0.0
doppler_bin: 8
bearing: -1.82796823978
intensity: 27.5050830841
---
header: 
  seq: 35385
  stamp: 
    secs: 1561866138
    nsecs: 747697522
  frame_id: "ti_mmwave"
point_id: 10
x: 1.560546875
y: 0.298828125
z: -0.138671875
range: 1.69950187206
velocity: 0.0
doppler_bin: 8
bearing: 10.840306282
intensity: 26.4246444702
---
header: 
  seq: 35386
  stamp: 
    secs: 1561866138
    nsecs: 747707278
  frame_id: "ti_mmwave"
point_id: 11
x: 1.595703125
y: 0.306640625
z: -0.1953125
range: 1.74307882786
velocity: 0.0
doppler_bin: 8
bearing: 10.8777236938
intensity: 25.7863922119
---
header: 
  seq: 35387
  stamp: 
    secs: 1561866138
    nsecs: 747715265
  frame_id: "ti_mmwave"
point_id: 12
x: 2.6171875
y: -0.17578125
z: 1.04296875
range: 3.00681090355
velocity: 0.0
doppler_bin: 8
bearing: -3.84245300293
intensity: 28.9431610107
---
header: 
  seq: 35388
  stamp: 
    secs: 1561866138
    nsecs: 747723912
  frame_id: "ti_mmwave"
point_id: 13
x: 2.689453125
y: -0.08984375
z: 0.9765625
range: 3.05038785934
velocity: 0.0
doppler_bin: 8
bearing: -1.91330885887
intensity: 32.1457901001
---
header: 
  seq: 35389
  stamp: 
    secs: 1561866138
    nsecs: 747776598
  frame_id: "ti_mmwave"
point_id: 14
x: 2.7734375
y: -0.0
z: 0.861328125
range: 3.09396481514
velocity: 0.0
doppler_bin: 8
bearing: -0.0
intensity: 31.1025295258
---
header: 
  seq: 35390
  stamp: 
    secs: 1561866138
    nsecs: 747788701
  frame_id: "ti_mmwave"
point_id: 16
x: 0.041015625
y: -0.033203125
z: 0.0625
range: 0.0871539413929
velocity: 0.0
doppler_bin: 8
bearing: -38.9909973145
intensity: 30.0902576447
---
header: 
  seq: 35391
  stamp: 
    secs: 1561866138
    nsecs: 747797458
  frame_id: "ti_mmwave"
point_id: 17
x: 0.046875
y: -0.046875
z: 0.103515625
range: 0.130730912089
velocity: 0.0
doppler_bin: 8
bearing: -45.0
intensity: 28.9927310944
---
header: 
  seq: 35392
  stamp: 
    secs: 1561866138
    nsecs: 747810815
  frame_id: "ti_mmwave"
point_id: 19
x: 0.59765625
y: -0.298828125
z: 1.44921875
range: 1.69950187206
velocity: 0.0
doppler_bin: 8
bearing: -26.5650501251
intensity: 24.5788192749
---
header: 
  seq: 35393
  stamp: 
    secs: 1561866138
    nsecs: 747822412
  frame_id: "ti_mmwave"
point_id: 20
x: 0.53515625
y: -0.306640625
z: 1.515625
range: 1.74307882786
velocity: 0.0
doppler_bin: 8
bearing: -29.8123931885
intensity: 24.0483379364
---
header: 
  seq: 35394
  stamp: 
    secs: 1561866138
    nsecs: 747868215
  frame_id: "ti_mmwave"
point_id: 21
x: 2.734375
y: -0.181640625
z: 0.9609375
range: 3.09396481514
velocity: 0.0
doppler_bin: 8
bearing: -3.80049324036
intensity: 31.095785141
---
header: 
  seq: 35395
  stamp: 
    secs: 1561866138
    nsecs: 749031096
  frame_id: "ti_mmwave"
point_id: 0
x: 0.01171875
y: -0.0390625
z: -0.0078125
range: 0.0435769706964
velocity: 0.0
doppler_bin: 8
bearing: -73.3007583618
intensity: 30.6520614624
---
header: 
  seq: 35396
  stamp: 
    secs: 1561866138
    nsecs: 749085406
  frame_id: "ti_mmwave"
point_id: 1
x: 0.017578125
y: -0.080078125
z: -0.0078125
range: 0.0871539413929
velocity: 0.0
doppler_bin: 8
bearing: -77.6192398071
intensity: 31.9061183929
---
header: 
  seq: 35397
  stamp: 
    secs: 1561866138
    nsecs: 749095807
  frame_id: "ti_mmwave"
point_id: 2
x: 0.029296875
y: -0.119140625
z: -0.005859375
range: 0.130730912089
velocity: 0.0
doppler_bin: 8
bearing: -76.1849746704
intensity: 30.1367969513
---
header: 
  seq: 35398
  stamp: 
    secs: 1561866138
    nsecs: 749106886
  frame_id: "ti_mmwave"
point_id: 3
x: 0.056640625
y: -0.154296875
z: 0.005859375
range: 0.174307882786
velocity: 0.0
doppler_bin: 8
bearing: -69.8423843384
intensity: 25.4530715942
---
header: 
  seq: 35399
  stamp: 
    secs: 1561866138
    nsecs: 749115473
  frame_id: "ti_mmwave"
point_id: 4
x: 0.201171875
y: -0.080078125
z: 1.25
range: 1.35088610649
velocity: 0.0
doppler_bin: 8
bearing: -21.7054386139
intensity: 23.0963020325
---
header: 
  seq: 35400
  stamp: 
    secs: 1561866138
    nsecs: 749124089
  frame_id: "ti_mmwave"
point_id: 5
x: 0.357421875
y: -0.08203125
z: -1.255859375
range: 1.39446306229
velocity: 0.0
doppler_bin: 8
bearing: -12.9259986877
intensity: 25.7634143829
---
header: 
  seq: 35401
  stamp: 
    secs: 1561866138
    nsecs: 749307356
  frame_id: "ti_mmwave"
point_id: 6
x: 1.287109375
y: -0.083984375
z: -0.400390625
range: 1.43804001808
velocity: 0.0
doppler_bin: 8
bearing: -3.73327946663
intensity: 28.5247993469
---
header: 
  seq: 35402
  stamp: 
    secs: 1561866138
    nsecs: 749340808
  frame_id: "ti_mmwave"
point_id: 7
x: 1.36328125
y: -0.130859375
z: -0.240234375
range: 1.48161697388
velocity: 0.0
doppler_bin: 8
bearing: -5.48293972015
intensity: 30.8742637634
---
header: 
  seq: 35403
  stamp: 
    secs: 1561866138
    nsecs: 749354744
  frame_id: "ti_mmwave"
point_id: 8
x: 1.412109375
y: -0.134765625
z: -0.19140625
range: 1.52519392967
velocity: 0.0
doppler_bin: 8
bearing: -5.45155143738
intensity: 30.5652370453
---
header: 
  seq: 35404
  stamp: 
    secs: 1561866138
    nsecs: 749371618
  frame_id: "ti_mmwave"
point_id: 9
x: 1.46484375
y: -0.138671875
z: -0.064453125
range: 1.56877088547
velocity: 0.0
doppler_bin: 8
bearing: -5.40788412094
intensity: 26.6745300293
---
header: 
  seq: 35405
  stamp: 
    secs: 1561866138
    nsecs: 749396315
  frame_id: "ti_mmwave"
point_id: 10
x: 1.50390625
y: 0.142578125
z: -0.09375
range: 1.61234796047
velocity: 0.0
doppler_bin: 8
bearing: 5.41575050354
intensity: 25.1321754456
---
header: 
  seq: 35406
  stamp: 
    secs: 1561866138
    nsecs: 749409540
  frame_id: "ti_mmwave"
point_id: 11
x: 1.47265625
y: 0.548828125
z: 0.279296875
range: 1.69950187206
velocity: 0.0
doppler_bin: 8
bearing: 20.4393692017
intensity: 27.2997436523
---
header: 
  seq: 35407
  stamp: 
    secs: 1561866138
    nsecs: 749423060
  frame_id: "ti_mmwave"
point_id: 12
x: 1.521484375
y: 0.5625
z: -0.212890625
range: 1.74307882786
velocity: 0.0
doppler_bin: 8
bearing: 20.2895927429
intensity: 27.0156803131
---
header: 
  seq: 35408
  stamp: 
    secs: 1561866138
    nsecs: 749432035
  frame_id: "ti_mmwave"
point_id: 13
x: 1.587890625
y: -0.5234375
z: -0.140625
range: 1.78665578365
velocity: 0.0
doppler_bin: 8
bearing: -18.2444572449
intensity: 26.4836006165
---
header: 
  seq: 35409
  stamp: 
    secs: 1561866138
    nsecs: 749454140
  frame_id: "ti_mmwave"
point_id: 14
x: 2.62109375
y: -0.17578125
z: 1.03515625
range: 3.00681090355
velocity: 0.0
doppler_bin: 8
bearing: -3.83674383163
intensity: 28.8874092102
---
header: 
  seq: 35410
  stamp: 
    secs: 1561866138
    nsecs: 749548239
  frame_id: "ti_mmwave"
point_id: 15
x: 2.6953125
y: -0.08984375
z: 0.96484375
range: 3.05038785934
velocity: 0.0
doppler_bin: 8
bearing: -1.90915250778
intensity: 32.1245384216
---
header: 
  seq: 35411
  stamp: 
    secs: 1561866138
    nsecs: 749588007
  frame_id: "ti_mmwave"
point_id: 16
x: 2.732421875
y: -0.181640625
z: 0.96875
range: 3.09396481514
velocity: 0.0
doppler_bin: 8
bearing: -3.80320167542
intensity: 31.0890312195
---
header: 
  seq: 35412
  stamp: 
    secs: 1561866138
    nsecs: 749672167
  frame_id: "ti_mmwave"
point_id: 17
x: 0.009765625
y: 0.03125
z: 0.025390625
range: 0.0435769706964
velocity: 0.0
doppler_bin: 8
bearing: 72.6459732056
intensity: 29.2992954254
---
header: 
  seq: 35413
  stamp: 
    secs: 1561866138
    nsecs: 749690709
  frame_id: "ti_mmwave"
point_id: 18
x: 0.041015625
y: -0.033203125
z: 0.0625
range: 0.0871539413929
velocity: 0.0
doppler_bin: 8
bearing: -38.9909973145
intensity: 30.0945091248
---
header: 
  seq: 35414
  stamp: 
    secs: 1561866138
    nsecs: 749742822
  frame_id: "ti_mmwave"
point_id: 19
x: 0.044921875
y: -0.046875
z: 0.103515625
range: 0.130730912089
velocity: 0.0
doppler_bin: 8
bearing: -46.218875885
intensity: 28.9982051849
---
header: 
  seq: 35415
  stamp: 
    secs: 1561866138
    nsecs: 749758010
  frame_id: "ti_mmwave"
point_id: 22
x: 1.4765625
y: -0.0
z: 0.60546875
range: 1.69950187206
velocity: 0.0
doppler_bin: 8
bearing: -0.0
intensity: 25.6229286194
---
header: 
  seq: 35416
  stamp: 
    secs: 1561866138
    nsecs: 749818290
  frame_id: "ti_mmwave"
point_id: 23
x: 1.375
y: -0.5625
z: -0.68359375
range: 1.74307882786
velocity: 0.0
doppler_bin: 8
bearing: -22.2490234375
intensity: 25.7403125763
---
header: 
  seq: 35417
  stamp: 
    secs: 1561866138
    nsecs: 749828610
  frame_id: "ti_mmwave"
point_id: 24
x: 1.517578125
y: 0.62890625
z: -0.341796875
range: 1.78665578365
velocity: 0.0
doppler_bin: 8
bearing: 22.5098209381
intensity: 25.1454772949
---
header: 
  seq: 35418
  stamp: 
    secs: 1561866138
    nsecs: 749838410
  frame_id: "ti_mmwave"
point_id: 25
x: 2.7734375
y: -0.0
z: 0.86328125
range: 3.09396481514
velocity: 0.0
doppler_bin: 8
bearing: -0.0
intensity: 31.0653076172
---
header: 
  seq: 35419
  stamp: 
    secs: 1561866138
    nsecs: 807120361
  frame_id: "ti_mmwave"
point_id: 0
x: 0.01171875
y: -0.0390625
z: -0.0078125
range: 0.0435769706964
velocity: 0.0
doppler_bin: 8
bearing: -73.3007583618
intensity: 30.6483230591
---
header: 
  seq: 35420
  stamp: 
    secs: 1561866138
    nsecs: 807199104
  frame_id: "ti_mmwave"
point_id: 1
x: 0.017578125
y: -0.080078125
z: -0.0078125
range: 0.0871539413929
velocity: 0.0
doppler_bin: 8
bearing: -77.6192398071
intensity: 31.9061183929
---
header: 
  seq: 35421
  stamp: 
    secs: 1561866138
    nsecs: 807216767
  frame_id: "ti_mmwave"
point_id: 2
x: 0.029296875
y: -0.119140625
z: -0.005859375
range: 0.130730912089
velocity: 0.0
doppler_bin: 8
bearing: -76.1849746704
intensity: 30.1367969513
---
header: 
  seq: 35422
  stamp: 
    secs: 1561866138
    nsecs: 807225886
  frame_id: "ti_mmwave"
point_id: 3
x: 0.056640625
y: -0.154296875
z: 0.005859375
range: 0.174307882786
velocity: 0.0
doppler_bin: 8
bearing: -69.8423843384
intensity: 25.4406795502
---
header: 
  seq: 35423
  stamp: 
    secs: 1561866138
    nsecs: 807237873
  frame_id: "ti_mmwave"
point_id: 4
x: 0.11328125
y: -0.080078125
z: 1.259765625
range: 1.35088610649
velocity: 0.0
doppler_bin: 8
bearing: -35.2563591003
intensity: 23.0535144806
---
header: 
  seq: 35424
  stamp: 
    secs: 1561866138
    nsecs: 807315471
  frame_id: "ti_mmwave"
point_id: 5
x: 0.802734375
y: -0.123046875
z: 1.02734375
range: 1.39446306229
velocity: 0.0
doppler_bin: 8
bearing: -8.71473312378
intensity: 24.3456897736
---
header: 
  seq: 35425
  stamp: 
    secs: 1561866138
    nsecs: 807329812
  frame_id: "ti_mmwave"
point_id: 6
x: 1.34375
y: -0.126953125
z: -0.00390625
range: 1.43804001808
velocity: 0.0
doppler_bin: 8
bearing: -5.3970990181
intensity: 28.1954402924
---
header: 
  seq: 35426
  stamp: 
    secs: 1561866138
    nsecs: 807341915
  frame_id: "ti_mmwave"
point_id: 7
x: 1.375
y: -0.130859375
z: -0.16015625
range: 1.48161697388
velocity: 0.0
doppler_bin: 8
bearing: -5.43649101257
intensity: 31.4176330566
---
header: 
  seq: 35427
  stamp: 
    secs: 1561866138
    nsecs: 807353756
  frame_id: "ti_mmwave"
point_id: 8
x: 1.421875
y: -0.08984375
z: -0.146484375
range: 1.52519392967
velocity: 0.0
doppler_bin: 8
bearing: -3.61553120613
intensity: 31.5228843689
---
header: 
  seq: 35428
  stamp: 
    secs: 1561866138
    nsecs: 807365214
  frame_id: "ti_mmwave"
point_id: 9
x: 1.46875
y: -0.046875
z: -0.091796875
range: 1.56877088547
velocity: 0.0
doppler_bin: 8
bearing: -1.82796823978
intensity: 28.4695529938
---
header: 
  seq: 35429
  stamp: 
    secs: 1561866138
    nsecs: 807377053
  frame_id: "ti_mmwave"
point_id: 10
x: 1.46484375
y: 0.283203125
z: 0.25390625
range: 1.61234796047
velocity: 0.0
doppler_bin: 8
bearing: 10.9421854019
intensity: 27.1096305847
---
header: 
  seq: 35430
  stamp: 
    secs: 1561866138
    nsecs: 807387896
  frame_id: "ti_mmwave"
point_id: 11
x: 1.513671875
y: 0.33984375
z: 0.08203125
range: 1.65592491627
velocity: 0.0
doppler_bin: 8
bearing: 12.6539926529
intensity: 31.0788803101
---
header: 
  seq: 35431
  stamp: 
    secs: 1561866138
    nsecs: 807411119
  frame_id: "ti_mmwave"
point_id: 12
x: 1.54296875
y: 0.3984375
z: 0.07421875
range: 1.69950187206
velocity: 0.0
doppler_bin: 8
bearing: 14.4790687561
intensity: 32.4452438354
---
header: 
  seq: 35432
  stamp: 
    secs: 1561866138
    nsecs: 807432938
  frame_id: "ti_mmwave"
point_id: 13
x: 1.583984375
y: 0.408203125
z: 0.044921875
range: 1.74307882786
velocity: 0.0
doppler_bin: 8
bearing: 14.4510612488
intensity: 31.1427726746
---
header: 
  seq: 35433
  stamp: 
    secs: 1561866138
    nsecs: 807453611
  frame_id: "ti_mmwave"
point_id: 14
x: 2.6171875
y: -0.17578125
z: 1.04296875
range: 3.00681090355
velocity: 0.0
doppler_bin: 8
bearing: -3.84245300293
intensity: 28.9927310944
---
header: 
  seq: 35434
  stamp: 
    secs: 1561866138
    nsecs: 807473642
  frame_id: "ti_mmwave"
point_id: 15
x: 2.6875
y: -0.08984375
z: 0.984375
range: 3.05038785934
velocity: 0.0
doppler_bin: 8
bearing: -1.91469812393
intensity: 32.1031837463
---
header: 
  seq: 35435
  stamp: 
    secs: 1561866138
    nsecs: 807486637
  frame_id: "ti_mmwave"
point_id: 16
x: 2.763671875
y: -0.0
z: 0.890625
range: 3.09396481514
velocity: 0.0
doppler_bin: 8
bearing: -0.0
intensity: 31.0448703766
---
header: 
  seq: 35436
  stamp: 
    secs: 1561866138
    nsecs: 807506166
  frame_id: "ti_mmwave"
point_id: 17
