header: 
  seq: 44070
  stamp: 
    secs: 1561869384
    nsecs: 445705052
  frame_id: "ti_mmwave"
point_id: 0
x: 0.01171875
y: -0.0390625
z: -0.0078125
range: 0.0435769706964
velocity: 0.0
doppler_bin: 8
bearing: -73.3007583618
intensity: 30.6483230591
---
header: 
  seq: 44071
  stamp: 
    secs: 1561869384
    nsecs: 445772848
  frame_id: "ti_mmwave"
point_id: 1
x: 0.017578125
y: -0.080078125
z: -0.0078125
range: 0.0871539413929
velocity: 0.0
doppler_bin: 8
bearing: -77.6192398071
intensity: 31.8977088928
---
header: 
  seq: 44072
  stamp: 
    secs: 1561869384
    nsecs: 445783500
  frame_id: "ti_mmwave"
point_id: 2
x: 0.029296875
y: -0.119140625
z: -0.00390625
range: 0.130730912089
velocity: 0.0
doppler_bin: 8
bearing: -76.1849746704
intensity: 30.1072387695
---
header: 
  seq: 44073
  stamp: 
    secs: 1561869384
    nsecs: 445793989
  frame_id: "ti_mmwave"
point_id: 3
x: 0.056640625
y: -0.154296875
z: 0.0078125
range: 0.174307882786
velocity: 0.0
doppler_bin: 8
bearing: -69.8423843384
intensity: 25.4406795502
---
header: 
  seq: 44074
  stamp: 
    secs: 1561869384
    nsecs: 445803598
  frame_id: "ti_mmwave"
point_id: 4
x: 0.1328125
y: -0.080078125
z: 1.2578125
range: 1.35088610649
velocity: 0.0
doppler_bin: 8
bearing: -31.0875034332
intensity: 23.138671875
---
header: 
  seq: 44075
  stamp: 
    secs: 1561869384
    nsecs: 445813730
  frame_id: "ti_mmwave"
point_id: 6
x: 0.4375
y: -0.083984375
z: -1.2734375
range: 1.43804001808
velocity: 0.0
doppler_bin: 8
bearing: -10.8665513992
intensity: 23.0749607086
---
header: 
  seq: 44076
  stamp: 
    secs: 1561869384
    nsecs: 445822765
  frame_id: "ti_mmwave"
point_id: 7
x: 0.587890625
y: -0.04296875
z: -1.259765625
range: 1.48161697388
velocity: 0.0
doppler_bin: 8
bearing: -4.1802983284
intensity: 21.7026176453
---
header: 
  seq: 44077
  stamp: 
    secs: 1561869384
    nsecs: 445831065
  frame_id: "ti_mmwave"
point_id: 8
x: 1.748046875
y: 0.0546875
z: -0.18359375
range: 1.87380969524
velocity: 0.0
doppler_bin: 8
bearing: 1.79190933704
intensity: 28.1424751282
---
header: 
  seq: 44078
  stamp: 
    secs: 1561869384
    nsecs: 445839490
  frame_id: "ti_mmwave"
point_id: 9
x: 1.7890625
y: 0.11328125
z: -0.158203125
range: 1.91738677025
velocity: 0.0
doppler_bin: 8
bearing: 3.62306189537
intensity: 29.1539974213
---
header: 
  seq: 44079
  stamp: 
    secs: 1561869384
    nsecs: 445848777
  frame_id: "ti_mmwave"
point_id: 10
x: 1.8359375
y: 0.115234375
z: -0.037109375
range: 1.96096372604
velocity: 0.0
doppler_bin: 8
bearing: 3.59151291847
intensity: 27.2098579407
---
header: 
  seq: 44080
  stamp: 
    secs: 1561869384
    nsecs: 445856980
  frame_id: "ti_mmwave"
point_id: 11
x: 2.634765625
y: -0.17578125
z: 0.998046875
range: 3.00681090355
velocity: 0.0
doppler_bin: 8
bearing: -3.81689357758
intensity: 29.0579586029
---
header: 
  seq: 44081
  stamp: 
    secs: 1561869384
    nsecs: 445865118
  frame_id: "ti_mmwave"
point_id: 12
x: 2.666015625
y: -0.1796875
z: 1.02734375
range: 3.05038785934
velocity: 0.0
doppler_bin: 8
bearing: -3.85586214066
intensity: 32.1748390198
---
header: 
  seq: 44082
  stamp: 
    secs: 1561869384
    nsecs: 445874035
  frame_id: "ti_mmwave"
point_id: 13
x: 2.759765625
y: -0.08984375
z: 0.8984375
range: 3.09396481514
velocity: 0.0
doppler_bin: 8
bearing: -1.86459684372
intensity: 31.1958580017
---
header: 
  seq: 44083
  stamp: 
    secs: 1561869384
    nsecs: 445883330
  frame_id: "ti_mmwave"
point_id: 14
x: 4.42578125
y: -0.142578125
z: 1.177734375
range: 4.88062095642
velocity: 0.0
doppler_bin: 8
bearing: -1.84516572952
intensity: 30.8813610077
---
header: 
  seq: 44084
  stamp: 
    secs: 1561869384
    nsecs: 445891902
  frame_id: "ti_mmwave"
point_id: 15
x: 4.453125
y: -0.14453125
z: 1.23046875
range: 4.9241976738
velocity: 0.0
doppler_bin: 8
bearing: -1.85894739628
intensity: 30.1745071411
---
header: 
  seq: 44085
  stamp: 
    secs: 1561869384
    nsecs: 445900623
  frame_id: "ti_mmwave"
point_id: 16
x: 1.8359375
y: -0.0
z: 0.416015625
range: 2.00454068184
velocity: -0.614668667316
doppler_bin: 7
bearing: -0.0
intensity: 26.2324924469
---
header: 
  seq: 44086
  stamp: 
    secs: 1561869384
    nsecs: 445910980
  frame_id: "ti_mmwave"
point_id: 18
x: 0.041015625
y: -0.033203125
z: 0.0625
range: 0.0871539413929
velocity: 0.0
doppler_bin: 8
bearing: -38.9909973145
intensity: 30.0902576447
---
header: 
  seq: 44087
  stamp: 
    secs: 1561869384
    nsecs: 445919919
  frame_id: "ti_mmwave"
point_id: 19
x: 0.044921875
y: -0.046875
z: 0.103515625
range: 0.130730912089
velocity: 0.0
doppler_bin: 8
bearing: -46.218875885
intensity: 29.0036716461
---
header: 
  seq: 44088
  stamp: 
    secs: 1561869384
    nsecs: 447223035
  frame_id: "ti_mmwave"
point_id: 0
x: 0.01171875
y: -0.0390625
z: -0.0078125
range: 0.0435769706964
velocity: 0.0
doppler_bin: 8
bearing: -73.3007583618
intensity: 30.6445808411
---
header: 
  seq: 44089
  stamp: 
    secs: 1561869384
    nsecs: 447277710
  frame_id: "ti_mmwave"
point_id: 1
x: 0.017578125
y: -0.080078125
z: -0.0078125
range: 0.0871539413929
velocity: 0.0
doppler_bin: 8
bearing: -77.6192398071
intensity: 31.8977088928
---
header: 
  seq: 44090
  stamp: 
    secs: 1561869384
    nsecs: 447289032
  frame_id: "ti_mmwave"
point_id: 2
x: 0.029296875
y: -0.119140625
z: -0.005859375
range: 0.130730912089
velocity: 0.0
doppler_bin: 8
bearing: -76.1849746704
intensity: 30.1114730835
---
header: 
  seq: 44091
  stamp: 
    secs: 1561869384
    nsecs: 447297384
  frame_id: "ti_mmwave"
point_id: 3
x: 0.056640625
y: -0.154296875
z: 0.0078125
range: 0.174307882786
velocity: 0.0
doppler_bin: 8
bearing: -69.8423843384
intensity: 25.4406795502
---
header: 
  seq: 44092
  stamp: 
    secs: 1561869384
    nsecs: 447305973
  frame_id: "ti_mmwave"
point_id: 4
x: 0.130859375
y: -0.080078125
z: 1.259765625
range: 1.35088610649
velocity: 0.0
doppler_bin: 8
bearing: -31.4641437531
intensity: 23.138671875
---
header: 
  seq: 44093
  stamp: 
    secs: 1561869384
    nsecs: 447316019
  frame_id: "ti_mmwave"
point_id: 6
x: 0.431640625
y: -0.083984375
z: -1.275390625
range: 1.43804001808
velocity: 0.0
doppler_bin: 8
bearing: -11.0104799271
intensity: 23.0749607086
---
header: 
  seq: 44094
  stamp: 
    secs: 1561869384
    nsecs: 447324772
  frame_id: "ti_mmwave"
point_id: 7
x: 0.564453125
y: -0.04296875
z: -1.271484375
range: 1.48161697388
velocity: 0.0
doppler_bin: 8
bearing: -4.35321998596
intensity: 21.6731739044
---
header: 
  seq: 44095
  stamp: 
    secs: 1561869384
    nsecs: 447333145
  frame_id: "ti_mmwave"
point_id: 8
x: 1.796875
y: 0.11328125
z: 0.005859375
range: 1.91738677025
velocity: 0.0
doppler_bin: 8
bearing: 3.60735106468
intensity: 28.7966918945
---
header: 
  seq: 44096
  stamp: 
    secs: 1561869384
    nsecs: 447363926
  frame_id: "ti_mmwave"
point_id: 9
x: 1.8359375
y: 0.115234375
z: 0.048828125
range: 1.96096372604
velocity: 0.0
doppler_bin: 8
bearing: 3.59151291847
intensity: 29.2890777588
---
header: 
  seq: 44097
  stamp: 
    secs: 1561869384
    nsecs: 447383035
  frame_id: "ti_mmwave"
point_id: 10
x: 1.873046875
y: 0.1171875
z: 0.1484375
range: 2.00454068184
velocity: 0.0
doppler_bin: 8
bearing: 3.5800538063
intensity: 27.032913208
---
header: 
  seq: 44098
  stamp: 
    secs: 1561869384
    nsecs: 447399331
  frame_id: "ti_mmwave"
point_id: 11
x: 2.625
y: -0.17578125
z: 1.0234375
range: 3.00681090355
velocity: 0.0
doppler_bin: 8
bearing: -3.83105134964
intensity: 29.0254669189
---
header: 
  seq: 44099
  stamp: 
    secs: 1561869384
    nsecs: 447414701
  frame_id: "ti_mmwave"
point_id: 12
x: 2.666015625
y: -0.1796875
z: 1.03125
range: 3.05038785934
velocity: 0.0
doppler_bin: 8
bearing: -3.85586214066
intensity: 32.0897865295
---
header: 
  seq: 44100
  stamp: 
    secs: 1561869384
    nsecs: 447425186
  frame_id: "ti_mmwave"
point_id: 13
x: 2.76171875
y: -0.08984375
z: 0.896484375
range: 3.09396481514
velocity: 0.0
doppler_bin: 8
bearing: -1.86327898502
intensity: 31.1394329071
---
header: 
  seq: 44101
  stamp: 
    secs: 1561869384
    nsecs: 447504337
  frame_id: "ti_mmwave"
point_id: 14
x: 4.3984375
y: -0.287109375
z: 1.248046875
range: 4.88062095642
velocity: 0.0
doppler_bin: 8
bearing: -3.73470139503
intensity: 31.4332714081
---
header: 
  seq: 44102
  stamp: 
    secs: 1561869384
    nsecs: 447515151
  frame_id: "ti_mmwave"
point_id: 15
x: 4.447265625
y: -0.14453125
z: 1.25390625
range: 4.9241976738
velocity: 0.0
doppler_bin: 8
bearing: -1.86139500141
intensity: 31.0346164703
---
header: 
  seq: 44103
  stamp: 
    secs: 1561869384
    nsecs: 447524285
  frame_id: "ti_mmwave"
point_id: 16
x: 4.90625
y: -0.30859375
z: 0.58203125
range: 5.27281332016
velocity: 0.0
doppler_bin: 8
bearing: -3.59905409813
intensity: 30.588054657
---
header: 
  seq: 44104
  stamp: 
    secs: 1561869384
    nsecs: 447532502
  frame_id: "ti_mmwave"
point_id: 17
x: 1.935546875
y: -0.3828125
z: 0.53515625
range: 2.17884850502
velocity: -0.614668667316
doppler_bin: 7
bearing: -11.1875762939
intensity: 27.201593399
---
header: 
  seq: 44105
  stamp: 
    secs: 1561869384
    nsecs: 447542333
  frame_id: "ti_mmwave"
point_id: 19
x: 0.041015625
y: -0.033203125
z: 0.0625
range: 0.0871539413929
velocity: 0.0
doppler_bin: 8
bearing: -38.9909973145
intensity: 30.0902576447
---
header: 
  seq: 44106
  stamp: 
    secs: 1561869384
    nsecs: 447550884
  frame_id: "ti_mmwave"
point_id: 20
x: 0.044921875
y: -0.046875
z: 0.103515625
range: 0.130730912089
velocity: 0.0
doppler_bin: 8
bearing: -46.218875885
intensity: 29.0091304779
---
header: 
  seq: 44107
  stamp: 
    secs: 1561869384
    nsecs: 447560171
  frame_id: "ti_mmwave"
point_id: 22
x: 1.8984375
y: 0.3203125
z: -0.689453125
range: 2.17884850502
velocity: -0.614668667316
doppler_bin: 7
bearing: 9.57699012756
intensity: 24.2975234985
---
header: 
  seq: 44108
  stamp: 
    secs: 1561869384
    nsecs: 505792415
  frame_id: "ti_mmwave"
point_id: 0
x: 0.01171875
y: -0.0390625
z: -0.0078125
range: 0.0435769706964
velocity: 0.0
doppler_bin: 8
bearing: -73.3007583618
intensity: 30.6520614624
---
header: 
  seq: 44109
  stamp: 
    secs: 1561869384
    nsecs: 505906082
  frame_id: "ti_mmwave"
point_id: 1
x: 0.017578125
y: -0.080078125
z: -0.0078125
range: 0.0871539413929
velocity: 0.0
doppler_bin: 8
bearing: -77.6192398071
intensity: 31.8977088928
---
header: 
  seq: 44110
  stamp: 
    secs: 1561869384
    nsecs: 505918363
  frame_id: "ti_mmwave"
point_id: 2
x: 0.029296875
y: -0.119140625
z: -0.005859375
range: 0.130730912089
velocity: 0.0
doppler_bin: 8
bearing: -76.1849746704
intensity: 30.1114730835
---
header: 
  seq: 44111
  stamp: 
    secs: 1561869384
    nsecs: 505926712
  frame_id: "ti_mmwave"
point_id: 3
x: 0.056640625
y: -0.154296875
z: 0.005859375
range: 0.174307882786
velocity: 0.0
doppler_bin: 8
bearing: -69.8423843384
intensity: 25.4530715942
---
header: 
  seq: 44112
  stamp: 
    secs: 1561869384
    nsecs: 505935479
  frame_id: "ti_mmwave"
point_id: 4
x: 0.115234375
y: -0.080078125
z: 1.259765625
range: 1.35088610649
velocity: 0.0
doppler_bin: 8
bearing: -34.7960281372
intensity: 23.1806335449
---
header: 
  seq: 44113
  stamp: 
    secs: 1561869384
    nsecs: 505943711
  frame_id: "ti_mmwave"
point_id: 5
x: 0.029296875
y: -0.08203125
z: -1.306640625
range: 1.39446306229
velocity: 0.0
doppler_bin: 8
bearing: -70.3461761475
intensity: 24.6686763763
---
header: 
  seq: 44114
  stamp: 
    secs: 1561869384
    nsecs: 505954746
  frame_id: "ti_mmwave"
point_id: 6
x: 0.427734375
y: -0.083984375
z: -1.27734375
range: 1.43804001808
velocity: 0.0
doppler_bin: 8
bearing: -11.1085424423
intensity: 23.1597042084
---
header: 
  seq: 44115
  stamp: 
    secs: 1561869384
    nsecs: 505968795
  frame_id: "ti_mmwave"
point_id: 7
x: 0.5625
y: -0.04296875
z: -1.271484375
range: 1.48161697388
velocity: 0.0
doppler_bin: 8
bearing: -4.36827754974
intensity: 21.7609119415
---
header: 
  seq: 44116
  stamp: 
    secs: 1561869384
    nsecs: 505978973
  frame_id: "ti_mmwave"
point_id: 8
x: 1.798828125
y: -0.0
z: -0.064453125
range: 1.91738677025
velocity: 0.0
doppler_bin: 8
bearing: -0.0
intensity: 28.5247993469
---
header: 
  seq: 44117
  stamp: 
    secs: 1561869384
    nsecs: 505988511
  frame_id: "ti_mmwave"
point_id: 9
x: 2.62109375
y: -0.17578125
z: 1.03515625
range: 3.00681090355
velocity: 0.0
doppler_bin: 8
bearing: -3.83674383163
intensity: 29.1539974213
---
header: 
  seq: 44118
  stamp: 
    secs: 1561869384
    nsecs: 505996403
  frame_id: "ti_mmwave"
point_id: 10
x: 2.69921875
y: -0.08984375
z: 0.951171875
range: 3.05038785934
velocity: 0.0
doppler_bin: 8
bearing: -1.90639162064
intensity: 32.2556762695
---
header: 
  seq: 44119
  stamp: 
    secs: 1561869384
    nsecs: 506144532
  frame_id: "ti_mmwave"
point_id: 11
x: 2.767578125
y: -0.08984375
z: 0.876953125
range: 3.09396481514
velocity: 0.0
doppler_bin: 8
bearing: -1.85933709145
intensity: 31.3001194
---
header: 
  seq: 44120
  stamp: 
    secs: 1561869384
    nsecs: 506162697
  frame_id: "ti_mmwave"
point_id: 12
x: 4.4140625
y: -0.142578125
z: 1.0546875
range: 4.83704376221
velocity: 0.0
doppler_bin: 8
bearing: -1.850061059
intensity: 28.9707698822
---
header: 
  seq: 44121
  stamp: 
    secs: 1561869384
    nsecs: 506171016
  frame_id: "ti_mmwave"
point_id: 13
x: 4.421875
y: -0.142578125
z: 1.1875
range: 4.88062095642
velocity: 0.0
doppler_bin: 8
bearing: -1.84679484367
intensity: 32.1272010803
---
header: 
  seq: 44122
  stamp: 
    secs: 1561869384
    nsecs: 506179137
  frame_id: "ti_mmwave"
point_id: 14
x: 4.45703125
y: -0.14453125
z: 1.21875
range: 4.9241976738
velocity: 0.0
doppler_bin: 8
bearing: -1.8573192358
intensity: 31.4395103455
---
header: 
  seq: 44123
  stamp: 
    secs: 1561869384
    nsecs: 506188521
  frame_id: "ti_mmwave"
point_id: 15
x: 4.90234375
y: -0.46484375
z: 0.5078125
range: 5.27281332016
velocity: 0.0
doppler_bin: 8
bearing: -5.41663217545
intensity: 29.7818050385
---
header: 
  seq: 44124
  stamp: 
    secs: 1561869384
    nsecs: 506198212
  frame_id: "ti_mmwave"
point_id: 17
x: 0.041015625
y: -0.033203125
z: 0.0625
range: 0.0871539413929
velocity: 0.0
doppler_bin: 8
bearing: -38.9909973145
intensity: 30.0902576447
---
header: 
  seq: 44125
  stamp: 
    secs: 1561869384
    nsecs: 506207214
  frame_id: "ti_mmwave"
point_id: 18
x: 0.044921875
y: -0.046875
z: 0.103515625
range: 0.130730912089
velocity: 0.0
doppler_bin: 8
bearing: -46.218875885
intensity: 29.0036716461
---
header: 
  seq: 44126
  stamp: 
    secs: 1561869384
    nsecs: 506217011
  frame_id: "ti_mmwave"
point_id: 20
x: 1.794921875
y: 0.11328125
z: -0.083984375
range: 1.91738677025
velocity: 0.0
doppler_bin: 8
bearing: 3.61126613617
intensity: 28.4757270813
---
header: 
  seq: 44127
  stamp: 
    secs: 1561869384
    nsecs: 507081040
  frame_id: "ti_mmwave"
point_id: 0
x: 0.01171875
y: -0.0390625
z: -0.0078125
range: 0.0435769706964
velocity: 0.0
doppler_bin: 8
bearing: -73.3007583618
intensity: 30.6520614624
---
header: 
  seq: 44128
  stamp: 
    secs: 1561869384
    nsecs: 507138957
  frame_id: "ti_mmwave"
point_id: 1
x: 0.017578125
y: -0.080078125
z: -0.0078125
range: 0.0871539413929
velocity: 0.0
doppler_bin: 8
bearing: -77.6192398071
intensity: 31.8977088928
---
header: 
  seq: 44129
  stamp: 
    secs: 1561869384
    nsecs: 507156291
  frame_id: "ti_mmwave"
point_id: 2
x: 0.029296875
y: -0.119140625
z: -0.00390625
range: 0.130730912089
velocity: 0.0
doppler_bin: 8
bearing: -76.1849746704
intensity: 30.1114730835
---
header: 
  seq: 44130
  stamp: 
    secs: 1561869384
    nsecs: 507165136
  frame_id: "ti_mmwave"
point_id: 3
x: 0.056640625
y: -0.154296875
z: 0.0078125
range: 0.174307882786
velocity: 0.0
doppler_bin: 8
bearing: -69.8423843384
intensity: 25.4282550812
---
header: 
  seq: 44131
  stamp: 
    secs: 1561869384
    nsecs: 507173984
  frame_id: "ti_mmwave"
point_id: 4
x: 0.140625
y: -0.080078125
z: 1.2578125
range: 1.35088610649
velocity: 0.0
doppler_bin: 8
bearing: -29.6591091156
intensity: 23.1597042084
---
header: 
  seq: 44132
  stamp: 
    secs: 1561869384
    nsecs: 507184558
  frame_id: "ti_mmwave"
point_id: 5
x: 0.0859375
y: -0.08203125
z: -1.302734375
range: 1.39446306229
velocity: 0.0
doppler_bin: 8
bearing: -43.6677780151
intensity: 24.683473587
---
header: 
  seq: 44133
  stamp: 
    secs: 1561869384
    nsecs: 507199504
  frame_id: "ti_mmwave"
point_id: 6
x: 0.4453125
y: -0.083984375
z: -1.271484375
range: 1.43804001808
velocity: 0.0
doppler_bin: 8
bearing: -10.6803331375
intensity: 23.0963020325
---
header: 
  seq: 44134
  stamp: 
    secs: 1561869384
    nsecs: 507211878
  frame_id: "ti_mmwave"
point_id: 7
x: 0.59765625
y: -0.04296875
z: -1.255859375
range: 1.48161697388
velocity: 0.0
doppler_bin: 8
bearing: -4.11222887039
intensity: 21.6731739044
---
header: 
  seq: 44135
  stamp: 
    secs: 1561869384
    nsecs: 507220707
  frame_id: "ti_mmwave"
point_id: 8
x: 1.7578125
y: -0.0
z: -0.06640625
range: 1.87380969524
velocity: 0.0
doppler_bin: 8
bearing: -0.0
intensity: 27.7085208893
---
header: 
  seq: 44136
  stamp: 
    secs: 1561869384
    nsecs: 507232008
  frame_id: "ti_mmwave"
point_id: 9
x: 1.79296875
y: -0.0
z: -0.146484375
range: 1.91738677025
velocity: 0.0
doppler_bin: 8
bearing: -0.0
intensity: 30.6595306396
---
header: 
  seq: 44137
  stamp: 
    secs: 1561869384
    nsecs: 507245052
  frame_id: "ti_mmwave"
point_id: 10
x: 1.830078125
y: -0.0
z: -0.205078125
range: 1.96096372604
velocity: 0.0
doppler_bin: 8
bearing: -0.0
intensity: 30.1367969513
---
header: 
  seq: 44138
  stamp: 
    secs: 1561869384
    nsecs: 507411374
  frame_id: "ti_mmwave"
point_id: 11
x: 2.607421875
y: -0.17578125
z: 1.064453125
range: 3.00681090355
velocity: 0.0
doppler_bin: 8
bearing: -3.8568007946
intensity: 28.9542255402
---
header: 
  seq: 44139
  stamp: 
    secs: 1561869384
    nsecs: 507429562
  frame_id: "ti_mmwave"
point_id: 12
x: 2.6796875
y: -0.08984375
z: 1.005859375
range: 3.05038785934
velocity: 0.0
doppler_bin: 8
bearing: -1.92027628422
intensity: 32.1351776123
---
header: 
  seq: 44140
  stamp: 
    secs: 1561869384
    nsecs: 507443462
  frame_id: "ti_mmwave"
point_id: 13
x: 2.734375
y: -0.08984375
z: 0.974609375
range: 3.09396481514
velocity: 0.0
doppler_bin: 8
bearing: -1.88189852238
intensity: 31.1826477051
---
header: 
  seq: 44141
  stamp: 
    secs: 1561869384
    nsecs: 507455348
  frame_id: "ti_mmwave"
point_id: 14
x: 4.892578125
y: -0.30859375
z: 0.67578125
range: 5.27281332016
velocity: 0.0
doppler_bin: 8
bearing: -3.60908436775
intensity: 30.9829750061
---
header: 
  seq: 44142
  stamp: 
    secs: 1561869384
    nsecs: 507493296
  frame_id: "ti_mmwave"
point_id: 16
x: 0.041015625
y: -0.033203125
z: 0.0625
range: 0.0871539413929
velocity: 0.0
doppler_bin: 8
bearing: -38.9909973145
intensity: 30.0902576447
---
header: 
  seq: 44143
  stamp: 
    secs: 1561869384
    nsecs: 507619010
  frame_id: "ti_mmwave"
point_id: 17
x: 0.044921875
y: -0.046875
z: 0.103515625
range: 0.130730912089
velocity: 0.0
doppler_bin: 8
bearing: -46.218875885
intensity: 29.0091304779
---
header: 
  seq: 44144
  stamp: 
    secs: 1561869384
    nsecs: 565722579
  frame_id: "ti_mmwave"
point_id: 0
x: 0.01171875
y: -0.0390625
z: -0.0078125
range: 0.0435769706964
velocity: 0.0
doppler_bin: 8
bearing: -73.3007583618
intensity: 30.6557979584
---
header: 
  seq: 44145
  stamp: 
    secs: 1561869384
    nsecs: 565786407
  frame_id: "ti_mmwave"
point_id: 1
x: 0.017578125
y: -0.080078125
z: -0.0078125
range: 0.0871539413929
velocity: 0.0
doppler_bin: 8
bearing: -77.6192398071
intensity: 31.9005146027
---
header: 
  seq: 44146
  stamp: 
    secs: 1561869384
    nsecs: 565797260
  frame_id: "ti_mmwave"
point_id: 2
x: 0.029296875
y: -0.119140625
z: -0.005859375
range: 0.130730912089
velocity: 0.0
doppler_bin: 8
bearing: -76.1849746704
intensity: 30.1114730835
---
header: 
  seq: 44147
  stamp: 
    secs: 1561869384
    nsecs: 565805415
  frame_id: "ti_mmwave"
point_id: 3
x: 0.056640625
y: -0.154296875
z: 0.0078125
range: 0.174307882786
velocity: 0.0
doppler_bin: 8
bearing: -69.8423843384
intensity: 25.4406795502
---
header: 
  seq: 44148
  stamp: 
    secs: 1561869384
    nsecs: 565814409
  frame_id: "ti_mmwave"
point_id: 4
x: 0.15625
y: -0.080078125
z: 1.255859375
range: 1.35088610649
velocity: 0.0
doppler_bin: 8
bearing: -27.1351394653
intensity: 23.1597042084
---
header: 
  seq: 44149
  stamp: 
    secs: 1561869384
    nsecs: 565826760
  frame_id: "ti_mmwave"
point_id: 5
x: 0.01953125
y: -0.08203125
z: 1.306640625
range: 1.39446306229
velocity: 0.0
doppler_bin: 8
bearing: -76.6075057983
intensity: 24.6538276672
---
header: 
  seq: 44150
  stamp: 
    secs: 1561869384
    nsecs: 565835235
  frame_id: "ti_mmwave"
point_id: 6
x: 0.42578125
y: -0.083984375
z: -1.27734375
range: 1.43804001808
velocity: 0.0
doppler_bin: 8
bearing: -11.1582231522
intensity: 23.0963020325
---
header: 
  seq: 44151
  stamp: 
    secs: 1561869384
    nsecs: 565846110
  frame_id: "ti_mmwave"
point_id: 7
x: 1.751953125
y: 0.0546875
z: -0.154296875
range: 1.87380969524
velocity: 0.0
doppler_bin: 8
bearing: 1.78791642189
intensity: 29.8944988251
---
header: 
  seq: 44152
  stamp: 
    secs: 1561869384
    nsecs: 565990450
  frame_id: "ti_mmwave"
point_id: 8
x: 1.791015625
y: 0.056640625
z: -0.166015625
range: 1.91738677025
velocity: 0.0
doppler_bin: 8
bearing: 1.81136763096
intensity: 33.2118415833
---
header: 
  seq: 44153
  stamp: 
    secs: 1561869384
    nsecs: 566010012
  frame_id: "ti_mmwave"
point_id: 9
x: 1.833984375
y: 0.056640625
z: -0.1484375
range: 1.96096372604
velocity: 0.0
doppler_bin: 8
bearing: 1.76895594597
intensity: 32.9402503967
---
header: 
  seq: 44154
  stamp: 
    secs: 1561869384
    nsecs: 566018468
  frame_id: "ti_mmwave"
point_id: 10
x: 1.875
y: 0.1171875
z: -0.099609375
range: 2.00454068184
velocity: 0.0
doppler_bin: 8
bearing: 3.57633447647
intensity: 28.9652614594
---
header: 
  seq: 44155
  stamp: 
    secs: 1561869384
    nsecs: 566027063
  frame_id: "ti_mmwave"
point_id: 11
x: 1.9921875
y: -0.1875
z: 0.125
range: 2.13527154922
velocity: 0.0
doppler_bin: 8
bearing: -5.37670564651
intensity: 26.6464195251
---
header: 
  seq: 44156
  stamp: 
    secs: 1561869384
    nsecs: 566037442
  frame_id: "ti_mmwave"
point_id: 12
x: 2.609375
y: -0.17578125
z: 1.0625
range: 3.00681090355
velocity: 0.0
doppler_bin: 8
bearing: -3.85392260551
intensity: 29.0902080536
---
header: 
  seq: 44157
  stamp: 
    secs: 1561869384
    nsecs: 566043451
  frame_id: "ti_mmwave"
point_id: 13
x: 2.654296875
y: -0.1796875
z: 1.05859375
range: 3.05038785934
velocity: 0.0
doppler_bin: 8
bearing: -3.87283420563
intensity: 32.1958465576
---
header: 
  seq: 44158
  stamp: 
    secs: 1561869384
    nsecs: 566054536
  frame_id: "ti_mmwave"
point_id: 14
x: 2.751953125
y: -0.08984375
z: 0.923828125
range: 3.09396481514
velocity: 0.0
doppler_bin: 8
bearing: -1.86988639832
intensity: 31.209028244
---
header: 
  seq: 44159
  stamp: 
    secs: 1561869384
    nsecs: 566124904
  frame_id: "ti_mmwave"
point_id: 15
x: 4.896484375
y: -0.30859375
z: 0.66015625
range: 5.27281332016
velocity: 0.0
doppler_bin: 8
bearing: -3.6062130928
intensity: 31.4050807953
---
header: 
  seq: 44160
  stamp: 
    secs: 1561869384
    nsecs: 566138338
  frame_id: "ti_mmwave"
point_id: 16
x: 4.951171875
y: -0.623046875
z: 0.0234375
range: 5.31639051437
velocity: 0.0
doppler_bin: 8
bearing: -7.17230129242
intensity: 30.0432128906
---
header: 
  seq: 44161
  stamp: 
    secs: 1561869384
    nsecs: 566153704
  frame_id: "ti_mmwave"
point_id: 18
x: 0.041015625
y: -0.033203125
z: 0.0625
range: 0.0871539413929
velocity: 0.0
doppler_bin: 8
bearing: -38.9909973145
intensity: 30.0902576447
---
header: 
  seq: 44162
  stamp: 
    secs: 1561869384
    nsecs: 566165688
  frame_id: "ti_mmwave"
point_id: 19
x: 0.044921875
y: -0.046875
z: 0.103515625
range: 0.130730912089
velocity: 0.0
doppler_bin: 8
bearing: -46.218875885
intensity: 29.0091304779
---
header: 
  seq: 44163
  stamp: 
    secs: 1561869384
    nsecs: 625923121
  frame_id: "ti_mmwave"
point_id: 0
x: 0.01171875
y: -0.0390625
z: -0.0078125
range: 0.0435769706964
velocity: 0.0
doppler_bin: 8
bearing: -73.3007583618
intensity: 30.6557979584
---
header: 
  seq: 44164
  stamp: 
    secs: 1561869384
    nsecs: 626019689
  frame_id: "ti_mmwave"
point_id: 1
x: 0.017578125
y: -0.080078125
z: -0.0078125
range: 0.0871539413929
velocity: 0.0
doppler_bin: 8
bearing: -77.6192398071
intensity: 31.9005146027
---
header: 
  seq: 44165
  stamp: 
    secs: 1561869384
    nsecs: 626040406
  frame_id: "ti_mmwave"
point_id: 2
x: 0.029296875
y: -0.119140625
z: -0.005859375
range: 0.130730912089
velocity: 0.0
doppler_bin: 8
bearing: -76.1849746704
intensity: 30.1157035828
---
header: 
  seq: 44166
  stamp: 
    secs: 1561869384
    nsecs: 626054182
  frame_id: "ti_mmwave"
point_id: 3
x: 0.056640625
y: -0.154296875
z: 0.005859375
range: 0.174307882786
velocity: 0.0
doppler_bin: 8
bearing: -69.8423843384
intensity: 25.4406795502
---
header: 
  seq: 44167
  stamp: 
    secs: 1561869384
    nsecs: 626069110
  frame_id: "ti_mmwave"
point_id: 4
x: 0.12109375
y: -0.080078125
z: 1.259765625
range: 1.35088610649
velocity: 0.0
doppler_bin: 8
bearing: -33.4762802124
intensity: 23.138671875
---
header: 
  seq: 44168
  stamp: 
    secs: 1561869384
    nsecs: 626085087
  frame_id: "ti_mmwave"
point_id: 6
x: 0.408203125
y: -0.083984375
z: -1.283203125
range: 1.43804001808
velocity: 0.0
doppler_bin: 8
bearing: -11.6258993149
intensity: 23.1175384521
---
header: 
  seq: 44169
  stamp: 
    secs: 1561869384
    nsecs: 626104587
  frame_id: "ti_mmwave"
point_id: 7
x: 0.56640625
y: -0.04296875
z: -1.26953125
range: 1.48161697388
velocity: 0.0
doppler_bin: 8
bearing: -4.33826684952
intensity: 21.7318630219
---
header: 
  seq: 44170
  stamp: 
    secs: 1561869384
    nsecs: 626120719
  frame_id: "ti_mmwave"
point_id: 8
x: 1.79296875
y: 0.056640625
z: -0.15234375
range: 1.91738677025
velocity: 0.0
doppler_bin: 8
bearing: 1.80939567089
intensity: 28.6153450012
---
header: 
  seq: 44171
  stamp: 
    secs: 1561869384
    nsecs: 626140401
  frame_id: "ti_mmwave"
point_id: 9
x: 1.822265625
y: 0.056640625
z: -0.248046875
range: 1.96096372604
velocity: 0.0
doppler_bin: 8
bearing: 1.78032457829
intensity: 27.9795970917
---
header: 
  seq: 44172
  stamp: 
    secs: 1561869384
    nsecs: 626222116
  frame_id: "ti_mmwave"
point_id: 10
x: 1.888671875
y: 0.24609375
z: 0.4765625
range: 2.09169459343
velocity: 0.0
doppler_bin: 8
bearing: 7.42380857468
intensity: 27.7232170105
---
header: 
  seq: 44173
  stamp: 
    secs: 1561869384
    nsecs: 626239188
  frame_id: "ti_mmwave"
point_id: 11
x: 1.888671875
y: 0.3125
z: 0.59375
range: 2.13527154922
velocity: 0.0
doppler_bin: 8
bearing: 9.3950510025
intensity: 27.466342926
---
header: 
  seq: 44174
  stamp: 
    secs: 1561869384
    nsecs: 626254246
  frame_id: "ti_mmwave"
point_id: 12
x: 2.611328125
y: -0.17578125
z: 1.056640625
range: 3.00681090355
velocity: 0.0
doppler_bin: 8
bearing: -3.85104894638
intensity: 29.020029068
---
header: 
  seq: 44175
  stamp: 
    secs: 1561869384
    nsecs: 626268651
  frame_id: "ti_mmwave"
point_id: 13
x: 2.66015625
y: -0.1796875
z: 1.046875
range: 3.05038785934
velocity: 0.0
doppler_bin: 8
bearing: -3.86432933807
intensity: 32.166934967
---
header: 
  seq: 44176
  stamp: 
    secs: 1561869384
    nsecs: 626284111
  frame_id: "ti_mmwave"
point_id: 14
x: 2.75390625
y: -0.08984375
z: 0.91796875
range: 3.09396481514
velocity: 0.0
doppler_bin: 8
bearing: -1.86856126785
intensity: 31.1859531403
---
header: 
  seq: 44177
  stamp: 
    secs: 1561869384
    nsecs: 626297423
  frame_id: "ti_mmwave"
point_id: 15
x: 4.388671875
y: -0.283203125
z: 1.126953125
range: 4.83704376221
velocity: 0.0
doppler_bin: 8
bearing: -3.69220519066
intensity: 29.2012329102
---
header: 
  seq: 44178
  stamp: 
    secs: 1561869384
    nsecs: 626311693
  frame_id: "ti_mmwave"
point_id: 16
x: 4.416015625
y: -0.142578125
z: 1.2109375
range: 4.88062095642
velocity: 0.0
doppler_bin: 8
bearing: -1.84924340248
intensity: 32.8126068115
---
header: 
  seq: 44179
  stamp: 
    secs: 1561869384
    nsecs: 626329756
  frame_id: "ti_mmwave"
point_id: 17
x: 4.453125
y: -0.14453125
z: 1.232421875
range: 4.9241976738
velocity: 0.0
doppler_bin: 8
bearing: -1.85894739628
intensity: 32.4870872498
---
header: 
  seq: 44180
  stamp: 
    secs: 1561869384
    nsecs: 626379526
  frame_id: "ti_mmwave"
point_id: 19
x: 0.041015625
y: -0.033203125
z: 0.0625
range: 0.0871539413929
velocity: 0.0
doppler_bin: 8
bearing: -38.9909973145
intensity: 30.0860023499
---
header: 
  seq: 44181
  stamp: 
    secs: 1561869384
    nsecs: 626398333
  frame_id: "ti_mmwave"
point_id: 20
x: 0.044921875
y: -0.046875
z: 0.103515625
range: 0.130730912089
velocity: 0.0
doppler_bin: 8
bearing: -46.218875885
intensity: 29.0091304779
---
header: 
  seq: 44182
  stamp: 
    secs: 1561869384
    nsecs: 628021533
  frame_id: "ti_mmwave"
point_id: 0
x: 0.01171875
y: -0.0390625
z: -0.0078125
range: 0.0435769706964
velocity: 0.0
doppler_bin: 8
bearing: -73.3007583618
intensity: 30.6520614624
---
header: 
  seq: 44183
  stamp: 
    secs: 1561869384
    nsecs: 628075653
  frame_id: "ti_mmwave"
point_id: 1
x: 0.017578125
y: -0.080078125
z: -0.0078125
range: 0.0871539413929
velocity: 0.0
doppler_bin: 8
bearing: -77.6192398071
intensity: 31.8977088928
---
header: 
  seq: 44184
  stamp: 
    secs: 1561869384
    nsecs: 628086974
  frame_id: "ti_mmwave"
point_id: 2
x: 0.029296875
y: -0.119140625
z: -0.005859375
range: 0.130730912089
velocity: 0.0
doppler_bin: 8
bearing: -76.1849746704
intensity: 30.1072387695
---
header: 
  seq: 44185
  stamp: 
    secs: 1561869384
    nsecs: 628096232
  frame_id: "ti_mmwave"
point_id: 3
x: 0.056640625
y: -0.154296875
z: 0.005859375
range: 0.174307882786
velocity: 0.0
doppler_bin: 8
bearing: -69.8423843384
intensity: 25.4282550812
---
header: 
  seq: 44186
  stamp: 
    secs: 1561869384
    nsecs: 628104790
  frame_id: "ti_mmwave"
point_id: 4
x: 0.158203125
y: -0.080078125
z: 1.255859375
range: 1.35088610649
velocity: 0.0
doppler_bin: 8
bearing: -26.8472938538
intensity: 23.138671875
---
header: 
  seq: 44187
  stamp: 
    secs: 1561869384
    nsecs: 628113476
  frame_id: "ti_mmwave"
point_id: 5
x: 0.05859375
y: -0.08203125
z: 1.3046875
range: 1.39446306229
velocity: 0.0
doppler_bin: 8
bearing: -54.4623222351
intensity: 24.6389293671
---
header: 
  seq: 44188
  stamp: 
    secs: 1561869384
    nsecs: 628121848
  frame_id: "ti_mmwave"
point_id: 6
x: 0.41015625
y: -0.083984375
z: -1.283203125
range: 1.43804001808
velocity: 0.0
doppler_bin: 8
bearing: -11.5720338821
intensity: 23.0963020325
---
header: 
  seq: 44189
  stamp: 
    secs: 1561869384
    nsecs: 628132111
  frame_id: "ti_mmwave"
point_id: 7
x: 0.556640625
y: -0.04296875
z: -1.2734375
range: 1.48161697388
velocity: 0.0
doppler_bin: 8
bearing: -4.41407871246
intensity: 21.7026176453
---
header: 
  seq: 44190
  stamp: 
    secs: 1561869384
    nsecs: 628273390
  frame_id: "ti_mmwave"
point_id: 8
x: 2.607421875
y: -0.17578125
z: 1.064453125
range: 3.00681090355
velocity: 0.0
doppler_bin: 8
bearing: -3.8568007946
intensity: 28.9265098572
---
header: 
  seq: 44191
  stamp: 
    secs: 1561869384
    nsecs: 628296538
  frame_id: "ti_mmwave"
point_id: 9
x: 2.68359375
y: -0.08984375
z: 0.994140625
range: 3.05038785934
velocity: 0.0
doppler_bin: 8
bearing: -1.91748321056
intensity: 32.1431388855
---
header: 
  seq: 44192
  stamp: 
    secs: 1561869384
    nsecs: 628337504
  frame_id: "ti_mmwave"
point_id: 10
x: 2.74609375
y: -0.08984375
z: 0.94140625
range: 3.09396481514
velocity: 0.0
doppler_bin: 8
bearing: -1.8738732338
intensity: 31.1226978302
---
header: 
  seq: 44193
  stamp: 
    secs: 1561869384
    nsecs: 628347996
  frame_id: "ti_mmwave"
point_id: 11
x: 4.404296875
y: -0.142578125
z: 1.09375
range: 4.83704376221
velocity: 0.0
doppler_bin: 8
bearing: -1.85416030884
intensity: 27.8887519836
---
header: 
  seq: 44194
  stamp: 
    secs: 1561869384
    nsecs: 628356848
  frame_id: "ti_mmwave"
point_id: 12
x: 4.41796875
y: -0.142578125
z: 1.208984375
range: 4.88062095642
velocity: 0.0
doppler_bin: 8
bearing: -1.84842634201
intensity: 31.2839927673
---
header: 
  seq: 44195
  stamp: 
    secs: 1561869384
    nsecs: 628364723
  frame_id: "ti_mmwave"
point_id: 13
x: 4.458984375
y: -0.0
z: 1.216796875
range: 4.9241976738
velocity: 0.0
doppler_bin: 8
bearing: -0.0
intensity: 30.561422348
---
header: 
  seq: 44196
  stamp: 
    secs: 1561869384
    nsecs: 628374086
  frame_id: "ti_mmwave"
point_id: 14
x: 4.89453125
y: -0.30859375
z: 0.669921875
range: 5.27281332016
velocity: 0.0
doppler_bin: 8
bearing: -3.60764837265
intensity: 30.8493366241
---
header: 
  seq: 44197
  stamp: 
    secs: 1561869384
    nsecs: 628384174
  frame_id: "ti_mmwave"
point_id: 15
x: 1.779296875
y: 0.056640625
z: 0.267578125
range: 1.91738677025
velocity: 0.614668667316
doppler_bin: 9
bearing: 1.82328927517
intensity: 26.394865036
---
header: 
  seq: 44198
  stamp: 
    secs: 1561869384
    nsecs: 628392169
  frame_id: "ti_mmwave"
point_id: 16
x: 1.822265625
y: 0.056640625
z: 0.25
range: 1.96096372604
velocity: 0.614668667316
doppler_bin: 9
bearing: 1.78032457829
intensity: 28.1358089447
---
header: 
  seq: 44199
  stamp: 
    secs: 1561869384
    nsecs: 628397165
  frame_id: "ti_mmwave"
point_id: 17
x: 1.86328125
y: 0.1171875
z: 0.23828125
range: 2.00454068184
velocity: 0.614668667316
doppler_bin: 9
bearing: 3.59876823425
intensity: 26.2221393585
---
header: 
  seq: 44200
  stamp: 
    secs: 1561869384
    nsecs: 628431927
  frame_id: "ti_mmwave"
point_id: 18
x: 1.73046875
y: 0.056640625
z: -0.4921875
range: 1.91738677025
velocity: -0.614668667316
doppler_bin: 7
bearing: 1.87470042706
intensity: 25.9549617767
---
header: 
  seq: 44201
  stamp: 
    secs: 1561869384
    nsecs: 628507491
  frame_id: "ti_mmwave"
point_id: 20
x: 0.041015625
y: -0.033203125
z: 0.0625
range: 0.0871539413929
velocity: 0.0
doppler_bin: 8
bearing: -38.9909973145
intensity: 30.0860023499
---
header: 
  seq: 44202
  stamp: 
    secs: 1561869384
    nsecs: 628522270
  frame_id: "ti_mmwave"
point_id: 21
x: 0.044921875
y: -0.046875
z: 0.103515625
range: 0.130730912089
velocity: 0.0
doppler_bin: 8
bearing: -46.218875885
intensity: 29.0036716461
---
header: 
  seq: 44203
  stamp: 
    secs: 1561869384
    nsecs: 685847360
  frame_id: "ti_mmwave"
point_id: 0
x: 0.01171875
y: -0.0390625
z: -0.0078125
range: 0.0435769706964
velocity: 0.0
doppler_bin: 8
bearing: -73.3007583618
intensity: 30.6595306396
---
header: 
  seq: 44204
  stamp: 
    secs: 1561869384
    nsecs: 685920466
  frame_id: "ti_mmwave"
point_id: 1
x: 0.017578125
y: -0.080078125
z: -0.0078125
range: 0.0871539413929
velocity: 0.0
doppler_bin: 8
bearing: -77.6192398071
intensity: 31.9033164978
---
header: 
  seq: 44205
  stamp: 
    secs: 1561869384
    nsecs: 685933438
  frame_id: "ti_mmwave"
point_id: 2
x: 0.029296875
y: -0.119140625
z: -0.005859375
range: 0.130730912089
velocity: 0.0
doppler_bin: 8
bearing: -76.1849746704
intensity: 30.1157035828
---
header: 
  seq: 44206
  stamp: 
    secs: 1561869384
    nsecs: 685942266
  frame_id: "ti_mmwave"
point_id: 3
x: 0.056640625
y: -0.154296875
z: 0.005859375
range: 0.174307882786
velocity: 0.0
doppler_bin: 8
bearing: -69.8423843384
intensity: 25.4530715942
---
header: 
  seq: 44207
  stamp: 
    secs: 1561869384
    nsecs: 685950835
  frame_id: "ti_mmwave"
point_id: 4
x: 0.150390625
y: -0.080078125
z: 1.255859375
range: 1.35088610649
velocity: 0.0
doppler_bin: 8
bearing: -28.0338516235
intensity: 23.138671875
---
header: 
  seq: 44208
  stamp: 
    secs: 1561869384
    nsecs: 685960775
  frame_id: "ti_mmwave"
point_id: 6
x: 0.416015625
y: -0.083984375
z: -1.28125
range: 1.43804001808
velocity: 0.0
doppler_bin: 8
bearing: -11.4133548737
intensity: 23.138671875
---
header: 
  seq: 44209
  stamp: 
    secs: 1561869384
    nsecs: 685970750
  frame_id: "ti_mmwave"
point_id: 7
x: 0.578125
y: -0.04296875
z: -1.263671875
range: 1.48161697388
velocity: 0.0
doppler_bin: 8
bearing: -4.25065469742
intensity: 21.7026176453
---
header: 
  seq: 44210
  stamp: 
    secs: 1561869384
    nsecs: 685978955
  frame_id: "ti_mmwave"
point_id: 8
x: 1.751953125
y: 0.0546875
z: -0.13671875
range: 1.87380969524
velocity: 0.0
doppler_bin: 8
bearing: 1.78791642189
intensity: 28.7852172852
---
header: 
  seq: 44211
  stamp: 
    secs: 1561869384
    nsecs: 685987271
  frame_id: "ti_mmwave"
point_id: 9
x: 1.794921875
y: 0.056640625
z: -0.126953125
range: 1.91738677025
velocity: 0.0
doppler_bin: 8
bearing: 1.80742812157
intensity: 31.455072403
---
header: 
  seq: 44212
  stamp: 
    secs: 1561869384
    nsecs: 685995422
  frame_id: "ti_mmwave"
point_id: 10
x: 1.8359375
y: 0.056640625
z: -0.115234375
range: 1.96096372604
velocity: 0.0
doppler_bin: 8
bearing: 1.76707530022
intensity: 31.0788803101
---
header: 
  seq: 44213
  stamp: 
    secs: 1561869384
    nsecs: 686004069
  frame_id: "ti_mmwave"
point_id: 11
x: 1.87890625
y: 0.05859375
z: -0.083984375
range: 2.00454068184
velocity: 0.0
doppler_bin: 8
bearing: 1.7861918211
intensity: 27.9239177704
---
header: 
  seq: 44214
  stamp: 
    secs: 1561869384
    nsecs: 686012179
  frame_id: "ti_mmwave"
point_id: 12
x: 2.619140625
y: -0.17578125
z: 1.0390625
range: 3.00681090355
velocity: 0.0
doppler_bin: 8
bearing: -3.83959650993
intensity: 28.9872512817
---
header: 
  seq: 44215
  stamp: 
    secs: 1561869384
    nsecs: 686020610
  frame_id: "ti_mmwave"
point_id: 13
x: 2.6875
y: -0.08984375
z: 0.984375
range: 3.05038785934
velocity: 0.0
doppler_bin: 8
bearing: -1.91469812393
intensity: 32.0951499939
---
header: 
  seq: 44216
  stamp: 
    secs: 1561869384
    nsecs: 686029896
  frame_id: "ti_mmwave"
point_id: 14
x: 2.748046875
y: -0.08984375
z: 0.9375
range: 3.09396481514
velocity: 0.0
doppler_bin: 8
bearing: -1.8725425005
intensity: 31.1360912323
---
header: 
  seq: 44217
  stamp: 
    secs: 1561869384
    nsecs: 686038271
  frame_id: "ti_mmwave"
point_id: 15
x: 4.423828125
y: -0.142578125
z: 1.18359375
range: 4.88062095642
velocity: 0.0
doppler_bin: 8
bearing: -1.84597980976
intensity: 30.7335166931
---
header: 
  seq: 44218
  stamp: 
    secs: 1561869384
    nsecs: 686046641
  frame_id: "ti_mmwave"
point_id: 16
x: 4.474609375
y: -0.0
z: 1.162109375
range: 4.9241976738
velocity: 0.0
doppler_bin: 8
bearing: -0.0
intensity: 29.9563522339
---
header: 
  seq: 44219
  stamp: 
    secs: 1561869384
    nsecs: 686054817
  frame_id: "ti_mmwave"
point_id: 17
x: 4.908203125
y: -0.30859375
z: 0.5625
range: 5.27281332016
velocity: 0.0
doppler_bin: 8
bearing: -3.597625494
intensity: 30.2897777557
---
header: 
  seq: 44220
  stamp: 
    secs: 1561869384
    nsecs: 686065374
  frame_id: "ti_mmwave"
point_id: 19
x: 0.041015625
y: -0.033203125
z: 0.0625
range: 0.0871539413929
velocity: 0.0
doppler_bin: 8
bearing: -38.9909973145
intensity: 30.0945091248
---
header: 
  seq: 44221
  stamp: 
    secs: 1561869384
    nsecs: 686074079
  frame_id: "ti_mmwave"
point_id: 20
x: 0.044921875
y: -0.046875
z: 0.103515625
range: 0.130730912089
velocity: 0.0
doppler_bin: 8
bearing: -46.218875885
intensity: 29.0091304779
---
header: 
  seq: 44222
  stamp: 
    secs: 1561869384
    nsecs: 687198045
  frame_id: "ti_mmwave"
point_id: 0
x: 0.01171875
y: -0.0390625
z: -0.0078125
range: 0.0435769706964
velocity: 0.0
doppler_bin: 8
bearing: -73.3007583618
intensity: 30.6557979584
---
header: 
  seq: 44223
  stamp: 
    secs: 1561869384
    nsecs: 687260550
  frame_id: "ti_mmwave"
point_id: 1
x: 0.017578125
y: -0.080078125
z: -0.0078125
range: 0.0871539413929
velocity: 0.0
doppler_bin: 8
bearing: -77.6192398071
intensity: 31.9005146027
---
header: 
  seq: 44224
  stamp: 
    secs: 1561869384
    nsecs: 687284091
  frame_id: "ti_mmwave"
point_id: 2
x: 0.029296875
y: -0.119140625
z: -0.005859375
range: 0.130730912089
velocity: 0.0
doppler_bin: 8
bearing: -76.1849746704
intensity: 30.1114730835
---
header: 
  seq: 44225
  stamp: 
    secs: 1561869384
    nsecs: 687296704
  frame_id: "ti_mmwave"
point_id: 3
x: 0.056640625
y: -0.154296875
z: 0.0078125
range: 0.174307882786
velocity: 0.0
doppler_bin: 8
bearing: -69.8423843384
intensity: 25.4406795502
---
header: 
  seq: 44226
  stamp: 
    secs: 1561869384
    nsecs: 687312631
  frame_id: "ti_mmwave"
point_id: 4
x: 0.130859375
y: -0.080078125
z: 1.259765625
range: 1.35088610649
velocity: 0.0
doppler_bin: 8
bearing: -31.4641437531
intensity: 23.1175384521
---
header: 
  seq: 44227
  stamp: 
    secs: 1561869384
    nsecs: 687327424
  frame_id: "ti_mmwave"
point_id: 6
x: 0.42578125
y: -0.083984375
z: -1.27734375
range: 1.43804001808
velocity: 0.0
doppler_bin: 8
bearing: -11.1582231522
intensity: 23.0749607086
---
header: 
  seq: 44228
  stamp: 
    secs: 1561869384
    nsecs: 687340216
  frame_id: "ti_mmwave"
point_id: 7
x: 0.576171875
y: -0.04296875
z: -1.265625
range: 1.48161697388
velocity: 0.0
doppler_bin: 8
bearing: -4.2650103569
intensity: 21.7318630219
---
header: 
  seq: 44229
  stamp: 
    secs: 1561869384
    nsecs: 687355040
  frame_id: "ti_mmwave"
point_id: 8
x: 1.876953125
y: 0.05859375
z: -0.11328125
range: 2.00454068184
velocity: 0.0
doppler_bin: 8
bearing: 1.78804934025
intensity: 27.7815132141
---
header: 
  seq: 44230
  stamp: 
    secs: 1561869384
    nsecs: 687368183
  frame_id: "ti_mmwave"
point_id: 9
x: 2.626953125
y: -0.17578125
z: 1.017578125
range: 3.00681090355
velocity: 0.0
doppler_bin: 8
bearing: -3.82821130753
intensity: 28.9097957611
---
header: 
  seq: 44231
  stamp: 
    secs: 1561869384
    nsecs: 687381420
  frame_id: "ti_mmwave"
point_id: 10
x: 2.66796875
y: -0.1796875
z: 1.02734375
range: 3.05038785934
velocity: 0.0
doppler_bin: 8
bearing: -3.85304760933
intensity: 32.1351776123
---
header: 
  seq: 44232
  stamp: 
    secs: 1561869384
    nsecs: 687395746
  frame_id: "ti_mmwave"
point_id: 11
x: 2.763671875
y: -0.08984375
z: 0.890625
range: 3.09396481514
velocity: 0.0
doppler_bin: 8
bearing: -1.8619633913
intensity: 31.1892566681
---
header: 
  seq: 44233
  stamp: 
    secs: 1561869384
    nsecs: 687408163
  frame_id: "ti_mmwave"
point_id: 12
x: 4.421875
y: -0.142578125
z: 1.189453125
range: 4.88062095642
velocity: 0.0
doppler_bin: 8
bearing: -1.84679484367
intensity: 30.7990455627
---
header: 
  seq: 44234
  stamp: 
    secs: 1561869384
    nsecs: 687420880
  frame_id: "ti_mmwave"
point_id: 13
x: 4.4453125
y: -0.14453125
z: 1.255859375
range: 4.9241976738
velocity: 0.0
doppler_bin: 8
bearing: -1.86221218109
intensity: 30.1283721924
---
header: 
  seq: 44235
  stamp: 
    secs: 1561869384
    nsecs: 687432966
  frame_id: "ti_mmwave"
point_id: 14
x: 4.90234375
y: -0.154296875
z: 0.6640625
range: 5.27281332016
velocity: 0.0
doppler_bin: 8
bearing: -1.8027381897
intensity: 30.6818580627
---
header: 
  seq: 44236
  stamp: 
    secs: 1561869384
    nsecs: 687623194
  frame_id: "ti_mmwave"
point_id: 16
x: 0.041015625
y: -0.033203125
z: 0.0625
range: 0.0871539413929
velocity: 0.0
doppler_bin: 8
bearing: -38.9909973145
intensity: 30.0902576447
---
header: 
  seq: 44237
  stamp: 
    secs: 1561869384
    nsecs: 687674437
  frame_id: "ti_mmwave"
point_id: 17
x: 0.044921875
y: -0.046875
z: 0.103515625
range: 0.130730912089
velocity: 0.0
doppler_bin: 8
bearing: -46.218875885
intensity: 29.0036716461
---
header: 
  seq: 44238
  stamp: 
    secs: 1561869384
    nsecs: 745628140
  frame_id: "ti_mmwave"
point_id: 0
x: 0.01171875
y: -0.0390625
z: -0.0078125
range: 0.0435769706964
velocity: 0.0
doppler_bin: 8
bearing: -73.3007583618
intensity: 30.6483230591
---
header: 
  seq: 44239
  stamp: 
    secs: 1561869384
    nsecs: 745694830
  frame_id: "ti_mmwave"
point_id: 1
x: 0.017578125
y: -0.080078125
z: -0.0078125
range: 0.0871539413929
velocity: 0.0
doppler_bin: 8
bearing: -77.6192398071
intensity: 31.9005146027
---
header: 
  seq: 44240
  stamp: 
    secs: 1561869384
    nsecs: 745707515
  frame_id: "ti_mmwave"
point_id: 2
x: 0.029296875
y: -0.119140625
z: -0.005859375
range: 0.130730912089
velocity: 0.0
doppler_bin: 8
bearing: -76.1849746704
intensity: 30.1114730835
---
header: 
  seq: 44241
  stamp: 
    secs: 1561869384
    nsecs: 745716408
  frame_id: "ti_mmwave"
point_id: 3
x: 0.056640625
y: -0.154296875
z: 0.005859375
range: 0.174307882786
velocity: 0.0
doppler_bin: 8
bearing: -69.8423843384
intensity: 25.4406795502
---
header: 
  seq: 44242
  stamp: 
    secs: 1561869384
    nsecs: 745727136
  frame_id: "ti_mmwave"
point_id: 4
x: 0.138671875
y: -0.080078125
z: 1.2578125
range: 1.35088610649
velocity: 0.0
doppler_bin: 8
bearing: -30.0049190521
intensity: 23.1597042084
---
header: 
  seq: 44243
  stamp: 
    secs: 1561869384
    nsecs: 745739654
  frame_id: "ti_mmwave"
point_id: 6
x: 0.41796875
y: -0.083984375
z: -1.28125
range: 1.43804001808
velocity: 0.0
doppler_bin: 8
bearing: -11.3614110947
intensity: 23.0963020325
---
header: 
  seq: 44244
  stamp: 
    secs: 1561869384
    nsecs: 745748039
  frame_id: "ti_mmwave"
point_id: 7
x: 0.568359375
y: -0.04296875
z: -1.26953125
range: 1.48161697388
velocity: 0.0
doppler_bin: 8
bearing: -4.32341527939
intensity: 21.7318630219
---
header: 
  seq: 44245
  stamp: 
    secs: 1561869384
    nsecs: 745756575
  frame_id: "ti_mmwave"
point_id: 8
x: 1.7890625
y: 0.056640625
z: -0.18359375
range: 1.91738677025
velocity: 0.0
doppler_bin: 8
bearing: 1.81334352493
intensity: 29.5808582306
---
header: 
  seq: 44246
  stamp: 
    secs: 1561869384
    nsecs: 745765027
  frame_id: "ti_mmwave"
point_id: 9
x: 1.82421875
y: 0.056640625
z: -0.236328125
range: 1.96096372604
velocity: 0.0
doppler_bin: 8
bearing: 1.77841961384
intensity: 30.4999294281
---
header: 
  seq: 44247
  stamp: 
    secs: 1561869384
    nsecs: 745783158
  frame_id: "ti_mmwave"
point_id: 10
x: 1.8671875
y: 0.05859375
z: -0.228515625
range: 2.00454068184
velocity: 0.0
doppler_bin: 8
bearing: 1.79739499092
intensity: 29.5520648956
---
header: 
  seq: 44248
  stamp: 
    secs: 1561869384
    nsecs: 745798344
  frame_id: "ti_mmwave"
point_id: 11
x: 2.60546875
y: -0.17578125
z: 1.072265625
range: 3.00681090355
velocity: 0.0
doppler_bin: 8
bearing: -3.85968351364
intensity: 28.8874092102
---
header: 
  seq: 44249
  stamp: 
    secs: 1561869384
    nsecs: 745807216
  frame_id: "ti_mmwave"
point_id: 12
x: 2.662109375
y: -0.1796875
z: 1.0390625
range: 3.05038785934
velocity: 0.0
doppler_bin: 8
bearing: -3.86150240898
intensity: 32.0547485352
---
header: 
  seq: 44250
  stamp: 
    secs: 1561869384
    nsecs: 745817194
  frame_id: "ti_mmwave"
point_id: 13
x: 2.763671875
y: -0.08984375
z: 0.890625
range: 3.09396481514
velocity: 0.0
doppler_bin: 8
bearing: -1.8619633913
intensity: 31.0687046051
---
header: 
  seq: 44251
  stamp: 
    secs: 1561869384
    nsecs: 745963289
  frame_id: "ti_mmwave"
point_id: 14
x: 4.37890625
y: -0.142578125
z: 1.33984375
range: 4.88062095642
velocity: 0.0
doppler_bin: 8
bearing: -1.86490392685
intensity: 30.7591171265
---
header: 
  seq: 44252
  stamp: 
    secs: 1561869384
    nsecs: 745983207
  frame_id: "ti_mmwave"
point_id: 15
x: 4.431640625
y: -0.14453125
z: 1.30859375
range: 4.9241976738
velocity: 0.0
doppler_bin: 8
bearing: -1.86795306206
intensity: 30.2201576233
---
header: 
  seq: 44253
  stamp: 
    secs: 1561869384
    nsecs: 745991720
  frame_id: "ti_mmwave"
point_id: 16
x: 4.892578125
y: -0.30859375
z: 0.685546875
range: 5.27281332016
velocity: 0.0
doppler_bin: 8
bearing: -3.60908436775
intensity: 30.4921798706
---
header: 
  seq: 44254
  stamp: 
    secs: 1561869384
    nsecs: 746002048
  frame_id: "ti_mmwave"
point_id: 18
x: 0.041015625
y: -0.033203125
z: 0.0625
range: 0.0871539413929
velocity: 0.0
doppler_bin: 8
bearing: -38.9909973145
intensity: 30.0902576447
---
header: 
  seq: 44255
  stamp: 
    secs: 1561869384
    nsecs: 746010055
  frame_id: "ti_mmwave"
point_id: 19
x: 0.044921875
y: -0.046875
z: 0.103515625
range: 0.130730912089
velocity: 0.0
doppler_bin: 8
bearing: -46.218875885
intensity: 29.0091304779
---
header: 
  seq: 44256
  stamp: 
    secs: 1561869384
    nsecs: 746728196
  frame_id: "ti_mmwave"
point_id: 0
x: 0.01171875
y: -0.0390625
z: -0.0078125
range: 0.0435769706964
velocity: 0.0
doppler_bin: 8
bearing: -73.3007583618
intensity: 30.6483230591
---
header: 
  seq: 44257
  stamp: 
    secs: 1561869384
    nsecs: 746784723
  frame_id: "ti_mmwave"
point_id: 1
x: 0.017578125
y: -0.080078125
z: -0.0078125
range: 0.0871539413929
velocity: 0.0
doppler_bin: 8
bearing: -77.6192398071
intensity: 31.8977088928
---
header: 
  seq: 44258
  stamp: 
    secs: 1561869384
    nsecs: 746801081
  frame_id: "ti_mmwave"
point_id: 2
x: 0.029296875
y: -0.119140625
z: -0.005859375
range: 0.130730912089
velocity: 0.0
doppler_bin: 8
bearing: -76.1849746704
intensity: 30.1114730835
---
header: 
  seq: 44259
  stamp: 
    secs: 1561869384
    nsecs: 746811897
  frame_id: "ti_mmwave"
point_id: 3
x: 0.056640625
y: -0.154296875
z: 0.0078125
range: 0.174307882786
velocity: 0.0
doppler_bin: 8
bearing: -69.8423843384
intensity: 25.4530715942
---
header: 
  seq: 44260
  stamp: 
    secs: 1561869384
    nsecs: 746821022
  frame_id: "ti_mmwave"
point_id: 4
x: 0.1640625
y: -0.080078125
z: 1.25390625
range: 1.35088610649
velocity: 0.0
doppler_bin: 8
bearing: -26.0167827606
intensity: 23.138671875
---
header: 
  seq: 44261
  stamp: 
    secs: 1561869384
    nsecs: 746839997
  frame_id: "ti_mmwave"
point_id: 6
x: 0.423828125
y: -0.083984375
z: -1.279296875
range: 1.43804001808
velocity: 0.0
doppler_bin: 8
bearing: -11.2083444595
intensity: 23.0749607086
---
header: 
  seq: 44262
  stamp: 
    secs: 1561869384
    nsecs: 746854902
  frame_id: "ti_mmwave"
point_id: 7
x: 0.57421875
y: -0.04296875
z: -1.265625
range: 1.48161697388
velocity: 0.0
doppler_bin: 8
bearing: -4.27946329117
intensity: 21.6731739044
---
header: 
  seq: 44263
  stamp: 
    secs: 1561869384
    nsecs: 746868171
  frame_id: "ti_mmwave"
point_id: 8
x: 2.603515625
y: -0.17578125
z: 1.076171875
range: 3.00681090355
velocity: 0.0
doppler_bin: 8
bearing: -3.86257004738
intensity: 28.8081359863
---
header: 
  seq: 44264
  stamp: 
    secs: 1561869384
    nsecs: 746882051
  frame_id: "ti_mmwave"
point_id: 9
x: 2.6796875
y: -0.08984375
z: 1.00390625
range: 3.05038785934
velocity: 0.0
doppler_bin: 8
bearing: -1.92027628422
intensity: 32.0520439148
---
header: 
  seq: 44265
  stamp: 
    secs: 1561869384
    nsecs: 746895506
  frame_id: "ti_mmwave"
point_id: 10
x: 2.740234375
y: -0.08984375
z: 0.958984375
range: 3.09396481514
velocity: 0.0
doppler_bin: 8
bearing: -1.87787723541
intensity: 31.0890312195
---
header: 
  seq: 44266
  stamp: 
    secs: 1561869384
    nsecs: 746909252
  frame_id: "ti_mmwave"
point_id: 11
x: 4.419921875
y: -0.142578125
z: 1.03125
range: 4.83704376221
velocity: 0.0
doppler_bin: 8
bearing: -1.847610116
intensity: 28.182258606
---
header: 
  seq: 44267
  stamp: 
    secs: 1561869384
    nsecs: 746922272
  frame_id: "ti_mmwave"
point_id: 12
x: 4.4375
y: -0.142578125
z: 1.1328125
range: 4.88062095642
velocity: 0.0
doppler_bin: 8
bearing: -1.84029650688
intensity: 31.3861846924
---
header: 
  seq: 44268
  stamp: 
    secs: 1561869384
    nsecs: 746935332
  frame_id: "ti_mmwave"
point_id: 13
x: 4.482421875
y: -0.0
z: 1.126953125
range: 4.9241976738
velocity: 0.0
doppler_bin: 8
bearing: -0.0
intensity: 30.6892757416
---
header: 
  seq: 44269
  stamp: 
    secs: 1561869384
    nsecs: 746949696
  frame_id: "ti_mmwave"
point_id: 14
x: 4.892578125
y: -0.30859375
z: 0.685546875
range: 5.27281332016
velocity: 0.0
doppler_bin: 8
bearing: -3.60908436775
intensity: 30.0475120544
---
header: 
  seq: 44270
  stamp: 
    secs: 1561869384
    nsecs: 746964871
  frame_id: "ti_mmwave"
point_id: 16
x: 0.041015625
y: -0.033203125
z: 0.0625
range: 0.0871539413929
velocity: 0.0
doppler_bin: 8
bearing: -38.9909973145
intensity: 30.0860023499
---
header: 
  seq: 44271
  stamp: 
    secs: 1561869384
    nsecs: 746978027
  frame_id: "ti_mmwave"
point_id: 17
x: 0.044921875
y: -0.046875
z: 0.103515625
range: 0.130730912089
velocity: 0.0
doppler_bin: 8
bearing: -46.218875885
intensity: 29.0036716461
---
header: 
  seq: 44272
  stamp: 
    secs: 1561869384
    nsecs: 805691949
  frame_id: "ti_mmwave"
point_id: 0
x: 0.01171875
y: -0.0390625
z: -0.0078125
range: 0.0435769706964
velocity: 0.0
doppler_bin: 8
bearing: -73.3007583618
intensity: 30.6520614624
---
header: 
  seq: 44273
  stamp: 
    secs: 1561869384
    nsecs: 805755278
  frame_id: "ti_mmwave"
point_id: 1
x: 0.017578125
y: -0.080078125
z: -0.0078125
range: 0.0871539413929
velocity: 0.0
doppler_bin: 8
bearing: -77.6192398071
intensity: 31.9005146027
---
header: 
  seq: 44274
  stamp: 
    secs: 1561869384
    nsecs: 805766478
  frame_id: "ti_mmwave"
point_id: 2
x: 0.029296875
y: -0.119140625
z: -0.005859375
range: 0.130730912089
velocity: 0.0
doppler_bin: 8
bearing: -76.1849746704
intensity: 30.1114730835
---
header: 
  seq: 44275
  stamp: 
    secs: 1561869384
    nsecs: 805776986
  frame_id: "ti_mmwave"
point_id: 3
x: 0.056640625
y: -0.154296875
z: 0.005859375
range: 0.174307882786
velocity: 0.0
doppler_bin: 8
bearing: -69.8423843384
intensity: 25.4530715942
---
header: 
  seq: 44276
  stamp: 
    secs: 1561869384
    nsecs: 805785396
  frame_id: "ti_mmwave"
point_id: 4
x: 0.103515625
y: -0.080078125
z: 1.26171875
range: 1.35088610649
velocity: 0.0
doppler_bin: 8
bearing: -37.7249946594
intensity: 23.0963020325
---
header: 
  seq: 44277
  stamp: 
    secs: 1561869384
    nsecs: 805796567
  frame_id: "ti_mmwave"
point_id: 6
x: 0.4140625
y: -0.083984375
z: -1.28125
range: 1.43804001808
velocity: 0.0
doppler_bin: 8
bearing: -11.4657688141
intensity: 23.0535144806
---
header: 
  seq: 44278
  stamp: 
    secs: 1561869384
    nsecs: 805804414
  frame_id: "ti_mmwave"
point_id: 7
x: 0.578125
y: -0.04296875
z: -1.263671875
range: 1.48161697388
velocity: 0.0
doppler_bin: 8
bearing: -4.25065469742
intensity: 21.6731739044
---
header: 
  seq: 44279
  stamp: 
    secs: 1561869384
    nsecs: 805812603
  frame_id: "ti_mmwave"
point_id: 8
x: 1.650390625
y: 0.05859375
z: 0.904296875
range: 2.00454068184
velocity: 0.0
doppler_bin: 8
bearing: 2.03331565857
intensity: 27.8318862915
---
header: 
  seq: 44280
  stamp: 
    secs: 1561869384
    nsecs: 805821312
  frame_id: "ti_mmwave"
point_id: 9
x: 1.796875
y: -0.0
z: 0.685546875
range: 2.04811763763
velocity: 0.0
doppler_bin: 8
bearing: -0.0
intensity: 28.4695529938
---
header: 
  seq: 44281
  stamp: 
    secs: 1561869384
    nsecs: 805832236
  frame_id: "ti_mmwave"
point_id: 10
x: 2.595703125
y: -0.17578125
z: 1.091796875
range: 3.00681090355
velocity: 0.0
doppler_bin: 8
bearing: -3.87416052818
intensity: 29.0902080536
---
header: 
  seq: 44282
  stamp: 
    secs: 1561869384
    nsecs: 805859653
  frame_id: "ti_mmwave"
point_id: 11
x: 2.6484375
y: -0.1796875
z: 1.076171875
range: 3.05038785934
velocity: 0.0
doppler_bin: 8
bearing: -3.88137626648
intensity: 32.1748390198
---
header: 
  seq: 44283
  stamp: 
    secs: 1561869384
    nsecs: 806033241
  frame_id: "ti_mmwave"
point_id: 12
x: 2.736328125
y: -0.08984375
z: 0.966796875
range: 3.09396481514
velocity: 0.0
doppler_bin: 8
bearing: -1.8805564642
intensity: 31.0754909515
---
header: 
  seq: 44284
  stamp: 
    secs: 1561869384
    nsecs: 806091660
  frame_id: "ti_mmwave"
point_id: 13
x: 4.40625
y: -0.142578125
z: 1.0859375
range: 4.83704376221
velocity: 0.0
doppler_bin: 8
bearing: -1.85333895683
intensity: 28.3569049835
---
header: 
  seq: 44285
  stamp: 
    secs: 1561869384
    nsecs: 806109240
  frame_id: "ti_mmwave"
point_id: 14
x: 4.42578125
y: -0.142578125
z: 1.17578125
range: 4.88062095642
velocity: 0.0
doppler_bin: 8
bearing: -1.84516572952
intensity: 31.5014209747
---
header: 
  seq: 44286
  stamp: 
    secs: 1561869384
    nsecs: 806122267
  frame_id: "ti_mmwave"
point_id: 15
x: 4.470703125
y: -0.14453125
z: 1.16796875
range: 4.9241976738
velocity: 0.0
doppler_bin: 8
bearing: -1.8516433239
intensity: 30.7445068359
---
header: 
  seq: 44287
  stamp: 
    secs: 1561869384
    nsecs: 806138229
  frame_id: "ti_mmwave"
point_id: 16
x: 4.884765625
y: -0.46484375
z: 0.650390625
range: 5.27281332016
velocity: 0.0
doppler_bin: 8
bearing: -5.43600749969
intensity: 30.1535968781
---
header: 
  seq: 44288
  stamp: 
    secs: 1561869384
    nsecs: 806180908
  frame_id: "ti_mmwave"
point_id: 17
x: 4.9296875
y: -0.779296875
z: 0.05859375
range: 5.31639051437
velocity: 0.0
doppler_bin: 8
bearing: -8.98311805725
intensity: 29.5856380463
---
header: 
  seq: 44289
  stamp: 
    secs: 1561869384
    nsecs: 806197240
  frame_id: "ti_mmwave"
point_id: 19
x: 0.041015625
y: -0.033203125
z: 0.0625
range: 0.0871539413929
velocity: 0.0
doppler_bin: 8
bearing: -38.9909973145
intensity: 30.0902576447
---
header: 
  seq: 44290
  stamp: 
    secs: 1561869384
    nsecs: 806205872
  frame_id: "ti_mmwave"
point_id: 20
x: 0.044921875
y: -0.046875
z: 0.103515625
range: 0.130730912089
velocity: 0.0
doppler_bin: 8
bearing: -46.218875885
intensity: 29.0091304779
---
header: 
  seq: 44291
  stamp: 
    secs: 1561869384
    nsecs: 807292160
  frame_id: "ti_mmwave"
point_id: 0
x: 0.01171875
y: -0.0390625
z: -0.0078125
range: 0.0435769706964
velocity: 0.0
doppler_bin: 8
bearing: -73.3007583618
intensity: 30.6520614624
---
header: 
  seq: 44292
  stamp: 
    secs: 1561869384
    nsecs: 807335983
  frame_id: "ti_mmwave"
point_id: 1
x: 0.017578125
y: -0.080078125
z: -0.0078125
range: 0.0871539413929
velocity: 0.0
doppler_bin: 8
bearing: -77.6192398071
intensity: 31.9005146027
---
header: 
  seq: 44293
  stamp: 
    secs: 1561869384
    nsecs: 807347388
  frame_id: "ti_mmwave"
point_id: 2
x: 0.029296875
y: -0.119140625
z: -0.005859375
range: 0.130730912089
velocity: 0.0
doppler_bin: 8
bearing: -76.1849746704
intensity: 30.1157035828
---
header: 
  seq: 44294
  stamp: 
    secs: 1561869384
    nsecs: 807355824
  frame_id: "ti_mmwave"
point_id: 3
x: 0.056640625
y: -0.154296875
z: 0.005859375
range: 0.174307882786
velocity: 0.0
doppler_bin: 8
bearing: -69.8423843384
intensity: 25.4530715942
---
header: 
  seq: 44295
  stamp: 
    secs: 1561869384
    nsecs: 807365741
  frame_id: "ti_mmwave"
point_id: 4
x: 0.1640625
y: -0.080078125
z: 1.255859375
range: 1.35088610649
velocity: 0.0
doppler_bin: 8
bearing: -26.0167827606
intensity: 23.1597042084
---
header: 
  seq: 44296
  stamp: 
    secs: 1561869384
    nsecs: 807376211
  frame_id: "ti_mmwave"
point_id: 6
x: 0.427734375
y: -0.083984375
z: -1.27734375
range: 1.43804001808
velocity: 0.0
doppler_bin: 8
bearing: -11.1085424423
intensity: 23.1175384521
---
header: 
  seq: 44297
  stamp: 
    secs: 1561869384
    nsecs: 807436408
  frame_id: "ti_mmwave"
point_id: 7
x: 0.572265625
y: -0.04296875
z: -1.265625
range: 1.48161697388
velocity: 0.0
doppler_bin: 8
bearing: -4.29401493073
intensity: 21.6731739044
---
header: 
  seq: 44298
  stamp: 
    secs: 1561869384
    nsecs: 807446457
  frame_id: "ti_mmwave"
point_id: 8
x: 1.798828125
y: 0.056640625
z: -0.044921875
range: 1.91738677025
velocity: 0.0
doppler_bin: 8
bearing: 1.8035056591
intensity: 30.3342380524
---
header: 
  seq: 44299
  stamp: 
    secs: 1561869384
    nsecs: 807454657
  frame_id: "ti_mmwave"
point_id: 9
x: 1.837890625
y: 0.056640625
z: -0.0625
range: 1.96096372604
velocity: 0.0
doppler_bin: 8
bearing: 1.76519858837
intensity: 30.1703338623
---
header: 
  seq: 44300
  stamp: 
    secs: 1561869384
    nsecs: 807462199
  frame_id: "ti_mmwave"
point_id: 10
x: 1.875
y: -0.0
z: 0.162109375
range: 2.00454068184
velocity: 0.0
doppler_bin: 8
bearing: -0.0
intensity: 27.1096305847
---
header: 
  seq: 44301
  stamp: 
    secs: 1561869384
    nsecs: 807472230
  frame_id: "ti_mmwave"
point_id: 11
x: 1.83203125
y: -0.060546875
z: 0.58203125
range: 2.04811763763
velocity: 0.0
doppler_bin: 8
bearing: -1.89288151264
intensity: 26.570558548
---
header: 
  seq: 44302
  stamp: 
    secs: 1561869384
    nsecs: 807485675
  frame_id: "ti_mmwave"
point_id: 12
x: 2.611328125
y: -0.17578125
z: 1.05859375
range: 3.00681090355
velocity: 0.0
doppler_bin: 8
bearing: -3.85104894638
intensity: 29.2168655396
---
header: 
  seq: 44303
  stamp: 
    secs: 1561869384
    nsecs: 807497448
  frame_id: "ti_mmwave"
point_id: 13
x: 2.658203125
y: -0.1796875
z: 1.048828125
range: 3.05038785934
velocity: 0.0
doppler_bin: 8
