header: 
  seq: 16116
  stamp: 
    secs: 1561869337
    nsecs: 465857124
  frame_id: "ti_mmwave"
point_id: 0
x: 0.01171875
y: -0.0390625
z: -0.0078125
range: 0.0435769706964
velocity: 0.0
doppler_bin: 8
bearing: -73.3007583618
intensity: 30.6557979584
---
header: 
  seq: 16117
  stamp: 
    secs: 1561869337
    nsecs: 466011985
  frame_id: "ti_mmwave"
point_id: 1
x: 0.017578125
y: -0.080078125
z: -0.0078125
range: 0.0871539413929
velocity: 0.0
doppler_bin: 8
bearing: -77.6192398071
intensity: 31.9061183929
---
header: 
  seq: 16118
  stamp: 
    secs: 1561869337
    nsecs: 466026722
  frame_id: "ti_mmwave"
point_id: 2
x: 0.029296875
y: -0.119140625
z: -0.005859375
range: 0.130730912089
velocity: 0.0
doppler_bin: 8
bearing: -76.1849746704
intensity: 30.1199302673
---
header: 
  seq: 16119
  stamp: 
    secs: 1561869337
    nsecs: 466036423
  frame_id: "ti_mmwave"
point_id: 3
x: 0.056640625
y: -0.154296875
z: 0.005859375
range: 0.174307882786
velocity: 0.0
doppler_bin: 8
bearing: -69.8423843384
intensity: 25.4406795502
---
header: 
  seq: 16120
  stamp: 
    secs: 1561869337
    nsecs: 466047313
  frame_id: "ti_mmwave"
point_id: 4
x: 0.0859375
y: -0.080078125
z: 1.26171875
range: 1.35088610649
velocity: 0.0
doppler_bin: 8
bearing: -42.9786338806
intensity: 23.1597042084
---
header: 
  seq: 16121
  stamp: 
    secs: 1561869337
    nsecs: 466059181
  frame_id: "ti_mmwave"
point_id: 6
x: 0.419921875
y: -0.083984375
z: -1.279296875
range: 1.43804001808
velocity: 0.0
doppler_bin: 8
bearing: -11.3099327087
intensity: 23.0749607086
---
header: 
  seq: 16122
  stamp: 
    secs: 1561869337
    nsecs: 466067931
  frame_id: "ti_mmwave"
point_id: 7
x: 0.564453125
y: -0.04296875
z: -1.26953125
range: 1.48161697388
velocity: 0.0
doppler_bin: 8
bearing: -4.35321998596
intensity: 21.7026176453
---
header: 
  seq: 16123
  stamp: 
    secs: 1561869337
    nsecs: 466076456
  frame_id: "ti_mmwave"
point_id: 8
x: 1.8359375
y: -0.115234375
z: 0.041015625
range: 1.96096372604
velocity: 0.0
doppler_bin: 8
bearing: -3.59151291847
intensity: 26.8930892944
---
header: 
  seq: 16124
  stamp: 
    secs: 1561869337
    nsecs: 466084423
  frame_id: "ti_mmwave"
point_id: 9
x: 1.87890625
y: -0.0
z: -0.11328125
range: 2.00454068184
velocity: 0.0
doppler_bin: 8
bearing: -0.0
intensity: 27.201593399
---
header: 
  seq: 16125
  stamp: 
    secs: 1561869337
    nsecs: 466244377
  frame_id: "ti_mmwave"
point_id: 10
x: 2.626953125
y: -0.17578125
z: 1.015625
range: 3.00681090355
velocity: 0.0
doppler_bin: 8
bearing: -3.82821130753
intensity: 29.020029068
---
header: 
  seq: 16126
  stamp: 
    secs: 1561869337
    nsecs: 466262867
  frame_id: "ti_mmwave"
point_id: 11
x: 2.666015625
y: -0.1796875
z: 1.02734375
range: 3.05038785934
velocity: 0.0
doppler_bin: 8
bearing: -3.85586214066
intensity: 32.1325187683
---
header: 
  seq: 16127
  stamp: 
    secs: 1561869337
    nsecs: 466271725
  frame_id: "ti_mmwave"
point_id: 12
x: 2.765625
y: -0.08984375
z: 0.880859375
range: 3.09396481514
velocity: 0.0
doppler_bin: 8
bearing: -1.8606492281
intensity: 31.1461105347
---
header: 
  seq: 16128
  stamp: 
    secs: 1561869337
    nsecs: 466279710
  frame_id: "ti_mmwave"
point_id: 13
x: 4.3984375
y: -0.287109375
z: 1.25390625
range: 4.88062095642
velocity: 0.0
doppler_bin: 8
bearing: -3.73470139503
intensity: 30.788192749
---
header: 
  seq: 16129
  stamp: 
    secs: 1561869337
    nsecs: 466288240
  frame_id: "ti_mmwave"
point_id: 14
x: 4.435546875
y: -0.14453125
z: 1.29296875
range: 4.9241976738
velocity: 0.0
doppler_bin: 8
bearing: -1.86630904675
intensity: 30.6182937622
---
header: 
  seq: 16130
  stamp: 
    secs: 1561869337
    nsecs: 466298322
  frame_id: "ti_mmwave"
point_id: 16
x: 0.041015625
y: -0.033203125
z: 0.0625
range: 0.0871539413929
velocity: 0.0
doppler_bin: 8
bearing: -38.9909973145
intensity: 30.0945091248
---
header: 
  seq: 16131
  stamp: 
    secs: 1561869337
    nsecs: 466306479
  frame_id: "ti_mmwave"
point_id: 17
x: 0.044921875
y: -0.046875
z: 0.103515625
range: 0.130730912089
velocity: 0.0
doppler_bin: 8
bearing: -46.218875885
intensity: 29.0091304779
---
header: 
  seq: 16132
  stamp: 
    secs: 1561869337
    nsecs: 467273865
  frame_id: "ti_mmwave"
point_id: 0
x: 0.01171875
y: -0.0390625
z: -0.0078125
range: 0.0435769706964
velocity: 0.0
doppler_bin: 8
bearing: -73.3007583618
intensity: 30.6520614624
---
header: 
  seq: 16133
  stamp: 
    secs: 1561869337
    nsecs: 467323957
  frame_id: "ti_mmwave"
point_id: 1
x: 0.017578125
y: -0.080078125
z: -0.0078125
range: 0.0871539413929
velocity: 0.0
doppler_bin: 8
bearing: -77.6192398071
intensity: 31.9033164978
---
header: 
  seq: 16134
  stamp: 
    secs: 1561869337
    nsecs: 467341197
  frame_id: "ti_mmwave"
point_id: 2
x: 0.029296875
y: -0.119140625
z: -0.005859375
range: 0.130730912089
velocity: 0.0
doppler_bin: 8
bearing: -76.1849746704
intensity: 30.1157035828
---
header: 
  seq: 16135
  stamp: 
    secs: 1561869337
    nsecs: 467356854
  frame_id: "ti_mmwave"
point_id: 3
x: 0.056640625
y: -0.154296875
z: 0.005859375
range: 0.174307882786
velocity: 0.0
doppler_bin: 8
bearing: -69.8423843384
intensity: 25.4530715942
---
header: 
  seq: 16136
  stamp: 
    secs: 1561869337
    nsecs: 467413760
  frame_id: "ti_mmwave"
point_id: 4
x: 0.15234375
y: -0.080078125
z: 1.255859375
range: 1.35088610649
velocity: 0.0
doppler_bin: 8
bearing: -27.7282581329
intensity: 23.0963020325
---
header: 
  seq: 16137
  stamp: 
    secs: 1561869337
    nsecs: 467429975
  frame_id: "ti_mmwave"
point_id: 6
x: 0.4140625
y: -0.083984375
z: -1.28125
range: 1.43804001808
velocity: 0.0
doppler_bin: 8
bearing: -11.4657688141
intensity: 23.138671875
---
header: 
  seq: 16138
  stamp: 
    secs: 1561869337
    nsecs: 467442985
  frame_id: "ti_mmwave"
point_id: 7
x: 0.56640625
y: -0.04296875
z: -1.26953125
range: 1.48161697388
velocity: 0.0
doppler_bin: 8
bearing: -4.33826684952
intensity: 21.7609119415
---
header: 
  seq: 16139
  stamp: 
    secs: 1561869337
    nsecs: 467455510
  frame_id: "ti_mmwave"
point_id: 8
x: 1.833984375
y: -0.0
z: -0.146484375
range: 1.96096372604
velocity: 0.0
doppler_bin: 8
bearing: -0.0
intensity: 28.633228302
---
header: 
  seq: 16140
  stamp: 
    secs: 1561869337
    nsecs: 467469144
  frame_id: "ti_mmwave"
point_id: 9
x: 1.873046875
y: -0.0
z: -0.177734375
range: 2.00454068184
velocity: 0.0
doppler_bin: 8
bearing: -0.0
intensity: 29.3094902039
---
header: 
  seq: 16141
  stamp: 
    secs: 1561869337
    nsecs: 467482334
  frame_id: "ti_mmwave"
point_id: 10
x: 1.912109375
y: -0.060546875
z: -0.19921875
range: 2.04811763763
velocity: 0.0
doppler_bin: 8
bearing: -1.81366276741
intensity: 27.0243053436
---
header: 
  seq: 16142
  stamp: 
    secs: 1561869337
    nsecs: 467525510
  frame_id: "ti_mmwave"
point_id: 11
x: 2.62109375
y: -0.17578125
z: 1.03125
range: 3.00681090355
velocity: 0.0
doppler_bin: 8
bearing: -3.83674383163
intensity: 28.7966918945
---
header: 
  seq: 16143
  stamp: 
    secs: 1561869337
    nsecs: 467540360
  frame_id: "ti_mmwave"
point_id: 12
x: 2.6953125
y: -0.08984375
z: 0.96484375
range: 3.05038785934
velocity: 0.0
doppler_bin: 8
bearing: -1.90915250778
intensity: 32.0763435364
---
header: 
  seq: 16144
  stamp: 
    secs: 1561869337
    nsecs: 467552902
  frame_id: "ti_mmwave"
point_id: 13
x: 2.755859375
y: -0.08984375
z: 0.91015625
range: 3.09396481514
velocity: 0.0
doppler_bin: 8
bearing: -1.86723792553
intensity: 31.1461105347
---
header: 
  seq: 16145
  stamp: 
    secs: 1561869337
    nsecs: 467566455
  frame_id: "ti_mmwave"
point_id: 14
x: 4.408203125
y: -0.142578125
z: 1.2421875
range: 4.88062095642
velocity: 0.0
doppler_bin: 8
bearing: -1.85251843929
intensity: 28.1954402924
---
header: 
  seq: 16146
  stamp: 
    secs: 1561869337
    nsecs: 467583093
  frame_id: "ti_mmwave"
point_id: 16
x: 0.041015625
y: -0.033203125
z: 0.0625
range: 0.0871539413929
velocity: 0.0
doppler_bin: 8
bearing: -38.9909973145
intensity: 30.0987567902
---
header: 
  seq: 16147
  stamp: 
    secs: 1561869337
    nsecs: 467607526
  frame_id: "ti_mmwave"
point_id: 17
x: 0.044921875
y: -0.046875
z: 0.103515625
range: 0.130730912089
velocity: 0.0
doppler_bin: 8
bearing: -46.218875885
intensity: 29.0091304779
---
header: 
  seq: 16148
  stamp: 
    secs: 1561869337
    nsecs: 526734496
  frame_id: "ti_mmwave"
point_id: 0
x: 0.01171875
y: -0.0390625
z: -0.0078125
range: 0.0435769706964
velocity: 0.0
doppler_bin: 8
bearing: -73.3007583618
intensity: 30.6520614624
---
header: 
  seq: 16149
  stamp: 
    secs: 1561869337
    nsecs: 526812860
  frame_id: "ti_mmwave"
point_id: 1
x: 0.017578125
y: -0.080078125
z: -0.0078125
range: 0.0871539413929
velocity: 0.0
doppler_bin: 8
bearing: -77.6192398071
intensity: 31.9033164978
---
header: 
  seq: 16150
  stamp: 
    secs: 1561869337
    nsecs: 526831686
  frame_id: "ti_mmwave"
point_id: 2
x: 0.029296875
y: -0.119140625
z: -0.005859375
range: 0.130730912089
velocity: 0.0
doppler_bin: 8
bearing: -76.1849746704
intensity: 30.1199302673
---
header: 
  seq: 16151
  stamp: 
    secs: 1561869337
    nsecs: 526845437
  frame_id: "ti_mmwave"
point_id: 3
x: 0.056640625
y: -0.154296875
z: 0.005859375
range: 0.174307882786
velocity: 0.0
doppler_bin: 8
bearing: -69.8423843384
intensity: 25.4530715942
---
header: 
  seq: 16152
  stamp: 
    secs: 1561869337
    nsecs: 526858509
  frame_id: "ti_mmwave"
point_id: 4
x: 0.103515625
y: -0.080078125
z: 1.26171875
range: 1.35088610649
velocity: 0.0
doppler_bin: 8
bearing: -37.7249946594
intensity: 23.138671875
---
header: 
  seq: 16153
  stamp: 
    secs: 1561869337
    nsecs: 526940652
  frame_id: "ti_mmwave"
point_id: 5
x: 0.025390625
y: -0.08203125
z: 1.306640625
range: 1.39446306229
velocity: 0.0
doppler_bin: 8
bearing: -72.8014526367
intensity: 24.6538276672
---
header: 
  seq: 16154
  stamp: 
    secs: 1561869337
    nsecs: 526954371
  frame_id: "ti_mmwave"
point_id: 6
x: 0.42578125
y: -0.083984375
z: -1.27734375
range: 1.43804001808
velocity: 0.0
doppler_bin: 8
bearing: -11.1582231522
intensity: 23.1175384521
---
header: 
  seq: 16155
  stamp: 
    secs: 1561869337
    nsecs: 526966133
  frame_id: "ti_mmwave"
point_id: 7
x: 0.59765625
y: -0.04296875
z: -1.255859375
range: 1.48161697388
velocity: 0.0
doppler_bin: 8
bearing: -4.11222887039
intensity: 21.7026176453
---
header: 
  seq: 16156
  stamp: 
    secs: 1561869337
    nsecs: 526976890
  frame_id: "ti_mmwave"
point_id: 8
x: 1.783203125
y: -0.0
z: -0.244140625
range: 1.91738677025
velocity: 0.0
doppler_bin: 8
bearing: -0.0
intensity: 30.0732097626
---
header: 
  seq: 16157
  stamp: 
    secs: 1561869337
    nsecs: 526989503
  frame_id: "ti_mmwave"
point_id: 9
x: 1.828125
y: -0.0
z: -0.208984375
range: 1.96096372604
velocity: 0.0
doppler_bin: 8
bearing: -0.0
intensity: 33.0941734314
---
header: 
  seq: 16158
  stamp: 
    secs: 1561869337
    nsecs: 527002152
  frame_id: "ti_mmwave"
point_id: 10
x: 1.87109375
y: -0.0
z: -0.19140625
range: 2.00454068184
velocity: 0.0
doppler_bin: 8
bearing: -0.0
intensity: 32.4551277161
---
header: 
  seq: 16159
  stamp: 
    secs: 1561869337
    nsecs: 527014841
  frame_id: "ti_mmwave"
point_id: 11
x: 1.9140625
y: -0.0
z: -0.1796875
range: 2.04811763763
velocity: 0.0
doppler_bin: 8
bearing: -0.0
intensity: 27.9448795319
---
header: 
  seq: 16160
  stamp: 
    secs: 1561869337
    nsecs: 527029782
  frame_id: "ti_mmwave"
point_id: 12
x: 2.6171875
y: -0.17578125
z: 1.04296875
range: 3.00681090355
velocity: 0.0
doppler_bin: 8
bearing: -3.84245300293
intensity: 28.8366146088
---
header: 
  seq: 16161
  stamp: 
    secs: 1561869337
    nsecs: 527065259
  frame_id: "ti_mmwave"
point_id: 13
x: 2.6953125
y: -0.08984375
z: 0.962890625
range: 3.05038785934
velocity: 0.0
doppler_bin: 8
bearing: -1.90915250778
intensity: 32.1112060547
---
header: 
  seq: 16162
  stamp: 
    secs: 1561869337
    nsecs: 527090901
  frame_id: "ti_mmwave"
point_id: 14
x: 2.76171875
y: -0.08984375
z: 0.89453125
range: 3.09396481514
velocity: 0.0
doppler_bin: 8
bearing: -1.86327898502
intensity: 31.0890312195
---
header: 
  seq: 16163
  stamp: 
    secs: 1561869337
    nsecs: 527115099
  frame_id: "ti_mmwave"
point_id: 16
x: 0.041015625
y: -0.033203125
z: 0.0625
range: 0.0871539413929
velocity: 0.0
doppler_bin: 8
bearing: -38.9909973145
intensity: 30.0945091248
---
header: 
  seq: 16164
  stamp: 
    secs: 1561869337
    nsecs: 527180657
  frame_id: "ti_mmwave"
point_id: 17
x: 0.044921875
y: -0.046875
z: 0.103515625
range: 0.130730912089
velocity: 0.0
doppler_bin: 8
bearing: -46.218875885
intensity: 29.0091304779
---
header: 
  seq: 16165
  stamp: 
    secs: 1561869337
    nsecs: 585745688
  frame_id: "ti_mmwave"
point_id: 0
x: 0.01171875
y: -0.0390625
z: -0.0078125
range: 0.0435769706964
velocity: 0.0
doppler_bin: 8
bearing: -73.3007583618
intensity: 30.6483230591
---
header: 
  seq: 16166
  stamp: 
    secs: 1561869337
    nsecs: 585847496
  frame_id: "ti_mmwave"
point_id: 1
x: 0.017578125
y: -0.080078125
z: -0.0078125
range: 0.0871539413929
velocity: 0.0
doppler_bin: 8
bearing: -77.6192398071
intensity: 31.9033164978
---
header: 
  seq: 16167
  stamp: 
    secs: 1561869337
    nsecs: 585866802
  frame_id: "ti_mmwave"
point_id: 2
x: 0.029296875
y: -0.119140625
z: -0.005859375
range: 0.130730912089
velocity: 0.0
doppler_bin: 8
bearing: -76.1849746704
intensity: 30.1199302673
---
header: 
  seq: 16168
  stamp: 
    secs: 1561869337
    nsecs: 585881300
  frame_id: "ti_mmwave"
point_id: 3
x: 0.056640625
y: -0.154296875
z: 0.005859375
range: 0.174307882786
velocity: 0.0
doppler_bin: 8
bearing: -69.8423843384
intensity: 25.4406795502
---
header: 
  seq: 16169
  stamp: 
    secs: 1561869337
    nsecs: 585893297
  frame_id: "ti_mmwave"
point_id: 4
x: 0.1875
y: -0.080078125
z: 1.251953125
range: 1.35088610649
velocity: 0.0
doppler_bin: 8
bearing: -23.1265201569
intensity: 23.1175384521
---
header: 
  seq: 16170
  stamp: 
    secs: 1561869337
    nsecs: 585967976
  frame_id: "ti_mmwave"
point_id: 5
x: 0.072265625
y: -0.08203125
z: 1.3046875
range: 1.39446306229
velocity: 0.0
doppler_bin: 8
bearing: -48.6214866638
intensity: 24.6239795685
---
header: 
  seq: 16171
  stamp: 
    secs: 1561869337
    nsecs: 585981986
  frame_id: "ti_mmwave"
point_id: 6
x: 0.3984375
y: -0.083984375
z: -1.287109375
range: 1.43804001808
velocity: 0.0
doppler_bin: 8
bearing: -11.9028120041
intensity: 23.0749607086
---
header: 
  seq: 16172
  stamp: 
    secs: 1561869337
    nsecs: 585993034
  frame_id: "ti_mmwave"
point_id: 7
x: 0.556640625
y: -0.04296875
z: -1.2734375
range: 1.48161697388
velocity: 0.0
doppler_bin: 8
bearing: -4.41407871246
intensity: 21.7026176453
---
header: 
  seq: 16173
  stamp: 
    secs: 1561869337
    nsecs: 586005313
  frame_id: "ti_mmwave"
point_id: 8
x: 1.783203125
y: -0.0
z: -0.244140625
range: 1.91738677025
velocity: 0.0
doppler_bin: 8
bearing: -0.0
intensity: 28.9597473145
---
header: 
  seq: 16174
  stamp: 
    secs: 1561869337
    nsecs: 586017080
  frame_id: "ti_mmwave"
point_id: 9
x: 1.828125
y: -0.0
z: -0.22265625
range: 1.96096372604
velocity: 0.0
doppler_bin: 8
bearing: -0.0
intensity: 31.0346164703
---
header: 
  seq: 16175
  stamp: 
    secs: 1561869337
    nsecs: 586027576
  frame_id: "ti_mmwave"
point_id: 10
x: 1.87109375
y: 0.05859375
z: -0.19921875
range: 2.00454068184
velocity: 0.0
doppler_bin: 8
bearing: 1.7936450243
intensity: 30.5076637268
---
header: 
  seq: 16176
  stamp: 
    secs: 1561869337
    nsecs: 586038680
  frame_id: "ti_mmwave"
point_id: 11
x: 1.90234375
y: 0.060546875
z: -0.267578125
range: 2.04811763763
velocity: 0.0
doppler_bin: 8
bearing: 1.82296705246
intensity: 28.5369815826
---
header: 
  seq: 16177
  stamp: 
    secs: 1561869337
    nsecs: 586050400
  frame_id: "ti_mmwave"
point_id: 12
x: 2.609375
y: -0.17578125
z: 1.060546875
range: 3.00681090355
velocity: 0.0
doppler_bin: 8
bearing: -3.85392260551
intensity: 28.9431610107
---
header: 
  seq: 16178
  stamp: 
    secs: 1561869337
    nsecs: 586062394
  frame_id: "ti_mmwave"
point_id: 13
x: 2.69140625
y: -0.08984375
z: 0.974609375
range: 3.05038785934
velocity: 0.0
doppler_bin: 8
bearing: -1.91192126274
intensity: 32.0924682617
---
header: 
  seq: 16179
  stamp: 
    secs: 1561869337
    nsecs: 586075802
  frame_id: "ti_mmwave"
point_id: 14
x: 2.763671875
y: -0.08984375
z: 0.888671875
range: 3.09396481514
velocity: 0.0
doppler_bin: 8
bearing: -1.8619633913
intensity: 31.1627559662
---
header: 
  seq: 16180
  stamp: 
    secs: 1561869337
    nsecs: 586088396
  frame_id: "ti_mmwave"
point_id: 16
x: 0.041015625
y: -0.033203125
z: 0.0625
range: 0.0871539413929
velocity: 0.0
doppler_bin: 8
bearing: -38.9909973145
intensity: 30.0945091248
---
header: 
  seq: 16181
  stamp: 
    secs: 1561869337
    nsecs: 586152563
  frame_id: "ti_mmwave"
point_id: 17
x: 0.044921875
y: -0.046875
z: 0.103515625
range: 0.130730912089
velocity: 0.0
doppler_bin: 8
bearing: -46.218875885
intensity: 29.0145835876
---
header: 
  seq: 16182
  stamp: 
    secs: 1561869337
    nsecs: 586829642
  frame_id: "ti_mmwave"
point_id: 0
x: 0.01171875
y: -0.0390625
z: -0.0078125
range: 0.0435769706964
velocity: 0.0
doppler_bin: 8
bearing: -73.3007583618
intensity: 30.6483230591
---
header: 
  seq: 16183
  stamp: 
    secs: 1561869337
    nsecs: 586902021
  frame_id: "ti_mmwave"
point_id: 1
x: 0.017578125
y: -0.080078125
z: -0.0078125
range: 0.0871539413929
velocity: 0.0
doppler_bin: 8
bearing: -77.6192398071
intensity: 31.9005146027
---
header: 
  seq: 16184
  stamp: 
    secs: 1561869337
    nsecs: 586919538
  frame_id: "ti_mmwave"
point_id: 2
x: 0.029296875
y: -0.119140625
z: -0.005859375
range: 0.130730912089
velocity: 0.0
doppler_bin: 8
bearing: -76.1849746704
intensity: 30.1157035828
---
header: 
  seq: 16185
  stamp: 
    secs: 1561869337
    nsecs: 586934479
  frame_id: "ti_mmwave"
point_id: 3
x: 0.056640625
y: -0.154296875
z: 0.005859375
range: 0.174307882786
velocity: 0.0
doppler_bin: 8
bearing: -69.8423843384
intensity: 25.4406795502
---
header: 
  seq: 16186
  stamp: 
    secs: 1561869337
    nsecs: 587011050
  frame_id: "ti_mmwave"
point_id: 4
x: 0.134765625
y: -0.080078125
z: 1.2578125
range: 1.35088610649
velocity: 0.0
doppler_bin: 8
bearing: -30.7189025879
intensity: 23.2014636993
---
header: 
  seq: 16187
  stamp: 
    secs: 1561869337
    nsecs: 587030488
  frame_id: "ti_mmwave"
point_id: 6
x: 0.42578125
y: -0.083984375
z: -1.279296875
range: 1.43804001808
velocity: 0.0
doppler_bin: 8
bearing: -11.1582231522
intensity: 23.1175384521
---
header: 
  seq: 16188
  stamp: 
    secs: 1561869337
    nsecs: 587043882
  frame_id: "ti_mmwave"
point_id: 7
x: 0.583984375
y: -0.04296875
z: -1.26171875
range: 1.48161697388
velocity: 0.0
doppler_bin: 8
bearing: -4.20815992355
intensity: 21.7026176453
---
header: 
  seq: 16189
  stamp: 
    secs: 1561869337
    nsecs: 587072969
  frame_id: "ti_mmwave"
point_id: 8
x: 2.611328125
y: -0.17578125
z: 1.056640625
range: 3.00681090355
velocity: 0.0
doppler_bin: 8
bearing: -3.85104894638
intensity: 28.9872512817
---
header: 
  seq: 16190
  stamp: 
    secs: 1561869337
    nsecs: 587137019
  frame_id: "ti_mmwave"
point_id: 9
x: 2.6953125
y: -0.08984375
z: 0.96484375
range: 3.05038785934
velocity: 0.0
doppler_bin: 8
bearing: -1.90915250778
intensity: 32.0978317261
---
header: 
  seq: 16191
  stamp: 
    secs: 1561869337
    nsecs: 587154013
  frame_id: "ti_mmwave"
point_id: 10
x: 2.759765625
y: -0.08984375
z: 0.900390625
range: 3.09396481514
velocity: 0.0
doppler_bin: 8
bearing: -1.86459684372
intensity: 31.119342804
---
header: 
  seq: 16192
  stamp: 
    secs: 1561869337
    nsecs: 587169214
  frame_id: "ti_mmwave"
point_id: 11
x: 1.791015625
y: -0.66015625
z: 0.23046875
range: 2.04811763763
velocity: -1.22933733463
doppler_bin: 6
bearing: -20.2335453033
intensity: 22.6481781006
---
header: 
  seq: 16193
  stamp: 
    secs: 1561869337
    nsecs: 587182445
  frame_id: "ti_mmwave"
point_id: 12
x: 1.859375
y: -0.61328125
z: 0.134765625
range: 2.09169459343
velocity: -1.22933733463
doppler_bin: 6
bearing: -18.2542057037
intensity: 21.2385158539
---
header: 
  seq: 16194
  stamp: 
    secs: 1561869337
    nsecs: 587199752
  frame_id: "ti_mmwave"
point_id: 14
x: 0.041015625
y: -0.033203125
z: 0.0625
range: 0.0871539413929
velocity: 0.0
doppler_bin: 8
bearing: -38.9909973145
intensity: 30.0945091248
---
header: 
  seq: 16195
  stamp: 
    secs: 1561869337
    nsecs: 587208992
  frame_id: "ti_mmwave"
point_id: 15
x: 0.044921875
y: -0.046875
z: 0.103515625
range: 0.130730912089
velocity: 0.0
doppler_bin: 8
bearing: -46.218875885
intensity: 29.0091304779
---
header: 
  seq: 16196
  stamp: 
    secs: 1561869337
    nsecs: 587249146
  frame_id: "ti_mmwave"
point_id: 17
x: 1.751953125
y: 0.720703125
z: 0.326171875
range: 2.04811763763
velocity: -1.22933733463
doppler_bin: 6
bearing: 22.3608551025
intensity: 19.7772369385
---
header: 
  seq: 16197
  stamp: 
    secs: 1561869337
    nsecs: 645650182
  frame_id: "ti_mmwave"
point_id: 0
x: 0.01171875
y: -0.0390625
z: -0.0078125
range: 0.0435769706964
velocity: 0.0
doppler_bin: 8
bearing: -73.3007583618
intensity: 30.6445808411
---
header: 
  seq: 16198
  stamp: 
    secs: 1561869337
    nsecs: 645726080
  frame_id: "ti_mmwave"
point_id: 1
x: 0.017578125
y: -0.080078125
z: -0.0078125
range: 0.0871539413929
velocity: 0.0
doppler_bin: 8
bearing: -77.6192398071
intensity: 31.9005146027
---
header: 
  seq: 16199
  stamp: 
    secs: 1561869337
    nsecs: 645740764
  frame_id: "ti_mmwave"
point_id: 2
x: 0.029296875
y: -0.119140625
z: -0.005859375
range: 0.130730912089
velocity: 0.0
doppler_bin: 8
bearing: -76.1849746704
intensity: 30.1157035828
---
header: 
  seq: 16200
  stamp: 
    secs: 1561869337
    nsecs: 645751156
  frame_id: "ti_mmwave"
point_id: 3
x: 0.056640625
y: -0.154296875
z: 0.005859375
range: 0.174307882786
velocity: 0.0
doppler_bin: 8
bearing: -69.8423843384
intensity: 25.4406795502
---
header: 
  seq: 16201
  stamp: 
    secs: 1561869337
    nsecs: 645760007
  frame_id: "ti_mmwave"
point_id: 4
x: 0.13671875
y: -0.080078125
z: 1.2578125
range: 1.35088610649
velocity: 0.0
doppler_bin: 8
bearing: -30.3581142426
intensity: 23.0963020325
---
header: 
  seq: 16202
  stamp: 
    secs: 1561869337
    nsecs: 645769739
  frame_id: "ti_mmwave"
point_id: 5
x: 0.0625
y: -0.08203125
z: 1.3046875
range: 1.39446306229
velocity: 0.0
doppler_bin: 8
bearing: -52.6960487366
intensity: 24.6239795685
---
header: 
  seq: 16203
  stamp: 
    secs: 1561869337
    nsecs: 645780466
  frame_id: "ti_mmwave"
point_id: 6
x: 0.408203125
y: -0.083984375
z: -1.283203125
range: 1.43804001808
velocity: 0.0
doppler_bin: 8
bearing: -11.6258993149
intensity: 23.0963020325
---
header: 
  seq: 16204
  stamp: 
    secs: 1561869337
    nsecs: 645789060
  frame_id: "ti_mmwave"
point_id: 7
x: 2.615234375
y: -0.17578125
z: 1.046875
range: 3.00681090355
velocity: 0.0
doppler_bin: 8
bearing: -3.84531402588
intensity: 28.9486961365
---
header: 
  seq: 16205
  stamp: 
    secs: 1561869337
    nsecs: 645811182
  frame_id: "ti_mmwave"
point_id: 8
x: 2.6953125
y: -0.08984375
z: 0.962890625
range: 3.05038785934
velocity: 0.0
doppler_bin: 8
bearing: -1.90915250778
intensity: 32.166934967
---
header: 
  seq: 16206
  stamp: 
    secs: 1561869337
    nsecs: 645823777
  frame_id: "ti_mmwave"
point_id: 9
x: 2.763671875
y: -0.08984375
z: 0.890625
range: 3.09396481514
velocity: 0.0
doppler_bin: 8
bearing: -1.8619633913
intensity: 31.176027298
---
header: 
  seq: 16207
  stamp: 
    secs: 1561869337
    nsecs: 646044085
  frame_id: "ti_mmwave"
point_id: 11
x: 0.041015625
y: -0.033203125
z: 0.0625
range: 0.0871539413929
velocity: 0.0
doppler_bin: 8
bearing: -38.9909973145
intensity: 30.0987567902
---
header: 
  seq: 16208
  stamp: 
    secs: 1561869337
    nsecs: 646076031
  frame_id: "ti_mmwave"
point_id: 12
x: 0.044921875
y: -0.046875
z: 0.103515625
range: 0.130730912089
velocity: 0.0
doppler_bin: 8
bearing: -46.218875885
intensity: 29.0091304779
---
header: 
  seq: 16209
  stamp: 
    secs: 1561869337
    nsecs: 647015850
  frame_id: "ti_mmwave"
point_id: 0
x: 0.01171875
y: -0.0390625
z: -0.0078125
range: 0.0435769706964
velocity: 0.0
doppler_bin: 8
bearing: -73.3007583618
intensity: 30.6595306396
---
header: 
  seq: 16210
  stamp: 
    secs: 1561869337
    nsecs: 647087556
  frame_id: "ti_mmwave"
point_id: 1
x: 0.017578125
y: -0.080078125
z: -0.0078125
range: 0.0871539413929
velocity: 0.0
doppler_bin: 8
bearing: -77.6192398071
intensity: 31.9061183929
---
header: 
  seq: 16211
  stamp: 
    secs: 1561869337
    nsecs: 647100735
  frame_id: "ti_mmwave"
point_id: 2
x: 0.029296875
y: -0.119140625
z: -0.005859375
range: 0.130730912089
velocity: 0.0
doppler_bin: 8
bearing: -76.1849746704
intensity: 30.1199302673
---
header: 
  seq: 16212
  stamp: 
    secs: 1561869337
    nsecs: 647111057
  frame_id: "ti_mmwave"
point_id: 3
x: 0.056640625
y: -0.154296875
z: 0.0078125
range: 0.174307882786
velocity: 0.0
doppler_bin: 8
bearing: -69.8423843384
intensity: 25.4530715942
---
header: 
  seq: 16213
  stamp: 
    secs: 1561869337
    nsecs: 647119951
  frame_id: "ti_mmwave"
point_id: 4
x: 0.173828125
y: -0.080078125
z: 1.25390625
range: 1.35088610649
velocity: 0.0
doppler_bin: 8
bearing: -24.7343044281
intensity: 23.0963020325
---
header: 
  seq: 16214
  stamp: 
    secs: 1561869337
    nsecs: 647129057
  frame_id: "ti_mmwave"
point_id: 5
x: 0.025390625
y: -0.08203125
z: 1.306640625
range: 1.39446306229
velocity: 0.0
doppler_bin: 8
bearing: -72.8014526367
intensity: 24.6239795685
---
header: 
  seq: 16215
  stamp: 
    secs: 1561869337
    nsecs: 647137673
  frame_id: "ti_mmwave"
point_id: 6
x: 0.41796875
y: -0.083984375
z: -1.28125
range: 1.43804001808
velocity: 0.0
doppler_bin: 8
bearing: -11.3614110947
intensity: 23.0963020325
---
header: 
  seq: 16216
  stamp: 
    secs: 1561869337
    nsecs: 647149540
  frame_id: "ti_mmwave"
point_id: 7
x: 0.57421875
y: -0.04296875
z: -1.265625
range: 1.48161697388
velocity: 0.0
doppler_bin: 8
bearing: -4.27946329117
intensity: 21.7318630219
---
header: 
  seq: 16217
  stamp: 
    secs: 1561869337
    nsecs: 647164610
  frame_id: "ti_mmwave"
point_id: 8
x: 1.83984375
y: -0.0
z: 0.009765625
range: 1.96096372604
velocity: 0.0
doppler_bin: 8
bearing: -0.0
intensity: 27.4973640442
---
header: 
  seq: 16218
  stamp: 
    secs: 1561869337
    nsecs: 647179687
  frame_id: "ti_mmwave"
point_id: 10
x: 2.625
y: -0.17578125
z: 1.021484375
range: 3.00681090355
velocity: 0.0
doppler_bin: 8
bearing: -3.83105134964
intensity: 28.9097957611
---
header: 
  seq: 16219
  stamp: 
    secs: 1561869337
    nsecs: 647189997
  frame_id: "ti_mmwave"
point_id: 11
x: 2.693359375
y: -0.08984375
z: 0.970703125
range: 3.05038785934
velocity: 0.0
doppler_bin: 8
bearing: -1.91053581238
intensity: 32.1537322998
---
header: 
  seq: 16220
  stamp: 
    secs: 1561869337
    nsecs: 647251303
  frame_id: "ti_mmwave"
point_id: 12
x: 2.75390625
y: -0.08984375
z: 0.919921875
range: 3.09396481514
velocity: 0.0
doppler_bin: 8
bearing: -1.86856126785
intensity: 31.1360912323
---
header: 
  seq: 16221
  stamp: 
    secs: 1561869337
    nsecs: 647260027
  frame_id: "ti_mmwave"
point_id: 13
x: 4.85546875
y: 1.59765625
z: -0.123046875
range: 5.44712114334
velocity: 0.0
doppler_bin: 8
bearing: 18.2134094238
intensity: 29.2376194
---
header: 
  seq: 16222
  stamp: 
    secs: 1561869337
    nsecs: 647270936
  frame_id: "ti_mmwave"
point_id: 15
x: 0.041015625
y: -0.033203125
z: 0.0625
range: 0.0871539413929
velocity: 0.0
doppler_bin: 8
bearing: -38.9909973145
intensity: 30.0945091248
---
header: 
  seq: 16223
  stamp: 
    secs: 1561869337
    nsecs: 647279973
  frame_id: "ti_mmwave"
point_id: 16
x: 0.044921875
y: -0.046875
z: 0.103515625
range: 0.130730912089
velocity: 0.0
doppler_bin: 8
bearing: -46.218875885
intensity: 29.0145835876
---
header: 
  seq: 16224
  stamp: 
    secs: 1561869337
    nsecs: 705706475
  frame_id: "ti_mmwave"
point_id: 0
x: 0.01171875
y: -0.0390625
z: -0.0078125
range: 0.0435769706964
velocity: 0.0
doppler_bin: 8
bearing: -73.3007583618
intensity: 30.6595306396
---
header: 
  seq: 16225
  stamp: 
    secs: 1561869337
    nsecs: 705782857
  frame_id: "ti_mmwave"
point_id: 1
x: 0.017578125
y: -0.080078125
z: -0.0078125
range: 0.0871539413929
velocity: 0.0
doppler_bin: 8
bearing: -77.6192398071
intensity: 31.9061183929
---
header: 
  seq: 16226
  stamp: 
    secs: 1561869337
    nsecs: 705794752
  frame_id: "ti_mmwave"
point_id: 2
x: 0.029296875
y: -0.119140625
z: -0.005859375
range: 0.130730912089
velocity: 0.0
doppler_bin: 8
bearing: -76.1849746704
intensity: 30.1157035828
---
header: 
  seq: 16227
  stamp: 
    secs: 1561869337
    nsecs: 705803098
  frame_id: "ti_mmwave"
point_id: 3
x: 0.056640625
y: -0.154296875
z: 0.0078125
range: 0.174307882786
velocity: 0.0
doppler_bin: 8
bearing: -69.8423843384
intensity: 25.4406795502
---
header: 
  seq: 16228
  stamp: 
    secs: 1561869337
    nsecs: 705811695
  frame_id: "ti_mmwave"
point_id: 4
x: 0.162109375
y: -0.080078125
z: 1.255859375
range: 1.35088610649
velocity: 0.0
doppler_bin: 8
bearing: -26.2882633209
intensity: 23.2014636993
---
header: 
  seq: 16229
  stamp: 
    secs: 1561869337
    nsecs: 705821949
  frame_id: "ti_mmwave"
point_id: 6
x: 0.4375
y: -0.083984375
z: -1.2734375
range: 1.43804001808
velocity: 0.0
doppler_bin: 8
bearing: -10.8665513992
intensity: 23.1175384521
---
header: 
  seq: 16230
  stamp: 
    secs: 1561869337
    nsecs: 705830044
  frame_id: "ti_mmwave"
point_id: 7
x: 0.580078125
y: -0.04296875
z: -1.263671875
range: 1.48161697388
velocity: 0.0
doppler_bin: 8
bearing: -4.2363948822
intensity: 21.6731739044
---
header: 
  seq: 16231
  stamp: 
    secs: 1561869337
    nsecs: 705838189
  frame_id: "ti_mmwave"
point_id: 8
x: 1.837890625
y: -0.056640625
z: -0.068359375
range: 1.96096372604
velocity: 0.0
doppler_bin: 8
bearing: -1.76519858837
intensity: 29.8721923828
---
header: 
  seq: 16232
  stamp: 
    secs: 1561869337
    nsecs: 705847304
  frame_id: "ti_mmwave"
point_id: 9
x: 1.880859375
y: -0.05859375
z: 0.0078125
range: 2.00454068184
velocity: 0.0
doppler_bin: 8
bearing: -1.78433823586
intensity: 31.3385810852
---
header: 
  seq: 16233
  stamp: 
    secs: 1561869337
    nsecs: 705856174
  frame_id: "ti_mmwave"
point_id: 10
x: 1.91796875
y: -0.060546875
z: 0.11328125
range: 2.04811763763
velocity: 0.0
doppler_bin: 8
bearing: -1.80812585354
intensity: 30.5652370453
---
header: 
  seq: 16234
  stamp: 
    secs: 1561869337
    nsecs: 705864419
  frame_id: "ti_mmwave"
point_id: 11
x: 1.94921875
y: -0.060546875
z: 0.220703125
range: 2.09169459343
velocity: 0.0
doppler_bin: 8
bearing: -1.77915656567
intensity: 27.1264972687
---
header: 
  seq: 16235
  stamp: 
    secs: 1561869337
    nsecs: 705872307
  frame_id: "ti_mmwave"
point_id: 12
x: 2.630859375
y: -0.17578125
z: 1.00390625
range: 3.00681090355
velocity: 0.0
doppler_bin: 8
bearing: -3.82254433632
intensity: 29.1169013977
---
header: 
  seq: 16236
  stamp: 
    secs: 1561869337
    nsecs: 705879942
  frame_id: "ti_mmwave"
point_id: 13
x: 2.6953125
y: -0.08984375
z: 0.962890625
range: 3.05038785934
velocity: 0.0
doppler_bin: 8
bearing: -1.90915250778
intensity: 32.1827278137
---
header: 
  seq: 16237
  stamp: 
    secs: 1561869337
    nsecs: 705888432
  frame_id: "ti_mmwave"
point_id: 14
x: 2.765625
y: -0.08984375
z: 0.8828125
range: 3.09396481514
velocity: 0.0
doppler_bin: 8
bearing: -1.8606492281
intensity: 31.176027298
---
header: 
  seq: 16238
  stamp: 
    secs: 1561869337
    nsecs: 705896837
  frame_id: "ti_mmwave"
point_id: 15
x: 4.77734375
y: -1.404296875
z: -0.341796875
range: 5.31639051437
velocity: 0.0
doppler_bin: 8
bearing: -16.3806629181
intensity: 28.5733242035
---
header: 
  seq: 16239
  stamp: 
    secs: 1561869337
    nsecs: 705908225
  frame_id: "ti_mmwave"
point_id: 17
x: 0.041015625
y: -0.033203125
z: 0.0625
range: 0.0871539413929
velocity: 0.0
doppler_bin: 8
bearing: -38.9909973145
intensity: 30.0987567902
---
header: 
  seq: 16240
  stamp: 
    secs: 1561869337
    nsecs: 705917783
  frame_id: "ti_mmwave"
point_id: 18
x: 0.044921875
y: -0.046875
z: 0.103515625
range: 0.130730912089
velocity: 0.0
doppler_bin: 8
bearing: -46.218875885
intensity: 29.0145835876
---
header: 
  seq: 16241
  stamp: 
    secs: 1561869337
    nsecs: 706790371
  frame_id: "ti_mmwave"
point_id: 0
x: 0.01171875
y: -0.0390625
z: -0.0078125
range: 0.0435769706964
velocity: 0.0
doppler_bin: 8
bearing: -73.3007583618
intensity: 30.6595306396
---
header: 
  seq: 16242
  stamp: 
    secs: 1561869337
    nsecs: 706855788
  frame_id: "ti_mmwave"
point_id: 1
x: 0.017578125
y: -0.080078125
z: -0.0078125
range: 0.0871539413929
velocity: 0.0
doppler_bin: 8
bearing: -77.6192398071
intensity: 31.9061183929
---
header: 
  seq: 16243
  stamp: 
    secs: 1561869337
    nsecs: 706878055
  frame_id: "ti_mmwave"
point_id: 2
x: 0.029296875
y: -0.119140625
z: -0.005859375
range: 0.130730912089
velocity: 0.0
doppler_bin: 8
bearing: -76.1849746704
intensity: 30.1157035828
---
header: 
  seq: 16244
  stamp: 
    secs: 1561869337
    nsecs: 706908184
  frame_id: "ti_mmwave"
point_id: 3
x: 0.056640625
y: -0.154296875
z: 0.005859375
range: 0.174307882786
velocity: 0.0
doppler_bin: 8
bearing: -69.8423843384
intensity: 25.4406795502
---
header: 
  seq: 16245
  stamp: 
    secs: 1561869337
    nsecs: 706937895
  frame_id: "ti_mmwave"
point_id: 4
x: 0.1171875
y: -0.080078125
z: 1.259765625
range: 1.35088610649
velocity: 0.0
doppler_bin: 8
bearing: -34.3460998535
intensity: 23.138671875
---
header: 
  seq: 16246
  stamp: 
    secs: 1561869337
    nsecs: 706955794
  frame_id: "ti_mmwave"
point_id: 6
x: 0.44921875
y: -0.083984375
z: -1.26953125
range: 1.43804001808
velocity: 0.0
doppler_bin: 8
bearing: -10.5895709991
intensity: 23.1175384521
---
header: 
  seq: 16247
  stamp: 
    secs: 1561869337
    nsecs: 706968274
  frame_id: "ti_mmwave"
point_id: 7
x: 0.572265625
y: -0.04296875
z: -1.265625
range: 1.48161697388
velocity: 0.0
doppler_bin: 8
bearing: -4.29401493073
intensity: 21.7609119415
---
header: 
  seq: 16248
  stamp: 
    secs: 1561869337
    nsecs: 706982248
  frame_id: "ti_mmwave"
point_id: 8
x: 1.833984375
y: -0.056640625
z: -0.154296875
range: 1.96096372604
velocity: 0.0
doppler_bin: 8
bearing: -1.76895594597
intensity: 28.3058872223
---
header: 
  seq: 16249
  stamp: 
    secs: 1561869337
    nsecs: 706998429
  frame_id: "ti_mmwave"
point_id: 9
x: 2.619140625
y: -0.17578125
z: 1.037109375
range: 3.00681090355
velocity: 0.0
doppler_bin: 8
bearing: -3.83959650993
intensity: 29.1115760803
---
header: 
  seq: 16250
  stamp: 
    secs: 1561869337
    nsecs: 707011300
  frame_id: "ti_mmwave"
point_id: 10
x: 2.662109375
y: -0.1796875
z: 1.0390625
range: 3.05038785934
velocity: 0.0
doppler_bin: 8
bearing: -3.86150240898
intensity: 32.2245635986
---
header: 
  seq: 16251
  stamp: 
    secs: 1561869337
    nsecs: 707033675
  frame_id: "ti_mmwave"
point_id: 11
x: 2.7578125
y: -0.08984375
z: 0.91015625
range: 3.09396481514
velocity: 0.0
doppler_bin: 8
bearing: -1.86591637135
intensity: 31.2968997955
---
header: 
  seq: 16252
  stamp: 
    secs: 1561869337
    nsecs: 707127257
  frame_id: "ti_mmwave"
point_id: 13
x: 0.041015625
y: -0.033203125
z: 0.0625
range: 0.0871539413929
velocity: 0.0
doppler_bin: 8
bearing: -38.9909973145
intensity: 30.0987567902
---
header: 
  seq: 16253
  stamp: 
    secs: 1561869337
    nsecs: 707146642
  frame_id: "ti_mmwave"
point_id: 14
x: 0.044921875
y: -0.046875
z: 0.103515625
range: 0.130730912089
velocity: 0.0
doppler_bin: 8
bearing: -46.218875885
intensity: 29.0091304779
---
header: 
  seq: 16254
  stamp: 
    secs: 1561869337
    nsecs: 765728805
  frame_id: "ti_mmwave"
point_id: 0
x: 0.01171875
y: -0.0390625
z: -0.0078125
range: 0.0435769706964
velocity: 0.0
doppler_bin: 8
bearing: -73.3007583618
intensity: 30.6595306396
---
header: 
  seq: 16255
  stamp: 
    secs: 1561869337
    nsecs: 765806947
  frame_id: "ti_mmwave"
point_id: 1
x: 0.017578125
y: -0.080078125
z: -0.0078125
range: 0.0871539413929
velocity: 0.0
doppler_bin: 8
bearing: -77.6192398071
intensity: 31.9061183929
---
header: 
  seq: 16256
  stamp: 
    secs: 1561869337
    nsecs: 765819013
  frame_id: "ti_mmwave"
point_id: 2
x: 0.029296875
y: -0.119140625
z: -0.005859375
range: 0.130730912089
velocity: 0.0
doppler_bin: 8
bearing: -76.1849746704
intensity: 30.1157035828
---
header: 
  seq: 16257
  stamp: 
    secs: 1561869337
    nsecs: 765827918
  frame_id: "ti_mmwave"
point_id: 3
x: 0.056640625
y: -0.154296875
z: 0.005859375
range: 0.174307882786
velocity: 0.0
doppler_bin: 8
bearing: -69.8423843384
intensity: 25.4530715942
---
header: 
  seq: 16258
  stamp: 
    secs: 1561869337
    nsecs: 765837564
  frame_id: "ti_mmwave"
point_id: 4
x: 0.158203125
y: -0.080078125
z: 1.255859375
range: 1.35088610649
velocity: 0.0
doppler_bin: 8
bearing: -26.8472938538
intensity: 23.138671875
---
header: 
  seq: 16259
  stamp: 
    secs: 1561869337
    nsecs: 765845797
  frame_id: "ti_mmwave"
point_id: 5
x: 0.046875
y: -0.08203125
z: 1.3046875
range: 1.39446306229
velocity: 0.0
doppler_bin: 8
bearing: -60.255115509
intensity: 24.6389293671
---
header: 
  seq: 16260
  stamp: 
    secs: 1561869337
    nsecs: 765853555
  frame_id: "ti_mmwave"
point_id: 6
x: 0.41796875
y: -0.083984375
z: -1.28125
range: 1.43804001808
velocity: 0.0
doppler_bin: 8
bearing: -11.3614110947
intensity: 23.0963020325
---
header: 
  seq: 16261
  stamp: 
    secs: 1561869337
    nsecs: 765861674
  frame_id: "ti_mmwave"
point_id: 7
x: 0.5625
y: -0.04296875
z: -1.271484375
range: 1.48161697388
velocity: 0.0
doppler_bin: 8
bearing: -4.36827754974
intensity: 21.7026176453
---
header: 
  seq: 16262
  stamp: 
    secs: 1561869337
    nsecs: 765870966
  frame_id: "ti_mmwave"
point_id: 8
x: 1.8359375
y: -0.0
z: -0.134765625
range: 1.96096372604
velocity: 0.0
doppler_bin: 8
bearing: -0.0
intensity: 29.9519634247
---
header: 
  seq: 16263
  stamp: 
    secs: 1561869337
    nsecs: 765879299
  frame_id: "ti_mmwave"
point_id: 9
x: 1.875
y: -0.0
z: -0.150390625
range: 2.00454068184
velocity: 0.0
doppler_bin: 8
bearing: -0.0
intensity: 29.6801567078
---
header: 
  seq: 16264
  stamp: 
    secs: 1561869337
    nsecs: 765886667
  frame_id: "ti_mmwave"
point_id: 10
x: 1.90625
y: -0.060546875
z: -0.240234375
range: 2.04811763763
velocity: 0.0
doppler_bin: 8
bearing: -1.81923389435
intensity: 27.1011734009
---
header: 
  seq: 16265
  stamp: 
    secs: 1561869337
    nsecs: 765894680
  frame_id: "ti_mmwave"
point_id: 11
x: 2.62890625
y: -0.17578125
z: 1.009765625
range: 3.00681090355
velocity: 0.0
doppler_bin: 8
bearing: -3.82537555695
intensity: 29.0525608063
---
header: 
  seq: 16266
  stamp: 
    secs: 1561869337
    nsecs: 765903684
  frame_id: "ti_mmwave"
point_id: 12
x: 2.689453125
y: -0.08984375
z: 0.9765625
range: 3.05038785934
velocity: 0.0
doppler_bin: 8
bearing: -1.91330885887
intensity: 32.1616592407
---
header: 
  seq: 16267
  stamp: 
    secs: 1561869337
    nsecs: 765912334
  frame_id: "ti_mmwave"
point_id: 13
x: 2.751953125
y: -0.08984375
z: 0.92578125
range: 3.09396481514
velocity: 0.0
doppler_bin: 8
bearing: -1.86988639832
intensity: 31.0924091339
---
header: 
  seq: 16268
  stamp: 
    secs: 1561869337
    nsecs: 765923379
  frame_id: "ti_mmwave"
point_id: 15
x: 0.041015625
y: -0.033203125
z: 0.0625
range: 0.0871539413929
velocity: 0.0
doppler_bin: 8
bearing: -38.9909973145
intensity: 30.0987567902
---
header: 
  seq: 16269
  stamp: 
    secs: 1561869337
    nsecs: 765932466
  frame_id: "ti_mmwave"
point_id: 16
x: 0.044921875
y: -0.046875
z: 0.103515625
range: 0.130730912089
velocity: 0.0
doppler_bin: 8
bearing: -46.218875885
intensity: 29.0091304779
---
header: 
  seq: 16270
  stamp: 
    secs: 1561869337
    nsecs: 766889930
  frame_id: "ti_mmwave"
point_id: 0
x: 0.01171875
y: -0.0390625
z: -0.0078125
range: 0.0435769706964
velocity: 0.0
doppler_bin: 8
bearing: -73.3007583618
intensity: 30.6520614624
---
header: 
  seq: 16271
  stamp: 
    secs: 1561869337
    nsecs: 766965348
  frame_id: "ti_mmwave"
point_id: 1
x: 0.017578125
y: -0.080078125
z: -0.0078125
range: 0.0871539413929
velocity: 0.0
doppler_bin: 8
bearing: -77.6192398071
intensity: 31.9033164978
---
header: 
  seq: 16272
  stamp: 
    secs: 1561869337
    nsecs: 766989601
  frame_id: "ti_mmwave"
point_id: 2
x: 0.029296875
y: -0.119140625
z: -0.005859375
range: 0.130730912089
velocity: 0.0
doppler_bin: 8
bearing: -76.1849746704
intensity: 30.1199302673
---
header: 
  seq: 16273
  stamp: 
    secs: 1561869337
    nsecs: 767063764
  frame_id: "ti_mmwave"
point_id: 3
x: 0.056640625
y: -0.154296875
z: 0.0078125
range: 0.174307882786
velocity: 0.0
doppler_bin: 8
bearing: -69.8423843384
intensity: 25.4530715942
---
header: 
  seq: 16274
  stamp: 
    secs: 1561869337
    nsecs: 767078402
  frame_id: "ti_mmwave"
point_id: 4
x: 0.09765625
y: -0.080078125
z: 1.26171875
range: 1.35088610649
velocity: 0.0
doppler_bin: 8
bearing: -39.3517532349
intensity: 23.138671875
---
header: 
  seq: 16275
  stamp: 
    secs: 1561869337
    nsecs: 767092893
  frame_id: "ti_mmwave"
point_id: 6
x: 0.40234375
y: -0.083984375
z: -1.28515625
range: 1.43804001808
velocity: 0.0
doppler_bin: 8
bearing: -11.7905015945
intensity: 23.0535144806
---
header: 
  seq: 16276
  stamp: 
    secs: 1561869337
    nsecs: 767105764
  frame_id: "ti_mmwave"
point_id: 7
x: 0.556640625
y: -0.04296875
z: -1.2734375
range: 1.48161697388
velocity: 0.0
doppler_bin: 8
bearing: -4.41407871246
intensity: 21.6731739044
---
header: 
  seq: 16277
  stamp: 
    secs: 1561869337
    nsecs: 767118232
  frame_id: "ti_mmwave"
point_id: 8
x: 1.83984375
y: -0.0
z: -0.013671875
range: 1.96096372604
velocity: 0.0
doppler_bin: 8
bearing: -0.0
intensity: 28.350561142
---
header: 
  seq: 16278
  stamp: 
    secs: 1561869337
    nsecs: 767130952
  frame_id: "ti_mmwave"
point_id: 9
x: 1.880859375
y: -0.0
z: -0.06640625
range: 2.00454068184
velocity: 0.0
doppler_bin: 8
bearing: -0.0
intensity: 30.2077541351
---
header: 
  seq: 16279
  stamp: 
    secs: 1561869337
    nsecs: 767216320
  frame_id: "ti_mmwave"
point_id: 10
x: 1.919921875
y: 0.060546875
z: -0.08984375
range: 2.04811763763
velocity: 0.0
doppler_bin: 8
bearing: 1.80628752708
intensity: 28.9927310944
---
header: 
  seq: 16280
  stamp: 
    secs: 1561869337
    nsecs: 767248910
  frame_id: "ti_mmwave"
point_id: 11
x: 2.611328125
y: -0.17578125
z: 1.056640625
range: 3.00681090355
velocity: 0.0
doppler_bin: 8
bearing: -3.85104894638
intensity: 29.0363254547
---
header: 
  seq: 16281
  stamp: 
    secs: 1561869337
    nsecs: 767263346
  frame_id: "ti_mmwave"
point_id: 12
x: 2.69140625
y: -0.08984375
z: 0.97265625
range: 3.05038785934
velocity: 0.0
doppler_bin: 8
bearing: -1.91192126274
intensity: 32.1800994873
---
header: 
  seq: 16282
  stamp: 
    secs: 1561869337
    nsecs: 767277014
  frame_id: "ti_mmwave"
point_id: 13
x: 2.763671875
y: -0.08984375
z: 0.890625
range: 3.09396481514
velocity: 0.0
doppler_bin: 8
bearing: -1.8619633913
intensity: 31.1793384552
---
header: 
  seq: 16283
  stamp: 
    secs: 1561869337
    nsecs: 767296523
  frame_id: "ti_mmwave"
point_id: 15
x: 0.041015625
y: -0.033203125
z: 0.0625
range: 0.0871539413929
velocity: 0.0
doppler_bin: 8
bearing: -38.9909973145
intensity: 30.0945091248
---
header: 
  seq: 16284
  stamp: 
    secs: 1561869337
    nsecs: 767354368
  frame_id: "ti_mmwave"
point_id: 16
x: 0.044921875
y: -0.046875
z: 0.103515625
range: 0.130730912089
velocity: 0.0
doppler_bin: 8
bearing: -46.218875885
intensity: 29.0145835876
---
header: 
  seq: 16285
  stamp: 
    secs: 1561869337
    nsecs: 826358711
  frame_id: "ti_mmwave"
point_id: 0
x: 0.01171875
y: -0.0390625
z: -0.0078125
range: 0.0435769706964
velocity: 0.0
doppler_bin: 8
bearing: -73.3007583618
intensity: 30.6520614624
---
header: 
  seq: 16286
  stamp: 
    secs: 1561869337
    nsecs: 826441287
  frame_id: "ti_mmwave"
point_id: 1
x: 0.017578125
y: -0.080078125
z: -0.0078125
range: 0.0871539413929
velocity: 0.0
doppler_bin: 8
bearing: -77.6192398071
intensity: 31.9033164978
---
header: 
  seq: 16287
  stamp: 
    secs: 1561869337
    nsecs: 826458270
  frame_id: "ti_mmwave"
point_id: 2
x: 0.029296875
y: -0.119140625
z: -0.005859375
range: 0.130730912089
velocity: 0.0
doppler_bin: 8
bearing: -76.1849746704
intensity: 30.1157035828
---
header: 
  seq: 16288
  stamp: 
    secs: 1561869337
    nsecs: 826473139
  frame_id: "ti_mmwave"
point_id: 3
x: 0.056640625
y: -0.154296875
z: 0.005859375
range: 0.174307882786
velocity: 0.0
doppler_bin: 8
bearing: -69.8423843384
intensity: 25.4282550812
---
header: 
  seq: 16289
  stamp: 
    secs: 1561869337
    nsecs: 826486128
  frame_id: "ti_mmwave"
point_id: 4
x: 0.119140625
y: -0.080078125
z: 1.259765625
range: 1.35088610649
velocity: 0.0
doppler_bin: 8
bearing: -33.9062767029
intensity: 23.1175384521
---
header: 
  seq: 16290
  stamp: 
    secs: 1561869337
    nsecs: 826501107
  frame_id: "ti_mmwave"
point_id: 6
x: 0.4296875
y: -0.083984375
z: -1.27734375
range: 1.43804001808
velocity: 0.0
doppler_bin: 8
bearing: -11.0592975616
intensity: 23.031961441
---
header: 
  seq: 16291
  stamp: 
    secs: 1561869337
    nsecs: 826514265
  frame_id: "ti_mmwave"
point_id: 7
x: 1.82421875
y: -0.056640625
z: -0.236328125
range: 1.96096372604
velocity: 0.0
doppler_bin: 8
bearing: -1.77841961384
intensity: 28.2477645874
---
header: 
  seq: 16292
  stamp: 
    secs: 1561869337
    nsecs: 826528775
  frame_id: "ti_mmwave"
point_id: 8
x: 1.857421875
y: -0.1171875
z: -0.275390625
range: 2.00454068184
velocity: 0.0
doppler_bin: 8
bearing: -3.61009049416
intensity: 28.7448177338
---
header: 
  seq: 16293
  stamp: 
    secs: 1561869337
    nsecs: 826612965
  frame_id: "ti_mmwave"
point_id: 9
x: 1.896484375
y: -0.12109375
z: -0.291015625
range: 2.04811763763
velocity: 0.0
doppler_bin: 8
bearing: -3.65347337723
intensity: 26.3548374176
---
header: 
  seq: 16294
  stamp: 
    secs: 1561869337
    nsecs: 826629345
  frame_id: "ti_mmwave"
point_id: 10
x: 2.6015625
y: -0.17578125
z: 1.080078125
range: 3.00681090355
velocity: 0.0
doppler_bin: 8
bearing: -3.86546111107
intensity: 28.8986167908
---
header: 
  seq: 16295
  stamp: 
    secs: 1561869337
    nsecs: 826641662
  frame_id: "ti_mmwave"
point_id: 11
x: 2.65625
y: -0.1796875
z: 1.052734375
range: 3.05038785934
velocity: 0.0
doppler_bin: 8
bearing: -3.86999511719
intensity: 32.0817260742
---
header: 
  seq: 16296
  stamp: 
    secs: 1561869337
    nsecs: 826654930
  frame_id: "ti_mmwave"
point_id: 12
x: 2.755859375
y: -0.08984375
z: 0.912109375
range: 3.09396481514
velocity: 0.0
doppler_bin: 8
bearing: -1.86723792553
intensity: 31.1025295258
---
header: 
  seq: 16297
  stamp: 
    secs: 1561869337
    nsecs: 826669905
  frame_id: "ti_mmwave"
point_id: 14
x: 0.041015625
y: -0.033203125
z: 0.0625
range: 0.0871539413929
velocity: 0.0
doppler_bin: 8
bearing: -38.9909973145
intensity: 30.0945091248
---
header: 
  seq: 16298
  stamp: 
    secs: 1561869337
    nsecs: 826681542
  frame_id: "ti_mmwave"
point_id: 15
x: 0.044921875
y: -0.046875
z: 0.103515625
range: 0.130730912089
velocity: 0.0
doppler_bin: 8
bearing: -46.218875885
intensity: 29.0091304779
---
header: 
  seq: 16299
  stamp: 
    secs: 1561869337
    nsecs: 885716129
  frame_id: "ti_mmwave"
point_id: 0
x: 0.01171875
y: -0.0390625
z: -0.0078125
range: 0.0435769706964
velocity: 0.0
doppler_bin: 8
bearing: -73.3007583618
intensity: 30.6557979584
---
header: 
  seq: 16300
  stamp: 
    secs: 1561869337
    nsecs: 885823899
  frame_id: "ti_mmwave"
point_id: 1
x: 0.017578125
y: -0.080078125
z: -0.0078125
range: 0.0871539413929
velocity: 0.0
doppler_bin: 8
bearing: -77.6192398071
intensity: 31.9061183929
---
header: 
  seq: 16301
  stamp: 
    secs: 1561869337
    nsecs: 885868508
  frame_id: "ti_mmwave"
point_id: 2
x: 0.029296875
y: -0.119140625
z: -0.005859375
range: 0.130730912089
velocity: 0.0
doppler_bin: 8
bearing: -76.1849746704
intensity: 30.1199302673
---
header: 
  seq: 16302
  stamp: 
    secs: 1561869337
    nsecs: 885884812
  frame_id: "ti_mmwave"
point_id: 3
x: 0.056640625
y: -0.154296875
z: 0.005859375
range: 0.174307882786
velocity: 0.0
doppler_bin: 8
bearing: -69.8423843384
intensity: 25.4530715942
---
header: 
  seq: 16303
  stamp: 
    secs: 1561869337
    nsecs: 885903980
  frame_id: "ti_mmwave"
point_id: 4
x: 0.14453125
y: -0.080078125
z: 1.2578125
range: 1.35088610649
velocity: 0.0
doppler_bin: 8
bearing: -28.9888248444
intensity: 23.1175384521
---
header: 
  seq: 16304
  stamp: 
    secs: 1561869337
    nsecs: 885984034
  frame_id: "ti_mmwave"
point_id: 5
x: 0.095703125
y: -0.08203125
z: 1.302734375
range: 1.39446306229
velocity: 0.0
doppler_bin: 8
bearing: -40.6012954712
intensity: 24.6389293671
---
header: 
  seq: 16305
  stamp: 
    secs: 1561869337
    nsecs: 886004353
  frame_id: "ti_mmwave"
point_id: 6
x: 0.3984375
y: -0.083984375
z: -1.287109375
range: 1.43804001808
velocity: 0.0
doppler_bin: 8
bearing: -11.9028120041
intensity: 23.0749607086
---
header: 
  seq: 16306
  stamp: 
    secs: 1561869337
    nsecs: 886018187
  frame_id: "ti_mmwave"
point_id: 7
x: 0.556640625
y: -0.04296875
z: -1.2734375
range: 1.48161697388
velocity: 0.0
doppler_bin: 8
bearing: -4.41407871246
intensity: 21.6731739044
---
header: 
  seq: 16307
  stamp: 
    secs: 1561869337
    nsecs: 886030202
  frame_id: "ti_mmwave"
point_id: 8
x: 1.837890625
y: -0.115234375
z: 0.03125
range: 1.96096372604
velocity: 0.0
doppler_bin: 8
bearing: -3.58770632744
intensity: 27.1011734009
---
header: 
  seq: 16308
  stamp: 
    secs: 1561869337
    nsecs: 886042186
  frame_id: "ti_mmwave"
point_id: 9
x: 1.876953125
y: -0.1171875
z: -0.025390625
range: 2.00454068184
velocity: 0.0
doppler_bin: 8
bearing: -3.57262253761
intensity: 28.1424751282
---
header: 
  seq: 16309
  stamp: 
    secs: 1561869337
    nsecs: 886054500
  frame_id: "ti_mmwave"
point_id: 10
x: 2.603515625
y: -0.17578125
z: 1.07421875
range: 3.00681090355
velocity: 0.0
doppler_bin: 8
bearing: -3.86257004738
intensity: 28.9153747559
---
header: 
  seq: 16310
  stamp: 
    secs: 1561869337
    nsecs: 886084446
  frame_id: "ti_mmwave"
point_id: 11
x: 2.689453125
y: -0.08984375
z: 0.98046875
range: 3.05038785934
velocity: 0.0
doppler_bin: 8
bearing: -1.91330885887
intensity: 32.1165428162
---
header: 
  seq: 16311
  stamp: 
    secs: 1561869337
    nsecs: 886138991
  frame_id: "ti_mmwave"
point_id: 12
x: 2.7578125
y: -0.08984375
z: 0.90625
range: 3.09396481514
velocity: 0.0
doppler_bin: 8
bearing: -1.86591637135
intensity: 31.1561050415
---
header: 
  seq: 16312
  stamp: 
    secs: 1561869337
    nsecs: 886156517
  frame_id: "ti_mmwave"
point_id: 13
x: 4.41015625
y: -0.142578125
z: 1.236328125
range: 4.88062095642
velocity: 0.0
doppler_bin: 8
bearing: -1.85169863701
intensity: 28.55519104
---
header: 
  seq: 16313
  stamp: 
    secs: 1561869337
    nsecs: 886191793
  frame_id: "ti_mmwave"
point_id: 15
x: 0.041015625
y: -0.033203125
z: 0.0625
range: 0.0871539413929
velocity: 0.0
doppler_bin: 8
bearing: -38.9909973145
intensity: 30.0987567902
---
header: 
  seq: 16314
  stamp: 
    secs: 1561869337
    nsecs: 886220438
  frame_id: "ti_mmwave"
point_id: 16
x: 0.044921875
y: -0.046875
z: 0.103515625
range: 0.130730912089
velocity: 0.0
doppler_bin: 8
bearing: -46.218875885
intensity: 29.0145835876
---
header: 
  seq: 16315
  stamp: 
    secs: 1561869337
    nsecs: 887103779
  frame_id: "ti_mmwave"
point_id: 0
x: 0.01171875
y: -0.0390625
z: -0.0078125
range: 0.0435769706964
velocity: 0.0
doppler_bin: 8
bearing: -73.3007583618
intensity: 30.6557979584
---
header: 
  seq: 16316
  stamp: 
    secs: 1561869337
    nsecs: 887166300
  frame_id: "ti_mmwave"
point_id: 1
x: 0.017578125
y: -0.080078125
z: -0.0078125
range: 0.0871539413929
velocity: 0.0
doppler_bin: 8
bearing: -77.6192398071
intensity: 31.9089164734
---
header: 
  seq: 16317
  stamp: 
    secs: 1561869337
    nsecs: 887182833
  frame_id: "ti_mmwave"
point_id: 2
x: 0.029296875
y: -0.119140625
z: -0.005859375
range: 0.130730912089
velocity: 0.0
doppler_bin: 8
bearing: -76.1849746704
intensity: 30.1241531372
---
header: 
  seq: 16318
  stamp: 
    secs: 1561869337
    nsecs: 887198692
  frame_id: "ti_mmwave"
point_id: 3
x: 0.056640625
y: -0.154296875
z: 0.005859375
range: 0.174307882786
velocity: 0.0
doppler_bin: 8
bearing: -69.8423843384
intensity: 25.4530715942
---
header: 
  seq: 16319
  stamp: 
    secs: 1561869337
    nsecs: 887277012
  frame_id: "ti_mmwave"
point_id: 4
x: 0.11328125
y: -0.080078125
z: 1.259765625
range: 1.35088610649
velocity: 0.0
doppler_bin: 8
bearing: -35.2563591003
intensity: 23.138671875
---
header: 
  seq: 16320
  stamp: 
    secs: 1561869337
    nsecs: 887296493
  frame_id: "ti_mmwave"
point_id: 6
x: 0.4140625
y: -0.083984375
z: -1.283203125
range: 1.43804001808
velocity: 0.0
doppler_bin: 8
bearing: -11.4657688141
intensity: 23.1175384521
---
header: 
  seq: 16321
  stamp: 
    secs: 1561869337
    nsecs: 887309960
  frame_id: "ti_mmwave"
point_id: 7
x: 0.58203125
y: -0.04296875
z: -1.26171875
range: 1.48161697388
velocity: 0.0
doppler_bin: 8
bearing: -4.22222995758
intensity: 21.7026176453
---
header: 
  seq: 16322
  stamp: 
    secs: 1561869337
    nsecs: 887322387
  frame_id: "ti_mmwave"
point_id: 8
x: 1.830078125
y: -0.0
z: -0.189453125
range: 1.96096372604
velocity: 0.0
doppler_bin: 8
bearing: -0.0
intensity: 31.4519634247
---
header: 
  seq: 16323
  stamp: 
    secs: 1561869337
    nsecs: 887334493
  frame_id: "ti_mmwave"
point_id: 9
x: 1.869140625
y: -0.0
z: -0.21875
range: 2.00454068184
velocity: 0.0
doppler_bin: 8
bearing: -0.0
intensity: 32.1192092896
---
header: 
  seq: 16324
  stamp: 
    secs: 1561869337
    nsecs: 887345659
  frame_id: "ti_mmwave"
point_id: 10
x: 1.908203125
y: -0.060546875
z: -0.232421875
range: 2.04811763763
velocity: 0.0
doppler_bin: 8
bearing: -1.81737291813
intensity: 28.7157287598
---
header: 
  seq: 16325
  stamp: 
    secs: 1561869337
    nsecs: 887361074
  frame_id: "ti_mmwave"
point_id: 11
x: 2.611328125
y: -0.17578125
z: 1.056640625
range: 3.00681090355
velocity: 0.0
doppler_bin: 8
bearing: -3.85104894638
intensity: 29.0417442322
---
header: 
  seq: 16326
  stamp: 
    secs: 1561869337
    nsecs: 887423258
  frame_id: "ti_mmwave"
point_id: 12
x: 2.68359375
y: -0.08984375
z: 0.9921875
range: 3.05038785934
velocity: 0.0
doppler_bin: 8
bearing: -1.91748321056
intensity: 32.1906051636
---
header: 
  seq: 16327
  stamp: 
    secs: 1561869337
    nsecs: 887440997
  frame_id: "ti_mmwave"
point_id: 13
x: 2.74609375
y: -0.08984375
z: 0.94140625
range: 3.09396481514
velocity: 0.0
doppler_bin: 8
bearing: -1.8738732338
intensity: 31.1958580017
---
header: 
  seq: 16328
  stamp: 
    secs: 1561869337
    nsecs: 887452855
  frame_id: "ti_mmwave"
point_id: 14
x: 4.41796875
y: -0.142578125
z: 1.205078125
range: 4.88062095642
velocity: 0.0
doppler_bin: 8
bearing: -1.84842634201
intensity: 31.4395103455
---
header: 
  seq: 16329
  stamp: 
    secs: 1561869337
    nsecs: 887465572
  frame_id: "ti_mmwave"
point_id: 15
x: 4.4609375
y: -0.14453125
z: 1.203125
range: 4.9241976738
velocity: 0.0
doppler_bin: 8
bearing: -1.85569405556
intensity: 31.3289985657
---
header: 
  seq: 16330
  stamp: 
    secs: 1561869337
    nsecs: 887481250
  frame_id: "ti_mmwave"
point_id: 17
x: 0.041015625
y: -0.033203125
z: 0.0625
range: 0.0871539413929
velocity: 0.0
doppler_bin: 8
bearing: -38.9909973145
intensity: 30.0945091248
---
header: 
  seq: 16331
  stamp: 
    secs: 1561869337
    nsecs: 887493946
  frame_id: "ti_mmwave"
point_id: 18
x: 0.044921875
y: -0.046875
z: 0.103515625
range: 0.130730912089
velocity: 0.0
doppler_bin: 8
bearing: -46.218875885
intensity: 29.0091304779
---
header: 
  seq: 16332
  stamp: 
    secs: 1561869337
    nsecs: 945751144
  frame_id: "ti_mmwave"
point_id: 0
x: 0.01171875
y: -0.0390625
z: -0.0078125
range: 0.0435769706964
velocity: 0.0
doppler_bin: 8
bearing: -73.3007583618
intensity: 30.6520614624
---
header: 
  seq: 16333
  stamp: 
    secs: 1561869337
    nsecs: 945846060
  frame_id: "ti_mmwave"
point_id: 1
x: 0.017578125
y: -0.080078125
z: -0.0078125
range: 0.0871539413929
velocity: 0.0
doppler_bin: 8
bearing: -77.6192398071
intensity: 31.9061183929
---
header: 
  seq: 16334
  stamp: 
    secs: 1561869337
    nsecs: 945863049
  frame_id: "ti_mmwave"
point_id: 2
x: 0.029296875
y: -0.119140625
z: -0.005859375
range: 0.130730912089
velocity: 0.0
doppler_bin: 8
bearing: -76.1849746704
intensity: 30.1157035828
---
header: 
  seq: 16335
  stamp: 
    secs: 1561869337
    nsecs: 945879568
  frame_id: "ti_mmwave"
point_id: 3
x: 0.056640625
y: -0.154296875
z: 0.005859375
range: 0.174307882786
velocity: 0.0
doppler_bin: 8
bearing: -69.8423843384
intensity: 25.4406795502
---
header: 
  seq: 16336
  stamp: 
    secs: 1561869337
    nsecs: 945893448
  frame_id: "ti_mmwave"
point_id: 4
x: 0.12109375
y: -0.080078125
z: 1.259765625
range: 1.35088610649
velocity: 0.0
doppler_bin: 8
bearing: -33.4762802124
intensity: 23.138671875
---
header: 
  seq: 16337
  stamp: 
    secs: 1561869337
    nsecs: 945922670
  frame_id: "ti_mmwave"
point_id: 6
x: 0.44921875
y: -0.083984375
z: -1.26953125
range: 1.43804001808
velocity: 0.0
doppler_bin: 8
bearing: -10.5895709991
intensity: 23.0535144806
---
header: 
  seq: 16338
  stamp: 
    secs: 1561869337
    nsecs: 946009685
  frame_id: "ti_mmwave"
point_id: 7
x: 2.59765625
y: -0.17578125
z: 1.087890625
range: 3.00681090355
velocity: 0.0
doppler_bin: 8
bearing: -3.87125635147
intensity: 28.9209461212
---
header: 
  seq: 16339
  stamp: 
    secs: 1561869337
    nsecs: 946025567
  frame_id: "ti_mmwave"
point_id: 8
x: 2.6796875
y: -0.08984375
z: 1.00390625
range: 3.05038785934
velocity: 0.0
doppler_bin: 8
bearing: -1.92027628422
intensity: 32.0411987305
---
header: 
  seq: 16340
  stamp: 
    secs: 1561869337
    nsecs: 946038711
  frame_id: "ti_mmwave"
point_id: 9
x: 2.736328125
y: -0.08984375
z: 0.96875
range: 3.09396481514
velocity: 0.0
doppler_bin: 8
bearing: -1.8805564642
intensity: 31.0174713135
---
header: 
  seq: 16341
  stamp: 
    secs: 1561869337
    nsecs: 946051703
  frame_id: "ti_mmwave"
point_id: 10
x: 4.41796875
y: -0.142578125
z: 1.203125
range: 4.88062095642
velocity: 0.0
doppler_bin: 8
bearing: -1.84842634201
intensity: 31.4581775665
---
header: 
  seq: 16342
  stamp: 
    secs: 1561869337
    nsecs: 946064865
  frame_id: "ti_mmwave"
point_id: 11
x: 4.458984375
y: -0.14453125
z: 1.2109375
range: 4.9241976738
velocity: 0.0
doppler_bin: 8
bearing: -1.85650622845
intensity: 31.3417701721
---
header: 
  seq: 16343
  stamp: 
    secs: 1561869337
    nsecs: 946079998
  frame_id: "ti_mmwave"
point_id: 13
x: 0.041015625
y: -0.033203125
z: 0.0625
range: 0.0871539413929
velocity: 0.0
doppler_bin: 8
bearing: -38.9909973145
intensity: 30.0945091248
---
header: 
  seq: 16344
  stamp: 
    secs: 1561869337
    nsecs: 946093668
  frame_id: "ti_mmwave"
point_id: 14
x: 0.044921875
y: -0.046875
z: 0.103515625
range: 0.130730912089
velocity: 0.0
doppler_bin: 8
bearing: -46.218875885
intensity: 29.0145835876
---
header: 
  seq: 16345
  stamp: 
    secs: 1561869337
    nsecs: 946873832
  frame_id: "ti_mmwave"
point_id: 0
x: 0.01171875
y: -0.0390625
z: -0.0078125
range: 0.0435769706964
velocity: 0.0
doppler_bin: 8
bearing: -73.3007583618
intensity: 30.6520614624
---
header: 
  seq: 16346
  stamp: 
    secs: 1561869337
    nsecs: 946930275
  frame_id: "ti_mmwave"
point_id: 1
x: 0.017578125
y: -0.080078125
z: -0.0078125
range: 0.0871539413929
velocity: 0.0
doppler_bin: 8
bearing: -77.6192398071
intensity: 31.9033164978
---
header: 
  seq: 16347
  stamp: 
    secs: 1561869337
    nsecs: 946941776
  frame_id: "ti_mmwave"
point_id: 2
x: 0.029296875
y: -0.119140625
z: -0.005859375
range: 0.130730912089
velocity: 0.0
doppler_bin: 8
bearing: -76.1849746704
intensity: 30.1157035828
---
header: 
  seq: 16348
  stamp: 
    secs: 1561869337
    nsecs: 946952589
  frame_id: "ti_mmwave"
point_id: 3
x: 0.056640625
y: -0.154296875
z: 0.005859375
range: 0.174307882786
velocity: 0.0
doppler_bin: 8
bearing: -69.8423843384
intensity: 25.4282550812
---
header: 
  seq: 16349
  stamp: 
    secs: 1561869337
    nsecs: 946961639
  frame_id: "ti_mmwave"
point_id: 4
x: 0.134765625
y: -0.080078125
z: 1.2578125
range: 1.35088610649
velocity: 0.0
doppler_bin: 8
