header: 
  seq: 1643601
  stamp: 
    secs: 1561868800
    nsecs: 495865293
  frame_id: "ti_mmwave"
point_id: 0
x: 0.01171875
y: -0.0390625
z: -0.0078125
range: 0.0435769706964
velocity: 0.0
doppler_bin: 8
bearing: -73.3007583618
intensity: 30.6408348083
---
header: 
  seq: 1643602
  stamp: 
    secs: 1561868800
    nsecs: 495932555
  frame_id: "ti_mmwave"
point_id: 1
x: 0.017578125
y: -0.080078125
z: -0.0078125
range: 0.0871539413929
velocity: 0.0
doppler_bin: 8
bearing: -77.6192398071
intensity: 31.8977088928
---
header: 
  seq: 1643603
  stamp: 
    secs: 1561868800
    nsecs: 495973716
  frame_id: "ti_mmwave"
point_id: 2
x: 0.029296875
y: -0.119140625
z: -0.005859375
range: 0.130730912089
velocity: 0.0
doppler_bin: 8
bearing: -76.1849746704
intensity: 30.1114730835
---
header: 
  seq: 1643604
  stamp: 
    secs: 1561868800
    nsecs: 495992387
  frame_id: "ti_mmwave"
point_id: 3
x: 0.056640625
y: -0.154296875
z: 0.005859375
range: 0.174307882786
velocity: 0.0
doppler_bin: 8
bearing: -69.8423843384
intensity: 25.4282550812
---
header: 
  seq: 1643605
  stamp: 
    secs: 1561868800
    nsecs: 496003280
  frame_id: "ti_mmwave"
point_id: 4
x: 0.154296875
y: -0.080078125
z: 1.255859375
range: 1.35088610649
velocity: 0.0
doppler_bin: 8
bearing: -27.4287414551
intensity: 23.1175384521
---
header: 
  seq: 1643606
  stamp: 
    secs: 1561868800
    nsecs: 496012059
  frame_id: "ti_mmwave"
point_id: 5
x: 0.064453125
y: -0.08203125
z: 1.3046875
range: 1.39446306229
velocity: 0.0
doppler_bin: 8
bearing: -51.8427734375
intensity: 24.6239795685
---
header: 
  seq: 1643607
  stamp: 
    secs: 1561868800
    nsecs: 496021464
  frame_id: "ti_mmwave"
point_id: 6
x: 0.3984375
y: -0.083984375
z: -1.287109375
range: 1.43804001808
velocity: 0.0
doppler_bin: 8
bearing: -11.9028120041
intensity: 23.0535144806
---
header: 
  seq: 1643608
  stamp: 
    secs: 1561868800
    nsecs: 496030375
  frame_id: "ti_mmwave"
point_id: 7
x: 1.75390625
y: -0.0546875
z: -0.125
range: 1.87380969524
velocity: 0.0
doppler_bin: 8
bearing: -1.78592669964
intensity: 30.1870040894
---
header: 
  seq: 1643609
  stamp: 
    secs: 1561868800
    nsecs: 496039625
  frame_id: "ti_mmwave"
point_id: 8
x: 1.787109375
y: -0.056640625
z: -0.201171875
range: 1.91738677025
velocity: 0.0
doppler_bin: 8
bearing: -1.81532406807
intensity: 31.1527767181
---
header: 
  seq: 1643610
  stamp: 
    secs: 1561868800
    nsecs: 496048293
  frame_id: "ti_mmwave"
point_id: 9
x: 1.9140625
y: -0.1796875
z: 0.052734375
range: 2.04811763763
velocity: 0.0
doppler_bin: 8
bearing: -5.3630695343
intensity: 28.3058872223
---
header: 
  seq: 1643611
  stamp: 
    secs: 1561868800
    nsecs: 496060056
  frame_id: "ti_mmwave"
point_id: 10
x: 2.669921875
y: -0.087890625
z: 0.912109375
range: 3.00681090355
velocity: 0.0
doppler_bin: 8
bearing: -1.88542735577
intensity: 29.0091304779
---
header: 
  seq: 1643612
  stamp: 
    secs: 1561868800
    nsecs: 496208955
  frame_id: "ti_mmwave"
point_id: 11
x: 2.7109375
y: -0.08984375
z: 0.919921875
range: 3.05038785934
velocity: 0.0
doppler_bin: 8
bearing: -1.89815676212
intensity: 32.1984634399
---
header: 
  seq: 1643613
  stamp: 
    secs: 1561868800
    nsecs: 496228530
  frame_id: "ti_mmwave"
point_id: 12
x: 2.77734375
y: -0.08984375
z: 0.845703125
range: 3.09396481514
velocity: 0.0
doppler_bin: 8
bearing: -1.85280382633
intensity: 31.2613143921
---
header: 
  seq: 1643614
  stamp: 
    secs: 1561868800
    nsecs: 496237312
  frame_id: "ti_mmwave"
point_id: 13
x: 1.849609375
y: -0.17578125
z: 0.296875
range: 2.00454068184
velocity: 0.614668667316
doppler_bin: 9
bearing: -5.42891120911
intensity: 27.032913208
---
header: 
  seq: 1643615
  stamp: 
    secs: 1561868800
    nsecs: 496247172
  frame_id: "ti_mmwave"
point_id: 14
x: 1.732421875
y: -0.705078125
z: 0.19921875
range: 2.00454068184
velocity: -1.84400606155
doppler_bin: 5
bearing: -22.1458244324
intensity: 21.0380363464
---
header: 
  seq: 1643616
  stamp: 
    secs: 1561868800
    nsecs: 496259064
  frame_id: "ti_mmwave"
point_id: 17
x: 1.755859375
y: -0.056640625
z: -0.548828125
range: 1.96096372604
velocity: -0.614668667316
doppler_bin: 7
bearing: -1.847610116
intensity: 27.8103694916
---
header: 
  seq: 1643617
  stamp: 
    secs: 1561868800
    nsecs: 496269621
  frame_id: "ti_mmwave"
point_id: 19
x: 0.041015625
y: -0.033203125
z: 0.0625
range: 0.0871539413929
velocity: 0.0
doppler_bin: 8
bearing: -38.9909973145
intensity: 30.0902576447
---
header: 
  seq: 1643618
  stamp: 
    secs: 1561868800
    nsecs: 496278253
  frame_id: "ti_mmwave"
point_id: 20
x: 0.044921875
y: -0.046875
z: 0.103515625
range: 0.130730912089
velocity: 0.0
doppler_bin: 8
bearing: -46.218875885
intensity: 29.0091304779
---
header: 
  seq: 1643619
  stamp: 
    secs: 1561868800
    nsecs: 496288196
  frame_id: "ti_mmwave"
point_id: 22
x: 1.806640625
y: 0.529296875
z: 0.0
range: 2.00454068184
velocity: -1.84400606155
doppler_bin: 5
bearing: 16.329158783
intensity: 18.1954402924
---
header: 
  seq: 1643620
  stamp: 
    secs: 1561868800
    nsecs: 496298753
  frame_id: "ti_mmwave"
point_id: 23
x: 1.087890625
y: -0.80078125
z: -1.900390625
range: 2.48388743401
velocity: -1.84400606155
doppler_bin: 5
bearing: -36.3562698364
intensity: 19.9122600555
---
header: 
  seq: 1643621
  stamp: 
    secs: 1561868800
    nsecs: 496311946
  frame_id: "ti_mmwave"
point_id: 24
x: 1.017578125
y: -0.81640625
z: -1.982421875
range: 2.5274643898
velocity: -1.84400606155
doppler_bin: 5
bearing: -38.7401847839
intensity: 20.6818580627
---
header: 
  seq: 1643622
  stamp: 
    secs: 1561868800
    nsecs: 555991827
  frame_id: "ti_mmwave"
point_id: 0
x: 0.01171875
y: -0.0390625
z: -0.0078125
range: 0.0435769706964
velocity: 0.0
doppler_bin: 8
bearing: -73.3007583618
intensity: 30.6408348083
---
header: 
  seq: 1643623
  stamp: 
    secs: 1561868800
    nsecs: 556072002
  frame_id: "ti_mmwave"
point_id: 1
x: 0.017578125
y: -0.080078125
z: -0.0078125
range: 0.0871539413929
velocity: 0.0
doppler_bin: 8
bearing: -77.6192398071
intensity: 31.9005146027
---
header: 
  seq: 1643624
  stamp: 
    secs: 1561868800
    nsecs: 556083186
  frame_id: "ti_mmwave"
point_id: 2
x: 0.029296875
y: -0.119140625
z: -0.005859375
range: 0.130730912089
velocity: 0.0
doppler_bin: 8
bearing: -76.1849746704
intensity: 30.1157035828
---
header: 
  seq: 1643625
  stamp: 
    secs: 1561868800
    nsecs: 556091495
  frame_id: "ti_mmwave"
point_id: 3
x: 0.056640625
y: -0.154296875
z: 0.0078125
range: 0.174307882786
velocity: 0.0
doppler_bin: 8
bearing: -69.8423843384
intensity: 25.4406795502
---
header: 
  seq: 1643626
  stamp: 
    secs: 1561868800
    nsecs: 556100240
  frame_id: "ti_mmwave"
point_id: 4
x: 0.15234375
y: -0.080078125
z: 1.255859375
range: 1.35088610649
velocity: 0.0
doppler_bin: 8
bearing: -27.7282581329
intensity: 23.1175384521
---
header: 
  seq: 1643627
  stamp: 
    secs: 1561868800
    nsecs: 556110090
  frame_id: "ti_mmwave"
point_id: 6
x: 0.408203125
y: -0.083984375
z: -1.283203125
range: 1.43804001808
velocity: 0.0
doppler_bin: 8
bearing: -11.6258993149
intensity: 23.0963020325
---
header: 
  seq: 1643628
  stamp: 
    secs: 1561868800
    nsecs: 556118437
  frame_id: "ti_mmwave"
point_id: 7
x: 1.708984375
y: -0.052734375
z: -0.1640625
range: 1.83023273945
velocity: 0.0
doppler_bin: 8
bearing: -1.76742315292
intensity: 29.1328392029
---
header: 
  seq: 1643629
  stamp: 
    secs: 1561868800
    nsecs: 556126916
  frame_id: "ti_mmwave"
point_id: 8
x: 1.751953125
y: -0.0546875
z: -0.1484375
range: 1.87380969524
velocity: 0.0
doppler_bin: 8
bearing: -1.78791642189
intensity: 31.8412342072
---
header: 
  seq: 1643630
  stamp: 
    secs: 1561868800
    nsecs: 556136237
  frame_id: "ti_mmwave"
point_id: 9
x: 1.798828125
y: -0.056640625
z: -0.056640625
range: 1.91738677025
velocity: 0.0
doppler_bin: 8
bearing: -1.8035056591
intensity: 31.2872219086
---
header: 
  seq: 1643631
  stamp: 
    secs: 1561868800
    nsecs: 556145940
  frame_id: "ti_mmwave"
point_id: 10
x: 1.83203125
y: -0.115234375
z: 0.126953125
range: 1.96096372604
velocity: 0.0
doppler_bin: 8
bearing: -3.59915065765
intensity: 29.4694328308
---
header: 
  seq: 1643632
  stamp: 
    secs: 1561868800
    nsecs: 556154289
  frame_id: "ti_mmwave"
point_id: 11
x: 1.869140625
y: -0.17578125
z: 0.1328125
range: 2.00454068184
velocity: 0.0
doppler_bin: 8
bearing: -5.37251615524
intensity: 29.3751792908
---
header: 
  seq: 1643633
  stamp: 
    secs: 1561868800
    nsecs: 556162786
  frame_id: "ti_mmwave"
point_id: 12
x: 1.88671875
y: -0.361328125
z: 0.1015625
range: 2.04811763763
velocity: 0.0
doppler_bin: 8
bearing: -10.8415231705
intensity: 29.6567192078
---
header: 
  seq: 1643634
  stamp: 
    secs: 1561868800
    nsecs: 556171169
  frame_id: "ti_mmwave"
point_id: 13
x: 1.927734375
y: -0.3671875
z: 0.009765625
range: 2.09169459343
velocity: 0.0
doppler_bin: 8
bearing: -10.7842979431
intensity: 27.7597427368
---
header: 
  seq: 1643635
  stamp: 
    secs: 1561868800
    nsecs: 556179607
  frame_id: "ti_mmwave"
point_id: 14
x: 2.625
y: -0.17578125
z: 1.021484375
range: 3.00681090355
velocity: 0.0
doppler_bin: 8
bearing: -3.83105134964
intensity: 29.0417442322
---
header: 
  seq: 1643636
  stamp: 
    secs: 1561868800
    nsecs: 556188009
  frame_id: "ti_mmwave"
point_id: 15
x: 2.669921875
y: -0.1796875
z: 1.017578125
range: 3.05038785934
velocity: 0.0
doppler_bin: 8
bearing: -3.85023736954
intensity: 32.2505073547
---
header: 
  seq: 1643637
  stamp: 
    secs: 1561868800
    nsecs: 556342570
  frame_id: "ti_mmwave"
point_id: 16
x: 2.763671875
y: -0.08984375
z: 0.88671875
range: 3.09396481514
velocity: 0.0
doppler_bin: 8
bearing: -1.8619633913
intensity: 31.2968997955
---
header: 
  seq: 1643638
  stamp: 
    secs: 1561868800
    nsecs: 556366166
  frame_id: "ti_mmwave"
point_id: 18
x: 0.041015625
y: -0.033203125
z: 0.0625
range: 0.0871539413929
velocity: 0.0
doppler_bin: 8
bearing: -38.9909973145
intensity: 30.0902576447
---
header: 
  seq: 1643639
  stamp: 
    secs: 1561868800
    nsecs: 556374384
  frame_id: "ti_mmwave"
point_id: 19
x: 0.044921875
y: -0.046875
z: 0.103515625
range: 0.130730912089
velocity: 0.0
doppler_bin: 8
bearing: -46.218875885
intensity: 29.0091304779
---
header: 
  seq: 1643640
  stamp: 
    secs: 1561868800
    nsecs: 557210108
  frame_id: "ti_mmwave"
point_id: 0
x: 0.01171875
y: -0.0390625
z: -0.0078125
range: 0.0435769706964
velocity: 0.0
doppler_bin: 8
bearing: -73.3007583618
intensity: 30.6370849609
---
header: 
  seq: 1643641
  stamp: 
    secs: 1561868800
    nsecs: 557264423
  frame_id: "ti_mmwave"
point_id: 1
x: 0.017578125
y: -0.080078125
z: -0.0078125
range: 0.0871539413929
velocity: 0.0
doppler_bin: 8
bearing: -77.6192398071
intensity: 31.9005146027
---
header: 
  seq: 1643642
  stamp: 
    secs: 1561868800
    nsecs: 557283082
  frame_id: "ti_mmwave"
point_id: 2
x: 0.029296875
y: -0.119140625
z: -0.005859375
range: 0.130730912089
velocity: 0.0
doppler_bin: 8
bearing: -76.1849746704
intensity: 30.1157035828
---
header: 
  seq: 1643643
  stamp: 
    secs: 1561868800
    nsecs: 557296369
  frame_id: "ti_mmwave"
point_id: 3
x: 0.056640625
y: -0.154296875
z: 0.0078125
range: 0.174307882786
velocity: 0.0
doppler_bin: 8
bearing: -69.8423843384
intensity: 25.4530715942
---
header: 
  seq: 1643644
  stamp: 
    secs: 1561868800
    nsecs: 557309477
  frame_id: "ti_mmwave"
point_id: 4
x: 0.16015625
y: -0.080078125
z: 1.255859375
range: 1.35088610649
velocity: 0.0
doppler_bin: 8
bearing: -26.5650501251
intensity: 23.1597042084
---
header: 
  seq: 1643645
  stamp: 
    secs: 1561868800
    nsecs: 557392548
  frame_id: "ti_mmwave"
point_id: 5
x: 0.009765625
y: -0.08203125
z: 1.306640625
range: 1.39446306229
velocity: 0.0
doppler_bin: 8
bearing: -83.2110290527
intensity: 24.683473587
---
header: 
  seq: 1643646
  stamp: 
    secs: 1561868800
    nsecs: 557408720
  frame_id: "ti_mmwave"
point_id: 6
x: 0.408203125
y: -0.083984375
z: -1.283203125
range: 1.43804001808
velocity: 0.0
doppler_bin: 8
bearing: -11.6258993149
intensity: 23.1597042084
---
header: 
  seq: 1643647
  stamp: 
    secs: 1561868800
    nsecs: 557422190
  frame_id: "ti_mmwave"
point_id: 7
x: 0.55078125
y: -0.04296875
z: -1.27734375
range: 1.48161697388
velocity: 0.0
doppler_bin: 8
bearing: -4.46084880829
intensity: 21.7897701263
---
header: 
  seq: 1643648
  stamp: 
    secs: 1561868800
    nsecs: 557434044
  frame_id: "ti_mmwave"
point_id: 8
x: 1.705078125
y: -0.052734375
z: -0.1953125
range: 1.83023273945
velocity: 0.0
doppler_bin: 8
bearing: -1.77146971226
intensity: 31.058506012
---
header: 
  seq: 1643649
  stamp: 
    secs: 1561868800
    nsecs: 557445798
  frame_id: "ti_mmwave"
point_id: 9
x: 1.75
y: -0.0546875
z: -0.169921875
range: 1.87380969524
velocity: 0.0
doppler_bin: 8
bearing: -1.7899106741
intensity: 33.9724464417
---
header: 
  seq: 1643650
  stamp: 
    secs: 1561868800
    nsecs: 557534577
  frame_id: "ti_mmwave"
point_id: 10
x: 1.796875
y: -0.0
z: -0.109375
range: 1.91738677025
velocity: 0.0
doppler_bin: 8
bearing: -0.0
intensity: 33.8075370789
---
header: 
  seq: 1643651
  stamp: 
    secs: 1561868800
    nsecs: 557552091
  frame_id: "ti_mmwave"
point_id: 11
x: 1.83984375
y: -0.0
z: 0.046875
range: 1.96096372604
velocity: 0.0
doppler_bin: 8
bearing: -0.0
intensity: 31.4238948822
---
header: 
  seq: 1643652
  stamp: 
    secs: 1561868800
    nsecs: 557566644
  frame_id: "ti_mmwave"
point_id: 12
x: 1.853515625
y: 0.05859375
z: 0.322265625
range: 2.00454068184
velocity: 0.0
doppler_bin: 8
bearing: 1.81064403057
intensity: 27.9795970917
---
header: 
  seq: 1643653
  stamp: 
    secs: 1561868800
    nsecs: 557580440
  frame_id: "ti_mmwave"
point_id: 13
x: 1.857421875
y: -0.419921875
z: 0.265625
range: 2.04811763763
velocity: 0.0
doppler_bin: 8
bearing: -12.73914814
intensity: 27.4429302216
---
header: 
  seq: 1643654
  stamp: 
    secs: 1561868800
    nsecs: 557595377
  frame_id: "ti_mmwave"
point_id: 14
x: 2.619140625
y: -0.17578125
z: 1.037109375
range: 3.00681090355
velocity: 0.0
doppler_bin: 8
bearing: -3.83959650993
intensity: 29.0633506775
---
header: 
  seq: 1643655
  stamp: 
    secs: 1561868800
    nsecs: 557628836
  frame_id: "ti_mmwave"
point_id: 15
x: 2.689453125
y: -0.08984375
z: 0.978515625
range: 3.05038785934
velocity: 0.0
doppler_bin: 8
bearing: -1.91330885887
intensity: 32.2427406311
---
header: 
  seq: 1643656
  stamp: 
    secs: 1561868800
    nsecs: 557652746
  frame_id: "ti_mmwave"
point_id: 16
x: 2.75390625
y: -0.08984375
z: 0.919921875
range: 3.09396481514
velocity: 0.0
doppler_bin: 8
bearing: -1.86856126785
intensity: 31.3289985657
---
header: 
  seq: 1643657
  stamp: 
    secs: 1561868800
    nsecs: 557754640
  frame_id: "ti_mmwave"
point_id: 18
x: 0.041015625
y: -0.033203125
z: 0.0625
range: 0.0871539413929
velocity: 0.0
doppler_bin: 8
bearing: -38.9909973145
intensity: 30.0945091248
---
header: 
  seq: 1643658
  stamp: 
    secs: 1561868800
    nsecs: 557776871
  frame_id: "ti_mmwave"
point_id: 19
x: 0.044921875
y: -0.046875
z: 0.103515625
range: 0.130730912089
velocity: 0.0
doppler_bin: 8
bearing: -46.218875885
intensity: 29.0091304779
---
header: 
  seq: 1643659
  stamp: 
    secs: 1561868800
    nsecs: 557791738
  frame_id: "ti_mmwave"
point_id: 21
x: 1.099609375
y: -0.587890625
z: -1.408203125
range: 2.00454068184
velocity: 0.0
doppler_bin: 8
bearing: -28.1305599213
intensity: 26.9897003174
---
header: 
  seq: 1643660
  stamp: 
    secs: 1561868800
    nsecs: 615995020
  frame_id: "ti_mmwave"
point_id: 0
x: 0.01171875
y: -0.0390625
z: -0.0078125
range: 0.0435769706964
velocity: 0.0
doppler_bin: 8
bearing: -73.3007583618
intensity: 30.6445808411
---
header: 
  seq: 1643661
  stamp: 
    secs: 1561868800
    nsecs: 616074471
  frame_id: "ti_mmwave"
point_id: 1
x: 0.017578125
y: -0.080078125
z: -0.0078125
range: 0.0871539413929
velocity: 0.0
doppler_bin: 8
bearing: -77.6192398071
intensity: 31.8977088928
---
header: 
  seq: 1643662
  stamp: 
    secs: 1561868800
    nsecs: 616086245
  frame_id: "ti_mmwave"
point_id: 2
x: 0.029296875
y: -0.119140625
z: -0.005859375
range: 0.130730912089
velocity: 0.0
doppler_bin: 8
bearing: -76.1849746704
intensity: 30.1114730835
---
header: 
  seq: 1643663
  stamp: 
    secs: 1561868800
    nsecs: 616094880
  frame_id: "ti_mmwave"
point_id: 3
x: 0.056640625
y: -0.154296875
z: 0.005859375
range: 0.174307882786
velocity: 0.0
doppler_bin: 8
bearing: -69.8423843384
intensity: 25.4282550812
---
header: 
  seq: 1643664
  stamp: 
    secs: 1561868800
    nsecs: 616103576
  frame_id: "ti_mmwave"
point_id: 4
x: 0.146484375
y: -0.080078125
z: 1.2578125
range: 1.35088610649
velocity: 0.0
doppler_bin: 8
bearing: -28.6639575958
intensity: 23.138671875
---
header: 
  seq: 1643665
  stamp: 
    secs: 1561868800
    nsecs: 616113557
  frame_id: "ti_mmwave"
point_id: 6
x: 0.40234375
y: -0.083984375
z: -1.28515625
range: 1.43804001808
velocity: 0.0
doppler_bin: 8
bearing: -11.7905015945
intensity: 23.0963020325
---
header: 
  seq: 1643666
  stamp: 
    secs: 1561868800
    nsecs: 616123254
  frame_id: "ti_mmwave"
point_id: 7
x: 0.560546875
y: -0.04296875
z: -1.271484375
range: 1.48161697388
velocity: 0.0
doppler_bin: 8
bearing: -4.38343858719
intensity: 21.7026176453
---
header: 
  seq: 1643667
  stamp: 
    secs: 1561868800
    nsecs: 616133029
  frame_id: "ti_mmwave"
point_id: 8
x: 1.708984375
y: -0.052734375
z: -0.16015625
range: 1.83023273945
velocity: 0.0
doppler_bin: 8
bearing: -1.76742315292
intensity: 28.7909584045
---
header: 
  seq: 1643668
  stamp: 
    secs: 1561868800
    nsecs: 616142076
  frame_id: "ti_mmwave"
point_id: 9
x: 1.75390625
y: -0.0546875
z: -0.12890625
range: 1.87380969524
velocity: 0.0
doppler_bin: 8
bearing: -1.78592669964
intensity: 31.1394329071
---
header: 
  seq: 1643669
  stamp: 
    secs: 1561868800
    nsecs: 616149966
  frame_id: "ti_mmwave"
point_id: 10
x: 1.798828125
y: -0.056640625
z: -0.01953125
range: 1.91738677025
velocity: 0.0
doppler_bin: 8
bearing: -1.8035056591
intensity: 30.9307136536
---
header: 
  seq: 1643670
  stamp: 
    secs: 1561868800
    nsecs: 616157868
  frame_id: "ti_mmwave"
point_id: 11
x: 1.83984375
y: -0.0
z: 0.072265625
range: 1.96096372604
velocity: 0.0
doppler_bin: 8
bearing: -0.0
intensity: 29.8272342682
---
header: 
  seq: 1643671
  stamp: 
    secs: 1561868800
    nsecs: 616166038
  frame_id: "ti_mmwave"
point_id: 12
x: 1.875
y: -0.1171875
z: 0.103515625
range: 2.00454068184
velocity: 0.0
doppler_bin: 8
bearing: -3.57633447647
intensity: 28.8024177551
---
header: 
  seq: 1643672
  stamp: 
    secs: 1561868800
    nsecs: 616174270
  frame_id: "ti_mmwave"
point_id: 13
x: 1.912109375
y: -0.1796875
z: 0.0859375
range: 2.04811763763
velocity: 0.0
doppler_bin: 8
bearing: -5.36851549149
intensity: 28.1291332245
---
header: 
  seq: 1643673
  stamp: 
    secs: 1561868800
    nsecs: 616184026
  frame_id: "ti_mmwave"
point_id: 15
x: 0.41015625
y: -2.45703125
z: -0.4765625
range: 2.70177221298
velocity: 0.0
doppler_bin: 8
bearing: -80.5229034424
intensity: 25.1719589233
---
header: 
  seq: 1643674
  stamp: 
    secs: 1561868800
    nsecs: 616193387
  frame_id: "ti_mmwave"
point_id: 16
x: 2.61328125
y: -0.17578125
z: 1.052734375
range: 3.00681090355
velocity: 0.0
doppler_bin: 8
bearing: -3.84817934036
intensity: 29.1328392029
---
header: 
  seq: 1643675
  stamp: 
    secs: 1561868800
    nsecs: 616201416
  frame_id: "ti_mmwave"
point_id: 17
x: 2.68359375
y: -0.08984375
z: 0.99609375
range: 3.05038785934
velocity: 0.0
doppler_bin: 8
bearing: -1.91748321056
intensity: 32.2608413696
---
header: 
  seq: 1643676
  stamp: 
    secs: 1561868800
    nsecs: 616211765
  frame_id: "ti_mmwave"
point_id: 18
x: 2.748046875
y: -0.08984375
z: 0.9375
range: 3.09396481514
velocity: 0.0
doppler_bin: 8
bearing: -1.8725425005
intensity: 31.222158432
---
header: 
  seq: 1643677
  stamp: 
    secs: 1561868800
    nsecs: 616237539
  frame_id: "ti_mmwave"
point_id: 20
x: 0.041015625
y: -0.033203125
z: 0.0625
range: 0.0871539413929
velocity: 0.0
doppler_bin: 8
bearing: -38.9909973145
intensity: 30.0945091248
---
header: 
  seq: 1643678
  stamp: 
    secs: 1561868800
    nsecs: 616252144
  frame_id: "ti_mmwave"
point_id: 21
x: 0.044921875
y: -0.046875
z: 0.103515625
range: 0.130730912089
velocity: 0.0
doppler_bin: 8
bearing: -46.218875885
intensity: 29.0091304779
---
header: 
  seq: 1643679
  stamp: 
    secs: 1561868800
    nsecs: 616267345
  frame_id: "ti_mmwave"
point_id: 24
x: 1.09765625
y: -0.634765625
z: 2.197265625
range: 2.70177221298
velocity: 0.0
doppler_bin: 8
bearing: -30.0404453278
intensity: 23.5983543396
---
header: 
  seq: 1643680
  stamp: 
    secs: 1561868800
    nsecs: 617044863
  frame_id: "ti_mmwave"
point_id: 0
x: 0.01171875
y: -0.0390625
z: -0.0078125
range: 0.0435769706964
velocity: 0.0
doppler_bin: 8
bearing: -73.3007583618
intensity: 30.6445808411
---
header: 
  seq: 1643681
  stamp: 
    secs: 1561868800
    nsecs: 617096982
  frame_id: "ti_mmwave"
point_id: 1
x: 0.017578125
y: -0.080078125
z: -0.0078125
range: 0.0871539413929
velocity: 0.0
doppler_bin: 8
bearing: -77.6192398071
intensity: 31.9005146027
---
header: 
  seq: 1643682
  stamp: 
    secs: 1561868800
    nsecs: 617112530
  frame_id: "ti_mmwave"
point_id: 2
x: 0.029296875
y: -0.119140625
z: -0.005859375
range: 0.130730912089
velocity: 0.0
doppler_bin: 8
bearing: -76.1849746704
intensity: 30.1114730835
---
header: 
  seq: 1643683
  stamp: 
    secs: 1561868800
    nsecs: 617125466
  frame_id: "ti_mmwave"
point_id: 3
x: 0.056640625
y: -0.154296875
z: 0.0078125
range: 0.174307882786
velocity: 0.0
doppler_bin: 8
bearing: -69.8423843384
intensity: 25.4406795502
---
header: 
  seq: 1643684
  stamp: 
    secs: 1561868800
    nsecs: 617138258
  frame_id: "ti_mmwave"
point_id: 4
x: 0.134765625
y: -0.080078125
z: 1.2578125
range: 1.35088610649
velocity: 0.0
doppler_bin: 8
bearing: -30.7189025879
intensity: 23.138671875
---
header: 
  seq: 1643685
  stamp: 
    secs: 1561868800
    nsecs: 617150416
  frame_id: "ti_mmwave"
point_id: 6
x: 0.42578125
y: -0.083984375
z: -1.27734375
range: 1.43804001808
velocity: 0.0
doppler_bin: 8
bearing: -11.1582231522
intensity: 23.0963020325
---
header: 
  seq: 1643686
  stamp: 
    secs: 1561868800
    nsecs: 617193662
  frame_id: "ti_mmwave"
point_id: 7
x: 0.587890625
y: -0.04296875
z: -1.259765625
range: 1.48161697388
velocity: 0.0
doppler_bin: 8
bearing: -4.1802983284
intensity: 21.7318630219
---
header: 
  seq: 1643687
  stamp: 
    secs: 1561868800
    nsecs: 617202809
  frame_id: "ti_mmwave"
point_id: 8
x: 1.77734375
y: -0.171875
z: 0.4453125
range: 1.96096372604
velocity: 0.0
doppler_bin: 8
bearing: -5.52351570129
intensity: 27.2263393402
---
header: 
  seq: 1643688
  stamp: 
    secs: 1561868800
    nsecs: 617210483
  frame_id: "ti_mmwave"
point_id: 9
x: 1.8359375
y: -0.234375
z: 0.33984375
range: 2.00454068184
velocity: 0.0
doppler_bin: 8
bearing: -7.27500534058
intensity: 28.4135951996
---
header: 
  seq: 1643689
  stamp: 
    secs: 1561868800
    nsecs: 617219438
  frame_id: "ti_mmwave"
point_id: 10
x: 1.8984375
y: -0.1796875
z: 0.240234375
range: 2.04811763763
velocity: 0.0
doppler_bin: 8
bearing: -5.40694952011
intensity: 27.5204849243
---
header: 
  seq: 1643690
  stamp: 
    secs: 1561868800
    nsecs: 617227596
  frame_id: "ti_mmwave"
point_id: 11
x: 2.61328125
y: -0.17578125
z: 1.052734375
range: 3.00681090355
velocity: 0.0
doppler_bin: 8
bearing: -3.84817934036
intensity: 29.4051647186
---
header: 
  seq: 1643691
  stamp: 
    secs: 1561868800
    nsecs: 617235172
  frame_id: "ti_mmwave"
point_id: 12
x: 2.658203125
y: -0.1796875
z: 1.048828125
range: 3.05038785934
velocity: 0.0
doppler_bin: 8
bearing: -3.86716008186
intensity: 32.3879852295
---
header: 
  seq: 1643692
  stamp: 
    secs: 1561868800
    nsecs: 617243046
  frame_id: "ti_mmwave"
point_id: 13
x: 2.75390625
y: -0.08984375
z: 0.916015625
range: 3.09396481514
velocity: 0.0
doppler_bin: 8
bearing: -1.86856126785
intensity: 31.3353881836
---
header: 
  seq: 1643693
  stamp: 
    secs: 1561868800
    nsecs: 617254089
  frame_id: "ti_mmwave"
point_id: 15
x: 0.041015625
y: -0.033203125
z: 0.0625
range: 0.0871539413929
velocity: 0.0
doppler_bin: 8
bearing: -38.9909973145
intensity: 30.0860023499
---
header: 
  seq: 1643694
  stamp: 
    secs: 1561868800
    nsecs: 617262451
  frame_id: "ti_mmwave"
point_id: 16
x: 0.044921875
y: -0.046875
z: 0.103515625
range: 0.130730912089
velocity: 0.0
doppler_bin: 8
bearing: -46.218875885
intensity: 28.9982051849
---
header: 
  seq: 1643695
  stamp: 
    secs: 1561868800
    nsecs: 617272596
  frame_id: "ti_mmwave"
point_id: 18
x: 1.84765625
y: -0.1171875
z: 0.33203125
range: 2.00454068184
velocity: 0.0
doppler_bin: 8
bearing: -3.6291205883
intensity: 28.4073314667
---
header: 
  seq: 1643696
  stamp: 
    secs: 1561868800
    nsecs: 676127268
  frame_id: "ti_mmwave"
point_id: 0
x: 0.01171875
y: -0.0390625
z: -0.0078125
range: 0.0435769706964
velocity: 0.0
doppler_bin: 8
bearing: -73.3007583618
intensity: 30.6445808411
---
header: 
  seq: 1643697
  stamp: 
    secs: 1561868800
    nsecs: 676216415
  frame_id: "ti_mmwave"
point_id: 1
x: 0.017578125
y: -0.080078125
z: -0.0078125
range: 0.0871539413929
velocity: 0.0
doppler_bin: 8
bearing: -77.6192398071
intensity: 31.8977088928
---
header: 
  seq: 1643698
  stamp: 
    secs: 1561868800
    nsecs: 676226760
  frame_id: "ti_mmwave"
point_id: 2
x: 0.029296875
y: -0.119140625
z: -0.005859375
range: 0.130730912089
velocity: 0.0
doppler_bin: 8
bearing: -76.1849746704
intensity: 30.1157035828
---
header: 
  seq: 1643699
  stamp: 
    secs: 1561868800
    nsecs: 676237385
  frame_id: "ti_mmwave"
point_id: 3
x: 0.056640625
y: -0.154296875
z: 0.005859375
range: 0.174307882786
velocity: 0.0
doppler_bin: 8
bearing: -69.8423843384
intensity: 25.4406795502
---
header: 
  seq: 1643700
  stamp: 
    secs: 1561868800
    nsecs: 676245597
  frame_id: "ti_mmwave"
point_id: 4
x: 0.185546875
y: -0.080078125
z: 1.251953125
range: 1.35088610649
velocity: 0.0
doppler_bin: 8
bearing: -23.3440113068
intensity: 23.1175384521
---
header: 
  seq: 1643701
  stamp: 
    secs: 1561868800
    nsecs: 676255238
  frame_id: "ti_mmwave"
point_id: 6
x: 0.4140625
y: -0.083984375
z: -1.28125
range: 1.43804001808
velocity: 0.0
doppler_bin: 8
bearing: -11.4657688141
intensity: 23.0749607086
---
header: 
  seq: 1643702
  stamp: 
    secs: 1561868800
    nsecs: 676263389
  frame_id: "ti_mmwave"
point_id: 7
x: 0.572265625
y: -0.04296875
z: -1.267578125
range: 1.48161697388
velocity: 0.0
doppler_bin: 8
bearing: -4.29401493073
intensity: 21.7026176453
---
header: 
  seq: 1643703
  stamp: 
    secs: 1561868800
    nsecs: 676271231
  frame_id: "ti_mmwave"
point_id: 8
x: 1.763671875
y: -0.056640625
z: 0.359375
range: 1.91738677025
velocity: 0.0
doppler_bin: 8
bearing: -1.83943164349
intensity: 28.7909584045
---
header: 
  seq: 1643704
  stamp: 
    secs: 1561868800
    nsecs: 676279235
  frame_id: "ti_mmwave"
point_id: 9
x: 2.59375
y: -0.17578125
z: 1.099609375
range: 3.00681090355
velocity: 0.0
doppler_bin: 8
bearing: -3.87706851959
intensity: 28.7157287598
---
header: 
  seq: 1643705
  stamp: 
    secs: 1561868800
    nsecs: 676289290
  frame_id: "ti_mmwave"
point_id: 10
x: 2.646484375
y: -0.1796875
z: 1.078125
range: 3.05038785934
velocity: 0.0
doppler_bin: 8
bearing: -3.88423156738
intensity: 31.9865703583
---
header: 
  seq: 1643706
  stamp: 
    secs: 1561868800
    nsecs: 676299312
  frame_id: "ti_mmwave"
point_id: 11
x: 2.74609375
y: -0.08984375
z: 0.939453125
range: 3.09396481514
velocity: 0.0
doppler_bin: 8
bearing: -1.8738732338
intensity: 31.0002574921
---
header: 
  seq: 1643707
  stamp: 
    secs: 1561868800
    nsecs: 676307937
  frame_id: "ti_mmwave"
point_id: 12
x: 4.771484375
y: -1.404296875
z: -0.412109375
range: 5.31639051437
velocity: 0.0
doppler_bin: 8
bearing: -16.3996982574
intensity: 28.6272754669
---
header: 
  seq: 1643708
  stamp: 
    secs: 1561868800
    nsecs: 676316968
  frame_id: "ti_mmwave"
point_id: 13
x: 1.822265625
y: -0.056640625
z: 0.25
range: 1.96096372604
velocity: -0.614668667316
doppler_bin: 7
bearing: -1.78032457829
intensity: 27.8031730652
---
header: 
  seq: 1643709
  stamp: 
    secs: 1561868800
    nsecs: 676328305
  frame_id: "ti_mmwave"
point_id: 15
x: 0.041015625
y: -0.033203125
z: 0.0625
range: 0.0871539413929
velocity: 0.0
doppler_bin: 8
bearing: -38.9909973145
intensity: 30.0902576447
---
header: 
  seq: 1643710
  stamp: 
    secs: 1561868800
    nsecs: 676356331
  frame_id: "ti_mmwave"
point_id: 16
x: 0.044921875
y: -0.046875
z: 0.103515625
range: 0.130730912089
velocity: 0.0
doppler_bin: 8
bearing: -46.218875885
intensity: 29.0091304779
---
header: 
  seq: 1643711
  stamp: 
    secs: 1561868800
    nsecs: 677500996
  frame_id: "ti_mmwave"
point_id: 0
x: 0.01171875
y: -0.0390625
z: -0.0078125
range: 0.0435769706964
velocity: 0.0
doppler_bin: 8
bearing: -73.3007583618
intensity: 30.6445808411
---
header: 
  seq: 1643712
  stamp: 
    secs: 1561868800
    nsecs: 677568877
  frame_id: "ti_mmwave"
point_id: 1
x: 0.017578125
y: -0.080078125
z: -0.0078125
range: 0.0871539413929
velocity: 0.0
doppler_bin: 8
bearing: -77.6192398071
intensity: 31.9005146027
---
header: 
  seq: 1643713
  stamp: 
    secs: 1561868800
    nsecs: 677587505
  frame_id: "ti_mmwave"
point_id: 2
x: 0.029296875
y: -0.119140625
z: -0.005859375
range: 0.130730912089
velocity: 0.0
doppler_bin: 8
bearing: -76.1849746704
intensity: 30.1157035828
---
header: 
  seq: 1643714
  stamp: 
    secs: 1561868800
    nsecs: 677612566
  frame_id: "ti_mmwave"
point_id: 3
x: 0.056640625
y: -0.154296875
z: 0.0078125
range: 0.174307882786
velocity: 0.0
doppler_bin: 8
bearing: -69.8423843384
intensity: 25.4406795502
---
header: 
  seq: 1643715
  stamp: 
    secs: 1561868800
    nsecs: 677720722
  frame_id: "ti_mmwave"
point_id: 4
x: 0.12890625
y: -0.080078125
z: 1.259765625
range: 1.35088610649
velocity: 0.0
doppler_bin: 8
bearing: -31.8490524292
intensity: 23.1175384521
---
header: 
  seq: 1643716
  stamp: 
    secs: 1561868800
    nsecs: 677762506
  frame_id: "ti_mmwave"
point_id: 6
x: 0.423828125
y: -0.083984375
z: -1.279296875
range: 1.43804001808
velocity: 0.0
doppler_bin: 8
bearing: -11.2083444595
intensity: 23.0963020325
---
header: 
  seq: 1643717
  stamp: 
    secs: 1561868800
    nsecs: 677809484
  frame_id: "ti_mmwave"
point_id: 7
x: 0.55859375
y: -0.04296875
z: -1.2734375
range: 1.48161697388
velocity: 0.0
doppler_bin: 8
bearing: -4.39870548248
intensity: 21.7026176453
---
header: 
  seq: 1643718
  stamp: 
    secs: 1561868800
    nsecs: 677825821
  frame_id: "ti_mmwave"
point_id: 8
x: 1.724609375
y: -0.0
z: -0.345703125
range: 1.87380969524
velocity: 0.0
doppler_bin: 8
bearing: -0.0
intensity: 29.0902080536
---
header: 
  seq: 1643719
  stamp: 
    secs: 1561868800
    nsecs: 677842502
  frame_id: "ti_mmwave"
point_id: 9
x: 2.62109375
y: -0.17578125
z: 1.03125
range: 3.00681090355
velocity: 0.0
doppler_bin: 8
bearing: -3.83674383163
intensity: 28.767950058
---
header: 
  seq: 1643720
  stamp: 
    secs: 1561868800
    nsecs: 677898097
  frame_id: "ti_mmwave"
point_id: 10
x: 2.69140625
y: -0.08984375
z: 0.97265625
range: 3.05038785934
velocity: 0.0
doppler_bin: 8
bearing: -1.91192126274
intensity: 32.0139694214
---
header: 
  seq: 1643721
  stamp: 
    secs: 1561868800
    nsecs: 677913735
  frame_id: "ti_mmwave"
point_id: 11
x: 2.75390625
y: -0.08984375
z: 0.91796875
range: 3.09396481514
velocity: 0.0
doppler_bin: 8
bearing: -1.86856126785
intensity: 31.0174713135
---
header: 
  seq: 1643722
  stamp: 
    secs: 1561868800
    nsecs: 677937161
  frame_id: "ti_mmwave"
point_id: 12
x: 1.783203125
y: -0.0
z: 0.453125
range: 1.96096372604
velocity: -0.614668667316
doppler_bin: 7
bearing: -0.0
intensity: 27.9448795319
---
header: 
  seq: 1643723
  stamp: 
    secs: 1561868800
    nsecs: 678007422
  frame_id: "ti_mmwave"
point_id: 13
x: 1.857421875
y: -0.0
z: 0.3046875
range: 2.00454068184
velocity: -0.614668667316
doppler_bin: 7
bearing: -0.0
intensity: 25.5022830963
---
header: 
  seq: 1643724
  stamp: 
    secs: 1561868800
    nsecs: 678024990
  frame_id: "ti_mmwave"
point_id: 15
x: 0.041015625
y: -0.033203125
z: 0.0625
range: 0.0871539413929
velocity: 0.0
doppler_bin: 8
bearing: -38.9909973145
intensity: 30.0902576447
---
header: 
  seq: 1643725
  stamp: 
    secs: 1561868800
    nsecs: 678041886
  frame_id: "ti_mmwave"
point_id: 16
x: 0.044921875
y: -0.046875
z: 0.103515625
range: 0.130730912089
velocity: 0.0
doppler_bin: 8
bearing: -46.218875885
intensity: 29.0091304779
---
header: 
  seq: 1643726
  stamp: 
    secs: 1561868800
    nsecs: 735848162
  frame_id: "ti_mmwave"
point_id: 0
x: 0.01171875
y: -0.0390625
z: -0.0078125
range: 0.0435769706964
velocity: 0.0
doppler_bin: 8
bearing: -73.3007583618
intensity: 30.6370849609
---
header: 
  seq: 1643727
  stamp: 
    secs: 1561868800
    nsecs: 735938091
  frame_id: "ti_mmwave"
point_id: 1
x: 0.017578125
y: -0.080078125
z: -0.0078125
range: 0.0871539413929
velocity: 0.0
doppler_bin: 8
bearing: -77.6192398071
intensity: 31.8977088928
---
header: 
  seq: 1643728
  stamp: 
    secs: 1561868800
    nsecs: 735972728
  frame_id: "ti_mmwave"
point_id: 2
x: 0.029296875
y: -0.119140625
z: -0.005859375
range: 0.130730912089
velocity: 0.0
doppler_bin: 8
bearing: -76.1849746704
intensity: 30.1114730835
---
header: 
  seq: 1643729
  stamp: 
    secs: 1561868800
    nsecs: 735986105
  frame_id: "ti_mmwave"
point_id: 3
x: 0.056640625
y: -0.154296875
z: 0.005859375
range: 0.174307882786
velocity: 0.0
doppler_bin: 8
bearing: -69.8423843384
intensity: 25.4406795502
---
header: 
  seq: 1643730
  stamp: 
    secs: 1561868800
    nsecs: 735998598
  frame_id: "ti_mmwave"
point_id: 4
x: 0.115234375
y: -0.080078125
z: 1.259765625
range: 1.35088610649
velocity: 0.0
doppler_bin: 8
bearing: -34.7960281372
intensity: 23.1175384521
---
header: 
  seq: 1643731
  stamp: 
    secs: 1561868800
    nsecs: 736078066
  frame_id: "ti_mmwave"
point_id: 6
x: 0.4140625
y: -0.083984375
z: -1.28125
range: 1.43804001808
velocity: 0.0
doppler_bin: 8
bearing: -11.4657688141
intensity: 23.138671875
---
header: 
  seq: 1643732
  stamp: 
    secs: 1561868800
    nsecs: 736090871
  frame_id: "ti_mmwave"
point_id: 7
x: 0.5703125
y: -0.04296875
z: -1.267578125
range: 1.48161697388
velocity: 0.0
doppler_bin: 8
bearing: -4.30866527557
intensity: 21.7609119415
---
header: 
  seq: 1643733
  stamp: 
    secs: 1561868800
    nsecs: 736099792
  frame_id: "ti_mmwave"
point_id: 8
x: 1.716796875
y: -0.0
z: -0.0390625
range: 1.83023273945
velocity: 0.0
doppler_bin: 8
bearing: -0.0
intensity: 27.2591171265
---
header: 
  seq: 1643734
  stamp: 
    secs: 1561868800
    nsecs: 736105714
  frame_id: "ti_mmwave"
point_id: 9
x: 1.759765625
y: -0.0
z: 0.0
range: 1.87380969524
velocity: 0.0
doppler_bin: 8
bearing: -0.0
intensity: 30.6182937622
---
header: 
  seq: 1643735
  stamp: 
    secs: 1561868800
    nsecs: 736133774
  frame_id: "ti_mmwave"
point_id: 10
x: 1.798828125
y: 0.056640625
z: 0.033203125
range: 1.91738677025
velocity: 0.0
doppler_bin: 8
bearing: 1.8035056591
intensity: 30.3542976379
---
header: 
  seq: 1643736
  stamp: 
    secs: 1561868800
    nsecs: 736143099
  frame_id: "ti_mmwave"
point_id: 11
x: 1.83984375
y: 0.056640625
z: -0.00390625
range: 1.96096372604
velocity: 0.0
doppler_bin: 8
bearing: 1.76332592964
intensity: 27.481880188
---
header: 
  seq: 1643737
  stamp: 
    secs: 1561868800
    nsecs: 736153534
  frame_id: "ti_mmwave"
point_id: 12
x: 2.615234375
y: -0.17578125
z: 1.046875
range: 3.00681090355
velocity: 0.0
doppler_bin: 8
bearing: -3.84531402588
intensity: 29.1062431335
---
header: 
  seq: 1643738
  stamp: 
    secs: 1561868800
    nsecs: 736162316
  frame_id: "ti_mmwave"
point_id: 13
x: 2.662109375
y: -0.1796875
z: 1.041015625
range: 3.05038785934
velocity: 0.0
doppler_bin: 8
bearing: -3.86150240898
intensity: 32.1906051636
---
header: 
  seq: 1643739
  stamp: 
    secs: 1561868800
    nsecs: 736180421
  frame_id: "ti_mmwave"
point_id: 14
x: 2.76171875
y: -0.08984375
z: 0.892578125
range: 3.09396481514
velocity: 0.0
doppler_bin: 8
bearing: -1.86327898502
intensity: 31.1925582886
---
header: 
  seq: 1643740
  stamp: 
    secs: 1561868800
    nsecs: 736196846
  frame_id: "ti_mmwave"
point_id: 16
x: 0.041015625
y: -0.033203125
z: 0.0625
range: 0.0871539413929
velocity: 0.0
doppler_bin: 8
bearing: -38.9909973145
intensity: 30.0860023499
---
header: 
  seq: 1643741
  stamp: 
    secs: 1561868800
    nsecs: 736210616
  frame_id: "ti_mmwave"
point_id: 17
x: 0.044921875
y: -0.046875
z: 0.103515625
range: 0.130730912089
velocity: 0.0
doppler_bin: 8
bearing: -46.218875885
intensity: 29.0091304779
---
header: 
  seq: 1643742
  stamp: 
    secs: 1561868800
    nsecs: 736630005
  frame_id: "ti_mmwave"
point_id: 0
x: 0.01171875
y: -0.0390625
z: -0.0078125
range: 0.0435769706964
velocity: 0.0
doppler_bin: 8
bearing: -73.3007583618
intensity: 30.6333332062
---
header: 
  seq: 1643743
  stamp: 
    secs: 1561868800
    nsecs: 736662800
  frame_id: "ti_mmwave"
point_id: 1
x: 0.017578125
y: -0.080078125
z: -0.0078125
range: 0.0871539413929
velocity: 0.0
doppler_bin: 8
bearing: -77.6192398071
intensity: 31.9005146027
---
header: 
  seq: 1643744
  stamp: 
    secs: 1561868800
    nsecs: 736670068
  frame_id: "ti_mmwave"
point_id: 2
x: 0.029296875
y: -0.119140625
z: -0.005859375
range: 0.130730912089
velocity: 0.0
doppler_bin: 8
bearing: -76.1849746704
intensity: 30.1199302673
---
header: 
  seq: 1643745
  stamp: 
    secs: 1561868800
    nsecs: 736677313
  frame_id: "ti_mmwave"
point_id: 3
x: 0.056640625
y: -0.154296875
z: 0.0078125
range: 0.174307882786
velocity: 0.0
doppler_bin: 8
bearing: -69.8423843384
intensity: 25.4654273987
---
header: 
  seq: 1643746
  stamp: 
    secs: 1561868800
    nsecs: 736683307
  frame_id: "ti_mmwave"
point_id: 4
x: 0.111328125
y: -0.080078125
z: 1.259765625
range: 1.35088610649
velocity: 0.0
doppler_bin: 8
bearing: -35.7273979187
intensity: 23.1597042084
---
header: 
  seq: 1643747
  stamp: 
    secs: 1561868800
    nsecs: 736738191
  frame_id: "ti_mmwave"
point_id: 6
x: 0.419921875
y: -0.083984375
z: -1.279296875
range: 1.43804001808
velocity: 0.0
doppler_bin: 8
bearing: -11.3099327087
intensity: 23.138671875
---
header: 
  seq: 1643748
  stamp: 
    secs: 1561868800
    nsecs: 736747959
  frame_id: "ti_mmwave"
point_id: 7
x: 0.564453125
y: -0.04296875
z: -1.26953125
range: 1.48161697388
velocity: 0.0
doppler_bin: 8
bearing: -4.35321998596
intensity: 21.7609119415
---
header: 
  seq: 1643749
  stamp: 
    secs: 1561868800
    nsecs: 736753300
  frame_id: "ti_mmwave"
point_id: 8
x: 1.75
y: -0.0
z: -0.1796875
range: 1.87380969524
velocity: 0.0
doppler_bin: 8
bearing: -0.0
intensity: 29.8317508698
---
header: 
  seq: 1643750
  stamp: 
    secs: 1561868800
    nsecs: 736758613
  frame_id: "ti_mmwave"
point_id: 9
x: 1.794921875
y: -0.0
z: -0.126953125
range: 1.91738677025
velocity: 0.0
doppler_bin: 8
bearing: -0.0
intensity: 29.2941894531
---
header: 
  seq: 1643751
  stamp: 
    secs: 1561868800
    nsecs: 736763691
  frame_id: "ti_mmwave"
point_id: 10
x: 2.630859375
y: -0.17578125
z: 1.0078125
range: 3.00681090355
velocity: 0.0
doppler_bin: 8
bearing: -3.82254433632
intensity: 29.0308990479
---
header: 
  seq: 1643752
  stamp: 
    secs: 1561868800
    nsecs: 736768136
  frame_id: "ti_mmwave"
point_id: 11
x: 2.666015625
y: -0.1796875
z: 1.02734375
range: 3.05038785934
velocity: 0.0
doppler_bin: 8
bearing: -3.85586214066
intensity: 32.1484375
---
header: 
  seq: 1643753
  stamp: 
    secs: 1561868800
    nsecs: 736789208
  frame_id: "ti_mmwave"
point_id: 12
x: 2.76171875
y: -0.08984375
z: 0.89453125
range: 3.09396481514
velocity: 0.0
doppler_bin: 8
bearing: -1.86327898502
intensity: 31.1427726746
---
header: 
  seq: 1643754
  stamp: 
    secs: 1561868800
    nsecs: 736799112
  frame_id: "ti_mmwave"
point_id: 14
x: 0.041015625
y: -0.033203125
z: 0.0625
range: 0.0871539413929
velocity: 0.0
doppler_bin: 8
bearing: -38.9909973145
intensity: 30.0902576447
---
header: 
  seq: 1643755
  stamp: 
    secs: 1561868800
    nsecs: 736861858
  frame_id: "ti_mmwave"
point_id: 15
x: 0.044921875
y: -0.046875
z: 0.103515625
range: 0.130730912089
velocity: 0.0
doppler_bin: 8
bearing: -46.218875885
intensity: 29.0091304779
---
header: 
  seq: 1643756
  stamp: 
    secs: 1561868800
    nsecs: 796040612
  frame_id: "ti_mmwave"
point_id: 0
x: 0.01171875
y: -0.0390625
z: -0.0078125
range: 0.0435769706964
velocity: 0.0
doppler_bin: 8
bearing: -73.3007583618
intensity: 30.6408348083
---
header: 
  seq: 1643757
  stamp: 
    secs: 1561868800
    nsecs: 796113460
  frame_id: "ti_mmwave"
point_id: 1
x: 0.017578125
y: -0.080078125
z: -0.0078125
range: 0.0871539413929
velocity: 0.0
doppler_bin: 8
bearing: -77.6192398071
intensity: 31.9005146027
---
header: 
  seq: 1643758
  stamp: 
    secs: 1561868800
    nsecs: 796126739
  frame_id: "ti_mmwave"
point_id: 2
x: 0.029296875
y: -0.119140625
z: -0.005859375
range: 0.130730912089
velocity: 0.0
doppler_bin: 8
bearing: -76.1849746704
intensity: 30.1199302673
---
header: 
  seq: 1643759
  stamp: 
    secs: 1561868800
    nsecs: 796136080
  frame_id: "ti_mmwave"
point_id: 3
x: 0.056640625
y: -0.154296875
z: 0.005859375
range: 0.174307882786
velocity: 0.0
doppler_bin: 8
bearing: -69.8423843384
intensity: 25.4530715942
---
header: 
  seq: 1643760
  stamp: 
    secs: 1561868800
    nsecs: 796144620
  frame_id: "ti_mmwave"
point_id: 4
x: 0.185546875
y: -0.080078125
z: 1.251953125
range: 1.35088610649
velocity: 0.0
doppler_bin: 8
bearing: -23.3440113068
intensity: 23.1175384521
---
header: 
  seq: 1643761
  stamp: 
    secs: 1561868800
    nsecs: 796154824
  frame_id: "ti_mmwave"
point_id: 5
x: 0.09765625
y: -0.08203125
z: 1.302734375
range: 1.39446306229
velocity: 0.0
doppler_bin: 8
bearing: -40.0302581787
intensity: 24.6389293671
---
header: 
  seq: 1643762
  stamp: 
    secs: 1561868800
    nsecs: 796162699
  frame_id: "ti_mmwave"
point_id: 6
x: 0.396484375
y: -0.083984375
z: -1.287109375
range: 1.43804001808
velocity: 0.0
doppler_bin: 8
bearing: -11.9597616196
intensity: 23.0963020325
---
header: 
  seq: 1643763
  stamp: 
    secs: 1561868800
    nsecs: 796171372
  frame_id: "ti_mmwave"
point_id: 7
x: 0.560546875
y: -0.04296875
z: -1.271484375
range: 1.48161697388
velocity: 0.0
doppler_bin: 8
bearing: -4.38343858719
intensity: 21.7318630219
---
header: 
  seq: 1643764
  stamp: 
    secs: 1561868800
    nsecs: 796179376
  frame_id: "ti_mmwave"
point_id: 8
x: 1.796875
y: -0.056640625
z: -0.10546875
range: 1.91738677025
velocity: 0.0
doppler_bin: 8
bearing: -1.80546462536
intensity: 27.2098579407
---
header: 
  seq: 1643765
  stamp: 
    secs: 1561868800
    nsecs: 796188255
  frame_id: "ti_mmwave"
point_id: 9
x: 2.619140625
y: -0.17578125
z: 1.037109375
range: 3.00681090355
velocity: 0.0
doppler_bin: 8
bearing: -3.83959650993
intensity: 28.8930168152
---
header: 
  seq: 1643766
  stamp: 
    secs: 1561868800
    nsecs: 796197900
  frame_id: "ti_mmwave"
point_id: 10
x: 2.66015625
y: -0.1796875
z: 1.046875
range: 3.05038785934
velocity: 0.0
doppler_bin: 8
bearing: -3.86432933807
intensity: 32.1085319519
---
header: 
  seq: 1643767
  stamp: 
    secs: 1561868800
    nsecs: 796206598
  frame_id: "ti_mmwave"
point_id: 11
x: 2.75
y: -0.08984375
z: 0.927734375
range: 3.09396481514
velocity: 0.0
doppler_bin: 8
bearing: -1.87121355534
intensity: 31.0890312195
---
header: 
  seq: 1643768
  stamp: 
    secs: 1561868800
    nsecs: 796214929
  frame_id: "ti_mmwave"
point_id: 12
x: 1.748046875
y: -0.0546875
z: -0.1875
range: 1.87380969524
velocity: -0.614668667316
doppler_bin: 7
bearing: -1.79190933704
intensity: 27.9795970917
---
header: 
  seq: 1643769
  stamp: 
    secs: 1561868800
    nsecs: 796226667
  frame_id: "ti_mmwave"
point_id: 14
x: 0.041015625
y: -0.033203125
z: 0.0625
range: 0.0871539413929
velocity: 0.0
doppler_bin: 8
bearing: -38.9909973145
intensity: 30.0902576447
---
header: 
  seq: 1643770
  stamp: 
    secs: 1561868800
    nsecs: 796234768
  frame_id: "ti_mmwave"
point_id: 15
x: 0.046875
y: -0.046875
z: 0.103515625
range: 0.130730912089
velocity: 0.0
doppler_bin: 8
bearing: -45.0
intensity: 29.0091304779
---
header: 
  seq: 1643771
  stamp: 
    secs: 1561868800
    nsecs: 856156335
  frame_id: "ti_mmwave"
point_id: 0
x: 0.01171875
y: -0.0390625
z: -0.0078125
range: 0.0435769706964
velocity: 0.0
doppler_bin: 8
bearing: -73.3007583618
intensity: 30.6370849609
---
header: 
  seq: 1643772
  stamp: 
    secs: 1561868800
    nsecs: 856220790
  frame_id: "ti_mmwave"
point_id: 1
x: 0.017578125
y: -0.080078125
z: -0.0078125
range: 0.0871539413929
velocity: 0.0
doppler_bin: 8
bearing: -77.6192398071
intensity: 31.8977088928
---
header: 
  seq: 1643773
  stamp: 
    secs: 1561868800
    nsecs: 856232007
  frame_id: "ti_mmwave"
point_id: 2
x: 0.029296875
y: -0.119140625
z: -0.005859375
range: 0.130730912089
velocity: 0.0
doppler_bin: 8
bearing: -76.1849746704
intensity: 30.1157035828
---
header: 
  seq: 1643774
  stamp: 
    secs: 1561868800
    nsecs: 856241399
  frame_id: "ti_mmwave"
point_id: 3
x: 0.056640625
y: -0.154296875
z: 0.005859375
range: 0.174307882786
velocity: 0.0
doppler_bin: 8
bearing: -69.8423843384
intensity: 25.4530715942
---
header: 
  seq: 1643775
  stamp: 
    secs: 1561868800
    nsecs: 856250684
  frame_id: "ti_mmwave"
point_id: 4
x: 0.123046875
y: -0.080078125
z: 1.259765625
range: 1.35088610649
velocity: 0.0
doppler_bin: 8
bearing: -33.0558242798
intensity: 23.138671875
---
header: 
  seq: 1643776
  stamp: 
    secs: 1561868800
    nsecs: 856264208
  frame_id: "ti_mmwave"
point_id: 6
x: 0.416015625
y: -0.083984375
z: -1.28125
range: 1.43804001808
velocity: 0.0
doppler_bin: 8
bearing: -11.4133548737
intensity: 23.138671875
---
header: 
  seq: 1643777
  stamp: 
    secs: 1561868800
    nsecs: 856274719
  frame_id: "ti_mmwave"
point_id: 7
x: 0.580078125
y: -0.04296875
z: -1.263671875
range: 1.48161697388
velocity: 0.0
doppler_bin: 8
bearing: -4.2363948822
intensity: 21.7609119415
---
header: 
  seq: 1643778
  stamp: 
    secs: 1561868800
    nsecs: 856283950
  frame_id: "ti_mmwave"
point_id: 8
x: 2.6171875
y: -0.17578125
z: 1.04296875
range: 3.00681090355
velocity: 0.0
doppler_bin: 8
bearing: -3.84245300293
intensity: 29.1062431335
---
header: 
  seq: 1643779
  stamp: 
    secs: 1561868800
    nsecs: 856293014
  frame_id: "ti_mmwave"
point_id: 9
x: 2.666015625
y: -0.1796875
z: 1.03125
range: 3.05038785934
velocity: 0.0
doppler_bin: 8
bearing: -3.85586214066
intensity: 32.166934967
---
header: 
  seq: 1643780
  stamp: 
    secs: 1561868800
    nsecs: 856309939
  frame_id: "ti_mmwave"
point_id: 10
x: 2.759765625
y: -0.08984375
z: 0.90234375
range: 3.09396481514
velocity: 0.0
doppler_bin: 8
bearing: -1.86459684372
intensity: 31.1594314575
---
header: 
  seq: 1643781
  stamp: 
    secs: 1561868800
    nsecs: 856367569
  frame_id: "ti_mmwave"
point_id: 12
x: 0.041015625
y: -0.033203125
z: 0.0625
range: 0.0871539413929
velocity: 0.0
doppler_bin: 8
bearing: -38.9909973145
intensity: 30.0860023499
---
header: 
  seq: 1643782
  stamp: 
    secs: 1561868800
    nsecs: 856377203
  frame_id: "ti_mmwave"
point_id: 13
x: 0.046875
y: -0.046875
z: 0.103515625
range: 0.130730912089
velocity: 0.0
doppler_bin: 8
bearing: -45.0
intensity: 29.0091304779
---
header: 
  seq: 1643783
  stamp: 
    secs: 1561868800
    nsecs: 857083559
  frame_id: "ti_mmwave"
point_id: 0
x: 0.01171875
y: -0.0390625
z: -0.0078125
range: 0.0435769706964
velocity: 0.0
doppler_bin: 8
bearing: -73.3007583618
intensity: 30.6333332062
---
header: 
  seq: 1643784
  stamp: 
    secs: 1561868800
    nsecs: 857130502
  frame_id: "ti_mmwave"
point_id: 1
x: 0.017578125
y: -0.080078125
z: -0.0078125
range: 0.0871539413929
velocity: 0.0
doppler_bin: 8
bearing: -77.6192398071
intensity: 31.8977088928
---
header: 
  seq: 1643785
  stamp: 
    secs: 1561868800
    nsecs: 857142345
  frame_id: "ti_mmwave"
point_id: 2
x: 0.029296875
y: -0.119140625
z: -0.005859375
range: 0.130730912089
velocity: 0.0
doppler_bin: 8
bearing: -76.1849746704
intensity: 30.1157035828
---
header: 
  seq: 1643786
  stamp: 
    secs: 1561868800
    nsecs: 857151546
  frame_id: "ti_mmwave"
point_id: 3
x: 0.056640625
y: -0.154296875
z: 0.005859375
range: 0.174307882786
velocity: 0.0
doppler_bin: 8
bearing: -69.8423843384
intensity: 25.4406795502
---
header: 
  seq: 1643787
  stamp: 
    secs: 1561868800
    nsecs: 857203757
  frame_id: "ti_mmwave"
point_id: 4
x: 0.11328125
y: -0.080078125
z: 1.259765625
range: 1.35088610649
velocity: 0.0
doppler_bin: 8
bearing: -35.2563591003
intensity: 23.1175384521
---
header: 
  seq: 1643788
  stamp: 
    secs: 1561868800
    nsecs: 857215661
  frame_id: "ti_mmwave"
point_id: 6
x: 0.412109375
y: -0.083984375
z: -1.283203125
range: 1.43804001808
velocity: 0.0
doppler_bin: 8
bearing: -11.518658638
intensity: 23.0749607086
---
header: 
  seq: 1643789
  stamp: 
    secs: 1561868800
    nsecs: 857225285
  frame_id: "ti_mmwave"
point_id: 7
x: 0.5390625
y: -0.04296875
z: -1.28125
range: 1.48161697388
velocity: 0.0
doppler_bin: 8
bearing: -4.55741930008
intensity: 21.7026176453
---
header: 
  seq: 1643790
  stamp: 
    secs: 1561868800
    nsecs: 857234271
  frame_id: "ti_mmwave"
point_id: 8
x: 1.681640625
y: -0.056640625
z: -0.638671875
range: 1.91738677025
velocity: 0.0
doppler_bin: 8
bearing: -1.92909359932
intensity: 28.0002937317
---
header: 
  seq: 1643791
  stamp: 
    secs: 1561868800
    nsecs: 857242900
  frame_id: "ti_mmwave"
point_id: 9
x: 1.78515625
y: -0.0
z: -0.451171875
range: 1.96096372604
velocity: 0.0
doppler_bin: 8
bearing: -0.0
intensity: 28.5064620972
---
header: 
  seq: 1643792
  stamp: 
    secs: 1561868800
    nsecs: 857259644
  frame_id: "ti_mmwave"
point_id: 10
x: 1.84375
y: -0.0
z: -0.375
range: 2.00454068184
velocity: 0.0
doppler_bin: 8
bearing: -0.0
intensity: 26.541765213
---
header: 
  seq: 1643793
  stamp: 
    secs: 1561868800
    nsecs: 857294950
  frame_id: "ti_mmwave"
point_id: 11
x: 2.615234375
y: -0.17578125
z: 1.046875
range: 3.00681090355
velocity: 0.0
doppler_bin: 8
bearing: -3.84531402588
intensity: 29.0525608063
---
header: 
  seq: 1643794
  stamp: 
    secs: 1561868800
    nsecs: 857304848
  frame_id: "ti_mmwave"
point_id: 12
x: 2.654296875
y: -0.1796875
z: 1.05859375
range: 3.05038785934
velocity: 0.0
doppler_bin: 8
bearing: -3.87283420563
intensity: 32.1827278137
---
header: 
  seq: 1643795
  stamp: 
    secs: 1561868800
    nsecs: 857313546
  frame_id: "ti_mmwave"
point_id: 13
x: 2.75390625
y: -0.08984375
z: 0.919921875
range: 3.09396481514
velocity: 0.0
doppler_bin: 8
bearing: -1.86856126785
intensity: 31.1260509491
---
header: 
  seq: 1643796
  stamp: 
    secs: 1561868800
    nsecs: 857326558
  frame_id: "ti_mmwave"
point_id: 15
x: 0.041015625
y: -0.033203125
z: 0.0625
range: 0.0871539413929
velocity: 0.0
doppler_bin: 8
bearing: -38.9909973145
intensity: 30.0902576447
---
header: 
  seq: 1643797
  stamp: 
    secs: 1561868800
    nsecs: 857332416
  frame_id: "ti_mmwave"
point_id: 16
x: 0.044921875
y: -0.046875
z: 0.103515625
range: 0.130730912089
velocity: 0.0
doppler_bin: 8
bearing: -46.218875885
intensity: 29.0036716461
---
header: 
  seq: 1643798
  stamp: 
    secs: 1561868800
    nsecs: 915928131
  frame_id: "ti_mmwave"
point_id: 0
x: 0.01171875
y: -0.0390625
z: -0.0078125
range: 0.0435769706964
velocity: 0.0
doppler_bin: 8
bearing: -73.3007583618
intensity: 30.6408348083
---
header: 
  seq: 1643799
  stamp: 
    secs: 1561868800
    nsecs: 916056874
  frame_id: "ti_mmwave"
point_id: 1
x: 0.017578125
y: -0.080078125
z: -0.0078125
range: 0.0871539413929
velocity: 0.0
doppler_bin: 8
bearing: -77.6192398071
intensity: 31.9005146027
---
header: 
  seq: 1643800
  stamp: 
    secs: 1561868800
    nsecs: 916075809
  frame_id: "ti_mmwave"
point_id: 2
x: 0.029296875
y: -0.119140625
z: -0.005859375
range: 0.130730912089
velocity: 0.0
doppler_bin: 8
bearing: -76.1849746704
intensity: 30.1157035828
---
header: 
  seq: 1643801
  stamp: 
    secs: 1561868800
    nsecs: 916092423
  frame_id: "ti_mmwave"
point_id: 3
x: 0.056640625
y: -0.154296875
z: 0.0078125
range: 0.174307882786
velocity: 0.0
doppler_bin: 8
bearing: -69.8423843384
intensity: 25.4406795502
---
header: 
  seq: 1643802
  stamp: 
    secs: 1561868800
    nsecs: 916105766
  frame_id: "ti_mmwave"
point_id: 4
x: 0.14453125
y: -0.080078125
z: 1.2578125
range: 1.35088610649
velocity: 0.0
doppler_bin: 8
bearing: -28.9888248444
intensity: 23.1806335449
---
header: 
  seq: 1643803
  stamp: 
    secs: 1561868800
    nsecs: 916126220
  frame_id: "ti_mmwave"
point_id: 6
x: 0.4140625
y: -0.083984375
z: -1.28125
range: 1.43804001808
velocity: 0.0
doppler_bin: 8
bearing: -11.4657688141
intensity: 23.0963020325
---
header: 
  seq: 1643804
  stamp: 
    secs: 1561868800
    nsecs: 916264674
  frame_id: "ti_mmwave"
point_id: 7
x: 0.576171875
y: -0.04296875
z: -1.265625
range: 1.48161697388
velocity: 0.0
doppler_bin: 8
bearing: -4.2650103569
intensity: 21.7026176453
---
header: 
  seq: 1643805
  stamp: 
    secs: 1561868800
    nsecs: 916284495
  frame_id: "ti_mmwave"
point_id: 8
x: 1.748046875
y: -0.0546875
z: -0.181640625
range: 1.87380969524
velocity: 0.0
doppler_bin: 8
bearing: -1.79190933704
intensity: 28.5186958313
---
header: 
  seq: 1643806
  stamp: 
    secs: 1561868800
    nsecs: 916297104
  frame_id: "ti_mmwave"
point_id: 9
x: 1.787109375
y: -0.056640625
z: -0.203125
range: 1.91738677025
velocity: 0.0
doppler_bin: 8
bearing: -1.81532406807
intensity: 28.0888595581
---
header: 
  seq: 1643807
  stamp: 
    secs: 1561868800
    nsecs: 916308844
  frame_id: "ti_mmwave"
point_id: 10
x: 2.619140625
y: -0.17578125
z: 1.037109375
range: 3.00681090355
velocity: 0.0
doppler_bin: 8
bearing: -3.83959650993
intensity: 28.9927310944
---
header: 
  seq: 1643808
  stamp: 
    secs: 1561868800
    nsecs: 916323325
  frame_id: "ti_mmwave"
point_id: 11
x: 2.66015625
y: -0.1796875
z: 1.046875
range: 3.05038785934
velocity: 0.0
doppler_bin: 8
bearing: -3.86432933807
intensity: 32.0897865295
---
header: 
  seq: 1643809
  stamp: 
    secs: 1561868800
    nsecs: 916335779
  frame_id: "ti_mmwave"
point_id: 12
x: 2.755859375
y: -0.08984375
z: 0.9140625
range: 3.09396481514
velocity: 0.0
doppler_bin: 8
bearing: -1.86723792553
intensity: 31.020904541
---
header: 
  seq: 1643810
  stamp: 
    secs: 1561868800
    nsecs: 916343272
  frame_id: "ti_mmwave"
point_id: 14
x: 0.041015625
y: -0.033203125
z: 0.0625
range: 0.0871539413929
velocity: 0.0
doppler_bin: 8
bearing: -38.9909973145
intensity: 30.0860023499
---
header: 
  seq: 1643811
  stamp: 
    secs: 1561868800
    nsecs: 916354844
  frame_id: "ti_mmwave"
point_id: 15
x: 0.044921875
y: -0.046875
z: 0.103515625
range: 0.130730912089
velocity: 0.0
doppler_bin: 8
bearing: -46.218875885
intensity: 29.0036716461
---
header: 
  seq: 1643812
  stamp: 
    secs: 1561868800
    nsecs: 917095066
  frame_id: "ti_mmwave"
point_id: 0
x: 0.01171875
y: -0.0390625
z: -0.0078125
range: 0.0435769706964
velocity: 0.0
doppler_bin: 8
bearing: -73.3007583618
intensity: 30.6408348083
---
header: 
  seq: 1643813
  stamp: 
    secs: 1561868800
    nsecs: 917140757
  frame_id: "ti_mmwave"
point_id: 1
x: 0.017578125
y: -0.080078125
z: -0.0078125
range: 0.0871539413929
velocity: 0.0
doppler_bin: 8
bearing: -77.6192398071
intensity: 31.8977088928
---
header: 
  seq: 1643814
  stamp: 
    secs: 1561868800
    nsecs: 917156377
  frame_id: "ti_mmwave"
point_id: 2
x: 0.029296875
y: -0.119140625
z: -0.005859375
range: 0.130730912089
velocity: 0.0
doppler_bin: 8
bearing: -76.1849746704
intensity: 30.1114730835
---
header: 
  seq: 1643815
  stamp: 
    secs: 1561868800
    nsecs: 917191024
  frame_id: "ti_mmwave"
point_id: 3
x: 0.056640625
y: -0.154296875
z: 0.005859375
range: 0.174307882786
velocity: 0.0
doppler_bin: 8
bearing: -69.8423843384
intensity: 25.4406795502
---
header: 
  seq: 1643816
  stamp: 
    secs: 1561868800
    nsecs: 917247939
  frame_id: "ti_mmwave"
point_id: 4
x: 0.1484375
y: -0.080078125
z: 1.2578125
range: 1.35088610649
velocity: 0.0
doppler_bin: 8
bearing: -28.3456954956
intensity: 23.0963020325
---
header: 
  seq: 1643817
  stamp: 
    secs: 1561868800
    nsecs: 917263375
  frame_id: "ti_mmwave"
point_id: 5
x: 0.119140625
y: -0.08203125
z: 1.30078125
range: 1.39446306229
velocity: 0.0
doppler_bin: 8
bearing: -34.5483665466
intensity: 24.6389293671
---
header: 
  seq: 1643818
  stamp: 
    secs: 1561868800
    nsecs: 917276033
  frame_id: "ti_mmwave"
point_id: 6
x: 0.3828125
y: -0.083984375
z: -1.291015625
range: 1.43804001808
velocity: 0.0
doppler_bin: 8
bearing: -12.3739547729
intensity: 23.1175384521
---
header: 
  seq: 1643819
  stamp: 
    secs: 1561868800
    nsecs: 917289078
  frame_id: "ti_mmwave"
point_id: 7
x: 1.830078125
y: -0.0
z: -0.19921875
range: 1.96096372604
velocity: 0.0
doppler_bin: 8
bearing: -0.0
intensity: 25.5144996643
---
header: 
  seq: 1643820
  stamp: 
    secs: 1561868800
    nsecs: 917298308
  frame_id: "ti_mmwave"
point_id: 8
x: 2.619140625
y: -0.17578125
z: 1.03515625
range: 3.00681090355
velocity: 0.0
doppler_bin: 8
bearing: -3.83959650993
intensity: 28.9982051849
---
header: 
  seq: 1643821
  stamp: 
    secs: 1561868800
    nsecs: 917341287
  frame_id: "ti_mmwave"
point_id: 9
x: 2.69140625
y: -0.08984375
z: 0.97265625
range: 3.05038785934
velocity: 0.0
doppler_bin: 8
bearing: -1.91192126274
intensity: 32.1325187683
---
header: 
  seq: 1643822
  stamp: 
    secs: 1561868800
    nsecs: 917357912
  frame_id: "ti_mmwave"
point_id: 10
x: 2.755859375
y: -0.08984375
z: 0.91015625
range: 3.09396481514
velocity: 0.0
doppler_bin: 8
bearing: -1.86723792553
intensity: 31.1461105347
---
header: 
  seq: 1643823
  stamp: 
    secs: 1561868800
    nsecs: 917372879
  frame_id: "ti_mmwave"
point_id: 12
x: 0.041015625
y: -0.033203125
z: 0.0625
range: 0.0871539413929
velocity: 0.0
doppler_bin: 8
bearing: -38.9909973145
intensity: 30.0902576447
---
header: 
  seq: 1643824
  stamp: 
    secs: 1561868800
    nsecs: 917385328
  frame_id: "ti_mmwave"
point_id: 13
x: 0.044921875
y: -0.046875
z: 0.103515625
range: 0.130730912089
velocity: 0.0
doppler_bin: 8
bearing: -46.218875885
intensity: 29.0091304779
---
header: 
  seq: 1643825
  stamp: 
    secs: 1561868800
    nsecs: 975981922
  frame_id: "ti_mmwave"
point_id: 0
x: 0.01171875
y: -0.0390625
z: -0.0078125
range: 0.0435769706964
velocity: 0.0
doppler_bin: 8
bearing: -73.3007583618
intensity: 30.6370849609
---
header: 
  seq: 1643826
  stamp: 
    secs: 1561868800
    nsecs: 976058272
  frame_id: "ti_mmwave"
point_id: 1
x: 0.017578125
y: -0.080078125
z: -0.0078125
range: 0.0871539413929
velocity: 0.0
doppler_bin: 8
bearing: -77.6192398071
intensity: 31.9005146027
---
header: 
  seq: 1643827
  stamp: 
    secs: 1561868800
    nsecs: 976074392
  frame_id: "ti_mmwave"
point_id: 2
x: 0.029296875
y: -0.119140625
z: -0.005859375
range: 0.130730912089
velocity: 0.0
doppler_bin: 8
bearing: -76.1849746704
intensity: 30.1157035828
---
header: 
  seq: 1643828
  stamp: 
    secs: 1561868800
    nsecs: 976090797
  frame_id: "ti_mmwave"
point_id: 3
x: 0.056640625
y: -0.154296875
z: 0.005859375
range: 0.174307882786
velocity: 0.0
doppler_bin: 8
bearing: -69.8423843384
intensity: 25.4530715942
---
header: 
  seq: 1643829
  stamp: 
    secs: 1561868800
    nsecs: 976102081
  frame_id: "ti_mmwave"
point_id: 4
x: 0.138671875
y: -0.080078125
z: 1.2578125
range: 1.35088610649
velocity: 0.0
doppler_bin: 8
bearing: -30.0049190521
intensity: 23.1597042084
---
header: 
  seq: 1643830
  stamp: 
    secs: 1561868800
    nsecs: 976177804
  frame_id: "ti_mmwave"
point_id: 6
x: 0.41796875
y: -0.083984375
z: -1.28125
range: 1.43804001808
velocity: 0.0
doppler_bin: 8
bearing: -11.3614110947
intensity: 23.0963020325
---
header: 
  seq: 1643831
  stamp: 
    secs: 1561868800
    nsecs: 976191623
  frame_id: "ti_mmwave"
point_id: 7
x: 0.568359375
y: -0.04296875
z: -1.26953125
range: 1.48161697388
velocity: 0.0
doppler_bin: 8
bearing: -4.32341527939
intensity: 21.7318630219
---
header: 
  seq: 1643832
  stamp: 
    secs: 1561868800
    nsecs: 976202797
  frame_id: "ti_mmwave"
point_id: 8
x: 1.71484375
y: -0.052734375
z: -0.07421875
range: 1.83023273945
velocity: 0.0
doppler_bin: 8
