header: 
  seq: 1683540
  stamp: 
    secs: 1561868872
    nsecs: 496018750
  frame_id: "ti_mmwave"
point_id: 0
x: 0.01171875
y: -0.0390625
z: -0.0078125
range: 0.0435769706964
velocity: 0.0
doppler_bin: 8
bearing: -73.3007583618
intensity: 30.6483230591
---
header: 
  seq: 1683541
  stamp: 
    secs: 1561868872
    nsecs: 496092484
  frame_id: "ti_mmwave"
point_id: 1
x: 0.017578125
y: -0.080078125
z: -0.0078125
range: 0.0871539413929
velocity: 0.0
doppler_bin: 8
bearing: -77.6192398071
intensity: 31.9005146027
---
header: 
  seq: 1683542
  stamp: 
    secs: 1561868872
    nsecs: 496104524
  frame_id: "ti_mmwave"
point_id: 2
x: 0.029296875
y: -0.119140625
z: -0.005859375
range: 0.130730912089
velocity: 0.0
doppler_bin: 8
bearing: -76.1849746704
intensity: 30.1157035828
---
header: 
  seq: 1683543
  stamp: 
    secs: 1561868872
    nsecs: 496113348
  frame_id: "ti_mmwave"
point_id: 3
x: 0.056640625
y: -0.154296875
z: 0.0078125
range: 0.174307882786
velocity: 0.0
doppler_bin: 8
bearing: -69.8423843384
intensity: 25.4530715942
---
header: 
  seq: 1683544
  stamp: 
    secs: 1561868872
    nsecs: 496122796
  frame_id: "ti_mmwave"
point_id: 4
x: 0.181640625
y: -0.080078125
z: 1.251953125
range: 1.35088610649
velocity: 0.0
doppler_bin: 8
bearing: -23.7907733917
intensity: 23.0963020325
---
header: 
  seq: 1683545
  stamp: 
    secs: 1561868872
    nsecs: 496132357
  frame_id: "ti_mmwave"
point_id: 5
x: 0.0625
y: -0.08203125
z: 1.3046875
range: 1.39446306229
velocity: 0.0
doppler_bin: 8
bearing: -52.6960487366
intensity: 24.6239795685
---
header: 
  seq: 1683546
  stamp: 
    secs: 1561868872
    nsecs: 496140341
  frame_id: "ti_mmwave"
point_id: 6
x: 0.42578125
y: -0.083984375
z: -1.27734375
range: 1.43804001808
velocity: 0.0
doppler_bin: 8
bearing: -11.1582231522
intensity: 23.0749607086
---
header: 
  seq: 1683547
  stamp: 
    secs: 1561868872
    nsecs: 496149875
  frame_id: "ti_mmwave"
point_id: 7
x: 0.578125
y: -0.04296875
z: -1.263671875
range: 1.48161697388
velocity: 0.0
doppler_bin: 8
bearing: -4.25065469742
intensity: 21.7026176453
---
header: 
  seq: 1683548
  stamp: 
    secs: 1561868872
    nsecs: 496158486
  frame_id: "ti_mmwave"
point_id: 8
x: 1.615234375
y: 0.1015625
z: -0.234375
range: 1.74307882786
velocity: 0.0
doppler_bin: 8
bearing: 3.59789991379
intensity: 30.6258201599
---
header: 
  seq: 1683549
  stamp: 
    secs: 1561868872
    nsecs: 496170425
  frame_id: "ti_mmwave"
point_id: 9
x: 1.658203125
y: 0.158203125
z: -0.189453125
range: 1.78665578365
velocity: 0.0
doppler_bin: 8
bearing: 5.44988584518
intensity: 30.7773113251
---
header: 
  seq: 1683550
  stamp: 
    secs: 1561868872
    nsecs: 496179756
  frame_id: "ti_mmwave"
point_id: 10
x: 1.708984375
y: 0.107421875
z: -0.146484375
range: 1.83023273945
velocity: 0.0
doppler_bin: 8
bearing: 3.5967168808
intensity: 27.0415058136
---
header: 
  seq: 1683551
  stamp: 
    secs: 1561868872
    nsecs: 496189375
  frame_id: "ti_mmwave"
point_id: 11
x: 1.779296875
y: -0.16796875
z: 0.208984375
range: 1.91738677025
velocity: 0.0
doppler_bin: 8
bearing: -5.39284038544
intensity: 29.5472488403
---
header: 
  seq: 1683552
  stamp: 
    secs: 1561868872
    nsecs: 496198504
  frame_id: "ti_mmwave"
point_id: 12
x: 1.830078125
y: -0.171875
z: 0.11328125
range: 1.96096372604
velocity: 0.0
doppler_bin: 8
bearing: -5.36529636383
intensity: 29.3094902039
---
header: 
  seq: 1683553
  stamp: 
    secs: 1561868872
    nsecs: 496207842
  frame_id: "ti_mmwave"
point_id: 13
x: 2.626953125
y: -0.17578125
z: 1.017578125
range: 3.00681090355
velocity: 0.0
doppler_bin: 8
bearing: -3.82821130753
intensity: 28.8705444336
---
header: 
  seq: 1683554
  stamp: 
    secs: 1561868872
    nsecs: 496216901
  frame_id: "ti_mmwave"
point_id: 14
x: 2.6640625
y: -0.1796875
z: 1.033203125
range: 3.05038785934
velocity: 0.0
doppler_bin: 8
bearing: -3.85868024826
intensity: 32.1642990112
---
header: 
  seq: 1683555
  stamp: 
    secs: 1561868872
    nsecs: 496237699
  frame_id: "ti_mmwave"
point_id: 15
x: 2.759765625
y: -0.08984375
z: 0.90234375
range: 3.09396481514
velocity: 0.0
doppler_bin: 8
bearing: -1.86459684372
intensity: 31.2742881775
---
header: 
  seq: 1683556
  stamp: 
    secs: 1561868872
    nsecs: 496254587
  frame_id: "ti_mmwave"
point_id: 16
x: 4.412109375
y: -0.142578125
z: 1.224609375
range: 4.88062095642
velocity: 0.0
doppler_bin: 8
bearing: -1.85087943077
intensity: 29.8136558533
---
header: 
  seq: 1683557
  stamp: 
    secs: 1561868872
    nsecs: 496269235
  frame_id: "ti_mmwave"
point_id: 17
x: 4.455078125
y: -0.0
z: 1.228515625
range: 4.9241976738
velocity: 0.0
doppler_bin: 8
bearing: -0.0
intensity: 29.7081165314
---
header: 
  seq: 1683558
  stamp: 
    secs: 1561868872
    nsecs: 496283355
  frame_id: "ti_mmwave"
point_id: 18
x: 4.744140625
y: -0.298828125
z: -0.556640625
range: 5.09850549698
velocity: 0.0
doppler_bin: 8
bearing: -3.60423564911
intensity: 32.8352737427
---
header: 
  seq: 1683559
  stamp: 
    secs: 1561868872
    nsecs: 496297007
  frame_id: "ti_mmwave"
point_id: 19
x: 4.78515625
y: -0.150390625
z: -0.62109375
range: 5.14208269119
velocity: 0.0
doppler_bin: 8
bearing: -1.80013203621
intensity: 33.0792388916
---
header: 
  seq: 1683560
  stamp: 
    secs: 1561868872
    nsecs: 496312607
  frame_id: "ti_mmwave"
point_id: 21
x: 0.041015625
y: -0.033203125
z: 0.0625
range: 0.0871539413929
velocity: 0.0
doppler_bin: 8
bearing: -38.9909973145
intensity: 30.0902576447
---
header: 
  seq: 1683561
  stamp: 
    secs: 1561868872
    nsecs: 496478228
  frame_id: "ti_mmwave"
point_id: 22
x: 0.044921875
y: -0.046875
z: 0.103515625
range: 0.130730912089
velocity: 0.0
doppler_bin: 8
bearing: -46.218875885
intensity: 29.0091304779
---
header: 
  seq: 1683562
  stamp: 
    secs: 1561868872
    nsecs: 496501270
  frame_id: "ti_mmwave"
point_id: 24
x: 1.220703125
y: 0.4609375
z: 1.298828125
range: 1.96096372604
velocity: 0.0
doppler_bin: 8
bearing: 20.6865367889
intensity: 26.4542236328
---
header: 
  seq: 1683563
  stamp: 
    secs: 1561868872
    nsecs: 555883551
  frame_id: "ti_mmwave"
point_id: 0
x: 0.01171875
y: -0.0390625
z: -0.0078125
range: 0.0435769706964
velocity: 0.0
doppler_bin: 8
bearing: -73.3007583618
intensity: 30.6370849609
---
header: 
  seq: 1683564
  stamp: 
    secs: 1561868872
    nsecs: 555986878
  frame_id: "ti_mmwave"
point_id: 1
x: 0.017578125
y: -0.080078125
z: -0.0078125
range: 0.0871539413929
velocity: 0.0
doppler_bin: 8
bearing: -77.6192398071
intensity: 31.8977088928
---
header: 
  seq: 1683565
  stamp: 
    secs: 1561868872
    nsecs: 556000817
  frame_id: "ti_mmwave"
point_id: 2
x: 0.029296875
y: -0.119140625
z: -0.005859375
range: 0.130730912089
velocity: 0.0
doppler_bin: 8
bearing: -76.1849746704
intensity: 30.1157035828
---
header: 
  seq: 1683566
  stamp: 
    secs: 1561868872
    nsecs: 556009589
  frame_id: "ti_mmwave"
point_id: 3
x: 0.056640625
y: -0.154296875
z: 0.005859375
range: 0.174307882786
velocity: 0.0
doppler_bin: 8
bearing: -69.8423843384
intensity: 25.4530715942
---
header: 
  seq: 1683567
  stamp: 
    secs: 1561868872
    nsecs: 556159746
  frame_id: "ti_mmwave"
point_id: 4
x: 0.193359375
y: -0.080078125
z: 1.25
range: 1.35088610649
velocity: 0.0
doppler_bin: 8
bearing: -22.496471405
intensity: 23.1175384521
---
header: 
  seq: 1683568
  stamp: 
    secs: 1561868872
    nsecs: 556195330
  frame_id: "ti_mmwave"
point_id: 5
x: 0.08203125
y: -0.08203125
z: 1.3046875
range: 1.39446306229
velocity: 0.0
doppler_bin: 8
bearing: -45.0
intensity: 24.6389293671
---
header: 
  seq: 1683569
  stamp: 
    secs: 1561868872
    nsecs: 556207198
  frame_id: "ti_mmwave"
point_id: 6
x: 0.4296875
y: -0.083984375
z: -1.27734375
range: 1.43804001808
velocity: 0.0
doppler_bin: 8
bearing: -11.0592975616
intensity: 23.1175384521
---
header: 
  seq: 1683570
  stamp: 
    secs: 1561868872
    nsecs: 556258533
  frame_id: "ti_mmwave"
point_id: 7
x: 1.576171875
y: 0.05078125
z: -0.236328125
range: 1.69950187206
velocity: 0.0
doppler_bin: 8
bearing: 1.84532225132
intensity: 29.1169013977
---
header: 
  seq: 1683571
  stamp: 
    secs: 1561868872
    nsecs: 556268429
  frame_id: "ti_mmwave"
point_id: 8
x: 1.607421875
y: 0.1015625
z: -0.283203125
range: 1.74307882786
velocity: 0.0
doppler_bin: 8
bearing: 3.61534047127
intensity: 30.8278541565
---
header: 
  seq: 1683572
  stamp: 
    secs: 1561868872
    nsecs: 556280931
  frame_id: "ti_mmwave"
point_id: 9
x: 1.740234375
y: 0.39453125
z: 0.2421875
range: 1.91738677025
velocity: 0.0
doppler_bin: 8
bearing: 12.77368927
intensity: 28.2865982056
---
header: 
  seq: 1683573
  stamp: 
    secs: 1561868872
    nsecs: 556300444
  frame_id: "ti_mmwave"
point_id: 10
x: 1.76953125
y: 0.40234375
z: 0.302734375
range: 1.96096372604
velocity: 0.0
doppler_bin: 8
bearing: 12.8097324371
intensity: 28.3442077637
---
header: 
  seq: 1683574
  stamp: 
    secs: 1561868872
    nsecs: 556353955
  frame_id: "ti_mmwave"
point_id: 11
x: 2.619140625
y: -0.17578125
z: 1.037109375
range: 3.00681090355
velocity: 0.0
doppler_bin: 8
bearing: -3.83959650993
intensity: 28.9927310944
---
header: 
  seq: 1683575
  stamp: 
    secs: 1561868872
    nsecs: 556367221
  frame_id: "ti_mmwave"
point_id: 12
x: 2.66015625
y: -0.1796875
z: 1.044921875
range: 3.05038785934
velocity: 0.0
doppler_bin: 8
bearing: -3.86432933807
intensity: 32.166934967
---
header: 
  seq: 1683576
  stamp: 
    secs: 1561868872
    nsecs: 556378562
  frame_id: "ti_mmwave"
point_id: 13
x: 2.7578125
y: -0.08984375
z: 0.908203125
range: 3.09396481514
velocity: 0.0
doppler_bin: 8
bearing: -1.86591637135
intensity: 31.1226978302
---
header: 
  seq: 1683577
  stamp: 
    secs: 1561868872
    nsecs: 556389276
  frame_id: "ti_mmwave"
point_id: 14
x: 4.71484375
y: -0.296875
z: -0.44140625
range: 5.0549287796
velocity: 0.0
doppler_bin: 8
bearing: -3.60293149948
intensity: 28.8592624664
---
header: 
  seq: 1683578
  stamp: 
    secs: 1561868872
    nsecs: 556400667
  frame_id: "ti_mmwave"
point_id: 15
x: 4.7421875
y: -0.298828125
z: -0.576171875
range: 5.09850549698
velocity: 0.0
doppler_bin: 8
bearing: -3.60571622849
intensity: 33.0146408081
---
header: 
  seq: 1683579
  stamp: 
    secs: 1561868872
    nsecs: 556415444
  frame_id: "ti_mmwave"
point_id: 16
x: 4.77734375
y: -0.150390625
z: -0.66796875
range: 5.14208269119
velocity: 0.0
doppler_bin: 8
bearing: -1.80307364464
intensity: 33.3142738342
---
header: 
  seq: 1683580
  stamp: 
    secs: 1561868872
    nsecs: 556425630
  frame_id: "ti_mmwave"
point_id: 17
x: 4.7890625
y: -0.3046875
z: -0.8203125
range: 5.18565940857
velocity: 0.0
doppler_bin: 8
bearing: -3.64033937454
intensity: 29.9651165009
---
header: 
  seq: 1683581
  stamp: 
    secs: 1561868872
    nsecs: 556484162
  frame_id: "ti_mmwave"
point_id: 18
x: 1.669921875
y: -0.0
z: 0.40625
range: 1.83023273945
velocity: 0.614668667316
doppler_bin: 9
bearing: -0.0
intensity: 25.6820163727
---
header: 
  seq: 1683582
  stamp: 
    secs: 1561868872
    nsecs: 556529635
  frame_id: "ti_mmwave"
point_id: 19
x: 1.634765625
y: 0.10546875
z: -0.361328125
range: 1.78665578365
velocity: -0.614668667316
doppler_bin: 7
bearing: 3.69138598442
intensity: 28.7563991547
---
header: 
  seq: 1683583
  stamp: 
    secs: 1561868872
    nsecs: 556578204
  frame_id: "ti_mmwave"
point_id: 21
x: 0.041015625
y: -0.033203125
z: 0.0625
range: 0.0871539413929
velocity: 0.0
doppler_bin: 8
bearing: -38.9909973145
intensity: 30.0860023499
---
header: 
  seq: 1683584
  stamp: 
    secs: 1561868872
    nsecs: 556726048
  frame_id: "ti_mmwave"
point_id: 22
x: 0.046875
y: -0.046875
z: 0.103515625
range: 0.130730912089
velocity: 0.0
doppler_bin: 8
bearing: -45.0
intensity: 29.0036716461
---
header: 
  seq: 1683585
  stamp: 
    secs: 1561868872
    nsecs: 556747108
  frame_id: "ti_mmwave"
point_id: 24
x: 4.765625
y: -0.453125
z: -0.6171875
range: 5.14208269119
velocity: 0.0
doppler_bin: 8
bearing: -5.43146705627
intensity: 33.3041381836
---
header: 
  seq: 1683586
  stamp: 
    secs: 1561868872
    nsecs: 557299825
  frame_id: "ti_mmwave"
point_id: 0
x: 0.01171875
y: -0.0390625
z: -0.0078125
range: 0.0435769706964
velocity: 0.0
doppler_bin: 8
bearing: -73.3007583618
intensity: 30.6408348083
---
header: 
  seq: 1683587
  stamp: 
    secs: 1561868872
    nsecs: 557359611
  frame_id: "ti_mmwave"
point_id: 1
x: 0.017578125
y: -0.080078125
z: -0.0078125
range: 0.0871539413929
velocity: 0.0
doppler_bin: 8
bearing: -77.6192398071
intensity: 31.9005146027
---
header: 
  seq: 1683588
  stamp: 
    secs: 1561868872
    nsecs: 557377089
  frame_id: "ti_mmwave"
point_id: 2
x: 0.029296875
y: -0.119140625
z: -0.005859375
range: 0.130730912089
velocity: 0.0
doppler_bin: 8
bearing: -76.1849746704
intensity: 30.1157035828
---
header: 
  seq: 1683589
  stamp: 
    secs: 1561868872
    nsecs: 557390954
  frame_id: "ti_mmwave"
point_id: 3
x: 0.056640625
y: -0.154296875
z: 0.0078125
range: 0.174307882786
velocity: 0.0
doppler_bin: 8
bearing: -69.8423843384
intensity: 25.4406795502
---
header: 
  seq: 1683590
  stamp: 
    secs: 1561868872
    nsecs: 557404608
  frame_id: "ti_mmwave"
point_id: 4
x: 0.140625
y: -0.080078125
z: 1.2578125
range: 1.35088610649
velocity: 0.0
doppler_bin: 8
bearing: -29.6591091156
intensity: 23.1175384521
---
header: 
  seq: 1683591
  stamp: 
    secs: 1561868872
    nsecs: 557476880
  frame_id: "ti_mmwave"
point_id: 6
x: 0.40234375
y: -0.083984375
z: -1.28515625
range: 1.43804001808
velocity: 0.0
doppler_bin: 8
bearing: -11.7905015945
intensity: 23.0963020325
---
header: 
  seq: 1683592
  stamp: 
    secs: 1561868872
    nsecs: 557490854
  frame_id: "ti_mmwave"
point_id: 7
x: 0.572265625
y: -0.04296875
z: -1.267578125
range: 1.48161697388
velocity: 0.0
doppler_bin: 8
bearing: -4.29401493073
intensity: 21.7318630219
---
header: 
  seq: 1683593
  stamp: 
    secs: 1561868872
    nsecs: 557500738
  frame_id: "ti_mmwave"
point_id: 8
x: 1.58984375
y: 0.05078125
z: -0.11328125
range: 1.69950187206
velocity: 0.0
doppler_bin: 8
bearing: 1.82946419716
intensity: 29.0794849396
---
header: 
  seq: 1683594
  stamp: 
    secs: 1561868872
    nsecs: 557516115
  frame_id: "ti_mmwave"
point_id: 9
x: 1.634765625
y: 0.05078125
z: -0.068359375
range: 1.74307882786
velocity: 0.0
doppler_bin: 8
bearing: 1.77922511101
intensity: 31.2450428009
---
header: 
  seq: 1683595
  stamp: 
    secs: 1561868872
    nsecs: 557570964
  frame_id: "ti_mmwave"
point_id: 10
x: 1.67578125
y: 0.052734375
z: -0.048828125
range: 1.78665578365
velocity: 0.0
doppler_bin: 8
bearing: 1.80241930485
intensity: 29.9211139679
---
header: 
  seq: 1683596
  stamp: 
    secs: 1561868872
    nsecs: 557589084
  frame_id: "ti_mmwave"
point_id: 11
x: 2.623046875
y: -0.17578125
z: 1.02734375
range: 3.00681090355
velocity: 0.0
doppler_bin: 8
bearing: -3.83389568329
intensity: 29.2685680389
---
header: 
  seq: 1683597
  stamp: 
    secs: 1561868872
    nsecs: 557601788
  frame_id: "ti_mmwave"
point_id: 12
x: 2.69140625
y: -0.08984375
z: 0.970703125
range: 3.05038785934
velocity: 0.0
doppler_bin: 8
bearing: -1.91192126274
intensity: 32.2659988403
---
header: 
  seq: 1683598
  stamp: 
    secs: 1561868872
    nsecs: 557612875
  frame_id: "ti_mmwave"
point_id: 13
x: 2.75390625
y: -0.08984375
z: 0.919921875
range: 3.09396481514
velocity: 0.0
doppler_bin: 8
bearing: -1.86856126785
intensity: 31.306552887
---
header: 
  seq: 1683599
  stamp: 
    secs: 1561868872
    nsecs: 557627403
  frame_id: "ti_mmwave"
point_id: 14
x: 4.375
y: -0.142578125
z: 1.205078125
range: 4.83704376221
velocity: 0.0
doppler_bin: 8
bearing: -1.86656796932
intensity: 28.3058872223
---
header: 
  seq: 1683600
  stamp: 
    secs: 1561868872
    nsecs: 557639028
  frame_id: "ti_mmwave"
point_id: 15
x: 4.39453125
y: -0.142578125
z: 1.28515625
range: 4.88062095642
velocity: 0.0
doppler_bin: 8
bearing: -1.8582777977
intensity: 31.6820278168
---
header: 
  seq: 1683601
  stamp: 
    secs: 1561868872
    nsecs: 557651755
  frame_id: "ti_mmwave"
point_id: 16
x: 4.421875
y: -0.14453125
z: 1.341796875
range: 4.9241976738
velocity: 0.0
doppler_bin: 8
bearing: -1.87207520008
intensity: 31.1394329071
---
header: 
  seq: 1683602
  stamp: 
    secs: 1561868872
    nsecs: 557663736
  frame_id: "ti_mmwave"
point_id: 17
x: 4.751953125
y: -0.298828125
z: -0.484375
range: 5.09850549698
velocity: 0.0
doppler_bin: 8
bearing: -3.59832549095
intensity: 32.8194198608
---
header: 
  seq: 1683603
  stamp: 
    secs: 1561868872
    nsecs: 557677259
  frame_id: "ti_mmwave"
point_id: 18
x: 4.796875
y: -0.30078125
z: -0.453125
range: 5.14208269119
velocity: 0.0
doppler_bin: 8
bearing: -3.58795309067
intensity: 33.2489967346
---
header: 
  seq: 1683604
  stamp: 
    secs: 1561868872
    nsecs: 557709505
  frame_id: "ti_mmwave"
point_id: 19
x: 4.87890625
y: -0.154296875
z: 0.81640625
range: 5.27281332016
velocity: 0.0
doppler_bin: 8
bearing: -1.81139242649
intensity: 31.4798526764
---
header: 
  seq: 1683605
  stamp: 
    secs: 1561868872
    nsecs: 557724643
  frame_id: "ti_mmwave"
point_id: 20
x: 4.96875
y: -0.46875
z: 0.0625
range: 5.31639051437
velocity: 0.0
doppler_bin: 8
bearing: -5.38931179047
intensity: 29.5036487579
---
header: 
  seq: 1683606
  stamp: 
    secs: 1561868872
    nsecs: 557742729
  frame_id: "ti_mmwave"
point_id: 22
x: 0.041015625
y: -0.033203125
z: 0.0625
range: 0.0871539413929
velocity: 0.0
doppler_bin: 8
bearing: -38.9909973145
intensity: 30.0902576447
---
header: 
  seq: 1683607
  stamp: 
    secs: 1561868872
    nsecs: 557756366
  frame_id: "ti_mmwave"
point_id: 23
x: 0.044921875
y: -0.046875
z: 0.103515625
range: 0.130730912089
velocity: 0.0
doppler_bin: 8
bearing: -46.218875885
intensity: 29.0091304779
---
header: 
  seq: 1683608
  stamp: 
    secs: 1561868872
    nsecs: 615896107
  frame_id: "ti_mmwave"
point_id: 0
x: 0.01171875
y: -0.0390625
z: -0.0078125
range: 0.0435769706964
velocity: 0.0
doppler_bin: 8
bearing: -73.3007583618
intensity: 30.6445808411
---
header: 
  seq: 1683609
  stamp: 
    secs: 1561868872
    nsecs: 616037472
  frame_id: "ti_mmwave"
point_id: 1
x: 0.017578125
y: -0.080078125
z: -0.0078125
range: 0.0871539413929
velocity: 0.0
doppler_bin: 8
bearing: -77.6192398071
intensity: 31.9005146027
---
header: 
  seq: 1683610
  stamp: 
    secs: 1561868872
    nsecs: 616056405
  frame_id: "ti_mmwave"
point_id: 2
x: 0.029296875
y: -0.119140625
z: -0.005859375
range: 0.130730912089
velocity: 0.0
doppler_bin: 8
bearing: -76.1849746704
intensity: 30.1114730835
---
header: 
  seq: 1683611
  stamp: 
    secs: 1561868872
    nsecs: 616072147
  frame_id: "ti_mmwave"
point_id: 3
x: 0.056640625
y: -0.154296875
z: 0.005859375
range: 0.174307882786
velocity: 0.0
doppler_bin: 8
bearing: -69.8423843384
intensity: 25.4406795502
---
header: 
  seq: 1683612
  stamp: 
    secs: 1561868872
    nsecs: 616090440
  frame_id: "ti_mmwave"
point_id: 4
x: 0.21484375
y: -0.080078125
z: 1.248046875
range: 1.35088610649
velocity: 0.0
doppler_bin: 8
bearing: -20.4417972565
intensity: 23.1175384521
---
header: 
  seq: 1683613
  stamp: 
    secs: 1561868872
    nsecs: 616179537
  frame_id: "ti_mmwave"
point_id: 5
x: 0.111328125
y: -0.08203125
z: 1.30078125
range: 1.39446306229
velocity: 0.0
doppler_bin: 8
bearing: -36.3843536377
intensity: 24.6538276672
---
header: 
  seq: 1683614
  stamp: 
    secs: 1561868872
    nsecs: 616195740
  frame_id: "ti_mmwave"
point_id: 6
x: 0.404296875
y: -0.083984375
z: -1.28515625
range: 1.43804001808
velocity: 0.0
doppler_bin: 8
bearing: -11.7351255417
intensity: 23.138671875
---
header: 
  seq: 1683615
  stamp: 
    secs: 1561868872
    nsecs: 616208960
  frame_id: "ti_mmwave"
point_id: 7
x: 0.541015625
y: -0.04296875
z: -1.279296875
range: 1.48161697388
velocity: 0.0
doppler_bin: 8
bearing: -4.54103565216
intensity: 21.7026176453
---
header: 
  seq: 1683616
  stamp: 
    secs: 1561868872
    nsecs: 616222372
  frame_id: "ti_mmwave"
point_id: 8
x: 1.57421875
y: 0.099609375
z: -0.244140625
range: 1.69950187206
velocity: 0.0
doppler_bin: 8
bearing: 3.62058854103
intensity: 28.1424751282
---
header: 
  seq: 1683617
  stamp: 
    secs: 1561868872
    nsecs: 616235585
  frame_id: "ti_mmwave"
point_id: 9
x: 1.619140625
y: 0.1015625
z: -0.21875
range: 1.74307882786
velocity: 0.0
doppler_bin: 8
bearing: 3.58924269676
intensity: 28.3758850098
---
header: 
  seq: 1683618
  stamp: 
    secs: 1561868872
    nsecs: 616248668
  frame_id: "ti_mmwave"
point_id: 10
x: 1.673828125
y: 0.10546875
z: 0.048828125
range: 1.78665578365
velocity: 0.0
doppler_bin: 8
bearing: 3.60546898842
intensity: 26.981004715
---
header: 
  seq: 1683619
  stamp: 
    secs: 1561868872
    nsecs: 616263531
  frame_id: "ti_mmwave"
point_id: 11
x: 1.69921875
y: 0.052734375
z: 0.24609375
range: 1.83023273945
velocity: 0.0
doppler_bin: 8
bearing: 1.77757430077
intensity: 26.6464195251
---
header: 
  seq: 1683620
  stamp: 
    secs: 1561868872
    nsecs: 616278519
  frame_id: "ti_mmwave"
point_id: 12
x: 2.615234375
y: -0.17578125
z: 1.048828125
range: 3.00681090355
velocity: 0.0
doppler_bin: 8
bearing: -3.84531402588
intensity: 29.1062431335
---
header: 
  seq: 1683621
  stamp: 
    secs: 1561868872
    nsecs: 616291919
  frame_id: "ti_mmwave"
point_id: 13
x: 2.69140625
y: -0.08984375
z: 0.9765625
range: 3.05038785934
velocity: 0.0
doppler_bin: 8
bearing: -1.91192126274
intensity: 32.2505073547
---
header: 
  seq: 1683622
  stamp: 
    secs: 1561868872
    nsecs: 616301298
  frame_id: "ti_mmwave"
point_id: 14
x: 2.75390625
y: -0.08984375
z: 0.919921875
range: 3.09396481514
velocity: 0.0
doppler_bin: 8
bearing: -1.86856126785
intensity: 31.2904510498
---
header: 
  seq: 1683623
  stamp: 
    secs: 1561868872
    nsecs: 616366477
  frame_id: "ti_mmwave"
point_id: 15
x: 4.3828125
y: -0.142578125
z: 1.1796875
range: 4.83704376221
velocity: 0.0
doppler_bin: 8
bearing: -1.86324298382
intensity: 28.9872512817
---
header: 
  seq: 1683624
  stamp: 
    secs: 1561868872
    nsecs: 616381377
  frame_id: "ti_mmwave"
point_id: 16
x: 4.400390625
y: -0.142578125
z: 1.263671875
range: 4.88062095642
velocity: 0.0
doppler_bin: 8
bearing: -1.85580503941
intensity: 32.3121452332
---
header: 
  seq: 1683625
  stamp: 
    secs: 1561868872
    nsecs: 616395376
  frame_id: "ti_mmwave"
point_id: 17
x: 4.423828125
y: -0.14453125
z: 1.33203125
range: 4.9241976738
velocity: 0.0
doppler_bin: 8
bearing: -1.87124967575
intensity: 31.7782497406
---
header: 
  seq: 1683626
  stamp: 
    secs: 1561868872
    nsecs: 616410938
  frame_id: "ti_mmwave"
point_id: 18
x: 4.740234375
y: -0.298828125
z: -0.587890625
range: 5.09850549698
velocity: 0.0
doppler_bin: 8
bearing: -3.60719799995
intensity: 32.9578704834
---
header: 
  seq: 1683627
  stamp: 
    secs: 1561868872
    nsecs: 616423730
  frame_id: "ti_mmwave"
point_id: 19
x: 4.77734375
y: -0.30078125
z: -0.619140625
range: 5.14208269119
velocity: 0.0
doppler_bin: 8
bearing: -3.60258316994
intensity: 33.408405304
---
header: 
  seq: 1683628
  stamp: 
    secs: 1561868872
    nsecs: 616438891
  frame_id: "ti_mmwave"
point_id: 20
x: 4.869140625
y: -0.30859375
z: 0.83203125
range: 5.27281332016
velocity: 0.0
doppler_bin: 8
bearing: -3.62641048431
intensity: 30.6595306396
---
header: 
  seq: 1683629
  stamp: 
    secs: 1561868872
    nsecs: 616451943
  frame_id: "ti_mmwave"
point_id: 21
x: 4.94921875
y: -0.623046875
z: 0.15234375
range: 5.31639051437
velocity: 0.0
doppler_bin: 8
bearing: -7.17510271072
intensity: 29.6047077179
---
header: 
  seq: 1683630
  stamp: 
    secs: 1561868872
    nsecs: 616465348
  frame_id: "ti_mmwave"
point_id: 22
x: 1.599609375
y: 0.1015625
z: -0.330078125
range: 1.74307882786
velocity: -0.614668667316
doppler_bin: 7
bearing: 3.63295125961
intensity: 28.6093654633
---
header: 
  seq: 1683631
  stamp: 
    secs: 1561868872
    nsecs: 616478656
  frame_id: "ti_mmwave"
point_id: 24
x: 0.041015625
y: -0.033203125
z: 0.0625
range: 0.0871539413929
velocity: 0.0
doppler_bin: 8
bearing: -38.9909973145
intensity: 30.0945091248
---
header: 
  seq: 1683632
  stamp: 
    secs: 1561868872
    nsecs: 616730371
  frame_id: "ti_mmwave"
point_id: 25
x: 0.044921875
y: -0.046875
z: 0.103515625
range: 0.130730912089
velocity: 0.0
doppler_bin: 8
bearing: -46.218875885
intensity: 29.0091304779
---
header: 
  seq: 1683633
  stamp: 
    secs: 1561868872
    nsecs: 617643190
  frame_id: "ti_mmwave"
point_id: 0
x: 0.01171875
y: -0.0390625
z: -0.0078125
range: 0.0435769706964
velocity: 0.0
doppler_bin: 8
bearing: -73.3007583618
intensity: 30.6445808411
---
header: 
  seq: 1683634
  stamp: 
    secs: 1561868872
    nsecs: 617699998
  frame_id: "ti_mmwave"
point_id: 1
x: 0.017578125
y: -0.080078125
z: -0.0078125
range: 0.0871539413929
velocity: 0.0
doppler_bin: 8
bearing: -77.6192398071
intensity: 31.9005146027
---
header: 
  seq: 1683635
  stamp: 
    secs: 1561868872
    nsecs: 617719058
  frame_id: "ti_mmwave"
point_id: 2
x: 0.029296875
y: -0.119140625
z: -0.00390625
range: 0.130730912089
velocity: 0.0
doppler_bin: 8
bearing: -76.1849746704
intensity: 30.1157035828
---
header: 
  seq: 1683636
  stamp: 
    secs: 1561868872
    nsecs: 617742852
  frame_id: "ti_mmwave"
point_id: 3
x: 0.056640625
y: -0.154296875
z: 0.0078125
range: 0.174307882786
velocity: 0.0
doppler_bin: 8
bearing: -69.8423843384
intensity: 25.4406795502
---
header: 
  seq: 1683637
  stamp: 
    secs: 1561868872
    nsecs: 617828710
  frame_id: "ti_mmwave"
point_id: 4
x: 0.17578125
y: -0.080078125
z: 1.25390625
range: 1.35088610649
velocity: 0.0
doppler_bin: 8
bearing: -24.4919013977
intensity: 23.1175384521
---
header: 
  seq: 1683638
  stamp: 
    secs: 1561868872
    nsecs: 617856330
  frame_id: "ti_mmwave"
point_id: 5
x: 0.095703125
y: -0.08203125
z: 1.302734375
range: 1.39446306229
velocity: 0.0
doppler_bin: 8
bearing: -40.6012954712
intensity: 24.6239795685
---
header: 
  seq: 1683639
  stamp: 
    secs: 1561868872
    nsecs: 617873531
  frame_id: "ti_mmwave"
point_id: 6
x: 0.419921875
y: -0.083984375
z: -1.279296875
range: 1.43804001808
velocity: 0.0
doppler_bin: 8
bearing: -11.3099327087
intensity: 23.0963020325
---
header: 
  seq: 1683640
  stamp: 
    secs: 1561868872
    nsecs: 617900803
  frame_id: "ti_mmwave"
point_id: 7
x: 1.54296875
y: -0.0
z: -0.1875
range: 1.65592491627
velocity: 0.0
doppler_bin: 8
bearing: -0.0
intensity: 27.1850166321
---
header: 
  seq: 1683641
  stamp: 
    secs: 1561868872
    nsecs: 617945544
  frame_id: "ti_mmwave"
point_id: 8
x: 1.58203125
y: 0.099609375
z: -0.1796875
range: 1.69950187206
velocity: 0.0
doppler_bin: 8
bearing: 3.60275626183
intensity: 30.9025802612
---
header: 
  seq: 1683642
  stamp: 
    secs: 1561868872
    nsecs: 617960014
  frame_id: "ti_mmwave"
point_id: 9
x: 1.619140625
y: 0.154296875
z: -0.1875
range: 1.74307882786
velocity: 0.0
doppler_bin: 8
bearing: 5.44359350204
intensity: 31.7318630219
---
header: 
  seq: 1683643
  stamp: 
    secs: 1561868872
    nsecs: 617973299
  frame_id: "ti_mmwave"
point_id: 10
x: 1.650390625
y: 0.208984375
z: -0.208984375
range: 1.78665578365
velocity: 0.0
doppler_bin: 8
bearing: 7.216796875
intensity: 30.4060230255
---
header: 
  seq: 1683644
  stamp: 
    secs: 1561868872
    nsecs: 617987690
  frame_id: "ti_mmwave"
point_id: 11
x: 2.623046875
y: -0.17578125
z: 1.029296875
range: 3.00681090355
velocity: 0.0
doppler_bin: 8
bearing: -3.83389568329
intensity: 29.2941894531
---
header: 
  seq: 1683645
  stamp: 
    secs: 1561868872
    nsecs: 618012205
  frame_id: "ti_mmwave"
point_id: 12
x: 2.6640625
y: -0.1796875
z: 1.037109375
range: 3.05038785934
velocity: 0.0
doppler_bin: 8
bearing: -3.85868024826
intensity: 32.2916984558
---
header: 
  seq: 1683646
  stamp: 
    secs: 1561868872
    nsecs: 618025426
  frame_id: "ti_mmwave"
point_id: 13
x: 2.759765625
y: -0.08984375
z: 0.8984375
range: 3.09396481514
velocity: 0.0
doppler_bin: 8
bearing: -1.86459684372
intensity: 31.2645606995
---
header: 
  seq: 1683647
  stamp: 
    secs: 1561868872
    nsecs: 618037259
  frame_id: "ti_mmwave"
point_id: 14
x: 4.388671875
y: -0.142578125
z: 1.15625
range: 4.83704376221
velocity: 0.0
doppler_bin: 8
bearing: -1.86075723171
intensity: 28.9707698822
---
header: 
  seq: 1683648
  stamp: 
    secs: 1561868872
    nsecs: 618048886
  frame_id: "ti_mmwave"
point_id: 15
x: 4.40625
y: -0.142578125
z: 1.24609375
range: 4.88062095642
velocity: 0.0
doppler_bin: 8
bearing: -1.85333895683
intensity: 32.3502311707
---
header: 
  seq: 1683649
  stamp: 
    secs: 1561868872
    nsecs: 618059735
  frame_id: "ti_mmwave"
point_id: 16
x: 4.431640625
y: -0.14453125
z: 1.30859375
range: 4.9241976738
velocity: 0.0
doppler_bin: 8
bearing: -1.86795306206
intensity: 31.7926445007
---
header: 
  seq: 1683650
  stamp: 
    secs: 1561868872
    nsecs: 618077687
  frame_id: "ti_mmwave"
point_id: 17
x: 4.74609375
y: -0.44921875
z: -0.421875
range: 5.09850549698
velocity: 0.0
doppler_bin: 8
bearing: -5.40694952011
intensity: 32.7760925293
---
header: 
  seq: 1683651
  stamp: 
    secs: 1561868872
    nsecs: 618095089
  frame_id: "ti_mmwave"
point_id: 18
x: 4.796875
y: -0.30078125
z: -0.435546875
range: 5.14208269119
velocity: 0.0
doppler_bin: 8
bearing: -3.58795309067
intensity: 33.6040420532
---
header: 
  seq: 1683652
  stamp: 
    secs: 1561868872
    nsecs: 618145959
  frame_id: "ti_mmwave"
point_id: 19
x: 4.818359375
y: -0.3046875
z: -0.623046875
range: 5.18565940857
velocity: 0.0
doppler_bin: 8
bearing: -3.61826372147
intensity: 30.5115261078
---
header: 
  seq: 1683653
  stamp: 
    secs: 1561868872
    nsecs: 618163018
  frame_id: "ti_mmwave"
point_id: 20
x: 4.87109375
y: -0.30859375
z: 0.822265625
range: 5.27281332016
velocity: 0.0
doppler_bin: 8
bearing: -3.62496066093
intensity: 30.5230903625
---
header: 
  seq: 1683654
  stamp: 
    secs: 1561868872
    nsecs: 618176580
  frame_id: "ti_mmwave"
point_id: 21
x: 4.947265625
y: -0.623046875
z: 0.197265625
range: 5.31639051437
velocity: 0.0
doppler_bin: 8
bearing: -7.17790555954
intensity: 28.9542255402
---
header: 
  seq: 1683655
  stamp: 
    secs: 1561868872
    nsecs: 618191334
  frame_id: "ti_mmwave"
point_id: 23
x: 0.041015625
y: -0.033203125
z: 0.0625
range: 0.0871539413929
velocity: 0.0
doppler_bin: 8
bearing: -38.9909973145
intensity: 30.0902576447
---
header: 
  seq: 1683656
  stamp: 
    secs: 1561868872
    nsecs: 618202806
  frame_id: "ti_mmwave"
point_id: 24
x: 0.044921875
y: -0.046875
z: 0.103515625
range: 0.130730912089
velocity: 0.0
doppler_bin: 8
bearing: -46.218875885
intensity: 29.0036716461
---
header: 
  seq: 1683657
  stamp: 
    secs: 1561868872
    nsecs: 675872414
  frame_id: "ti_mmwave"
point_id: 0
x: 0.01171875
y: -0.0390625
z: -0.0078125
range: 0.0435769706964
velocity: 0.0
doppler_bin: 8
bearing: -73.3007583618
intensity: 30.6445808411
---
header: 
  seq: 1683658
  stamp: 
    secs: 1561868872
    nsecs: 675982590
  frame_id: "ti_mmwave"
point_id: 1
x: 0.017578125
y: -0.080078125
z: -0.0078125
range: 0.0871539413929
velocity: 0.0
doppler_bin: 8
bearing: -77.6192398071
intensity: 31.8977088928
---
header: 
  seq: 1683659
  stamp: 
    secs: 1561868872
    nsecs: 676004453
  frame_id: "ti_mmwave"
point_id: 2
x: 0.029296875
y: -0.119140625
z: -0.005859375
range: 0.130730912089
velocity: 0.0
doppler_bin: 8
bearing: -76.1849746704
intensity: 30.1114730835
---
header: 
  seq: 1683660
  stamp: 
    secs: 1561868872
    nsecs: 676018412
  frame_id: "ti_mmwave"
point_id: 3
x: 0.056640625
y: -0.154296875
z: 0.0078125
range: 0.174307882786
velocity: 0.0
doppler_bin: 8
bearing: -69.8423843384
intensity: 25.4530715942
---
header: 
  seq: 1683661
  stamp: 
    secs: 1561868872
    nsecs: 676091141
  frame_id: "ti_mmwave"
point_id: 4
x: 0.15625
y: -0.080078125
z: 1.255859375
range: 1.35088610649
velocity: 0.0
doppler_bin: 8
bearing: -27.1351394653
intensity: 23.1175384521
---
header: 
  seq: 1683662
  stamp: 
    secs: 1561868872
    nsecs: 676104558
  frame_id: "ti_mmwave"
point_id: 5
x: 0.0859375
y: -0.08203125
z: 1.302734375
range: 1.39446306229
velocity: 0.0
doppler_bin: 8
bearing: -43.6677780151
intensity: 24.6239795685
---
header: 
  seq: 1683663
  stamp: 
    secs: 1561868872
    nsecs: 676116262
  frame_id: "ti_mmwave"
point_id: 6
x: 0.390625
y: -0.083984375
z: -1.2890625
range: 1.43804001808
velocity: 0.0
doppler_bin: 8
bearing: -12.1338806152
intensity: 23.0963020325
---
header: 
  seq: 1683664
  stamp: 
    secs: 1561868872
    nsecs: 676126775
  frame_id: "ti_mmwave"
point_id: 7
x: 0.525390625
y: -0.04296875
z: -1.287109375
range: 1.48161697388
velocity: 0.0
doppler_bin: 8
bearing: -4.67549467087
intensity: 21.7609119415
---
header: 
  seq: 1683665
  stamp: 
    secs: 1561868872
    nsecs: 676136949
  frame_id: "ti_mmwave"
point_id: 8
x: 1.546875
y: 0.048828125
z: -0.15234375
range: 1.65592491627
velocity: 0.0
doppler_bin: 8
bearing: 1.80797839165
intensity: 28.4633712769
---
header: 
  seq: 1683666
  stamp: 
    secs: 1561868872
    nsecs: 676149095
  frame_id: "ti_mmwave"
point_id: 9
x: 1.58984375
y: 0.05078125
z: -0.1328125
range: 1.69950187206
velocity: 0.0
doppler_bin: 8
bearing: 1.82946419716
intensity: 31.7026176453
---
header: 
  seq: 1683667
  stamp: 
    secs: 1561868872
    nsecs: 676159751
  frame_id: "ti_mmwave"
point_id: 10
x: 1.6328125
y: 0.05078125
z: -0.0859375
range: 1.74307882786
velocity: 0.0
doppler_bin: 8
bearing: 1.78135192394
intensity: 31.6076850891
---
header: 
  seq: 1683668
  stamp: 
    secs: 1561868872
    nsecs: 676173512
  frame_id: "ti_mmwave"
point_id: 11
x: 1.65234375
y: 0.158203125
z: -0.240234375
range: 1.78665578365
velocity: 0.0
doppler_bin: 8
bearing: 5.4690952301
intensity: 28.2672252655
---
header: 
  seq: 1683669
  stamp: 
    secs: 1561868872
    nsecs: 676185857
  frame_id: "ti_mmwave"
point_id: 12
x: 2.626953125
y: -0.17578125
z: 1.01953125
range: 3.00681090355
velocity: 0.0
doppler_bin: 8
bearing: -3.82821130753
intensity: 29.4250411987
---
header: 
  seq: 1683670
  stamp: 
    secs: 1561868872
    nsecs: 676199733
  frame_id: "ti_mmwave"
point_id: 13
x: 2.6640625
y: -0.1796875
z: 1.03515625
range: 3.05038785934
velocity: 0.0
doppler_bin: 8
bearing: -3.85868024826
intensity: 32.3854789734
---
header: 
  seq: 1683671
  stamp: 
    secs: 1561868872
    nsecs: 676223074
  frame_id: "ti_mmwave"
point_id: 14
x: 2.75390625
y: -0.08984375
z: 0.91796875
range: 3.09396481514
velocity: 0.0
doppler_bin: 8
bearing: -1.86856126785
intensity: 31.2645606995
---
header: 
  seq: 1683672
  stamp: 
    secs: 1561868872
    nsecs: 676245274
  frame_id: "ti_mmwave"
point_id: 15
x: 4.3515625
y: -0.142578125
z: 1.287109375
range: 4.83704376221
velocity: 0.0
doppler_bin: 8
bearing: -1.87661409378
intensity: 28.9153747559
---
header: 
  seq: 1683673
  stamp: 
    secs: 1561868872
    nsecs: 676266249
  frame_id: "ti_mmwave"
point_id: 16
x: 4.396484375
y: -0.142578125
z: 1.28125
range: 4.88062095642
velocity: 0.0
doppler_bin: 8
bearing: -1.85745286942
intensity: 32.2323608398
---
header: 
  seq: 1683674
  stamp: 
    secs: 1561868872
    nsecs: 676401929
  frame_id: "ti_mmwave"
point_id: 17
x: 4.4296875
y: -0.14453125
z: 1.3125
range: 4.9241976738
velocity: 0.0
doppler_bin: 8
bearing: -1.86877608299
intensity: 31.6435279846
---
header: 
  seq: 1683675
  stamp: 
    secs: 1561868872
    nsecs: 676435817
  frame_id: "ti_mmwave"
point_id: 18
x: 4.7578125
y: -0.298828125
z: -0.421875
range: 5.09850549698
velocity: 0.0
doppler_bin: 8
bearing: -3.59390544891
intensity: 32.4129753113
---
header: 
  seq: 1683676
  stamp: 
    secs: 1561868872
    nsecs: 676454059
  frame_id: "ti_mmwave"
point_id: 19
x: 4.794921875
y: -0.30078125
z: -0.466796875
range: 5.14208269119
velocity: 0.0
doppler_bin: 8
bearing: -3.5894112587
intensity: 33.0233078003
---
header: 
  seq: 1683677
  stamp: 
    secs: 1561868872
    nsecs: 676467530
  frame_id: "ti_mmwave"
point_id: 20
x: 4.8671875
y: -0.30859375
z: 0.8515625
range: 5.27281332016
velocity: 0.0
doppler_bin: 8
bearing: -3.62786221504
intensity: 30.2077541351
---
header: 
  seq: 1683678
  stamp: 
    secs: 1561868872
    nsecs: 676485506
  frame_id: "ti_mmwave"
point_id: 22
x: 0.041015625
y: -0.033203125
z: 0.0625
range: 0.0871539413929
velocity: 0.0
doppler_bin: 8
bearing: -38.9909973145
intensity: 30.0902576447
---
header: 
  seq: 1683679
  stamp: 
    secs: 1561868872
    nsecs: 676561461
  frame_id: "ti_mmwave"
point_id: 23
x: 0.044921875
y: -0.046875
z: 0.103515625
range: 0.130730912089
velocity: 0.0
doppler_bin: 8
bearing: -46.218875885
intensity: 29.0036716461
---
header: 
  seq: 1683680
  stamp: 
    secs: 1561868872
    nsecs: 677895174
  frame_id: "ti_mmwave"
point_id: 0
x: 0.01171875
y: -0.0390625
z: -0.0078125
range: 0.0435769706964
velocity: 0.0
doppler_bin: 8
bearing: -73.3007583618
intensity: 30.6483230591
---
header: 
  seq: 1683681
  stamp: 
    secs: 1561868872
    nsecs: 677947553
  frame_id: "ti_mmwave"
point_id: 1
x: 0.017578125
y: -0.080078125
z: -0.0078125
range: 0.0871539413929
velocity: 0.0
doppler_bin: 8
bearing: -77.6192398071
intensity: 31.9005146027
---
header: 
  seq: 1683682
  stamp: 
    secs: 1561868872
    nsecs: 677962248
  frame_id: "ti_mmwave"
point_id: 2
x: 0.029296875
y: -0.119140625
z: -0.00390625
range: 0.130730912089
velocity: 0.0
doppler_bin: 8
bearing: -76.1849746704
intensity: 30.1114730835
---
header: 
  seq: 1683683
  stamp: 
    secs: 1561868872
    nsecs: 677974074
  frame_id: "ti_mmwave"
point_id: 3
x: 0.056640625
y: -0.154296875
z: 0.005859375
range: 0.174307882786
velocity: 0.0
doppler_bin: 8
bearing: -69.8423843384
intensity: 25.4406795502
---
header: 
  seq: 1683684
  stamp: 
    secs: 1561868872
    nsecs: 677990907
  frame_id: "ti_mmwave"
point_id: 4
x: 0.1640625
y: -0.080078125
z: 1.25390625
range: 1.35088610649
velocity: 0.0
doppler_bin: 8
bearing: -26.0167827606
intensity: 23.1175384521
---
header: 
  seq: 1683685
  stamp: 
    secs: 1561868872
    nsecs: 678004899
  frame_id: "ti_mmwave"
point_id: 5
x: 0.01171875
y: -0.08203125
z: 1.306640625
range: 1.39446306229
velocity: 0.0
doppler_bin: 8
bearing: -81.8698959351
intensity: 24.6089782715
---
header: 
  seq: 1683686
  stamp: 
    secs: 1561868872
    nsecs: 678020475
  frame_id: "ti_mmwave"
point_id: 6
x: 0.396484375
y: -0.083984375
z: -1.287109375
range: 1.43804001808
velocity: 0.0
doppler_bin: 8
bearing: -11.9597616196
intensity: 23.0102996826
---
header: 
  seq: 1683687
  stamp: 
    secs: 1561868872
    nsecs: 678112855
  frame_id: "ti_mmwave"
point_id: 7
x: 0.5625
y: -0.04296875
z: -1.271484375
range: 1.48161697388
velocity: 0.0
doppler_bin: 8
bearing: -4.36827754974
intensity: 21.6731739044
---
header: 
  seq: 1683688
  stamp: 
    secs: 1561868872
    nsecs: 678125483
  frame_id: "ti_mmwave"
point_id: 8
x: 1.552734375
y: 0.048828125
z: -0.072265625
range: 1.65592491627
velocity: 0.0
doppler_bin: 8
bearing: 1.80116057396
intensity: 27.5204849243
---
header: 
  seq: 1683689
  stamp: 
    secs: 1561868872
    nsecs: 678135308
  frame_id: "ti_mmwave"
point_id: 9
x: 1.59375
y: 0.05078125
z: -0.041015625
range: 1.69950187206
velocity: 0.0
doppler_bin: 8
bearing: 1.82498347759
intensity: 31.020904541
---
header: 
  seq: 1683690
  stamp: 
    secs: 1561868872
    nsecs: 678146991
  frame_id: "ti_mmwave"
point_id: 10
x: 1.634765625
y: -0.0
z: 0.087890625
range: 1.74307882786
velocity: 0.0
doppler_bin: 8
bearing: -0.0
intensity: 29.7266559601
---
header: 
  seq: 1683691
  stamp: 
    secs: 1561868872
    nsecs: 678158642
  frame_id: "ti_mmwave"
point_id: 11
x: 1.634765625
y: 0.208984375
z: -0.310546875
range: 1.78665578365
velocity: 0.0
doppler_bin: 8
bearing: 7.28503608704
intensity: 28.8817958832
---
header: 
  seq: 1683692
  stamp: 
    secs: 1561868872
    nsecs: 678171263
  frame_id: "ti_mmwave"
point_id: 12
x: 1.7109375
y: 0.16015625
z: 0.017578125
range: 1.83023273945
velocity: 0.0
doppler_bin: 8
bearing: 5.34772062302
intensity: 30.5230903625
---
header: 
  seq: 1683693
  stamp: 
    secs: 1561868872
    nsecs: 678185479
  frame_id: "ti_mmwave"
point_id: 13
x: 1.73046875
y: 0.109375
z: 0.30078125
range: 1.87380969524
velocity: 0.0
doppler_bin: 8
bearing: 3.61659288406
intensity: 28.1358089447
---
header: 
  seq: 1683694
  stamp: 
    secs: 1561868872
    nsecs: 678198036
  frame_id: "ti_mmwave"
point_id: 14
x: 2.623046875
y: -0.17578125
z: 1.029296875
range: 3.00681090355
velocity: 0.0
doppler_bin: 8
bearing: -3.83389568329
intensity: 28.5003318787
---
header: 
  seq: 1683695
  stamp: 
    secs: 1561868872
    nsecs: 678209815
  frame_id: "ti_mmwave"
point_id: 15
x: 2.69140625
y: -0.08984375
z: 0.970703125
range: 3.05038785934
velocity: 0.0
doppler_bin: 8
bearing: -1.91192126274
intensity: 31.9312458038
---
header: 
  seq: 1683696
  stamp: 
    secs: 1561868872
    nsecs: 678316478
  frame_id: "ti_mmwave"
point_id: 16
x: 2.75390625
y: -0.08984375
z: 0.91796875
range: 3.09396481514
velocity: 0.0
doppler_bin: 8
bearing: -1.86856126785
intensity: 31.0720996857
---
header: 
  seq: 1683697
  stamp: 
    secs: 1561868872
    nsecs: 678344210
  frame_id: "ti_mmwave"
point_id: 17
x: 4.408203125
y: -0.0
z: 1.0859375
range: 4.83704376221
velocity: 0.0
doppler_bin: 8
bearing: -0.0
intensity: 28.7794704437
---
header: 
  seq: 1683698
  stamp: 
    secs: 1561868872
    nsecs: 678359058
  frame_id: "ti_mmwave"
point_id: 18
x: 4.4140625
y: -0.142578125
z: 1.220703125
range: 4.88062095642
velocity: 0.0
doppler_bin: 8
bearing: -1.850061059
intensity: 32.0736503601
---
header: 
  seq: 1683699
  stamp: 
    secs: 1561868872
    nsecs: 678372643
  frame_id: "ti_mmwave"
point_id: 19
x: 4.43359375
y: -0.14453125
z: 1.296875
range: 4.9241976738
velocity: 0.0
doppler_bin: 8
bearing: -1.86713063717
intensity: 31.430147171
---
header: 
  seq: 1683700
  stamp: 
    secs: 1561868872
    nsecs: 678386012
  frame_id: "ti_mmwave"
point_id: 20
x: 4.751953125
y: -0.298828125
z: -0.482421875
range: 5.09850549698
velocity: 0.0
doppler_bin: 8
bearing: -3.59832549095
intensity: 31.8525867462
---
header: 
  seq: 1683701
  stamp: 
    secs: 1561868872
    nsecs: 678451616
  frame_id: "ti_mmwave"
point_id: 21
x: 4.7890625
y: -0.30078125
z: -0.513671875
range: 5.14208269119
velocity: 0.0
doppler_bin: 8
bearing: -3.593791008
intensity: 32.4004974365
---
header: 
  seq: 1683702
  stamp: 
    secs: 1561868872
    nsecs: 678466412
  frame_id: "ti_mmwave"
point_id: 22
x: 4.875
y: -0.30859375
z: 0.80078125
range: 5.27281332016
velocity: 0.0
doppler_bin: 8
bearing: -3.62206339836
intensity: 30.1114730835
---
header: 
  seq: 1683703
  stamp: 
    secs: 1561868872
    nsecs: 678479904
  frame_id: "ti_mmwave"
point_id: 23
x: 4.900390625
y: -0.935546875
z: 0.109375
range: 5.31639051437
velocity: 0.0
doppler_bin: 8
bearing: -10.8084306717
intensity: 29.7266559601
---
header: 
  seq: 1683704
  stamp: 
    secs: 1561868872
    nsecs: 678494495
  frame_id: "ti_mmwave"
point_id: 24
x: 1.6484375
y: -0.67578125
z: 0.26171875
range: 1.91738677025
velocity: -1.22933733463
doppler_bin: 6
bearing: -22.2913036346
intensity: 24.3616256714
---
header: 
  seq: 1683705
  stamp: 
    secs: 1561868872
    nsecs: 678543039
  frame_id: "ti_mmwave"
point_id: 25
x: 1.689453125
y: -0.689453125
z: 0.24609375
range: 1.96096372604
velocity: -1.22933733463
doppler_bin: 6
bearing: -22.2000026703
intensity: 22.9225616455
---
header: 
  seq: 1683706
  stamp: 
    secs: 1561868872
    nsecs: 678648793
  frame_id: "ti_mmwave"
point_id: 27
x: 0.041015625
y: -0.033203125
z: 0.0625
range: 0.0871539413929
velocity: 0.0
doppler_bin: 8
bearing: -38.9909973145
intensity: 30.0902576447
---
header: 
  seq: 1683707
  stamp: 
    secs: 1561868872
    nsecs: 678770554
  frame_id: "ti_mmwave"
point_id: 28
x: 0.046875
y: -0.046875
z: 0.103515625
range: 0.130730912089
velocity: 0.0
doppler_bin: 8
bearing: -45.0
intensity: 28.9982051849
---
header: 
  seq: 1683708
  stamp: 
    secs: 1561868872
    nsecs: 678808194
  frame_id: "ti_mmwave"
point_id: 30
x: 0.12890625
y: 0.6796875
z: 1.392578125
range: 1.65592491627
velocity: 0.0
doppler_bin: 8
bearing: 79.261100769
intensity: 25.3655853271
---
header: 
  seq: 1683709
  stamp: 
    secs: 1561868872
    nsecs: 678821877
  frame_id: "ti_mmwave"
point_id: 31
x: 4.3984375
y: -0.283203125
z: 1.08984375
range: 4.83704376221
velocity: 0.0
doppler_bin: 8
bearing: -3.68402981758
intensity: 28.7390155792
---
header: 
  seq: 1683710
  stamp: 
    secs: 1561868872
    nsecs: 735782746
  frame_id: "ti_mmwave"
point_id: 0
x: 0.01171875
y: -0.0390625
z: -0.0078125
range: 0.0435769706964
velocity: 0.0
doppler_bin: 8
bearing: -73.3007583618
intensity: 30.6483230591
---
header: 
  seq: 1683711
  stamp: 
    secs: 1561868872
    nsecs: 735835792
  frame_id: "ti_mmwave"
point_id: 1
x: 0.017578125
y: -0.080078125
z: -0.0078125
range: 0.0871539413929
velocity: 0.0
doppler_bin: 8
bearing: -77.6192398071
intensity: 31.9005146027
---
header: 
  seq: 1683712
  stamp: 
    secs: 1561868872
    nsecs: 735843266
  frame_id: "ti_mmwave"
point_id: 2
x: 0.029296875
y: -0.119140625
z: -0.005859375
range: 0.130730912089
velocity: 0.0
doppler_bin: 8
bearing: -76.1849746704
intensity: 30.1114730835
---
header: 
  seq: 1683713
  stamp: 
    secs: 1561868872
    nsecs: 735850176
  frame_id: "ti_mmwave"
point_id: 3
x: 0.056640625
y: -0.154296875
z: 0.005859375
range: 0.174307882786
velocity: 0.0
doppler_bin: 8
bearing: -69.8423843384
intensity: 25.4530715942
---
header: 
  seq: 1683714
  stamp: 
    secs: 1561868872
    nsecs: 735856172
  frame_id: "ti_mmwave"
point_id: 4
x: 0.0859375
y: -0.080078125
z: 1.26171875
range: 1.35088610649
velocity: 0.0
doppler_bin: 8
bearing: -42.9786338806
intensity: 23.138671875
---
header: 
  seq: 1683715
  stamp: 
    secs: 1561868872
    nsecs: 735862728
  frame_id: "ti_mmwave"
point_id: 6
x: 0.43359375
y: -0.083984375
z: -1.275390625
range: 1.43804001808
velocity: 0.0
doppler_bin: 8
bearing: -10.9620876312
intensity: 23.0963020325
---
header: 
  seq: 1683716
  stamp: 
    secs: 1561868872
    nsecs: 735868950
  frame_id: "ti_mmwave"
point_id: 7
x: 1.5859375
y: -0.0
z: -0.17578125
range: 1.69950187206
velocity: 0.0
doppler_bin: 8
bearing: -0.0
intensity: 28.2020149231
---
header: 
  seq: 1683717
  stamp: 
    secs: 1561868872
    nsecs: 735874342
  frame_id: "ti_mmwave"
point_id: 8
x: 1.623046875
y: -0.0
z: -0.208984375
range: 1.74307882786
velocity: 0.0
doppler_bin: 8
bearing: -0.0
intensity: 28.1557769775
---
header: 
  seq: 1683718
  stamp: 
    secs: 1561868872
    nsecs: 735880292
  frame_id: "ti_mmwave"
point_id: 9
x: 1.68359375
y: 0.052734375
z: 0.33984375
range: 1.83023273945
velocity: 0.0
doppler_bin: 8
bearing: 1.7940608263
intensity: 27.6342792511
---
header: 
  seq: 1683719
  stamp: 
    secs: 1561868872
    nsecs: 735885575
  frame_id: "ti_mmwave"
point_id: 10
x: 1.724609375
y: 0.0546875
z: 0.337890625
range: 1.87380969524
velocity: 0.0
doppler_bin: 8
bearing: 1.81624531746
intensity: 28.2930374146
---
header: 
  seq: 1683720
  stamp: 
    secs: 1561868872
    nsecs: 735891276
  frame_id: "ti_mmwave"
point_id: 11
x: 2.658203125
y: -0.1796875
z: 1.048828125
range: 3.05038785934
velocity: 0.0
doppler_bin: 8
bearing: -3.86716008186
intensity: 31.9562301636
---
header: 
  seq: 1683721
  stamp: 
    secs: 1561868872
    nsecs: 735896540
  frame_id: "ti_mmwave"
point_id: 12
x: 2.755859375
y: -0.08984375
z: 0.91015625
range: 3.09396481514
velocity: 0.0
doppler_bin: 8
bearing: -1.86723792553
intensity: 30.934217453
---
header: 
  seq: 1683722
  stamp: 
    secs: 1561868872
    nsecs: 735901735
  frame_id: "ti_mmwave"
point_id: 13
x: 4.38671875
y: -0.142578125
z: 1.166015625
range: 4.83704376221
velocity: 0.0
doppler_bin: 8
bearing: -1.86158514023
intensity: 28.9042110443
---
header: 
  seq: 1683723
  stamp: 
    secs: 1561868872
    nsecs: 735907511
  frame_id: "ti_mmwave"
point_id: 14
x: 4.408203125
y: -0.142578125
z: 1.23828125
range: 4.88062095642
velocity: 0.0
doppler_bin: 8
bearing: -1.85251843929
intensity: 32.2141418457
---
header: 
  seq: 1683724
  stamp: 
    secs: 1561868872
    nsecs: 735912751
  frame_id: "ti_mmwave"
point_id: 15
x: 4.44140625
y: -0.14453125
z: 1.271484375
range: 4.9241976738
velocity: 0.0
doppler_bin: 8
bearing: -1.86384868622
intensity: 31.5411949158
---
header: 
  seq: 1683725
  stamp: 
    secs: 1561868872
    nsecs: 735919422
  frame_id: "ti_mmwave"
point_id: 16
x: 4.763671875
y: -0.298828125
z: -0.36328125
range: 5.09850549698
velocity: 0.0
doppler_bin: 8
bearing: -3.58949661255
intensity: 32.2375526428
---
header: 
  seq: 1683726
  stamp: 
    secs: 1561868872
    nsecs: 735925583
  frame_id: "ti_mmwave"
point_id: 17
x: 4.798828125
y: -0.30078125
z: -0.419921875
range: 5.14208269119
velocity: 0.0
doppler_bin: 8
bearing: -3.58649682999
intensity: 32.8914299011
---
header: 
  seq: 1683727
  stamp: 
    secs: 1561868872
    nsecs: 735933198
  frame_id: "ti_mmwave"
point_id: 18
x: 4.86328125
y: -0.46484375
z: 0.794921875
range: 5.27281332016
velocity: 0.0
doppler_bin: 8
bearing: -5.459877491
intensity: 30.3059978485
---
header: 
  seq: 1683728
  stamp: 
    secs: 1561868872
    nsecs: 736010248
  frame_id: "ti_mmwave"
point_id: 19
x: 4.90234375
y: -0.935546875
z: 0.060546875
range: 5.31639051437
velocity: 0.0
doppler_bin: 8
bearing: -10.8042259216
intensity: 29.9211139679
---
header: 
  seq: 1683729
  stamp: 
    secs: 1561868872
    nsecs: 736017568
  frame_id: "ti_mmwave"
point_id: 20
x: 1.953125
y: -0.18359375
z: 0.0546875
range: 2.09169459343
velocity: -1.22933733463
doppler_bin: 6
bearing: -5.37002372742
intensity: 25.6348114014
---
header: 
  seq: 1683730
  stamp: 
    secs: 1561868872
    nsecs: 736023149
  frame_id: "ti_mmwave"
point_id: 21
x: 1.994140625
y: -0.1875
z: 0.05859375
range: 2.13527154922
velocity: -1.22933733463
doppler_bin: 6
bearing: -5.37146997452
intensity: 21.9865703583
---
header: 
  seq: 1683731
  stamp: 
    secs: 1561868872
    nsecs: 736029204
  frame_id: "ti_mmwave"
point_id: 22
x: 1.888671875
y: -0.1796875
z: 0.30859375
range: 2.04811763763
velocity: -0.614668667316
doppler_bin: 7
bearing: -5.43473958969
intensity: 26.7209777832
---
header: 
  seq: 1683732
  stamp: 
    secs: 1561868872
    nsecs: 736035683
  frame_id: "ti_mmwave"
point_id: 24
x: 0.041015625
y: -0.033203125
z: 0.0625
range: 0.0871539413929
velocity: 0.0
doppler_bin: 8
bearing: -38.9909973145
intensity: 30.0902576447
---
header: 
  seq: 1683733
  stamp: 
    secs: 1561868872
    nsecs: 736041240
  frame_id: "ti_mmwave"
point_id: 25
x: 0.046875
y: -0.046875
z: 0.103515625
range: 0.130730912089
velocity: 0.0
doppler_bin: 8
bearing: -45.0
intensity: 29.0036716461
---
header: 
  seq: 1683734
  stamp: 
    secs: 1561868872
    nsecs: 736958768
  frame_id: "ti_mmwave"
point_id: 0
x: 0.01171875
y: -0.0390625
z: -0.0078125
range: 0.0435769706964
velocity: 0.0
doppler_bin: 8
bearing: -73.3007583618
intensity: 30.6408348083
---
header: 
  seq: 1683735
  stamp: 
    secs: 1561868872
    nsecs: 736988631
  frame_id: "ti_mmwave"
point_id: 1
x: 0.017578125
y: -0.080078125
z: -0.0078125
range: 0.0871539413929
velocity: 0.0
doppler_bin: 8
bearing: -77.6192398071
intensity: 31.8977088928
---
header: 
  seq: 1683736
  stamp: 
    secs: 1561868872
    nsecs: 736995523
  frame_id: "ti_mmwave"
point_id: 2
x: 0.029296875
y: -0.119140625
z: -0.005859375
range: 0.130730912089
velocity: 0.0
doppler_bin: 8
bearing: -76.1849746704
intensity: 30.1157035828
---
header: 
  seq: 1683737
  stamp: 
    secs: 1561868872
    nsecs: 737001217
  frame_id: "ti_mmwave"
point_id: 3
x: 0.056640625
y: -0.154296875
z: 0.005859375
range: 0.174307882786
velocity: 0.0
doppler_bin: 8
bearing: -69.8423843384
intensity: 25.4530715942
---
header: 
  seq: 1683738
  stamp: 
    secs: 1561868872
    nsecs: 737006928
  frame_id: "ti_mmwave"
point_id: 4
x: 0.134765625
y: -0.080078125
z: 1.2578125
range: 1.35088610649
velocity: 0.0
doppler_bin: 8
bearing: -30.7189025879
intensity: 23.1806335449
---
header: 
  seq: 1683739
  stamp: 
    secs: 1561868872
    nsecs: 737013788
  frame_id: "ti_mmwave"
point_id: 6
x: 0.4296875
y: -0.083984375
z: -1.27734375
range: 1.43804001808
velocity: 0.0
doppler_bin: 8
bearing: -11.0592975616
intensity: 23.1175384521
---
header: 
  seq: 1683740
  stamp: 
    secs: 1561868872
    nsecs: 737019292
  frame_id: "ti_mmwave"
point_id: 7
x: 0.560546875
y: -0.04296875
z: -1.271484375
range: 1.48161697388
velocity: 0.0
doppler_bin: 8
bearing: -4.38343858719
intensity: 21.7026176453
---
header: 
  seq: 1683741
  stamp: 
    secs: 1561868872
    nsecs: 737030820
  frame_id: "ti_mmwave"
point_id: 8
x: 1.5859375
y: 0.099609375
z: -0.1328125
range: 1.69950187206
velocity: 0.0
doppler_bin: 8
bearing: 3.59390544891
intensity: 29.7081165314
---
header: 
  seq: 1683742
  stamp: 
    secs: 1561868872
    nsecs: 737040732
  frame_id: "ti_mmwave"
point_id: 9
x: 1.625
y: 0.1015625
z: -0.166015625
range: 1.74307882786
velocity: 0.0
doppler_bin: 8
bearing: 3.57633447647
intensity: 30.5499591827
---
header: 
  seq: 1683743
  stamp: 
    secs: 1561868872
    nsecs: 737049724
  frame_id: "ti_mmwave"
point_id: 10
x: 1.66796875
y: 0.10546875
z: -0.140625
range: 1.78665578365
velocity: 0.0
doppler_bin: 8
bearing: 3.61810112
intensity: 27.2591171265
---
header: 
  seq: 1683744
  stamp: 
    secs: 1561868872
    nsecs: 737058018
  frame_id: "ti_mmwave"
point_id: 11
x: 1.70703125
y: 0.052734375
z: 0.185546875
range: 1.83023273945
velocity: 0.0
doppler_bin: 8
bearing: 1.76944422722
intensity: 29.5760726929
---
header: 
  seq: 1683745
  stamp: 
    secs: 1561868872
    nsecs: 737063246
  frame_id: "ti_mmwave"
point_id: 12
x: 1.734375
y: 0.0546875
z: 0.283203125
range: 1.87380969524
velocity: 0.0
doppler_bin: 8
bearing: 1.80602538586
intensity: 28.8138465881
---
header: 
  seq: 1683746
  stamp: 
    secs: 1561868872
    nsecs: 737100985
  frame_id: "ti_mmwave"
point_id: 13
x: 2.6640625
y: -0.1796875
z: 1.037109375
range: 3.05038785934
velocity: 0.0
doppler_bin: 8
bearing: -3.85868024826
intensity: 31.9033164978
---
header: 
  seq: 1683747
  stamp: 
    secs: 1561868872
    nsecs: 737106894
  frame_id: "ti_mmwave"
point_id: 14
x: 2.755859375
y: -0.08984375
z: 0.91015625
range: 3.09396481514
velocity: 0.0
doppler_bin: 8
bearing: -1.86723792553
intensity: 30.9236965179
---
header: 
  seq: 1683748
  stamp: 
    secs: 1561868872
    nsecs: 737112300
  frame_id: "ti_mmwave"
point_id: 15
x: 4.392578125
y: -0.142578125
z: 1.140625
range: 4.83704376221
velocity: 0.0
doppler_bin: 8
bearing: -1.85910367966
intensity: 28.5733242035
---
header: 
  seq: 1683749
  stamp: 
    secs: 1561868872
    nsecs: 737118759
  frame_id: "ti_mmwave"
point_id: 16
x: 4.40234375
y: -0.142578125
z: 1.26171875
range: 4.88062095642
velocity: 0.0
doppler_bin: 8
bearing: -1.85498249531
intensity: 31.832698822
---
header: 
  seq: 1683750
  stamp: 
    secs: 1561868872
    nsecs: 737123790
  frame_id: "ti_mmwave"
point_id: 17
x: 4.435546875
y: -0.14453125
z: 1.29296875
range: 4.9241976738
velocity: 0.0
doppler_bin: 8
bearing: -1.86630904675
intensity: 31.2968997955
---
header: 
  seq: 1683751
  stamp: 
    secs: 1561868872
    nsecs: 737129759
  frame_id: "ti_mmwave"
point_id: 18
x: 4.759765625
y: -0.298828125
z: -0.396484375
range: 5.09850549698
velocity: 0.0
doppler_bin: 8
bearing: -3.59243488312
intensity: 32.4821853638
---
header: 
  seq: 1683752
  stamp: 
    secs: 1561868872
    nsecs: 737134728
  frame_id: "ti_mmwave"
point_id: 19
x: 4.798828125
y: -0.30078125
z: -0.421875
range: 5.14208269119
velocity: 0.0
doppler_bin: 8
bearing: -3.58649682999
intensity: 33.2837944031
---
header: 
  seq: 1683753
  stamp: 
    secs: 1561868872
    nsecs: 737139584
  frame_id: "ti_mmwave"
point_id: 20
x: 4.787109375
y: -0.3046875
z: -0.828125
range: 5.18565940857
velocity: 0.0
doppler_bin: 8
bearing: -3.64182066917
intensity: 29.9694919586
---
header: 
  seq: 1683754
  stamp: 
    secs: 1561868872
    nsecs: 737144378
  frame_id: "ti_mmwave"
point_id: 21
x: 4.84375
y: -0.30859375
z: 0.96484375
range: 5.27281332016
velocity: 0.0
doppler_bin: 8
bearing: -3.64536881447
intensity: 31.3608608246
---
header: 
  seq: 1683755
  stamp: 
    secs: 1561868872
    nsecs: 737149573
  frame_id: "ti_mmwave"
point_id: 22
x: 4.90625
y: -0.46875
z: 0.779296875
range: 5.31639051437
velocity: 0.0
doppler_bin: 8
bearing: -5.45755338669
intensity: 29.5760726929
---
header: 
  seq: 1683756
  stamp: 
    secs: 1561868872
    nsecs: 737155965
  frame_id: "ti_mmwave"
point_id: 23
x: 1.818359375
y: -0.234375
z: -0.427734375
range: 2.00454068184
velocity: -0.614668667316
doppler_bin: 7
bearing: -7.34456825256
intensity: 25.965970993
---
header: 
  seq: 1683757
  stamp: 
    secs: 1561868872
    nsecs: 737162297
  frame_id: "ti_mmwave"
point_id: 25
x: 0.041015625
y: -0.033203125
z: 0.0625
range: 0.0871539413929
velocity: 0.0
doppler_bin: 8
bearing: -38.9909973145
intensity: 30.0860023499
---
header: 
  seq: 1683758
  stamp: 
    secs: 1561868872
    nsecs: 737167298
  frame_id: "ti_mmwave"
point_id: 26
x: 0.044921875
y: -0.046875
z: 0.103515625
range: 0.130730912089
velocity: 0.0
doppler_bin: 8
bearing: -46.218875885
intensity: 29.0036716461
---
header: 
  seq: 1683759
  stamp: 
    secs: 1561868872
    nsecs: 737175978
  frame_id: "ti_mmwave"
point_id: 28
x: 1.6171875
y: 0.587890625
z: 0.759765625
range: 2.00454068184
velocity: -0.614668667316
doppler_bin: 7
bearing: 19.9775505066
intensity: 23.2837963104
---
header: 
  seq: 1683760
  stamp: 
    secs: 1561868872
    nsecs: 796312676
  frame_id: "ti_mmwave"
point_id: 0
x: 0.01171875
y: -0.0390625
z: -0.0078125
range: 0.0435769706964
velocity: 0.0
doppler_bin: 8
bearing: -73.3007583618
intensity: 30.6483230591
---
header: 
  seq: 1683761
  stamp: 
    secs: 1561868872
    nsecs: 796381480
  frame_id: "ti_mmwave"
point_id: 1
x: 0.017578125
y: -0.080078125
z: -0.0078125
range: 0.0871539413929
velocity: 0.0
doppler_bin: 8
bearing: -77.6192398071
intensity: 31.9033164978
---
header: 
  seq: 1683762
  stamp: 
    secs: 1561868872
    nsecs: 796390816
  frame_id: "ti_mmwave"
point_id: 2
x: 0.029296875
y: -0.119140625
z: -0.005859375
range: 0.130730912089
velocity: 0.0
doppler_bin: 8
bearing: -76.1849746704
intensity: 30.1157035828
---
header: 
  seq: 1683763
  stamp: 
    secs: 1561868872
    nsecs: 796398515
  frame_id: "ti_mmwave"
point_id: 3
x: 0.056640625
y: -0.154296875
z: 0.005859375
range: 0.174307882786
velocity: 0.0
doppler_bin: 8
bearing: -69.8423843384
intensity: 25.4530715942
---
header: 
  seq: 1683764
  stamp: 
    secs: 1561868872
    nsecs: 796406258
  frame_id: "ti_mmwave"
point_id: 4
x: 0.169921875
y: -0.080078125
z: 1.25390625
range: 1.35088610649
velocity: 0.0
doppler_bin: 8
bearing: -25.232831955
intensity: 23.0749607086
---
header: 
  seq: 1683765
  stamp: 
    secs: 1561868872
    nsecs: 796413820
  frame_id: "ti_mmwave"
point_id: 5
x: 0.076171875
y: -0.08203125
z: 1.3046875
range: 1.39446306229
velocity: 0.0
doppler_bin: 8
bearing: -47.1210975647
intensity: 24.6239795685
---
header: 
  seq: 1683766
  stamp: 
    secs: 1561868872
    nsecs: 796422577
  frame_id: "ti_mmwave"
point_id: 6
x: 0.40234375
y: -0.083984375
z: -1.28515625
range: 1.43804001808
velocity: 0.0
doppler_bin: 8
bearing: -11.7905015945
intensity: 23.1175384521
---
header: 
  seq: 1683767
  stamp: 
    secs: 1561868872
    nsecs: 796431675
  frame_id: "ti_mmwave"
point_id: 7
x: 0.5546875
y: -0.04296875
z: -1.275390625
range: 1.48161697388
velocity: 0.0
doppler_bin: 8
bearing: -4.42955970764
intensity: 21.7897701263
---
header: 
  seq: 1683768
  stamp: 
    secs: 1561868872
    nsecs: 796442366
  frame_id: "ti_mmwave"
point_id: 8
x: 1.59375
y: 0.05078125
z: -0.041015625
range: 1.69950187206
velocity: 0.0
doppler_bin: 8
bearing: 1.82498347759
intensity: 27.8604125977
---
header: 
  seq: 1683769
  stamp: 
    secs: 1561868872
    nsecs: 796449664
  frame_id: "ti_mmwave"
point_id: 9
x: 1.6328125
y: 0.1015625
z: -0.05859375
range: 1.74307882786
velocity: 0.0
doppler_bin: 8
bearing: 3.55926680565
intensity: 30.3662891388
---
header: 
  seq: 1683770
  stamp: 
    secs: 1561868872
    nsecs: 796457044
  frame_id: "ti_mmwave"
point_id: 10
x: 1.66015625
y: 0.158203125
z: -0.173828125
range: 1.78665578365
velocity: 0.0
doppler_bin: 8
bearing: 5.44351291656
intensity: 28.8366146088
---
header: 
  seq: 1683771
  stamp: 
    secs: 1561868872
    nsecs: 796466059
  frame_id: "ti_mmwave"
point_id: 12
x: 2.62109375
y: -0.17578125
z: 1.03125
range: 3.00681090355
velocity: 0.0
doppler_bin: 8
