header: 
  seq: 1534440
  stamp: 
    secs: 1561865875
    nsecs: 617412254
  frame_id: "ti_mmwave"
point_id: 0
x: 0.01171875
y: -0.0390625
z: -0.0078125
range: 0.0435769706964
velocity: 0.0
doppler_bin: 8
bearing: -73.3007583618
intensity: 30.6445808411
---
header: 
  seq: 1534441
  stamp: 
    secs: 1561865875
    nsecs: 617488236
  frame_id: "ti_mmwave"
point_id: 1
x: 0.017578125
y: -0.080078125
z: -0.0078125
range: 0.0871539413929
velocity: 0.0
doppler_bin: 8
bearing: -77.6192398071
intensity: 31.9033164978
---
header: 
  seq: 1534442
  stamp: 
    secs: 1561865875
    nsecs: 617501799
  frame_id: "ti_mmwave"
point_id: 2
x: 0.029296875
y: -0.119140625
z: -0.005859375
range: 0.130730912089
velocity: 0.0
doppler_bin: 8
bearing: -76.1849746704
intensity: 30.1367969513
---
header: 
  seq: 1534443
  stamp: 
    secs: 1561865875
    nsecs: 617510477
  frame_id: "ti_mmwave"
point_id: 3
x: 0.056640625
y: -0.154296875
z: 0.005859375
range: 0.174307882786
velocity: 0.0
doppler_bin: 8
bearing: -69.8423843384
intensity: 25.4406795502
---
header: 
  seq: 1534444
  stamp: 
    secs: 1561865875
    nsecs: 617518692
  frame_id: "ti_mmwave"
point_id: 4
x: 1.173828125
y: -0.0390625
z: -0.357421875
range: 1.3073091507
velocity: 0.0
doppler_bin: 8
bearing: -1.90597820282
intensity: 25.7287158966
---
header: 
  seq: 1534445
  stamp: 
    secs: 1561865875
    nsecs: 617527220
  frame_id: "ti_mmwave"
point_id: 5
x: 1.228515625
y: -0.0390625
z: -0.3125
range: 1.35088610649
velocity: 0.0
doppler_bin: 8
bearing: -1.82119178772
intensity: 30.86003685
---
header: 
  seq: 1534446
  stamp: 
    secs: 1561865875
    nsecs: 617537401
  frame_id: "ti_mmwave"
point_id: 6
x: 1.28125
y: -0.041015625
z: -0.267578125
range: 1.39446306229
velocity: 0.0
doppler_bin: 8
bearing: -1.83353734016
intensity: 32.229763031
---
header: 
  seq: 1534447
  stamp: 
    secs: 1561865875
    nsecs: 617546373
  frame_id: "ti_mmwave"
point_id: 7
x: 1.3203125
y: -0.04296875
z: -0.279296875
range: 1.43804001808
velocity: 0.0
doppler_bin: 8
bearing: -1.86399769783
intensity: 31.1427726746
---
header: 
  seq: 1534448
  stamp: 
    secs: 1561865875
    nsecs: 617554619
  frame_id: "ti_mmwave"
point_id: 8
x: 1.365234375
y: -0.216796875
z: -0.14453125
range: 1.48161697388
velocity: 0.0
doppler_bin: 8
bearing: -9.02312850952
intensity: 29.9782314301
---
header: 
  seq: 1534449
  stamp: 
    secs: 1561865875
    nsecs: 617562906
  frame_id: "ti_mmwave"
point_id: 9
x: 1.396484375
y: -0.3125
z: -0.03125
range: 1.52519392967
velocity: 0.0
doppler_bin: 8
bearing: -12.6136274338
intensity: 30.484418869
---
header: 
  seq: 1534450
  stamp: 
    secs: 1561865875
    nsecs: 617572085
  frame_id: "ti_mmwave"
point_id: 10
x: 1.455078125
y: 0.18359375
z: 0.142578125
range: 1.56877088547
velocity: 0.0
doppler_bin: 8
bearing: 7.19126558304
intensity: 29.6988162994
---
header: 
  seq: 1534451
  stamp: 
    secs: 1561865875
    nsecs: 617580177
  frame_id: "ti_mmwave"
point_id: 11
x: 1.48046875
y: 0.283203125
z: 0.142578125
range: 1.61234796047
velocity: 0.0
doppler_bin: 8
bearing: 10.8294458389
intensity: 29.9431724548
---
header: 
  seq: 1534452
  stamp: 
    secs: 1561865875
    nsecs: 617588352
  frame_id: "ti_mmwave"
point_id: 12
x: 1.48828125
y: 0.388671875
z: 0.228515625
range: 1.65592491627
velocity: 0.0
doppler_bin: 8
bearing: 14.636177063
intensity: 27.8887519836
---
header: 
  seq: 1534453
  stamp: 
    secs: 1561865875
    nsecs: 617597665
  frame_id: "ti_mmwave"
point_id: 13
x: 2.611328125
y: -0.17578125
z: 1.05859375
range: 3.00681090355
velocity: 0.0
doppler_bin: 8
bearing: -3.85104894638
intensity: 29.0091304779
---
header: 
  seq: 1534454
  stamp: 
    secs: 1561865875
    nsecs: 617605773
  frame_id: "ti_mmwave"
point_id: 14
x: 2.689453125
y: -0.08984375
z: 0.978515625
range: 3.05038785934
velocity: 0.0
doppler_bin: 8
bearing: -1.91330885887
intensity: 32.1510848999
---
header: 
  seq: 1534455
  stamp: 
    secs: 1561865875
    nsecs: 617613957
  frame_id: "ti_mmwave"
point_id: 15
x: 2.732421875
y: -0.181640625
z: 0.96875
range: 3.09396481514
velocity: 0.0
doppler_bin: 8
bearing: -3.80320167542
intensity: 31.0822658539
---
header: 
  seq: 1534456
  stamp: 
    secs: 1561865875
    nsecs: 617622898
  frame_id: "ti_mmwave"
point_id: 16
x: 0.009765625
y: 0.03125
z: 0.025390625
range: 0.0435769706964
velocity: 0.0
doppler_bin: 8
bearing: 72.6459732056
intensity: 29.2992954254
---
header: 
  seq: 1534457
  stamp: 
    secs: 1561865875
    nsecs: 617631661
  frame_id: "ti_mmwave"
point_id: 17
x: 0.041015625
y: -0.033203125
z: 0.0625
range: 0.0871539413929
velocity: 0.0
doppler_bin: 8
bearing: -38.9909973145
intensity: 30.0902576447
---
header: 
  seq: 1534458
  stamp: 
    secs: 1561865875
    nsecs: 617641373
  frame_id: "ti_mmwave"
point_id: 18
x: 0.046875
y: -0.046875
z: 0.103515625
range: 0.130730912089
velocity: 0.0
doppler_bin: 8
bearing: -45.0
intensity: 28.9872512817
---
header: 
  seq: 1534459
  stamp: 
    secs: 1561865875
    nsecs: 617663879
  frame_id: "ti_mmwave"
point_id: 20
x: 1.435546875
y: -0.322265625
z: -0.052734375
range: 1.56877088547
velocity: 0.0
doppler_bin: 8
bearing: -12.6525564194
intensity: 28.1090431213
---
header: 
  seq: 1534460
  stamp: 
    secs: 1561865875
    nsecs: 617855171
  frame_id: "ti_mmwave"
point_id: 22
x: 2.771484375
y: -0.0
z: 0.8671875
range: 3.09396481514
velocity: 0.0
doppler_bin: 8
bearing: -0.0
intensity: 31.0720996857
---
header: 
  seq: 1534461
  stamp: 
    secs: 1561865875
    nsecs: 619041798
  frame_id: "ti_mmwave"
point_id: 0
x: 0.01171875
y: -0.0390625
z: -0.0078125
range: 0.0435769706964
velocity: 0.0
doppler_bin: 8
bearing: -73.3007583618
intensity: 30.6483230591
---
header: 
  seq: 1534462
  stamp: 
    secs: 1561865875
    nsecs: 619097572
  frame_id: "ti_mmwave"
point_id: 1
x: 0.017578125
y: -0.080078125
z: -0.0078125
range: 0.0871539413929
velocity: 0.0
doppler_bin: 8
bearing: -77.6192398071
intensity: 31.9033164978
---
header: 
  seq: 1534463
  stamp: 
    secs: 1561865875
    nsecs: 619115606
  frame_id: "ti_mmwave"
point_id: 2
x: 0.029296875
y: -0.119140625
z: -0.005859375
range: 0.130730912089
velocity: 0.0
doppler_bin: 8
bearing: -76.1849746704
intensity: 30.141002655
---
header: 
  seq: 1534464
  stamp: 
    secs: 1561865875
    nsecs: 619125170
  frame_id: "ti_mmwave"
point_id: 3
x: 0.056640625
y: -0.154296875
z: 0.0078125
range: 0.174307882786
velocity: 0.0
doppler_bin: 8
bearing: -69.8423843384
intensity: 25.4530715942
---
header: 
  seq: 1534465
  stamp: 
    secs: 1561865875
    nsecs: 619180364
  frame_id: "ti_mmwave"
point_id: 4
x: 1.22265625
y: -0.0390625
z: -0.109375
range: 1.3073091507
velocity: 0.0
doppler_bin: 8
bearing: -1.82991373539
intensity: 26.211763382
---
header: 
  seq: 1534466
  stamp: 
    secs: 1561865875
    nsecs: 619191833
  frame_id: "ti_mmwave"
point_id: 5
x: 1.26171875
y: -0.0
z: -0.119140625
range: 1.35088610649
velocity: 0.0
doppler_bin: 8
bearing: -0.0
intensity: 31.9173030853
---
header: 
  seq: 1534467
  stamp: 
    secs: 1561865875
    nsecs: 619200708
  frame_id: "ti_mmwave"
point_id: 6
x: 1.30078125
y: -0.0
z: -0.138671875
range: 1.39446306229
velocity: 0.0
doppler_bin: 8
bearing: -0.0
intensity: 33.2837944031
---
header: 
  seq: 1534468
  stamp: 
    secs: 1561865875
    nsecs: 619211578
  frame_id: "ti_mmwave"
point_id: 7
x: 1.318359375
y: 0.04296875
z: -0.283203125
range: 1.43804001808
velocity: 0.0
doppler_bin: 8
bearing: 1.86675703526
intensity: 30.7554702759
---
header: 
  seq: 1534469
  stamp: 
    secs: 1561865875
    nsecs: 619224065
  frame_id: "ti_mmwave"
point_id: 8
x: 1.302734375
y: -0.26171875
z: 0.412109375
range: 1.48161697388
velocity: 0.0
doppler_bin: 8
bearing: -11.3594818115
intensity: 30.1745071411
---
header: 
  seq: 1534470
  stamp: 
    secs: 1561865875
    nsecs: 619247083
  frame_id: "ti_mmwave"
point_id: 9
x: 1.3828125
y: -0.267578125
z: 0.2578125
range: 1.52519392967
velocity: 0.0
doppler_bin: 8
bearing: -10.951546669
intensity: 29.9166908264
---
header: 
  seq: 1534471
  stamp: 
    secs: 1561865875
    nsecs: 619268398
  frame_id: "ti_mmwave"
point_id: 10
x: 1.357421875
y: 0.275390625
z: 0.5
range: 1.56877088547
velocity: 0.0
doppler_bin: 8
bearing: 11.4683828354
intensity: 26.503074646
---
header: 
  seq: 1534472
  stamp: 
    secs: 1561865875
    nsecs: 619289523
  frame_id: "ti_mmwave"
point_id: 11
x: 1.462890625
y: 0.33203125
z: 0.19921875
range: 1.61234796047
velocity: 0.0
doppler_bin: 8
bearing: 12.787733078
intensity: 28.0955963135
---
header: 
  seq: 1534473
  stamp: 
    secs: 1561865875
    nsecs: 619362607
  frame_id: "ti_mmwave"
point_id: 12
x: 1.470703125
y: 0.4375
z: 0.248046875
range: 1.65592491627
velocity: 0.0
doppler_bin: 8
bearing: 16.5665187836
intensity: 26.6745300293
---
header: 
  seq: 1534474
  stamp: 
    secs: 1561865875
    nsecs: 619380568
  frame_id: "ti_mmwave"
point_id: 13
x: 2.607421875
y: -0.17578125
z: 1.06640625
range: 3.00681090355
velocity: 0.0
doppler_bin: 8
bearing: -3.8568007946
intensity: 29.2531204224
---
header: 
  seq: 1534475
  stamp: 
    secs: 1561865875
    nsecs: 619395260
  frame_id: "ti_mmwave"
point_id: 14
x: 2.6875
y: -0.08984375
z: 0.986328125
range: 3.05038785934
velocity: 0.0
doppler_bin: 8
bearing: -1.91469812393
intensity: 32.2685775757
---
header: 
  seq: 1534476
  stamp: 
    secs: 1561865875
    nsecs: 619407379
  frame_id: "ti_mmwave"
point_id: 15
x: 2.76953125
y: -0.0
z: 0.875
range: 3.09396481514
velocity: 0.0
doppler_bin: 8
bearing: -0.0
intensity: 31.1260509491
---
header: 
  seq: 1534477
  stamp: 
    secs: 1561865875
    nsecs: 619420149
  frame_id: "ti_mmwave"
point_id: 16
x: 0.009765625
y: 0.03125
z: 0.025390625
range: 0.0435769706964
velocity: 0.0
doppler_bin: 8
bearing: 72.6459732056
intensity: 29.3043956757
---
header: 
  seq: 1534478
  stamp: 
    secs: 1561865875
    nsecs: 619429690
  frame_id: "ti_mmwave"
point_id: 17
x: 0.041015625
y: -0.033203125
z: 0.0625
range: 0.0871539413929
velocity: 0.0
doppler_bin: 8
bearing: -38.9909973145
intensity: 30.0902576447
---
header: 
  seq: 1534479
  stamp: 
    secs: 1561865875
    nsecs: 619451661
  frame_id: "ti_mmwave"
point_id: 18
x: 0.044921875
y: -0.046875
z: 0.103515625
range: 0.130730912089
velocity: 0.0
doppler_bin: 8
bearing: -46.218875885
intensity: 28.9872512817
---
header: 
  seq: 1534480
  stamp: 
    secs: 1561865875
    nsecs: 619527757
  frame_id: "ti_mmwave"
point_id: 20
x: 1.4375
y: -0.322265625
z: 0.033203125
range: 1.56877088547
velocity: 0.0
doppler_bin: 8
bearing: -12.6359176636
intensity: 24.6089782715
---
header: 
  seq: 1534481
  stamp: 
    secs: 1561865875
    nsecs: 619546578
  frame_id: "ti_mmwave"
point_id: 21
x: 0.595703125
y: 1.01953125
z: -1.009765625
range: 1.65592491627
velocity: 0.0
doppler_bin: 8
bearing: 59.7026290894
intensity: 24.3775062561
---
header: 
  seq: 1534482
  stamp: 
    secs: 1561865875
    nsecs: 619559715
  frame_id: "ti_mmwave"
point_id: 22
x: 2.728515625
y: -0.181640625
z: 0.9765625
range: 3.09396481514
velocity: 0.0
doppler_bin: 8
bearing: -3.80863046646
intensity: 31.1126251221
---
header: 
  seq: 1534483
  stamp: 
    secs: 1561865875
    nsecs: 677619792
  frame_id: "ti_mmwave"
point_id: 0
x: 0.01171875
y: -0.0390625
z: -0.0078125
range: 0.0435769706964
velocity: 0.0
doppler_bin: 8
bearing: -73.3007583618
intensity: 30.6333332062
---
header: 
  seq: 1534484
  stamp: 
    secs: 1561865875
    nsecs: 677704380
  frame_id: "ti_mmwave"
point_id: 1
x: 0.017578125
y: -0.080078125
z: -0.0078125
range: 0.0871539413929
velocity: 0.0
doppler_bin: 8
bearing: -77.6192398071
intensity: 31.9005146027
---
header: 
  seq: 1534485
  stamp: 
    secs: 1561865875
    nsecs: 677722828
  frame_id: "ti_mmwave"
point_id: 2
x: 0.029296875
y: -0.119140625
z: -0.005859375
range: 0.130730912089
velocity: 0.0
doppler_bin: 8
bearing: -76.1849746704
intensity: 30.141002655
---
header: 
  seq: 1534486
  stamp: 
    secs: 1561865875
    nsecs: 677739637
  frame_id: "ti_mmwave"
point_id: 3
x: 0.056640625
y: -0.154296875
z: 0.005859375
range: 0.174307882786
velocity: 0.0
doppler_bin: 8
bearing: -69.8423843384
intensity: 25.4530715942
---
header: 
  seq: 1534487
  stamp: 
    secs: 1561865875
    nsecs: 677761858
  frame_id: "ti_mmwave"
point_id: 4
x: 1.203125
y: -0.0390625
z: -0.23828125
range: 1.3073091507
velocity: 0.0
doppler_bin: 8
bearing: -1.85959947109
intensity: 25.5990657806
---
header: 
  seq: 1534488
  stamp: 
    secs: 1561865875
    nsecs: 677781487
  frame_id: "ti_mmwave"
point_id: 5
x: 1.25
y: -0.0390625
z: -0.21484375
range: 1.35088610649
velocity: 0.0
doppler_bin: 8
bearing: -1.7899106741
intensity: 29.9825935364
---
header: 
  seq: 1534489
  stamp: 
    secs: 1561865875
    nsecs: 677801834
  frame_id: "ti_mmwave"
point_id: 6
x: 1.294921875
y: -0.041015625
z: -0.189453125
range: 1.39446306229
velocity: 0.0
doppler_bin: 8
bearing: -1.81419193745
intensity: 30.4493160248
---
header: 
  seq: 1534490
  stamp: 
    secs: 1561865875
    nsecs: 677821155
  frame_id: "ti_mmwave"
point_id: 7
x: 1.34375
y: 0.083984375
z: 0.1015625
range: 1.43804001808
velocity: 0.0
doppler_bin: 8
bearing: 3.57633447647
intensity: 26.1909332275
---
header: 
  seq: 1534491
  stamp: 
    secs: 1561865875
    nsecs: 677842983
  frame_id: "ti_mmwave"
point_id: 8
x: 1.353515625
y: -0.0
z: 0.31640625
range: 1.48161697388
velocity: 0.0
doppler_bin: 8
bearing: -0.0
intensity: 28.1491317749
---
header: 
  seq: 1534492
  stamp: 
    secs: 1561865875
    nsecs: 677856119
  frame_id: "ti_mmwave"
point_id: 9
x: 1.3359375
y: -0.044921875
z: 0.51171875
range: 1.52519392967
velocity: 0.0
doppler_bin: 8
bearing: -1.92588663101
intensity: 27.9865055084
---
header: 
  seq: 1534493
  stamp: 
    secs: 1561865875
    nsecs: 677963525
  frame_id: "ti_mmwave"
point_id: 10
x: 1.421875
y: 0.3671875
z: -0.09375
range: 1.56877088547
velocity: 0.0
doppler_bin: 8
bearing: 14.4798145294
intensity: 27.7085208893
---
header: 
  seq: 1534494
  stamp: 
    secs: 1561865875
    nsecs: 677978775
  frame_id: "ti_mmwave"
point_id: 11
x: 1.462890625
y: 0.37890625
z: -0.095703125
range: 1.61234796047
velocity: 0.0
doppler_bin: 8
bearing: 14.5211801529
intensity: 29.8181858063
---
header: 
  seq: 1534495
  stamp: 
    secs: 1561865875
    nsecs: 677992208
  frame_id: "ti_mmwave"
point_id: 12
x: 1.462890625
y: 0.486328125
z: -0.197265625
range: 1.65592491627
velocity: 0.0
doppler_bin: 8
bearing: 18.3890399933
intensity: 29.8452739716
---
header: 
  seq: 1534496
  stamp: 
    secs: 1561865875
    nsecs: 678005132
  frame_id: "ti_mmwave"
point_id: 13
x: 1.505859375
y: 0.498046875
z: -0.171875
range: 1.69950187206
velocity: 0.0
doppler_bin: 8
bearing: 18.3010807037
intensity: 27.3559894562
---
header: 
  seq: 1534497
  stamp: 
    secs: 1561865875
    nsecs: 678020975
  frame_id: "ti_mmwave"
point_id: 14
x: 2.638671875
y: -0.17578125
z: 0.986328125
range: 3.00681090355
velocity: 0.0
doppler_bin: 8
bearing: -3.81125974655
intensity: 28.8138465881
---
header: 
  seq: 1534498
  stamp: 
    secs: 1561865875
    nsecs: 678033974
  frame_id: "ti_mmwave"
point_id: 15
x: 2.69921875
y: -0.08984375
z: 0.953125
range: 3.05038785934
velocity: 0.0
doppler_bin: 8
bearing: -1.90639162064
intensity: 31.9893188477
---
header: 
  seq: 1534499
  stamp: 
    secs: 1561865875
    nsecs: 678047055
  frame_id: "ti_mmwave"
point_id: 16
x: 2.76171875
y: -0.08984375
z: 0.892578125
range: 3.09396481514
velocity: 0.0
doppler_bin: 8
bearing: -1.86327898502
intensity: 30.9307136536
---
header: 
  seq: 1534500
  stamp: 
    secs: 1561865875
    nsecs: 678061409
  frame_id: "ti_mmwave"
point_id: 17
x: 0.009765625
y: 0.03125
z: 0.025390625
range: 0.0435769706964
velocity: 0.0
doppler_bin: 8
bearing: 72.6459732056
intensity: 29.3043956757
---
header: 
  seq: 1534501
  stamp: 
    secs: 1561865875
    nsecs: 678074691
  frame_id: "ti_mmwave"
point_id: 18
x: 0.041015625
y: -0.033203125
z: 0.0625
range: 0.0871539413929
velocity: 0.0
doppler_bin: 8
bearing: -38.9909973145
intensity: 30.0902576447
---
header: 
  seq: 1534502
  stamp: 
    secs: 1561865875
    nsecs: 678087681
  frame_id: "ti_mmwave"
point_id: 19
x: 0.046875
y: -0.046875
z: 0.103515625
range: 0.130730912089
velocity: 0.0
doppler_bin: 8
bearing: -45.0
intensity: 28.9927310944
---
header: 
  seq: 1534503
  stamp: 
    secs: 1561865875
    nsecs: 678104613
  frame_id: "ti_mmwave"
point_id: 21
x: 0.603515625
y: -0.421875
z: -1.1328125
range: 1.43804001808
velocity: 0.0
doppler_bin: 8
bearing: -34.9546699524
intensity: 24.5178642273
---
header: 
  seq: 1534504
  stamp: 
    secs: 1561865875
    nsecs: 678131257
  frame_id: "ti_mmwave"
point_id: 22
x: 0.87109375
y: -0.138671875
z: 1.1796875
range: 1.56877088547
velocity: 0.0
doppler_bin: 8
bearing: -9.04517841339
intensity: 25.5266819
---
header: 
  seq: 1534505
  stamp: 
    secs: 1561865875
    nsecs: 679292971
  frame_id: "ti_mmwave"
point_id: 0
x: 0.01171875
y: -0.0390625
z: -0.0078125
range: 0.0435769706964
velocity: 0.0
doppler_bin: 8
bearing: -73.3007583618
intensity: 30.6483230591
---
header: 
  seq: 1534506
  stamp: 
    secs: 1561865875
    nsecs: 679349856
  frame_id: "ti_mmwave"
point_id: 1
x: 0.017578125
y: -0.080078125
z: -0.0078125
range: 0.0871539413929
velocity: 0.0
doppler_bin: 8
bearing: -77.6192398071
intensity: 31.9033164978
---
header: 
  seq: 1534507
  stamp: 
    secs: 1561865875
    nsecs: 679360313
  frame_id: "ti_mmwave"
point_id: 2
x: 0.029296875
y: -0.119140625
z: -0.005859375
range: 0.130730912089
velocity: 0.0
doppler_bin: 8
bearing: -76.1849746704
intensity: 30.141002655
---
header: 
  seq: 1534508
  stamp: 
    secs: 1561865875
    nsecs: 679368571
  frame_id: "ti_mmwave"
point_id: 3
x: 0.056640625
y: -0.154296875
z: 0.005859375
range: 0.174307882786
velocity: 0.0
doppler_bin: 8
bearing: -69.8423843384
intensity: 25.4406795502
---
header: 
  seq: 1534509
  stamp: 
    secs: 1561865875
    nsecs: 679376869
  frame_id: "ti_mmwave"
point_id: 4
x: 1.076171875
y: -0.0390625
z: -0.587890625
range: 1.3073091507
velocity: 0.0
doppler_bin: 8
bearing: -2.07878899574
intensity: 22.1748390198
---
header: 
  seq: 1534510
  stamp: 
    secs: 1561865875
    nsecs: 679384834
  frame_id: "ti_mmwave"
point_id: 5
x: 1.208984375
y: -0.0
z: -0.384765625
range: 1.35088610649
velocity: 0.0
doppler_bin: 8
bearing: -0.0
intensity: 28.727388382
---
header: 
  seq: 1534511
  stamp: 
    secs: 1561865875
    nsecs: 679392808
  frame_id: "ti_mmwave"
point_id: 6
x: 1.271484375
y: -0.0
z: -0.3125
range: 1.39446306229
velocity: 0.0
doppler_bin: 8
bearing: -0.0
intensity: 30.7040729523
---
header: 
  seq: 1534512
  stamp: 
    secs: 1561865875
    nsecs: 679401120
  frame_id: "ti_mmwave"
point_id: 7
x: 1.2734375
y: -0.0
z: -0.4453125
range: 1.43804001808
velocity: 0.0
doppler_bin: 8
bearing: -0.0
intensity: 28.864906311
---
header: 
  seq: 1534513
  stamp: 
    secs: 1561865875
    nsecs: 679411244
  frame_id: "ti_mmwave"
point_id: 8
x: 1.072265625
y: -0.04296875
z: -0.884765625
range: 1.48161697388
velocity: 0.0
doppler_bin: 8
bearing: -2.29477787018
intensity: 23.9445171356
---
header: 
  seq: 1534514
  stamp: 
    secs: 1561865875
    nsecs: 679419106
  frame_id: "ti_mmwave"
point_id: 9
x: 1.32421875
y: -0.224609375
z: -0.49609375
range: 1.52519392967
velocity: 0.0
doppler_bin: 8
bearing: -9.62668991089
intensity: 22.1484394073
---
header: 
  seq: 1534515
  stamp: 
    secs: 1561865875
    nsecs: 679426452
  frame_id: "ti_mmwave"
point_id: 10
x: 1.44140625
y: 0.275390625
z: 0.11328125
range: 1.56877088547
velocity: 0.0
doppler_bin: 8
bearing: 10.8164024353
intensity: 25.9106464386
---
header: 
  seq: 1534516
  stamp: 
    secs: 1561865875
    nsecs: 679434427
  frame_id: "ti_mmwave"
point_id: 11
x: 1.46484375
y: 0.33203125
z: -0.193359375
range: 1.61234796047
velocity: 0.0
doppler_bin: 8
bearing: 12.7712430954
intensity: 27.201593399
---
header: 
  seq: 1534517
  stamp: 
    secs: 1561865875
    nsecs: 679442292
  frame_id: "ti_mmwave"
point_id: 12
x: 1.41015625
y: 0.4375
z: -0.48828125
range: 1.65592491627
velocity: 0.0
doppler_bin: 8
bearing: 17.2364673615
intensity: 26.5801143646
---
header: 
  seq: 1534518
  stamp: 
    secs: 1561865875
    nsecs: 679450327
  frame_id: "ti_mmwave"
point_id: 13
x: 2.6171875
y: -0.17578125
z: 1.044921875
range: 3.00681090355
velocity: 0.0
doppler_bin: 8
bearing: -3.84245300293
intensity: 28.9927310944
---
header: 
  seq: 1534519
  stamp: 
    secs: 1561865875
    nsecs: 679458433
  frame_id: "ti_mmwave"
point_id: 14
x: 2.685546875
y: -0.08984375
z: 0.990234375
range: 3.05038785934
velocity: 0.0
doppler_bin: 8
bearing: -1.91608965397
intensity: 32.1245384216
---
header: 
  seq: 1534520
  stamp: 
    secs: 1561865875
    nsecs: 679468483
  frame_id: "ti_mmwave"
point_id: 15
x: 2.763671875
y: -0.0
z: 0.89453125
range: 3.09396481514
velocity: 0.0
doppler_bin: 8
bearing: -0.0
intensity: 31.1126251221
---
header: 
  seq: 1534521
  stamp: 
    secs: 1561865875
    nsecs: 679477941
  frame_id: "ti_mmwave"
point_id: 16
x: 0.009765625
y: 0.03125
z: 0.025390625
range: 0.0435769706964
velocity: 0.0
doppler_bin: 8
bearing: 72.6459732056
intensity: 29.2890777588
---
header: 
  seq: 1534522
  stamp: 
    secs: 1561865875
    nsecs: 679573657
  frame_id: "ti_mmwave"
point_id: 17
x: 0.041015625
y: -0.033203125
z: 0.0625
range: 0.0871539413929
velocity: 0.0
doppler_bin: 8
bearing: -38.9909973145
intensity: 30.0860023499
---
header: 
  seq: 1534523
  stamp: 
    secs: 1561865875
    nsecs: 679588225
  frame_id: "ti_mmwave"
point_id: 18
x: 0.046875
y: -0.046875
z: 0.103515625
range: 0.130730912089
velocity: 0.0
doppler_bin: 8
bearing: -45.0
intensity: 28.9817657471
---
header: 
  seq: 1534524
  stamp: 
    secs: 1561865875
    nsecs: 679598351
  frame_id: "ti_mmwave"
point_id: 20
x: 1.095703125
y: -0.609375
z: 0.6015625
range: 1.48161697388
velocity: 0.0
doppler_bin: 8
bearing: -29.0806121826
intensity: 21.3033370972
---
header: 
  seq: 1534525
  stamp: 
    secs: 1561865875
    nsecs: 679606108
  frame_id: "ti_mmwave"
point_id: 21
x: 1.384765625
y: 0.3125
z: 0.185546875
range: 1.52519392967
velocity: 0.0
doppler_bin: 8
bearing: 12.7169141769
intensity: 20.4139270782
---
header: 
  seq: 1534526
  stamp: 
    secs: 1561865875
    nsecs: 679613900
  frame_id: "ti_mmwave"
point_id: 22
x: 2.71875
y: -0.181640625
z: 1.005859375
range: 3.09396481514
velocity: 0.0
doppler_bin: 8
bearing: -3.82227087021
intensity: 31.1092624664
---
header: 
  seq: 1534527
  stamp: 
    secs: 1561865875
    nsecs: 737531890
  frame_id: "ti_mmwave"
point_id: 0
x: 0.01171875
y: -0.0390625
z: -0.0078125
range: 0.0435769706964
velocity: 0.0
doppler_bin: 8
bearing: -73.3007583618
intensity: 30.6445808411
---
header: 
  seq: 1534528
  stamp: 
    secs: 1561865875
    nsecs: 737609494
  frame_id: "ti_mmwave"
point_id: 1
x: 0.017578125
y: -0.080078125
z: -0.0078125
range: 0.0871539413929
velocity: 0.0
doppler_bin: 8
bearing: -77.6192398071
intensity: 31.9005146027
---
header: 
  seq: 1534529
  stamp: 
    secs: 1561865875
    nsecs: 737624030
  frame_id: "ti_mmwave"
point_id: 2
x: 0.029296875
y: -0.119140625
z: -0.005859375
range: 0.130730912089
velocity: 0.0
doppler_bin: 8
bearing: -76.1849746704
intensity: 30.1367969513
---
header: 
  seq: 1534530
  stamp: 
    secs: 1561865875
    nsecs: 737633189
  frame_id: "ti_mmwave"
point_id: 3
x: 0.056640625
y: -0.154296875
z: 0.005859375
range: 0.174307882786
velocity: 0.0
doppler_bin: 8
bearing: -69.8423843384
intensity: 25.4406795502
---
header: 
  seq: 1534531
  stamp: 
    secs: 1561865875
    nsecs: 737643155
  frame_id: "ti_mmwave"
point_id: 4
x: 1.162109375
y: -0.115234375
z: -0.375
range: 1.3073091507
velocity: 0.0
doppler_bin: 8
bearing: -5.66291856766
intensity: 23.1806335449
---
header: 
  seq: 1534532
  stamp: 
    secs: 1561865875
    nsecs: 737652469
  frame_id: "ti_mmwave"
point_id: 5
x: 1.140625
y: -0.080078125
z: -0.546875
range: 1.35088610649
velocity: 0.0
doppler_bin: 8
bearing: -4.01588869095
intensity: 27.5815467834
---
header: 
  seq: 1534533
  stamp: 
    secs: 1561865875
    nsecs: 737662589
  frame_id: "ti_mmwave"
point_id: 6
x: 0.984375
y: -0.1640625
z: -0.84765625
range: 1.39446306229
velocity: 0.0
doppler_bin: 8
bearing: -9.46232223511
intensity: 27.2591171265
---
header: 
  seq: 1534534
  stamp: 
    secs: 1561865875
    nsecs: 737670981
  frame_id: "ti_mmwave"
point_id: 7
x: 1.322265625
y: 0.25390625
z: -0.103515625
range: 1.43804001808
velocity: 0.0
doppler_bin: 8
bearing: 10.8698310852
intensity: 25.1454772949
---
header: 
  seq: 1534535
  stamp: 
    secs: 1561865875
    nsecs: 737679184
  frame_id: "ti_mmwave"
point_id: 8
x: 1.32421875
y: -0.04296875
z: -0.421875
range: 1.48161697388
velocity: 0.0
doppler_bin: 8
bearing: -1.85850298405
intensity: 25.403295517
---
header: 
  seq: 1534536
  stamp: 
    secs: 1561865875
    nsecs: 737844631
  frame_id: "ti_mmwave"
point_id: 9
x: 1.353515625
y: -0.134765625
z: -0.4453125
range: 1.52519392967
velocity: 0.0
doppler_bin: 8
bearing: -5.68603420258
intensity: 24.4560413361
---
header: 
  seq: 1534537
  stamp: 
    secs: 1561865875
    nsecs: 737875447
  frame_id: "ti_mmwave"
point_id: 10
x: 1.3046875
y: 0.3671875
z: -0.572265625
range: 1.56877088547
velocity: 0.0
doppler_bin: 8
bearing: 15.7185735703
intensity: 22.5767860413
---
header: 
  seq: 1534538
  stamp: 
    secs: 1561865875
    nsecs: 737887672
  frame_id: "ti_mmwave"
point_id: 11
x: 1.39453125
y: 0.47265625
z: -0.345703125
range: 1.61234796047
velocity: 0.0
doppler_bin: 8
bearing: 18.7233486176
intensity: 28.2477645874
---
header: 
  seq: 1534539
  stamp: 
    secs: 1561865875
    nsecs: 737900322
  frame_id: "ti_mmwave"
point_id: 12
x: 1.44140625
y: 0.486328125
z: -0.3203125
range: 1.65592491627
velocity: 0.0
doppler_bin: 8
bearing: 18.6443119049
intensity: 30.7736797333
---
header: 
  seq: 1534540
  stamp: 
    secs: 1561865875
    nsecs: 737915375
  frame_id: "ti_mmwave"
point_id: 13
x: 1.484375
y: 0.498046875
z: -0.306640625
range: 1.69950187206
velocity: 0.0
doppler_bin: 8
bearing: 18.547958374
intensity: 29.7772369385
---
header: 
  seq: 1534541
  stamp: 
    secs: 1561865875
    nsecs: 737965856
  frame_id: "ti_mmwave"
point_id: 14
x: 2.61328125
y: -0.17578125
z: 1.05078125
range: 3.00681090355
velocity: 0.0
doppler_bin: 8
bearing: -3.84817934036
intensity: 29.0145835876
---
header: 
  seq: 1534542
  stamp: 
    secs: 1561865875
    nsecs: 737982631
  frame_id: "ti_mmwave"
point_id: 15
x: 2.69140625
y: -0.08984375
z: 0.9765625
range: 3.05038785934
velocity: 0.0
doppler_bin: 8
bearing: -1.91192126274
intensity: 32.2219619751
---
header: 
  seq: 1534543
  stamp: 
    secs: 1561865875
    nsecs: 737994166
  frame_id: "ti_mmwave"
point_id: 16
x: 2.771484375
y: -0.0
z: 0.8671875
range: 3.09396481514
velocity: 0.0
doppler_bin: 8
bearing: -0.0
intensity: 31.1793384552
---
header: 
  seq: 1534544
  stamp: 
    secs: 1561865875
    nsecs: 738005935
  frame_id: "ti_mmwave"
point_id: 17
x: 0.009765625
y: 0.03125
z: 0.025390625
range: 0.0435769706964
velocity: 0.0
doppler_bin: 8
bearing: 72.6459732056
intensity: 29.3094902039
---
header: 
  seq: 1534545
  stamp: 
    secs: 1561865875
    nsecs: 738016982
  frame_id: "ti_mmwave"
point_id: 18
x: 0.041015625
y: -0.033203125
z: 0.0625
range: 0.0871539413929
velocity: 0.0
doppler_bin: 8
bearing: -38.9909973145
intensity: 30.0902576447
---
header: 
  seq: 1534546
  stamp: 
    secs: 1561865875
    nsecs: 738061364
  frame_id: "ti_mmwave"
point_id: 19
x: 0.044921875
y: -0.046875
z: 0.103515625
range: 0.130730912089
velocity: 0.0
doppler_bin: 8
bearing: -46.218875885
intensity: 28.9872512817
---
header: 
  seq: 1534547
  stamp: 
    secs: 1561865875
    nsecs: 738083015
  frame_id: "ti_mmwave"
point_id: 21
x: 1.24609375
y: 0.328125
z: 0.2265625
range: 1.39446306229
velocity: 0.0
doppler_bin: 8
bearing: 14.752404213
intensity: 25.5144996643
---
header: 
  seq: 1534548
  stamp: 
    secs: 1561865875
    nsecs: 738113447
  frame_id: "ti_mmwave"
point_id: 22
x: 0.431640625
y: -0.2109375
z: 1.26171875
range: 1.43804001808
velocity: 0.0
doppler_bin: 8
bearing: -26.0441951752
intensity: 24.9276046753
---
header: 
  seq: 1534549
  stamp: 
    secs: 1561865875
    nsecs: 738177451
  frame_id: "ti_mmwave"
point_id: 23
x: 1.462890625
y: -0.046875
z: 0.166015625
range: 1.56877088547
velocity: 0.0
doppler_bin: 8
bearing: -1.83528482914
intensity: 21.8184356689
---
header: 
  seq: 1534550
  stamp: 
    secs: 1561865875
    nsecs: 738245015
  frame_id: "ti_mmwave"
point_id: 24
x: 2.73046875
y: -0.181640625
z: 0.970703125
range: 3.09396481514
velocity: 0.0
doppler_bin: 8
bearing: -3.80591416359
intensity: 31.1793384552
---
header: 
  seq: 1534551
  stamp: 
    secs: 1561865875
    nsecs: 738691704
  frame_id: "ti_mmwave"
point_id: 0
x: 0.01171875
y: -0.0390625
z: -0.0078125
range: 0.0435769706964
velocity: 0.0
doppler_bin: 8
bearing: -73.3007583618
intensity: 30.6445808411
---
header: 
  seq: 1534552
  stamp: 
    secs: 1561865875
    nsecs: 738764598
  frame_id: "ti_mmwave"
point_id: 1
x: 0.017578125
y: -0.080078125
z: -0.0078125
range: 0.0871539413929
velocity: 0.0
doppler_bin: 8
bearing: -77.6192398071
intensity: 31.9005146027
---
header: 
  seq: 1534553
  stamp: 
    secs: 1561865875
    nsecs: 738788052
  frame_id: "ti_mmwave"
point_id: 2
x: 0.029296875
y: -0.119140625
z: -0.005859375
range: 0.130730912089
velocity: 0.0
doppler_bin: 8
bearing: -76.1849746704
intensity: 30.141002655
---
header: 
  seq: 1534554
  stamp: 
    secs: 1561865875
    nsecs: 738814909
  frame_id: "ti_mmwave"
point_id: 3
x: 0.056640625
y: -0.154296875
z: 0.005859375
range: 0.174307882786
velocity: 0.0
doppler_bin: 8
bearing: -69.8423843384
intensity: 25.4406795502
---
header: 
  seq: 1534555
  stamp: 
    secs: 1561865875
    nsecs: 738874011
  frame_id: "ti_mmwave"
point_id: 4
x: 1.146484375
y: 0.0390625
z: -0.5390625
range: 1.35088610649
velocity: 0.0
doppler_bin: 8
bearing: 1.95140099525
intensity: 27.0415058136
---
header: 
  seq: 1534556
  stamp: 
    secs: 1561865875
    nsecs: 738895119
  frame_id: "ti_mmwave"
point_id: 5
x: 1.240234375
y: 0.041015625
z: -0.4140625
range: 1.39446306229
velocity: 0.0
doppler_bin: 8
bearing: 1.894130826
intensity: 30.0902576447
---
header: 
  seq: 1534557
  stamp: 
    secs: 1561865875
    nsecs: 738919940
  frame_id: "ti_mmwave"
point_id: 6
x: 1.291015625
y: 0.04296875
z: -0.39453125
range: 1.43804001808
velocity: 0.0
doppler_bin: 8
bearing: 1.90626633167
intensity: 29.5375976562
---
header: 
  seq: 1534558
  stamp: 
    secs: 1561865875
    nsecs: 738939849
  frame_id: "ti_mmwave"
point_id: 7
x: 1.248046875
y: -0.0
z: -0.615234375
range: 1.48161697388
velocity: 0.0
doppler_bin: 8
bearing: -0.0
intensity: 27.5127906799
---
header: 
  seq: 1534559
  stamp: 
    secs: 1561865875
    nsecs: 739036505
  frame_id: "ti_mmwave"
point_id: 8
x: 1.40625
y: -0.0
z: 0.271484375
range: 1.52519392967
velocity: 0.0
doppler_bin: 8
bearing: -0.0
intensity: 27.5966777802
---
header: 
  seq: 1534560
  stamp: 
    secs: 1561865875
    nsecs: 739059099
  frame_id: "ti_mmwave"
point_id: 9
x: 1.447265625
y: 0.046875
z: 0.265625
range: 1.56877088547
velocity: 0.0
doppler_bin: 8
bearing: 1.85508537292
intensity: 25.0785579681
---
header: 
  seq: 1534561
  stamp: 
    secs: 1561865875
    nsecs: 739073195
  frame_id: "ti_mmwave"
point_id: 10
x: 2.625
y: -0.17578125
z: 1.0234375
range: 3.00681090355
velocity: 0.0
doppler_bin: 8
bearing: -3.83105134964
intensity: 28.9652614594
---
header: 
  seq: 1534562
  stamp: 
    secs: 1561865875
    nsecs: 739085125
  frame_id: "ti_mmwave"
point_id: 11
x: 2.693359375
y: -0.08984375
z: 0.96875
range: 3.05038785934
velocity: 0.0
doppler_bin: 8
bearing: -1.91053581238
intensity: 32.1722068787
---
header: 
  seq: 1534563
  stamp: 
    secs: 1561865875
    nsecs: 739111954
  frame_id: "ti_mmwave"
point_id: 12
x: 2.734375
y: -0.181640625
z: 0.9609375
range: 3.09396481514
velocity: 0.0
doppler_bin: 8
bearing: -3.80049324036
intensity: 31.1494445801
---
header: 
  seq: 1534564
  stamp: 
    secs: 1561865875
    nsecs: 739186303
  frame_id: "ti_mmwave"
point_id: 13
x: 0.009765625
y: 0.03125
z: 0.025390625
range: 0.0435769706964
velocity: 0.0
doppler_bin: 8
bearing: 72.6459732056
intensity: 29.2941894531
---
header: 
  seq: 1534565
  stamp: 
    secs: 1561865875
    nsecs: 739205239
  frame_id: "ti_mmwave"
point_id: 14
x: 0.041015625
y: -0.033203125
z: 0.0625
range: 0.0871539413929
velocity: 0.0
doppler_bin: 8
bearing: -38.9909973145
intensity: 30.0860023499
---
header: 
  seq: 1534566
  stamp: 
    secs: 1561865875
    nsecs: 739232223
  frame_id: "ti_mmwave"
point_id: 15
x: 0.044921875
y: -0.046875
z: 0.103515625
range: 0.130730912089
velocity: 0.0
doppler_bin: 8
bearing: -46.218875885
intensity: 28.9872512817
---
header: 
  seq: 1534567
  stamp: 
    secs: 1561865875
    nsecs: 739302266
  frame_id: "ti_mmwave"
point_id: 17
x: 2.77734375
y: -0.0
z: 0.8515625
range: 3.09396481514
velocity: 0.0
doppler_bin: 8
bearing: -0.0
intensity: 31.1461105347
---
header: 
  seq: 1534568
  stamp: 
    secs: 1561865875
    nsecs: 797513510
  frame_id: "ti_mmwave"
point_id: 0
x: 0.01171875
y: -0.0390625
z: -0.0078125
range: 0.0435769706964
velocity: 0.0
doppler_bin: 8
bearing: -73.3007583618
intensity: 30.6445808411
---
header: 
  seq: 1534569
  stamp: 
    secs: 1561865875
    nsecs: 797590522
  frame_id: "ti_mmwave"
point_id: 1
x: 0.017578125
y: -0.080078125
z: -0.0078125
range: 0.0871539413929
velocity: 0.0
doppler_bin: 8
bearing: -77.6192398071
intensity: 31.9005146027
---
header: 
  seq: 1534570
  stamp: 
    secs: 1561865875
    nsecs: 797602082
  frame_id: "ti_mmwave"
point_id: 2
x: 0.029296875
y: -0.119140625
z: -0.005859375
range: 0.130730912089
velocity: 0.0
doppler_bin: 8
bearing: -76.1849746704
intensity: 30.1367969513
---
header: 
  seq: 1534571
  stamp: 
    secs: 1561865875
    nsecs: 797610458
  frame_id: "ti_mmwave"
point_id: 3
x: 0.056640625
y: -0.154296875
z: 0.005859375
range: 0.174307882786
velocity: 0.0
doppler_bin: 8
bearing: -69.8423843384
intensity: 25.4406795502
---
header: 
  seq: 1534572
  stamp: 
    secs: 1561865875
    nsecs: 797618699
  frame_id: "ti_mmwave"
point_id: 4
x: 1.189453125
y: 0.0390625
z: -0.302734375
range: 1.3073091507
velocity: 0.0
doppler_bin: 8
bearing: 1.88095879555
intensity: 19.9122600555
---
header: 
  seq: 1534573
  stamp: 
    secs: 1561865875
    nsecs: 797628583
  frame_id: "ti_mmwave"
point_id: 5
x: 1.251953125
y: 0.0390625
z: -0.197265625
range: 1.35088610649
velocity: 0.0
doppler_bin: 8
bearing: 1.78711998463
intensity: 24.4560413361
---
header: 
  seq: 1534574
  stamp: 
    secs: 1561865875
    nsecs: 797636575
  frame_id: "ti_mmwave"
point_id: 6
x: 1.306640625
y: -0.0
z: -0.076171875
range: 1.39446306229
velocity: 0.0
doppler_bin: 8
bearing: -0.0
intensity: 27.4036273956
---
header: 
  seq: 1534575
  stamp: 
    secs: 1561865875
    nsecs: 797644312
  frame_id: "ti_mmwave"
point_id: 7
x: 1.349609375
y: 0.04296875
z: -0.037109375
range: 1.43804001808
velocity: 0.0
doppler_bin: 8
bearing: 1.82356238365
intensity: 27.1432971954
---
header: 
  seq: 1534576
  stamp: 
    secs: 1561865875
    nsecs: 797651979
  frame_id: "ti_mmwave"
point_id: 8
x: 1.37890625
y: -0.0
z: 0.1796875
range: 1.48161697388
velocity: 0.0
doppler_bin: 8
bearing: -0.0
intensity: 24.2324581146
---
header: 
  seq: 1534577
  stamp: 
    secs: 1561865875
    nsecs: 797661409
  frame_id: "ti_mmwave"
point_id: 9
x: 1.1796875
y: -0.224609375
z: 0.78125
range: 1.52519392967
velocity: 0.0
doppler_bin: 8
bearing: -10.7799386978
intensity: 21.172712326
---
header: 
  seq: 1534578
  stamp: 
    secs: 1561865875
    nsecs: 797669696
  frame_id: "ti_mmwave"
point_id: 10
x: 2.619140625
y: -0.17578125
z: 1.03515625
range: 3.00681090355
velocity: 0.0
doppler_bin: 8
bearing: -3.83959650993
intensity: 29.020029068
---
header: 
  seq: 1534579
  stamp: 
    secs: 1561865875
    nsecs: 797677494
  frame_id: "ti_mmwave"
point_id: 11
x: 2.693359375
y: -0.08984375
z: 0.96875
range: 3.05038785934
velocity: 0.0
doppler_bin: 8
bearing: -1.91053581238
intensity: 32.2115325928
---
header: 
  seq: 1534580
  stamp: 
    secs: 1561865875
    nsecs: 797687319
  frame_id: "ti_mmwave"
point_id: 12
x: 2.7734375
y: -0.0
z: 0.859375
range: 3.09396481514
velocity: 0.0
doppler_bin: 8
bearing: -0.0
intensity: 31.1461105347
---
header: 
  seq: 1534581
  stamp: 
    secs: 1561865875
    nsecs: 797695682
  frame_id: "ti_mmwave"
point_id: 13
x: 4.41015625
y: -0.287109375
z: 1.208984375
range: 4.88062095642
velocity: 0.0
doppler_bin: 8
bearing: -3.72480559349
intensity: 30.1953163147
---
header: 
  seq: 1534582
  stamp: 
    secs: 1561865875
    nsecs: 797703630
  frame_id: "ti_mmwave"
point_id: 14
x: 4.46484375
y: -0.14453125
z: 1.185546875
range: 4.9241976738
velocity: 0.0
doppler_bin: 8
bearing: -1.85407173634
intensity: 29.9078273773
---
header: 
  seq: 1534583
  stamp: 
    secs: 1561865875
    nsecs: 797711708
  frame_id: "ti_mmwave"
point_id: 15
x: 0.009765625
y: 0.03125
z: 0.025390625
range: 0.0435769706964
velocity: 0.0
doppler_bin: 8
bearing: 72.6459732056
intensity: 29.2992954254
---
header: 
  seq: 1534584
  stamp: 
    secs: 1561865875
    nsecs: 797720631
  frame_id: "ti_mmwave"
point_id: 16
x: 0.041015625
y: -0.033203125
z: 0.0625
range: 0.0871539413929
velocity: 0.0
doppler_bin: 8
bearing: -38.9909973145
intensity: 30.0902576447
---
header: 
  seq: 1534585
  stamp: 
    secs: 1561865875
    nsecs: 797730078
  frame_id: "ti_mmwave"
point_id: 17
x: 0.046875
y: -0.046875
z: 0.103515625
range: 0.130730912089
velocity: 0.0
doppler_bin: 8
bearing: -45.0
intensity: 28.9817657471
---
header: 
  seq: 1534586
  stamp: 
    secs: 1561865875
    nsecs: 797740522
  frame_id: "ti_mmwave"
point_id: 19
x: 0.501953125
y: -0.3828125
z: 1.052734375
range: 1.3073091507
velocity: 0.0
doppler_bin: 8
bearing: -37.3308067322
intensity: 16.9897003174
---
header: 
  seq: 1534587
  stamp: 
    secs: 1561865875
    nsecs: 797899999
  frame_id: "ti_mmwave"
point_id: 20
x: 1.34765625
y: -0.04296875
z: 0.0625
range: 1.43804001808
velocity: 0.0
doppler_bin: 8
bearing: -1.82620322704
intensity: 27.0757026672
---
header: 
  seq: 1534588
  stamp: 
    secs: 1561865875
    nsecs: 797918840
  frame_id: "ti_mmwave"
point_id: 21
x: 1.41015625
y: 0.224609375
z: -0.09375
range: 1.52519392967
velocity: 0.0
doppler_bin: 8
bearing: 9.05003643036
intensity: 20.4139270782
---
header: 
  seq: 1534589
  stamp: 
    secs: 1561865875
    nsecs: 797927694
  frame_id: "ti_mmwave"
point_id: 22
x: 2.732421875
y: -0.181640625
z: 0.966796875
range: 3.09396481514
velocity: 0.0
doppler_bin: 8
bearing: -3.80320167542
intensity: 31.1394329071
---
header: 
  seq: 1534590
  stamp: 
    secs: 1561865875
    nsecs: 798882361
  frame_id: "ti_mmwave"
point_id: 0
x: 0.01171875
y: -0.0390625
z: -0.0078125
range: 0.0435769706964
velocity: 0.0
doppler_bin: 8
bearing: -73.3007583618
intensity: 30.6483230591
---
header: 
  seq: 1534591
  stamp: 
    secs: 1561865875
    nsecs: 798942965
  frame_id: "ti_mmwave"
point_id: 1
x: 0.017578125
y: -0.080078125
z: -0.0078125
range: 0.0871539413929
velocity: 0.0
doppler_bin: 8
bearing: -77.6192398071
intensity: 31.9033164978
---
header: 
  seq: 1534592
  stamp: 
    secs: 1561865875
    nsecs: 798961790
  frame_id: "ti_mmwave"
point_id: 2
x: 0.029296875
y: -0.119140625
z: -0.005859375
range: 0.130730912089
velocity: 0.0
doppler_bin: 8
bearing: -76.1849746704
intensity: 30.1367969513
---
header: 
  seq: 1534593
  stamp: 
    secs: 1561865875
    nsecs: 798978016
  frame_id: "ti_mmwave"
point_id: 3
x: 0.056640625
y: -0.154296875
z: 0.005859375
range: 0.174307882786
velocity: 0.0
doppler_bin: 8
bearing: -69.8423843384
intensity: 25.4406795502
---
header: 
  seq: 1534594
  stamp: 
    secs: 1561865875
    nsecs: 798999899
  frame_id: "ti_mmwave"
point_id: 4
x: 1.24609375
y: 0.080078125
z: -0.220703125
range: 1.35088610649
velocity: 0.0
doppler_bin: 8
bearing: 3.67696094513
intensity: 22.9446620941
---
header: 
  seq: 1534595
  stamp: 
    secs: 1561865875
    nsecs: 799017677
  frame_id: "ti_mmwave"
point_id: 5
x: 1.30859375
y: -0.0
z: -0.056640625
range: 1.39446306229
velocity: 0.0
doppler_bin: 8
bearing: -0.0
intensity: 27.1349048615
---
header: 
  seq: 1534596
  stamp: 
    secs: 1561865875
    nsecs: 799038006
  frame_id: "ti_mmwave"
point_id: 6
x: 1.349609375
y: 0.04296875
z: -0.001953125
range: 1.43804001808
velocity: 0.0
doppler_bin: 8
bearing: 1.82356238365
intensity: 27.9934062958
---
header: 
  seq: 1534597
  stamp: 
    secs: 1561865875
    nsecs: 799057446
  frame_id: "ti_mmwave"
point_id: 7
x: 1.388671875
y: -0.0
z: 0.076171875
range: 1.48161697388
velocity: 0.0
doppler_bin: 8
bearing: -0.0
intensity: 25.7287158966
---
header: 
  seq: 1534598
  stamp: 
    secs: 1561865875
    nsecs: 799082199
  frame_id: "ti_mmwave"
point_id: 8
x: 1.34765625
y: 0.1796875
z: 0.447265625
range: 1.52519392967
velocity: 0.0
doppler_bin: 8
bearing: 7.59464359283
intensity: 22.7646179199
---
header: 
  seq: 1534599
  stamp: 
    secs: 1561865875
    nsecs: 799104793
  frame_id: "ti_mmwave"
point_id: 9
x: 2.61328125
y: -0.17578125
z: 1.05078125
range: 3.00681090355
velocity: 0.0
doppler_bin: 8
bearing: -3.84817934036
intensity: 28.8930168152
---
header: 
  seq: 1534600
  stamp: 
    secs: 1561865875
    nsecs: 799202149
  frame_id: "ti_mmwave"
point_id: 10
x: 2.6875
y: -0.08984375
z: 0.984375
range: 3.05038785934
velocity: 0.0
doppler_bin: 8
bearing: -1.91469812393
intensity: 32.1325187683
---
header: 
  seq: 1534601
  stamp: 
    secs: 1561865875
    nsecs: 799215673
  frame_id: "ti_mmwave"
point_id: 11
x: 2.76953125
y: -0.0
z: 0.873046875
range: 3.09396481514
velocity: 0.0
doppler_bin: 8
bearing: -0.0
intensity: 31.1058979034
---
header: 
  seq: 1534602
  stamp: 
    secs: 1561865875
    nsecs: 799224279
  frame_id: "ti_mmwave"
point_id: 12
x: 4.412109375
y: -0.287109375
z: 1.205078125
range: 4.88062095642
velocity: 0.0
doppler_bin: 8
bearing: -3.72316122055
intensity: 29.2427921295
---
header: 
  seq: 1534603
  stamp: 
    secs: 1561865875
    nsecs: 799232271
  frame_id: "ti_mmwave"
point_id: 13
x: 4.470703125
y: -0.14453125
z: 1.1640625
range: 4.9241976738
velocity: 0.0
doppler_bin: 8
bearing: -1.8516433239
intensity: 28.8252449036
---
header: 
  seq: 1534604
  stamp: 
    secs: 1561865875
    nsecs: 799239808
  frame_id: "ti_mmwave"
point_id: 14
x: 0.009765625
y: 0.03125
z: 0.025390625
range: 0.0435769706964
velocity: 0.0
doppler_bin: 8
bearing: 72.6459732056
intensity: 29.2992954254
---
header: 
  seq: 1534605
  stamp: 
    secs: 1561865875
    nsecs: 799247638
  frame_id: "ti_mmwave"
point_id: 15
x: 0.041015625
y: -0.033203125
z: 0.0625
range: 0.0871539413929
velocity: 0.0
doppler_bin: 8
bearing: -38.9909973145
intensity: 30.0902576447
---
header: 
  seq: 1534606
  stamp: 
    secs: 1561865875
    nsecs: 799255040
  frame_id: "ti_mmwave"
point_id: 16
x: 0.044921875
y: -0.046875
z: 0.103515625
range: 0.130730912089
velocity: 0.0
doppler_bin: 8
bearing: -46.218875885
intensity: 28.9872512817
---
header: 
  seq: 1534607
  stamp: 
    secs: 1561865875
    nsecs: 799266203
  frame_id: "ti_mmwave"
point_id: 18
x: 0.84375
y: -0.396484375
z: 0.859375
range: 1.35088610649
velocity: 0.0
doppler_bin: 8
bearing: -25.169178009
intensity: 20.2118930817
---
header: 
  seq: 1534608
  stamp: 
    secs: 1561865875
    nsecs: 799274969
  frame_id: "ti_mmwave"
point_id: 19
x: 1.3125
y: -0.3125
z: -0.478515625
range: 1.52519392967
velocity: 0.0
doppler_bin: 8
bearing: -13.3924970627
intensity: 22.5527248383
---
header: 
  seq: 1534609
  stamp: 
    secs: 1561865875
    nsecs: 799282578
  frame_id: "ti_mmwave"
point_id: 20
x: 2.728515625
y: -0.181640625
z: 0.978515625
range: 3.09396481514
velocity: 0.0
doppler_bin: 8
bearing: -3.80863046646
intensity: 31.1025295258
---
header: 
  seq: 1534610
  stamp: 
    secs: 1561865875
    nsecs: 858345172
  frame_id: "ti_mmwave"
point_id: 0
x: 0.01171875
y: -0.0390625
z: -0.0078125
range: 0.0435769706964
velocity: 0.0
doppler_bin: 8
bearing: -73.3007583618
intensity: 30.6483230591
---
header: 
  seq: 1534611
  stamp: 
    secs: 1561865875
    nsecs: 858420509
  frame_id: "ti_mmwave"
point_id: 1
x: 0.017578125
y: -0.080078125
z: -0.0078125
range: 0.0871539413929
velocity: 0.0
doppler_bin: 8
bearing: -77.6192398071
intensity: 31.9033164978
---
header: 
  seq: 1534612
  stamp: 
    secs: 1561865875
    nsecs: 858431516
  frame_id: "ti_mmwave"
point_id: 2
x: 0.029296875
y: -0.119140625
z: -0.005859375
range: 0.130730912089
velocity: 0.0
doppler_bin: 8
bearing: -76.1849746704
intensity: 30.1367969513
---
header: 
  seq: 1534613
  stamp: 
    secs: 1561865875
    nsecs: 858442198
  frame_id: "ti_mmwave"
point_id: 3
x: 0.056640625
y: -0.154296875
z: 0.005859375
range: 0.174307882786
velocity: 0.0
doppler_bin: 8
bearing: -69.8423843384
intensity: 25.4406795502
---
header: 
  seq: 1534614
  stamp: 
    secs: 1561865875
    nsecs: 858450572
  frame_id: "ti_mmwave"
point_id: 4
x: 1.126953125
y: 0.357421875
z: 0.458984375
range: 1.35088610649
velocity: 0.0
doppler_bin: 8
bearing: 17.5968265533
intensity: 17.9934062958
---
header: 
  seq: 1534615
  stamp: 
    secs: 1561865875
    nsecs: 858460350
  frame_id: "ti_mmwave"
point_id: 5
x: 1.298828125
y: -0.123046875
z: -0.099609375
range: 1.39446306229
velocity: 0.0
doppler_bin: 8
bearing: -5.41186904907
intensity: 22.1218757629
---
header: 
  seq: 1534616
  stamp: 
    secs: 1561865875
    nsecs: 858468123
  frame_id: "ti_mmwave"
point_id: 6
x: 1.22265625
y: 0.2109375
z: 0.529296875
range: 1.43804001808
velocity: 0.0
doppler_bin: 8
bearing: 9.78853702545
intensity: 22.3299617767
---
header: 
  seq: 1534617
  stamp: 
    secs: 1561865875
    nsecs: 858476079
  frame_id: "ti_mmwave"
point_id: 7
x: 2.619140625
y: -0.17578125
z: 1.0390625
range: 3.00681090355
velocity: 0.0
doppler_bin: 8
bearing: -3.83959650993
intensity: 29.0145835876
---
header: 
  seq: 1534618
  stamp: 
    secs: 1561865875
    nsecs: 858484285
  frame_id: "ti_mmwave"
point_id: 8
x: 2.689453125
y: -0.08984375
z: 0.98046875
range: 3.05038785934
velocity: 0.0
doppler_bin: 8
bearing: -1.91330885887
intensity: 32.1958465576
---
header: 
  seq: 1534619
  stamp: 
    secs: 1561865875
    nsecs: 858492238
  frame_id: "ti_mmwave"
point_id: 9
x: 2.76953125
y: -0.0
z: 0.876953125
range: 3.09396481514
velocity: 0.0
doppler_bin: 8
bearing: -0.0
intensity: 31.172712326
---
header: 
  seq: 1534620
  stamp: 
    secs: 1561865875
    nsecs: 858501380
  frame_id: "ti_mmwave"
point_id: 10
x: 1.390625
y: 0.04296875
z: 0.0234375
range: 1.48161697388
velocity: 0.614668667316
doppler_bin: 9
bearing: 1.76981210709
intensity: 29.0902080536
---
header: 
  seq: 1534621
  stamp: 
    secs: 1561865875
    nsecs: 858509413
  frame_id: "ti_mmwave"
point_id: 11
x: 1.431640625
y: -0.0
z: 0.029296875
range: 1.52519392967
velocity: 0.614668667316
doppler_bin: 9
bearing: -0.0
intensity: 30.1703338623
---
header: 
  seq: 1534622
  stamp: 
    secs: 1561865875
    nsecs: 858517509
  frame_id: "ti_mmwave"
point_id: 12
x: 1.47265625
y: 0.046875
z: 0.0234375
range: 1.56877088547
velocity: 0.614668667316
doppler_bin: 9
bearing: 1.823122859
intensity: 27.3319721222
---
header: 
  seq: 1534623
  stamp: 
    secs: 1561865875
    nsecs: 858526448
  frame_id: "ti_mmwave"
point_id: 13
x: 0.009765625
y: 0.03125
z: 0.025390625
range: 0.0435769706964
velocity: 0.0
doppler_bin: 8
bearing: 72.6459732056
intensity: 29.2992954254
---
header: 
  seq: 1534624
  stamp: 
    secs: 1561865875
    nsecs: 858534951
  frame_id: "ti_mmwave"
point_id: 14
x: 0.041015625
y: -0.033203125
z: 0.0625
range: 0.0871539413929
velocity: 0.0
doppler_bin: 8
bearing: -38.9909973145
intensity: 30.081741333
---
header: 
  seq: 1534625
  stamp: 
    secs: 1561865875
    nsecs: 858543125
  frame_id: "ti_mmwave"
point_id: 15
x: 0.044921875
y: -0.046875
z: 0.103515625
range: 0.130730912089
velocity: 0.0
doppler_bin: 8
bearing: -46.218875885
intensity: 28.9817657471
---
header: 
  seq: 1534626
  stamp: 
    secs: 1561865875
    nsecs: 858553364
  frame_id: "ti_mmwave"
point_id: 17
x: 1.052734375
y: -0.119140625
z: -0.6953125
range: 1.35088610649
velocity: 0.0
doppler_bin: 8
bearing: -6.4568362236
intensity: 17.6342792511
---
header: 
  seq: 1534627
  stamp: 
    secs: 1561865875
    nsecs: 858575341
  frame_id: "ti_mmwave"
point_id: 18
x: 1.03125
y: 0.3671875
z: 0.716796875
range: 1.39446306229
velocity: 0.0
doppler_bin: 8
bearing: 19.5988121033
intensity: 20.0
---
header: 
  seq: 1534628
  stamp: 
    secs: 1561865875
    nsecs: 858583375
  frame_id: "ti_mmwave"
point_id: 19
x: 1.33203125
y: -0.2109375
z: -0.0546875
range: 1.43804001808
velocity: 0.0
doppler_bin: 8
bearing: -8.99850940704
intensity: 21.2385158539
---
header: 
  seq: 1534629
  stamp: 
    secs: 1561865875
    nsecs: 858746910
  frame_id: "ti_mmwave"
point_id: 20
x: 2.7265625
y: -0.181640625
z: 0.984375
range: 3.09396481514
velocity: 0.0
doppler_bin: 8
bearing: -3.81135106087
intensity: 31.1627559662
---
header: 
  seq: 1534630
  stamp: 
    secs: 1561865875
    nsecs: 917362048
  frame_id: "ti_mmwave"
point_id: 0
x: 0.01171875
y: -0.0390625
z: -0.0078125
range: 0.0435769706964
velocity: 0.0
doppler_bin: 8
bearing: -73.3007583618
intensity: 30.6483230591
---
header: 
  seq: 1534631
  stamp: 
    secs: 1561865875
    nsecs: 917435644
  frame_id: "ti_mmwave"
point_id: 1
x: 0.017578125
y: -0.080078125
z: -0.0078125
range: 0.0871539413929
velocity: 0.0
doppler_bin: 8
bearing: -77.6192398071
intensity: 31.9033164978
---
header: 
  seq: 1534632
  stamp: 
    secs: 1561865875
    nsecs: 917446695
  frame_id: "ti_mmwave"
point_id: 2
x: 0.029296875
y: -0.119140625
z: -0.005859375
range: 0.130730912089
velocity: 0.0
doppler_bin: 8
bearing: -76.1849746704
intensity: 30.1367969513
---
header: 
  seq: 1534633
  stamp: 
    secs: 1561865875
    nsecs: 917457147
  frame_id: "ti_mmwave"
point_id: 3
x: 0.056640625
y: -0.154296875
z: 0.005859375
range: 0.174307882786
velocity: 0.0
doppler_bin: 8
bearing: -69.8423843384
intensity: 25.4282550812
---
header: 
  seq: 1534634
  stamp: 
    secs: 1561865875
    nsecs: 917465490
  frame_id: "ti_mmwave"
point_id: 4
x: 0.623046875
y: -0.154296875
z: -1.046875
range: 1.3073091507
velocity: 0.0
doppler_bin: 8
bearing: -13.9093894958
intensity: 20.293838501
---
header: 
  seq: 1534635
  stamp: 
    secs: 1561865875
    nsecs: 917473773
  frame_id: "ti_mmwave"
point_id: 5
x: 0.78125
y: -0.080078125
z: -0.99609375
range: 1.35088610649
velocity: 0.0
doppler_bin: 8
bearing: -5.85237884521
intensity: 26.2013607025
---
header: 
  seq: 1534636
  stamp: 
    secs: 1561865875
    nsecs: 917481285
  frame_id: "ti_mmwave"
point_id: 6
x: 1.28515625
y: -0.0
z: -0.24609375
range: 1.39446306229
velocity: 0.0
doppler_bin: 8
bearing: -0.0
intensity: 29.1115760803
---
header: 
  seq: 1534637
  stamp: 
    secs: 1561865875
    nsecs: 917488902
  frame_id: "ti_mmwave"
point_id: 7
x: 1.33984375
y: 0.04296875
z: -0.150390625
range: 1.43804001808
velocity: 0.0
doppler_bin: 8
bearing: 1.83684444427
intensity: 29.9211139679
---
header: 
  seq: 1534638
  stamp: 
    secs: 1561865875
    nsecs: 917496403
  frame_id: "ti_mmwave"
point_id: 8
x: 1.37890625
y: 0.04296875
z: -0.181640625
range: 1.48161697388
velocity: 0.0
doppler_bin: 8
bearing: 1.78484320641
intensity: 29.6988162994
---
header: 
  seq: 1534639
  stamp: 
    secs: 1561865875
    nsecs: 917506339
  frame_id: "ti_mmwave"
point_id: 9
x: 2.60546875
y: -0.17578125
z: 1.0703125
range: 3.00681090355
velocity: 0.0
doppler_bin: 8
bearing: -3.85968351364
intensity: 28.9376182556
---
header: 
  seq: 1534640
  stamp: 
    secs: 1561865875
    nsecs: 917515718
  frame_id: "ti_mmwave"
point_id: 10
x: 2.68359375
y: -0.08984375
z: 0.994140625
range: 3.05038785934
velocity: 0.0
doppler_bin: 8
bearing: -1.91748321056
intensity: 32.1351776123
---
header: 
  seq: 1534641
  stamp: 
    secs: 1561865875
    nsecs: 917524045
  frame_id: "ti_mmwave"
point_id: 11
x: 2.724609375
y: -0.181640625
z: 0.98828125
range: 3.09396481514
velocity: 0.0
doppler_bin: 8
bearing: -3.81407499313
intensity: 31.0991592407
---
header: 
  seq: 1534642
  stamp: 
    secs: 1561865875
    nsecs: 917532027
  frame_id: "ti_mmwave"
point_id: 12
x: 1.431640625
y: -0.0
z: 0.017578125
range: 1.52519392967
velocity: 0.614668667316
doppler_bin: 9
bearing: -0.0
intensity: 29.5036487579
---
header: 
  seq: 1534643
  stamp: 
    secs: 1561865875
    nsecs: 917539885
  frame_id: "ti_mmwave"
point_id: 13
x: 1.46875
y: 0.046875
z: 0.083984375
range: 1.56877088547
velocity: 0.614668667316
doppler_bin: 9
bearing: 1.82796823978
intensity: 27.6117572784
---
header: 
  seq: 1534644
  stamp: 
    secs: 1561865875
    nsecs: 917547777
  frame_id: "ti_mmwave"
point_id: 14
x: 1.490234375
y: 0.046875
z: 0.25390625
range: 1.61234796047
velocity: 0.614668667316
doppler_bin: 9
bearing: 1.80163228512
intensity: 24.6389293671
---
header: 
  seq: 1534645
  stamp: 
    secs: 1561865875
    nsecs: 917556011
  frame_id: "ti_mmwave"
point_id: 15
x: 0.009765625
y: 0.03125
z: 0.025390625
range: 0.0435769706964
velocity: 0.0
doppler_bin: 8
bearing: 72.6459732056
intensity: 29.2992954254
---
header: 
  seq: 1534646
  stamp: 
    secs: 1561865875
    nsecs: 917564377
  frame_id: "ti_mmwave"
point_id: 16
x: 0.041015625
y: -0.033203125
z: 0.0625
range: 0.0871539413929
velocity: 0.0
doppler_bin: 8
bearing: -38.9909973145
intensity: 30.0860023499
---
header: 
  seq: 1534647
  stamp: 
    secs: 1561865875
    nsecs: 917574695
  frame_id: "ti_mmwave"
point_id: 17
x: 0.044921875
y: -0.046875
z: 0.103515625
range: 0.130730912089
velocity: 0.0
doppler_bin: 8
bearing: -46.218875885
intensity: 28.9817657471
---
header: 
  seq: 1534648
  stamp: 
    secs: 1561865875
    nsecs: 917656605
  frame_id: "ti_mmwave"
point_id: 19
x: 2.767578125
y: -0.0
z: 0.8828125
range: 3.09396481514
velocity: 0.0
doppler_bin: 8
bearing: -0.0
intensity: 31.0890312195
---
header: 
  seq: 1534649
  stamp: 
    secs: 1561865875
    nsecs: 918730361
  frame_id: "ti_mmwave"
point_id: 0
x: 0.01171875
y: -0.0390625
z: -0.0078125
range: 0.0435769706964
velocity: 0.0
doppler_bin: 8
bearing: -73.3007583618
intensity: 30.6520614624
---
header: 
  seq: 1534650
  stamp: 
    secs: 1561865875
    nsecs: 918774350
  frame_id: "ti_mmwave"
point_id: 1
x: 0.017578125
y: -0.080078125
z: -0.0078125
range: 0.0871539413929
velocity: 0.0
doppler_bin: 8
bearing: -77.6192398071
intensity: 31.9033164978
---
header: 
  seq: 1534651
  stamp: 
    secs: 1561865875
    nsecs: 918784893
  frame_id: "ti_mmwave"
point_id: 2
x: 0.029296875
y: -0.119140625
z: -0.005859375
range: 0.130730912089
velocity: 0.0
doppler_bin: 8
bearing: -76.1849746704
intensity: 30.1452045441
---
header: 
  seq: 1534652
  stamp: 
    secs: 1561865875
    nsecs: 918793798
  frame_id: "ti_mmwave"
point_id: 3
x: 0.056640625
y: -0.154296875
z: 0.005859375
range: 0.174307882786
velocity: 0.0
doppler_bin: 8
bearing: -69.8423843384
intensity: 25.4530715942
---
header: 
  seq: 1534653
  stamp: 
    secs: 1561865875
    nsecs: 918804022
  frame_id: "ti_mmwave"
point_id: 4
x: 0.0859375
y: -0.0390625
z: -1.263671875
range: 1.35088610649
velocity: 0.0
doppler_bin: 8
bearing: -24.4439563751
intensity: 26.503074646
---
header: 
  seq: 1534654
  stamp: 
    secs: 1561865875
    nsecs: 918813686
  frame_id: "ti_mmwave"
point_id: 5
x: 1.3046875
y: -0.0
z: 0.1015625
range: 1.39446306229
velocity: 0.0
doppler_bin: 8
bearing: -0.0
intensity: 29.8855895996
---
header: 
  seq: 1534655
  stamp: 
    secs: 1561865875
    nsecs: 918869366
  frame_id: "ti_mmwave"
point_id: 6
x: 1.345703125
y: -0.0
z: 0.09765625
range: 1.43804001808
velocity: 0.0
doppler_bin: 8
bearing: -0.0
intensity: 30.1786766052
---
header: 
  seq: 1534656
  stamp: 
    secs: 1561865875
    nsecs: 918878902
  frame_id: "ti_mmwave"
point_id: 7
x: 1.380859375
y: 0.04296875
z: 0.15234375
range: 1.48161697388
velocity: 0.0
doppler_bin: 8
bearing: 1.78232049942
intensity: 28.9542255402
---
header: 
  seq: 1534657
  stamp: 
    secs: 1561865875
    nsecs: 918886839
  frame_id: "ti_mmwave"
point_id: 8
x: 1.388671875
y: 0.37890625
z: -0.46484375
range: 1.61234796047
velocity: 0.0
doppler_bin: 8
bearing: 15.2619361877
intensity: 25.8771095276
---
header: 
  seq: 1534658
  stamp: 
    secs: 1561865875
    nsecs: 918894718
  frame_id: "ti_mmwave"
point_id: 9
x: 1.455078125
y: 0.388671875
z: -0.38671875
range: 1.65592491627
velocity: 0.0
doppler_bin: 8
bearing: 14.9553480148
intensity: 27.6566848755
---
header: 
  seq: 1534659
  stamp: 
    secs: 1561865875
    nsecs: 918902402
  frame_id: "ti_mmwave"
point_id: 10
x: 1.5078125
y: 0.3984375
z: -0.33203125
range: 1.69950187206
velocity: 0.0
doppler_bin: 8
bearing: 14.8019981384
intensity: 26.0530509949
---
header: 
  seq: 1534660
  stamp: 
    secs: 1561865875
    nsecs: 918911423
  frame_id: "ti_mmwave"
point_id: 11
x: 2.62109375
y: -0.17578125
z: 1.03125
range: 3.00681090355
velocity: 0.0
doppler_bin: 8
bearing: -3.83674383163
intensity: 28.9872512817
---
header: 
  seq: 1534661
  stamp: 
    secs: 1561865875
    nsecs: 918919011
  frame_id: "ti_mmwave"
point_id: 12
x: 2.693359375
y: -0.08984375
z: 0.966796875
range: 3.05038785934
velocity: 0.0
doppler_bin: 8
bearing: -1.91053581238
intensity: 32.2141418457
---
header: 
  seq: 1534662
  stamp: 
    secs: 1561865875
    nsecs: 918927504
  frame_id: "ti_mmwave"
point_id: 13
x: 2.734375
y: -0.181640625
z: 0.962890625
range: 3.09396481514
velocity: 0.0
doppler_bin: 8
bearing: -3.80049324036
intensity: 31.1925582886
---
header: 
  seq: 1534663
  stamp: 
    secs: 1561865875
    nsecs: 918935456
  frame_id: "ti_mmwave"
point_id: 14
x: 1.41796875
y: 0.044921875
z: 0.197265625
range: 1.52519392967
velocity: 0.614668667316
doppler_bin: 9
bearing: 1.81454885006
intensity: 28.0888595581
---
header: 
  seq: 1534664
  stamp: 
    secs: 1561865875
    nsecs: 918943742
  frame_id: "ti_mmwave"
point_id: 15
x: 1.453125
y: -0.0
z: 0.23828125
range: 1.56877088547
velocity: 0.614668667316
doppler_bin: 9
bearing: -0.0
intensity: 25.403295517
---
header: 
  seq: 1534665
  stamp: 
    secs: 1561865875
    nsecs: 918990059
  frame_id: "ti_mmwave"
point_id: 16
x: 0.009765625
y: 0.03125
z: 0.025390625
range: 0.0435769706964
velocity: 0.0
doppler_bin: 8
bearing: 72.6459732056
intensity: 29.2941894531
---
header: 
  seq: 1534666
  stamp: 
    secs: 1561865875
    nsecs: 918999803
  frame_id: "ti_mmwave"
point_id: 17
x: 0.041015625
y: -0.033203125
z: 0.0625
range: 0.0871539413929
velocity: 0.0
doppler_bin: 8
bearing: -38.9909973145
intensity: 30.0860023499
---
header: 
  seq: 1534667
  stamp: 
    secs: 1561865875
    nsecs: 919012093
  frame_id: "ti_mmwave"
point_id: 18
x: 0.044921875
y: -0.046875
z: 0.103515625
range: 0.130730912089
velocity: 0.0
doppler_bin: 8
bearing: -46.218875885
intensity: 28.9817657471
---
header: 
  seq: 1534668
  stamp: 
    secs: 1561865875
    nsecs: 919028627
  frame_id: "ti_mmwave"
point_id: 20
x: 1.4609375
y: -0.142578125
z: 0.365234375
range: 1.61234796047
velocity: 0.0
doppler_bin: 8
bearing: -5.57404851913
intensity: 23.7106781006
---
header: 
  seq: 1534669
  stamp: 
    secs: 1561865875
    nsecs: 919041023
  frame_id: "ti_mmwave"
point_id: 21
x: 1.521484375
y: -0.09765625
z: 0.306640625
range: 1.65592491627
velocity: 0.0
doppler_bin: 8
bearing: -3.67248344421
intensity: 24.683473587
---
header: 
  seq: 1534670
  stamp: 
    secs: 1561865875
    nsecs: 919059173
  frame_id: "ti_mmwave"
point_id: 23
x: 2.775390625
y: -0.0
z: 0.859375
range: 3.09396481514
velocity: 0.0
doppler_bin: 8
bearing: -0.0
intensity: 31.1793384552
---
header: 
  seq: 1534671
  stamp: 
    secs: 1561865875
    nsecs: 919071398
  frame_id: "ti_mmwave"
point_id: 24
x: 1.419921875
y: -0.044921875
z: 0.18359375
range: 1.52519392967
velocity: 0.614668667316
doppler_bin: 9
bearing: -1.81205427647
intensity: 28.0277366638
---
header: 
  seq: 1534672
  stamp: 
    secs: 1561865875
    nsecs: 977410387
  frame_id: "ti_mmwave"
point_id: 0
x: 0.01171875
y: -0.0390625
z: -0.0078125
range: 0.0435769706964
velocity: 0.0
doppler_bin: 8
bearing: -73.3007583618
intensity: 30.6483230591
---
header: 
  seq: 1534673
  stamp: 
    secs: 1561865875
    nsecs: 977501981
  frame_id: "ti_mmwave"
point_id: 1
x: 0.017578125
y: -0.080078125
z: -0.0078125
range: 0.0871539413929
