header: 
  seq: 50059
  stamp: 
    secs: 1561866160
    nsecs: 887258008
  frame_id: "ti_mmwave"
point_id: 0
x: 0.01171875
y: -0.0390625
z: -0.0078125
range: 0.0435769706964
velocity: 0.0
doppler_bin: 8
bearing: -73.3007583618
intensity: 30.6445808411
---
header: 
  seq: 50060
  stamp: 
    secs: 1561866160
    nsecs: 887346512
  frame_id: "ti_mmwave"
point_id: 1
x: 0.017578125
y: -0.080078125
z: -0.0078125
range: 0.0871539413929
velocity: 0.0
doppler_bin: 8
bearing: -77.6192398071
intensity: 31.9061183929
---
header: 
  seq: 50061
  stamp: 
    secs: 1561866160
    nsecs: 887360732
  frame_id: "ti_mmwave"
point_id: 2
x: 0.029296875
y: -0.119140625
z: -0.005859375
range: 0.130730912089
velocity: 0.0
doppler_bin: 8
bearing: -76.1849746704
intensity: 30.1367969513
---
header: 
  seq: 50062
  stamp: 
    secs: 1561866160
    nsecs: 887370284
  frame_id: "ti_mmwave"
point_id: 3
x: 0.056640625
y: -0.154296875
z: 0.005859375
range: 0.174307882786
velocity: 0.0
doppler_bin: 8
bearing: -69.8423843384
intensity: 25.4530715942
---
header: 
  seq: 50063
  stamp: 
    secs: 1561866160
    nsecs: 887379257
  frame_id: "ti_mmwave"
point_id: 4
x: 0.142578125
y: -0.080078125
z: 1.2578125
range: 1.35088610649
velocity: 0.0
doppler_bin: 8
bearing: -29.3204746246
intensity: 23.1175384521
---
header: 
  seq: 50064
  stamp: 
    secs: 1561866160
    nsecs: 887390792
  frame_id: "ti_mmwave"
point_id: 6
x: 0.416015625
y: -0.083984375
z: -1.28125
range: 1.43804001808
velocity: 0.0
doppler_bin: 8
bearing: -11.4133548737
intensity: 23.0963020325
---
header: 
  seq: 50065
  stamp: 
    secs: 1561866160
    nsecs: 887399347
  frame_id: "ti_mmwave"
point_id: 7
x: 0.591796875
y: -0.04296875
z: -1.2578125
range: 1.48161697388
velocity: 0.0
doppler_bin: 8
bearing: -4.15280246735
intensity: 21.6731739044
---
header: 
  seq: 50066
  stamp: 
    secs: 1561866160
    nsecs: 887408694
  frame_id: "ti_mmwave"
point_id: 8
x: 1.533203125
y: 0.146484375
z: -0.212890625
range: 1.65592491627
velocity: 0.0
doppler_bin: 8
bearing: 5.45755338669
intensity: 31.7114124298
---
header: 
  seq: 50067
  stamp: 
    secs: 1561866160
    nsecs: 887417430
  frame_id: "ti_mmwave"
point_id: 9
x: 1.57421875
y: 0.150390625
z: -0.20703125
range: 1.69950187206
velocity: 0.0
doppler_bin: 8
bearing: 5.45710468292
intensity: 34.3854217529
---
header: 
  seq: 50068
  stamp: 
    secs: 1561866160
    nsecs: 887426227
  frame_id: "ti_mmwave"
point_id: 10
x: 1.615234375
y: 0.154296875
z: -0.205078125
range: 1.74307882786
velocity: 0.0
doppler_bin: 8
bearing: 5.45667886734
intensity: 33.4360542297
---
header: 
  seq: 50069
  stamp: 
    secs: 1561866160
    nsecs: 887435380
  frame_id: "ti_mmwave"
point_id: 11
x: 1.67578125
y: 0.052734375
z: -0.0390625
range: 1.78665578365
velocity: 0.0
doppler_bin: 8
bearing: 1.80241930485
intensity: 29.4101428986
---
header: 
  seq: 50070
  stamp: 
    secs: 1561866160
    nsecs: 887444080
  frame_id: "ti_mmwave"
point_id: 12
x: 1.703125
y: -0.107421875
z: 0.203125
range: 1.83023273945
velocity: 0.0
doppler_bin: 8
bearing: -3.60905861855
intensity: 27.5815467834
---
header: 
  seq: 50071
  stamp: 
    secs: 1561866160
    nsecs: 887464505
  frame_id: "ti_mmwave"
point_id: 13
x: 2.62890625
y: -0.17578125
z: 1.013671875
range: 3.00681090355
velocity: 0.0
doppler_bin: 8
bearing: -3.82537555695
intensity: 29.0794849396
---
header: 
  seq: 50072
  stamp: 
    secs: 1561866160
    nsecs: 887478996
  frame_id: "ti_mmwave"
point_id: 14
x: 2.697265625
y: -0.08984375
z: 0.955078125
range: 3.05038785934
velocity: 0.0
doppler_bin: 8
bearing: -1.90777087212
intensity: 32.1932258606
---
header: 
  seq: 50073
  stamp: 
    secs: 1561866160
    nsecs: 887505746
  frame_id: "ti_mmwave"
point_id: 15
x: 2.779296875
y: -0.0
z: 0.84375
range: 3.09396481514
velocity: 0.0
doppler_bin: 8
bearing: -0.0
intensity: 31.0822658539
---
header: 
  seq: 50074
  stamp: 
    secs: 1561866160
    nsecs: 887521826
  frame_id: "ti_mmwave"
point_id: 16
x: 4.41796875
y: -0.287109375
z: 1.177734375
range: 4.88062095642
velocity: 0.0
doppler_bin: 8
bearing: -3.71823716164
intensity: 31.0822658539
---
header: 
  seq: 50075
  stamp: 
    secs: 1561866160
    nsecs: 887532654
  frame_id: "ti_mmwave"
point_id: 17
x: 4.46484375
y: -0.14453125
z: 1.185546875
range: 4.9241976738
velocity: 0.0
doppler_bin: 8
bearing: -1.85407173634
intensity: 30.6632595062
---
header: 
  seq: 50076
  stamp: 
    secs: 1561866160
    nsecs: 887671942
  frame_id: "ti_mmwave"
point_id: 18
x: 4.73828125
y: -0.298828125
z: -0.611328125
range: 5.09850549698
velocity: 0.0
doppler_bin: 8
bearing: -3.60868048668
intensity: 33.159702301
---
header: 
  seq: 50077
  stamp: 
    secs: 1561866160
    nsecs: 887683734
  frame_id: "ti_mmwave"
point_id: 19
x: 4.77734375
y: -0.30078125
z: -0.6171875
range: 5.14208269119
velocity: 0.0
doppler_bin: 8
bearing: -3.60258316994
intensity: 33.5218238831
---
header: 
  seq: 50078
  stamp: 
    secs: 1561866160
    nsecs: 887692018
  frame_id: "ti_mmwave"
point_id: 20
x: 4.876953125
y: -0.30859375
z: 0.783203125
range: 5.27281332016
velocity: 0.0
doppler_bin: 8
bearing: -3.62061715126
intensity: 32.0112380981
---
header: 
  seq: 50079
  stamp: 
    secs: 1561866160
    nsecs: 887700663
  frame_id: "ti_mmwave"
point_id: 21
x: 4.9453125
y: -0.623046875
z: 0.236328125
range: 5.31639051437
velocity: 0.0
doppler_bin: 8
bearing: -7.18071126938
intensity: 30.6929798126
---
header: 
  seq: 50080
  stamp: 
    secs: 1561866160
    nsecs: 887710764
  frame_id: "ti_mmwave"
point_id: 23
x: 1.783203125
y: 0.587890625
z: 0.12109375
range: 2.00454068184
velocity: -0.614668667316
doppler_bin: 7
bearing: 18.2464790344
intensity: 27.9098854065
---
header: 
  seq: 50081
  stamp: 
    secs: 1561866160
    nsecs: 887719723
  frame_id: "ti_mmwave"
point_id: 24
x: 1.802734375
y: 0.66015625
z: 0.115234375
range: 2.04811763763
velocity: -0.614668667316
doppler_bin: 7
bearing: 20.1125888824
intensity: 27.4350967407
---
header: 
  seq: 50082
  stamp: 
    secs: 1561866160
    nsecs: 887728750
  frame_id: "ti_mmwave"
point_id: 25
x: 0.009765625
y: 0.03125
z: 0.025390625
range: 0.0435769706964
velocity: 0.0
doppler_bin: 8
bearing: 72.6459732056
intensity: 29.2992954254
---
header: 
  seq: 50083
  stamp: 
    secs: 1561866160
    nsecs: 887737442
  frame_id: "ti_mmwave"
point_id: 26
x: 0.041015625
y: -0.033203125
z: 0.0625
range: 0.0871539413929
velocity: 0.0
doppler_bin: 8
bearing: -38.9909973145
intensity: 30.0945091248
---
header: 
  seq: 50084
  stamp: 
    secs: 1561866160
    nsecs: 887746409
  frame_id: "ti_mmwave"
point_id: 27
x: 0.044921875
y: -0.046875
z: 0.103515625
range: 0.130730912089
velocity: 0.0
doppler_bin: 8
bearing: -46.218875885
intensity: 28.9927310944
---
header: 
  seq: 50085
  stamp: 
    secs: 1561866160
    nsecs: 887770871
  frame_id: "ti_mmwave"
point_id: 29
x: 2.7421875
y: -0.181640625
z: 0.94140625
range: 3.09396481514
velocity: 0.0
doppler_bin: 8
bearing: -3.78969717026
intensity: 31.0822658539
---
header: 
  seq: 50086
  stamp: 
    secs: 1561866160
    nsecs: 887780571
  frame_id: "ti_mmwave"
point_id: 30
x: 1.001953125
y: 2.041015625
z: 0.51953125
range: 2.48388743401
velocity: 1.22933733463
doppler_bin: 10
bearing: 63.8531570435
intensity: 20.0860023499
---
header: 
  seq: 50087
  stamp: 
    secs: 1561866160
    nsecs: 888922526
  frame_id: "ti_mmwave"
point_id: 0
x: 0.01171875
y: -0.0390625
z: -0.0078125
range: 0.0435769706964
velocity: 0.0
doppler_bin: 8
bearing: -73.3007583618
intensity: 30.6445808411
---
header: 
  seq: 50088
  stamp: 
    secs: 1561866160
    nsecs: 888995889
  frame_id: "ti_mmwave"
point_id: 1
x: 0.017578125
y: -0.080078125
z: -0.0078125
range: 0.0871539413929
velocity: 0.0
doppler_bin: 8
bearing: -77.6192398071
intensity: 31.9033164978
---
header: 
  seq: 50089
  stamp: 
    secs: 1561866160
    nsecs: 889013613
  frame_id: "ti_mmwave"
point_id: 2
x: 0.029296875
y: -0.119140625
z: -0.005859375
range: 0.130730912089
velocity: 0.0
doppler_bin: 8
bearing: -76.1849746704
intensity: 30.141002655
---
header: 
  seq: 50090
  stamp: 
    secs: 1561866160
    nsecs: 889027382
  frame_id: "ti_mmwave"
point_id: 3
x: 0.056640625
y: -0.154296875
z: 0.005859375
range: 0.174307882786
velocity: 0.0
doppler_bin: 8
bearing: -69.8423843384
intensity: 25.4530715942
---
header: 
  seq: 50091
  stamp: 
    secs: 1561866160
    nsecs: 889042364
  frame_id: "ti_mmwave"
point_id: 4
x: 0.16796875
y: -0.080078125
z: 1.25390625
range: 1.35088610649
velocity: 0.0
doppler_bin: 8
bearing: -25.489200592
intensity: 23.1175384521
---
header: 
  seq: 50092
  stamp: 
    secs: 1561866160
    nsecs: 889055593
  frame_id: "ti_mmwave"
point_id: 5
x: 0.04296875
y: -0.08203125
z: 1.306640625
range: 1.39446306229
velocity: 0.0
doppler_bin: 8
bearing: -62.3540267944
intensity: 24.6389293671
---
header: 
  seq: 50093
  stamp: 
    secs: 1561866160
    nsecs: 889068952
  frame_id: "ti_mmwave"
point_id: 6
x: 0.419921875
y: -0.083984375
z: -1.28125
range: 1.43804001808
velocity: 0.0
doppler_bin: 8
bearing: -11.3099327087
intensity: 23.0963020325
---
header: 
  seq: 50094
  stamp: 
    secs: 1561866160
    nsecs: 889082238
  frame_id: "ti_mmwave"
point_id: 7
x: 0.568359375
y: -0.04296875
z: -1.26953125
range: 1.48161697388
velocity: 0.0
doppler_bin: 8
bearing: -4.32341527939
intensity: 21.7318630219
---
header: 
  seq: 50095
  stamp: 
    secs: 1561866160
    nsecs: 889098685
  frame_id: "ti_mmwave"
point_id: 8
x: 1.54296875
y: 0.09765625
z: -0.154296875
range: 1.65592491627
velocity: 0.0
doppler_bin: 8
bearing: 3.62148451805
intensity: 30.4060230255
---
header: 
  seq: 50096
  stamp: 
    secs: 1561866160
    nsecs: 889112696
  frame_id: "ti_mmwave"
point_id: 9
x: 1.58203125
y: 0.150390625
z: -0.14453125
range: 1.69950187206
velocity: 0.0
doppler_bin: 8
bearing: 5.43031740189
intensity: 33.4044418335
---
header: 
  seq: 50097
  stamp: 
    secs: 1561866160
    nsecs: 889126185
  frame_id: "ti_mmwave"
point_id: 10
x: 1.62109375
y: 0.154296875
z: -0.16015625
range: 1.74307882786
velocity: 0.0
doppler_bin: 8
bearing: 5.43707418442
intensity: 32.645816803
---
header: 
  seq: 50098
  stamp: 
    secs: 1561866160
    nsecs: 889144098
  frame_id: "ti_mmwave"
point_id: 11
x: 1.662109375
y: 0.10546875
z: -0.1953125
range: 1.78665578365
velocity: 0.0
doppler_bin: 8
bearing: 3.6308221817
intensity: 27.1850166321
---
header: 
  seq: 50099
  stamp: 
    secs: 1561866160
    nsecs: 889208526
  frame_id: "ti_mmwave"
point_id: 12
x: 2.62109375
y: -0.17578125
z: 1.03515625
range: 3.00681090355
velocity: 0.0
doppler_bin: 8
bearing: -3.83674383163
intensity: 28.9597473145
---
header: 
  seq: 50100
  stamp: 
    secs: 1561866160
    nsecs: 889224209
  frame_id: "ti_mmwave"
point_id: 13
x: 2.662109375
y: -0.1796875
z: 1.037109375
range: 3.05038785934
velocity: 0.0
doppler_bin: 8
bearing: -3.86150240898
intensity: 32.2141418457
---
header: 
  seq: 50101
  stamp: 
    secs: 1561866160
    nsecs: 889237602
  frame_id: "ti_mmwave"
point_id: 14
x: 2.732421875
y: -0.181640625
z: 0.966796875
range: 3.09396481514
velocity: 0.0
doppler_bin: 8
bearing: -3.80320167542
intensity: 31.205739975
---
header: 
  seq: 50102
  stamp: 
    secs: 1561866160
    nsecs: 889253667
  frame_id: "ti_mmwave"
point_id: 15
x: 4.416015625
y: -0.142578125
z: 1.212890625
range: 4.88062095642
velocity: 0.0
doppler_bin: 8
bearing: -1.84924340248
intensity: 30.9272060394
---
header: 
  seq: 50103
  stamp: 
    secs: 1561866160
    nsecs: 889267472
  frame_id: "ti_mmwave"
point_id: 16
x: 4.447265625
y: -0.14453125
z: 1.255859375
range: 4.9241976738
velocity: 0.0
doppler_bin: 8
bearing: -1.86139500141
intensity: 30.3981056213
---
header: 
  seq: 50104
  stamp: 
    secs: 1561866160
    nsecs: 889284168
  frame_id: "ti_mmwave"
point_id: 17
x: 4.810546875
y: -0.154296875
z: 0.96875
range: 5.22923660278
velocity: 0.0
doppler_bin: 8
bearing: -1.83711528778
intensity: 30.4178733826
---
header: 
  seq: 50105
  stamp: 
    secs: 1561866160
    nsecs: 889293518
  frame_id: "ti_mmwave"
point_id: 18
x: 4.87109375
y: -0.154296875
z: 0.86328125
range: 5.27281332016
velocity: 0.0
doppler_bin: 8
bearing: -1.81429588795
intensity: 31.8184356689
---
header: 
  seq: 50106
  stamp: 
    secs: 1561866160
    nsecs: 889439869
  frame_id: "ti_mmwave"
point_id: 19
x: 4.970703125
y: -0.3125
z: 0.306640625
range: 5.31639051437
velocity: 0.0
doppler_bin: 8
bearing: -3.59735774994
intensity: 29.8721923828
---
header: 
  seq: 50107
  stamp: 
    secs: 1561866160
    nsecs: 889461144
  frame_id: "ti_mmwave"
point_id: 20
x: 1.779296875
y: 0.67578125
z: 0.482421875
range: 2.09169459343
velocity: -1.22933733463
doppler_bin: 6
bearing: 20.7968978882
intensity: 23.0535144806
---
header: 
  seq: 50108
  stamp: 
    secs: 1561866160
    nsecs: 889470253
  frame_id: "ti_mmwave"
point_id: 21
x: 1.708984375
y: 0.576171875
z: 0.365234375
range: 1.96096372604
velocity: -0.614668667316
doppler_bin: 7
bearing: 18.6311664581
intensity: 29.122220993
---
header: 
  seq: 50109
  stamp: 
    secs: 1561866160
    nsecs: 889487911
  frame_id: "ti_mmwave"
point_id: 22
x: 1.73828125
y: 0.587890625
z: 0.41796875
range: 2.00454068184
velocity: -0.614668667316
doppler_bin: 7
bearing: 18.6856517792
intensity: 30.5766601562
---
header: 
  seq: 50110
  stamp: 
    secs: 1561866160
    nsecs: 889501955
  frame_id: "ti_mmwave"
point_id: 23
x: 1.755859375
y: 0.6015625
z: 0.5
range: 2.04811763763
velocity: -0.614668667316
doppler_bin: 7
bearing: 18.9116077423
intensity: 28.4880466461
---
header: 
  seq: 50111
  stamp: 
    secs: 1561866160
    nsecs: 889515864
  frame_id: "ti_mmwave"
point_id: 24
x: 0.009765625
y: 0.03125
z: 0.025390625
range: 0.0435769706964
velocity: 0.0
doppler_bin: 8
bearing: 72.6459732056
intensity: 29.3043956757
---
header: 
  seq: 50112
  stamp: 
    secs: 1561866160
    nsecs: 889530712
  frame_id: "ti_mmwave"
point_id: 25
x: 0.041015625
y: -0.033203125
z: 0.0625
range: 0.0871539413929
velocity: 0.0
doppler_bin: 8
bearing: -38.9909973145
intensity: 30.0945091248
---
header: 
  seq: 50113
  stamp: 
    secs: 1561866160
    nsecs: 889544793
  frame_id: "ti_mmwave"
point_id: 26
x: 0.044921875
y: -0.046875
z: 0.103515625
range: 0.130730912089
velocity: 0.0
doppler_bin: 8
bearing: -46.218875885
intensity: 28.9927310944
---
header: 
  seq: 50114
  stamp: 
    secs: 1561866160
    nsecs: 889560019
  frame_id: "ti_mmwave"
point_id: 28
x: 2.771484375
y: -0.0
z: 0.8671875
range: 3.09396481514
velocity: 0.0
doppler_bin: 8
bearing: -0.0
intensity: 31.1925582886
---
header: 
  seq: 50115
  stamp: 
    secs: 1561866160
    nsecs: 889573184
  frame_id: "ti_mmwave"
point_id: 29
x: 1.205078125
y: -0.123046875
z: -1.544921875
range: 2.09169459343
velocity: -1.22933733463
doppler_bin: 6
bearing: -5.83009338379
intensity: 21.6731739044
---
header: 
  seq: 50116
  stamp: 
    secs: 1561866160
    nsecs: 947289717
  frame_id: "ti_mmwave"
point_id: 0
x: 0.01171875
y: -0.0390625
z: -0.0078125
range: 0.0435769706964
velocity: 0.0
doppler_bin: 8
bearing: -73.3007583618
intensity: 30.6483230591
---
header: 
  seq: 50117
  stamp: 
    secs: 1561866160
    nsecs: 947377509
  frame_id: "ti_mmwave"
point_id: 1
x: 0.017578125
y: -0.080078125
z: -0.0078125
range: 0.0871539413929
velocity: 0.0
doppler_bin: 8
bearing: -77.6192398071
intensity: 31.9061183929
---
header: 
  seq: 50118
  stamp: 
    secs: 1561866160
    nsecs: 947396426
  frame_id: "ti_mmwave"
point_id: 2
x: 0.029296875
y: -0.119140625
z: -0.005859375
range: 0.130730912089
velocity: 0.0
doppler_bin: 8
bearing: -76.1849746704
intensity: 30.1367969513
---
header: 
  seq: 50119
  stamp: 
    secs: 1561866160
    nsecs: 947410423
  frame_id: "ti_mmwave"
point_id: 3
x: 0.056640625
y: -0.154296875
z: 0.005859375
range: 0.174307882786
velocity: 0.0
doppler_bin: 8
bearing: -69.8423843384
intensity: 25.4406795502
---
header: 
  seq: 50120
  stamp: 
    secs: 1561866160
    nsecs: 947426660
  frame_id: "ti_mmwave"
point_id: 4
x: 0.107421875
y: -0.080078125
z: 1.26171875
range: 1.35088610649
velocity: 0.0
doppler_bin: 8
bearing: -36.7028541565
intensity: 23.138671875
---
header: 
  seq: 50121
  stamp: 
    secs: 1561866160
    nsecs: 947440726
  frame_id: "ti_mmwave"
point_id: 5
x: 0.046875
y: -0.08203125
z: 1.3046875
range: 1.39446306229
velocity: 0.0
doppler_bin: 8
bearing: -60.255115509
intensity: 24.6239795685
---
header: 
  seq: 50122
  stamp: 
    secs: 1561866160
    nsecs: 947460995
  frame_id: "ti_mmwave"
point_id: 6
x: 0.41796875
y: -0.083984375
z: -1.28125
range: 1.43804001808
velocity: 0.0
doppler_bin: 8
bearing: -11.3614110947
intensity: 23.0535144806
---
header: 
  seq: 50123
  stamp: 
    secs: 1561866160
    nsecs: 947476232
  frame_id: "ti_mmwave"
point_id: 7
x: 0.544921875
y: -0.04296875
z: -1.279296875
range: 1.48161697388
velocity: 0.0
doppler_bin: 8
bearing: -4.50861787796
intensity: 21.6731739044
---
header: 
  seq: 50124
  stamp: 
    secs: 1561866160
    nsecs: 947489477
  frame_id: "ti_mmwave"
point_id: 8
x: 1.5390625
y: 0.09765625
z: -0.189453125
range: 1.65592491627
velocity: 0.0
doppler_bin: 8
bearing: 3.630651474
intensity: 28.7215633392
---
header: 
  seq: 50125
  stamp: 
    secs: 1561866160
    nsecs: 947514060
  frame_id: "ti_mmwave"
point_id: 9
x: 1.58203125
y: 0.150390625
z: -0.142578125
range: 1.69950187206
velocity: 0.0
doppler_bin: 8
bearing: 5.43031740189
intensity: 32.0194320679
---
header: 
  seq: 50126
  stamp: 
    secs: 1561866160
    nsecs: 947599768
  frame_id: "ti_mmwave"
point_id: 10
x: 1.6328125
y: 0.1015625
z: -0.0390625
range: 1.74307882786
velocity: 0.0
doppler_bin: 8
bearing: 3.55926680565
intensity: 32.4846382141
---
header: 
  seq: 50127
  stamp: 
    secs: 1561866160
    nsecs: 947616013
  frame_id: "ti_mmwave"
point_id: 11
x: 1.673828125
y: -0.0
z: 0.107421875
range: 1.78665578365
velocity: 0.0
doppler_bin: 8
bearing: -0.0
intensity: 30.6258201599
---
header: 
  seq: 50128
  stamp: 
    secs: 1561866160
    nsecs: 947630138
  frame_id: "ti_mmwave"
point_id: 12
x: 1.7109375
y: -0.107421875
z: 0.103515625
range: 1.83023273945
velocity: 0.0
doppler_bin: 8
bearing: -3.59262180328
intensity: 28.5733242035
---
header: 
  seq: 50129
  stamp: 
    secs: 1561866160
    nsecs: 947645763
  frame_id: "ti_mmwave"
point_id: 13
x: 2.62109375
y: -0.17578125
z: 1.03125
range: 3.00681090355
velocity: 0.0
doppler_bin: 8
bearing: -3.83674383163
intensity: 28.9376182556
---
header: 
  seq: 50130
  stamp: 
    secs: 1561866160
    nsecs: 947660686
  frame_id: "ti_mmwave"
point_id: 14
x: 2.697265625
y: -0.08984375
z: 0.958984375
range: 3.05038785934
velocity: 0.0
doppler_bin: 8
bearing: -1.90777087212
intensity: 32.2010803223
---
header: 
  seq: 50131
  stamp: 
    secs: 1561866160
    nsecs: 947674638
  frame_id: "ti_mmwave"
point_id: 15
x: 2.77734375
y: -0.0
z: 0.84765625
range: 3.09396481514
velocity: 0.0
doppler_bin: 8
bearing: -0.0
intensity: 31.176027298
---
header: 
  seq: 50132
  stamp: 
    secs: 1561866160
    nsecs: 947684240
  frame_id: "ti_mmwave"
point_id: 16
x: 4.404296875
y: -0.142578125
z: 1.251953125
range: 4.88062095642
velocity: 0.0
doppler_bin: 8
bearing: -1.85416030884
intensity: 29.2941894531
---
header: 
  seq: 50133
  stamp: 
    secs: 1561866160
    nsecs: 947731619
  frame_id: "ti_mmwave"
point_id: 17
x: 4.423828125
y: -0.0
z: 1.33984375
range: 4.9241976738
velocity: 0.0
doppler_bin: 8
bearing: -0.0
intensity: 28.5853729248
---
header: 
  seq: 50134
  stamp: 
    secs: 1561866160
    nsecs: 947749407
  frame_id: "ti_mmwave"
point_id: 18
x: 4.896484375
y: -0.30859375
z: 0.65625
range: 5.27281332016
velocity: 0.0
doppler_bin: 8
bearing: -3.6062130928
intensity: 30.6333332062
---
header: 
  seq: 50135
  stamp: 
    secs: 1561866160
    nsecs: 947762992
  frame_id: "ti_mmwave"
point_id: 19
x: 4.951171875
y: -0.623046875
z: 0.06640625
range: 5.31639051437
velocity: 0.0
doppler_bin: 8
bearing: -7.17230129242
intensity: 29.5616836548
---
header: 
  seq: 50136
  stamp: 
    secs: 1561866160
    nsecs: 947776240
  frame_id: "ti_mmwave"
point_id: 20
x: 1.671875
y: -0.1640625
z: 0.521484375
range: 1.87380969524
velocity: 1.22933733463
doppler_bin: 10
bearing: -5.60453891754
intensity: 22.6007137299
---
header: 
  seq: 50137
  stamp: 
    secs: 1561866160
    nsecs: 947789936
  frame_id: "ti_mmwave"
point_id: 21
x: 1.71484375
y: -0.16796875
z: 0.521484375
range: 1.91738677025
velocity: 1.22933733463
doppler_bin: 10
bearing: -5.5942697525
intensity: 21.9312458038
---
header: 
  seq: 50138
  stamp: 
    secs: 1561866160
    nsecs: 947803625
  frame_id: "ti_mmwave"
point_id: 22
x: 1.708984375
y: 0.505859375
z: 0.251953125
range: 1.91738677025
velocity: -1.22933733463
doppler_bin: 6
bearing: 16.4887542725
intensity: 26.5127792358
---
header: 
  seq: 50139
  stamp: 
    secs: 1561866160
    nsecs: 947831763
  frame_id: "ti_mmwave"
point_id: 23
x: 1.7265625
y: 0.517578125
z: 0.376953125
range: 1.96096372604
velocity: -0.614668667316
doppler_bin: 7
bearing: 16.6873512268
intensity: 28.9597473145
---
header: 
  seq: 50140
  stamp: 
    secs: 1561866160
    nsecs: 947854269
  frame_id: "ti_mmwave"
point_id: 24
x: 1.76953125
y: 0.529296875
z: 0.36328125
range: 2.00454068184
velocity: -0.614668667316
doppler_bin: 7
bearing: 16.6528167725
intensity: 27.8247261047
---
header: 
  seq: 50141
  stamp: 
    secs: 1561866160
    nsecs: 948213941
  frame_id: "ti_mmwave"
point_id: 25
x: 0.009765625
y: 0.03125
z: 0.025390625
range: 0.0435769706964
velocity: 0.0
doppler_bin: 8
bearing: 72.6459732056
intensity: 29.2992954254
---
header: 
  seq: 50142
  stamp: 
    secs: 1561866160
    nsecs: 948245727
  frame_id: "ti_mmwave"
point_id: 26
x: 0.041015625
y: -0.033203125
z: 0.0625
range: 0.0871539413929
velocity: 0.0
doppler_bin: 8
bearing: -38.9909973145
intensity: 30.0945091248
---
header: 
  seq: 50143
  stamp: 
    secs: 1561866160
    nsecs: 948260852
  frame_id: "ti_mmwave"
point_id: 27
x: 0.044921875
y: -0.046875
z: 0.103515625
range: 0.130730912089
velocity: 0.0
doppler_bin: 8
bearing: -46.218875885
intensity: 28.9927310944
---
header: 
  seq: 50144
  stamp: 
    secs: 1561866160
    nsecs: 948278242
  frame_id: "ti_mmwave"
point_id: 29
x: 2.73828125
y: -0.181640625
z: 0.951171875
range: 3.09396481514
velocity: 0.0
doppler_bin: 8
bearing: -3.79508757591
intensity: 31.1561050415
---
header: 
  seq: 50145
  stamp: 
    secs: 1561866160
    nsecs: 948939394
  frame_id: "ti_mmwave"
point_id: 0
x: 0.01171875
y: -0.0390625
z: -0.0078125
range: 0.0435769706964
velocity: 0.0
doppler_bin: 8
bearing: -73.3007583618
intensity: 30.6483230591
---
header: 
  seq: 50146
  stamp: 
    secs: 1561866160
    nsecs: 949004086
  frame_id: "ti_mmwave"
point_id: 1
x: 0.017578125
y: -0.080078125
z: -0.0078125
range: 0.0871539413929
velocity: 0.0
doppler_bin: 8
bearing: -77.6192398071
intensity: 31.9061183929
---
header: 
  seq: 50147
  stamp: 
    secs: 1561866160
    nsecs: 949022798
  frame_id: "ti_mmwave"
point_id: 2
x: 0.029296875
y: -0.119140625
z: -0.005859375
range: 0.130730912089
velocity: 0.0
doppler_bin: 8
bearing: -76.1849746704
intensity: 30.1367969513
---
header: 
  seq: 50148
  stamp: 
    secs: 1561866160
    nsecs: 949066061
  frame_id: "ti_mmwave"
point_id: 3
x: 0.056640625
y: -0.154296875
z: 0.005859375
range: 0.174307882786
velocity: 0.0
doppler_bin: 8
bearing: -69.8423843384
intensity: 25.4530715942
---
header: 
  seq: 50149
  stamp: 
    secs: 1561866160
    nsecs: 949086768
  frame_id: "ti_mmwave"
point_id: 4
x: 0.158203125
y: -0.080078125
z: 1.255859375
range: 1.35088610649
velocity: 0.0
doppler_bin: 8
bearing: -26.8472938538
intensity: 23.0749607086
---
header: 
  seq: 50150
  stamp: 
    secs: 1561866160
    nsecs: 949100582
  frame_id: "ti_mmwave"
point_id: 5
x: 0.04296875
y: -0.08203125
z: 1.306640625
range: 1.39446306229
velocity: 0.0
doppler_bin: 8
bearing: -62.3540267944
intensity: 24.6389293671
---
header: 
  seq: 50151
  stamp: 
    secs: 1561866160
    nsecs: 949114903
  frame_id: "ti_mmwave"
point_id: 6
x: 0.421875
y: -0.083984375
z: -1.279296875
range: 1.43804001808
velocity: 0.0
doppler_bin: 8
bearing: -11.2589120865
intensity: 23.0749607086
---
header: 
  seq: 50152
  stamp: 
    secs: 1561866160
    nsecs: 949128437
  frame_id: "ti_mmwave"
point_id: 7
x: 0.55078125
y: -0.04296875
z: -1.27734375
range: 1.48161697388
velocity: 0.0
doppler_bin: 8
bearing: -4.46084880829
intensity: 21.7318630219
---
header: 
  seq: 50153
  stamp: 
    secs: 1561866160
    nsecs: 949142945
  frame_id: "ti_mmwave"
point_id: 8
x: 1.546875
y: 0.048828125
z: -0.1484375
range: 1.65592491627
velocity: 0.0
doppler_bin: 8
bearing: 1.80797839165
intensity: 27.6267852783
---
header: 
  seq: 50154
  stamp: 
    secs: 1561866160
    nsecs: 949156158
  frame_id: "ti_mmwave"
point_id: 9
x: 1.58984375
y: 0.099609375
z: -0.09765625
range: 1.69950187206
velocity: 0.0
doppler_bin: 8
bearing: 3.58509850502
intensity: 30.5537834167
---
header: 
  seq: 50155
  stamp: 
    secs: 1561866160
    nsecs: 949169369
  frame_id: "ti_mmwave"
point_id: 10
x: 1.634765625
y: 0.05078125
z: -0.0078125
range: 1.74307882786
velocity: 0.0
doppler_bin: 8
bearing: 1.77922511101
intensity: 30.9201850891
---
header: 
  seq: 50156
  stamp: 
    secs: 1561866160
    nsecs: 949182228
  frame_id: "ti_mmwave"
point_id: 11
x: 1.67578125
y: -0.052734375
z: -0.001953125
range: 1.78665578365
velocity: 0.0
doppler_bin: 8
bearing: -1.80241930485
intensity: 30.4020671844
---
header: 
  seq: 50157
  stamp: 
    secs: 1561866160
    nsecs: 949195211
  frame_id: "ti_mmwave"
point_id: 12
x: 1.71484375
y: -0.052734375
z: -0.091796875
range: 1.83023273945
velocity: 0.0
doppler_bin: 8
bearing: -1.76138806343
intensity: 28.350561142
---
header: 
  seq: 50158
  stamp: 
    secs: 1561866160
    nsecs: 949208461
  frame_id: "ti_mmwave"
point_id: 13
x: 2.595703125
y: -0.17578125
z: 1.095703125
range: 3.00681090355
velocity: 0.0
doppler_bin: 8
bearing: -3.87416052818
intensity: 28.9265098572
---
header: 
  seq: 50159
  stamp: 
    secs: 1561866160
    nsecs: 949222040
  frame_id: "ti_mmwave"
point_id: 14
x: 2.681640625
y: -0.08984375
z: 1.001953125
range: 3.05038785934
velocity: 0.0
doppler_bin: 8
bearing: -1.91887867451
intensity: 32.1378326416
---
header: 
  seq: 50160
  stamp: 
    secs: 1561866160
    nsecs: 949235419
  frame_id: "ti_mmwave"
point_id: 15
x: 2.7265625
y: -0.181640625
z: 0.984375
range: 3.09396481514
velocity: 0.0
doppler_bin: 8
bearing: -3.81135106087
intensity: 31.0856494904
---
header: 
  seq: 50161
  stamp: 
    secs: 1561866160
    nsecs: 949248181
  frame_id: "ti_mmwave"
point_id: 16
x: 1.685546875
y: 0.439453125
z: 0.2421875
range: 1.87380969524
velocity: -0.614668667316
doppler_bin: 7
bearing: 14.6127662659
intensity: 28.2347431183
---
header: 
  seq: 50162
  stamp: 
    secs: 1561866160
    nsecs: 949262157
  frame_id: "ti_mmwave"
point_id: 17
x: 1.7265625
y: 0.44921875
z: 0.240234375
range: 1.91738677025
velocity: -0.614668667316
doppler_bin: 7
bearing: 14.5839309692
intensity: 30.2694168091
---
header: 
  seq: 50163
  stamp: 
    secs: 1561866160
    nsecs: 949275110
  frame_id: "ti_mmwave"
point_id: 18
x: 1.755859375
y: 0.4609375
z: 0.306640625
range: 1.96096372604
velocity: -0.614668667316
doppler_bin: 7
bearing: 14.7090501785
intensity: 29.5856380463
---
header: 
  seq: 50164
  stamp: 
    secs: 1561866160
    nsecs: 949288162
  frame_id: "ti_mmwave"
point_id: 19
x: 1.78125
y: 0.470703125
z: 0.38671875
range: 2.00454068184
velocity: -0.614668667316
doppler_bin: 7
bearing: 14.8023023605
intensity: 26.1172332764
---
header: 
  seq: 50165
  stamp: 
    secs: 1561866160
    nsecs: 949301169
  frame_id: "ti_mmwave"
point_id: 20
x: 0.009765625
y: 0.03125
z: 0.025390625
range: 0.0435769706964
velocity: 0.0
doppler_bin: 8
bearing: 72.6459732056
intensity: 29.2992954254
---
header: 
  seq: 50166
  stamp: 
    secs: 1561866160
    nsecs: 949314988
  frame_id: "ti_mmwave"
point_id: 21
x: 0.041015625
y: -0.033203125
z: 0.0625
range: 0.0871539413929
velocity: 0.0
doppler_bin: 8
bearing: -38.9909973145
intensity: 30.0945091248
---
header: 
  seq: 50167
  stamp: 
    secs: 1561866160
    nsecs: 949327912
  frame_id: "ti_mmwave"
point_id: 22
x: 0.046875
y: -0.046875
z: 0.103515625
range: 0.130730912089
velocity: 0.0
doppler_bin: 8
bearing: -45.0
intensity: 28.9927310944
---
header: 
  seq: 50168
  stamp: 
    secs: 1561866160
    nsecs: 949342786
  frame_id: "ti_mmwave"
point_id: 24
x: 2.76953125
y: -0.0
z: 0.876953125
range: 3.09396481514
velocity: 0.0
doppler_bin: 8
bearing: -0.0
intensity: 31.0619087219
---
header: 
  seq: 50169
  stamp: 
    secs: 1561866161
    nsecs:   7249959
  frame_id: "ti_mmwave"
point_id: 0
x: 0.01171875
y: -0.0390625
z: -0.0078125
range: 0.0435769706964
velocity: 0.0
doppler_bin: 8
bearing: -73.3007583618
intensity: 30.6408348083
---
header: 
  seq: 50170
  stamp: 
    secs: 1561866161
    nsecs:   7336679
  frame_id: "ti_mmwave"
point_id: 1
x: 0.017578125
y: -0.080078125
z: -0.0078125
range: 0.0871539413929
velocity: 0.0
doppler_bin: 8
bearing: -77.6192398071
intensity: 31.9005146027
---
header: 
  seq: 50171
  stamp: 
    secs: 1561866161
    nsecs:   7354209
  frame_id: "ti_mmwave"
point_id: 2
x: 0.029296875
y: -0.119140625
z: -0.005859375
range: 0.130730912089
velocity: 0.0
doppler_bin: 8
bearing: -76.1849746704
intensity: 30.1325874329
---
header: 
  seq: 50172
  stamp: 
    secs: 1561866161
    nsecs:   7366329
  frame_id: "ti_mmwave"
point_id: 3
x: 0.056640625
y: -0.154296875
z: 0.005859375
range: 0.174307882786
velocity: 0.0
doppler_bin: 8
bearing: -69.8423843384
intensity: 25.4282550812
---
header: 
  seq: 50173
  stamp: 
    secs: 1561866161
    nsecs:   7378490
  frame_id: "ti_mmwave"
point_id: 4
x: 0.134765625
y: -0.080078125
z: 1.2578125
range: 1.35088610649
velocity: 0.0
doppler_bin: 8
bearing: -30.7189025879
intensity: 23.0749607086
---
header: 
  seq: 50174
  stamp: 
    secs: 1561866161
    nsecs:   7393071
  frame_id: "ti_mmwave"
point_id: 6
x: 0.43359375
y: -0.083984375
z: -1.275390625
range: 1.43804001808
velocity: 0.0
doppler_bin: 8
bearing: -10.9620876312
intensity: 23.0749607086
---
header: 
  seq: 50175
  stamp: 
    secs: 1561866161
    nsecs:   7407045
  frame_id: "ti_mmwave"
point_id: 7
x: 1.548828125
y: -0.0
z: -0.12890625
range: 1.65592491627
velocity: 0.0
doppler_bin: 8
bearing: -0.0
intensity: 26.5801143646
---
header: 
  seq: 50176
  stamp: 
    secs: 1561866161
    nsecs:   7423279
  frame_id: "ti_mmwave"
point_id: 8
x: 1.58984375
y: 0.05078125
z: -0.109375
range: 1.69950187206
velocity: 0.0
doppler_bin: 8
bearing: 1.82946419716
intensity: 29.5808582306
---
header: 
  seq: 50177
  stamp: 
    secs: 1561866161
    nsecs:   7441429
  frame_id: "ti_mmwave"
point_id: 9
x: 1.630859375
y: 0.1015625
z: -0.078125
range: 1.74307882786
velocity: 0.0
doppler_bin: 8
bearing: 3.56351852417
intensity: 29.7726612091
---
header: 
  seq: 50178
  stamp: 
    secs: 1561866161
    nsecs:   7472192
  frame_id: "ti_mmwave"
point_id: 10
x: 1.67578125
y: 0.052734375
z: -0.017578125
range: 1.78665578365
velocity: 0.0
doppler_bin: 8
bearing: 1.80241930485
intensity: 27.4585514069
---
header: 
  seq: 50179
  stamp: 
    secs: 1561866161
    nsecs:   7498841
  frame_id: "ti_mmwave"
point_id: 11
x: 2.611328125
y: -0.17578125
z: 1.056640625
range: 3.00681090355
velocity: 0.0
doppler_bin: 8
bearing: -3.85104894638
intensity: 28.9209461212
---
header: 
  seq: 50180
  stamp: 
    secs: 1561866161
    nsecs:   7515817
  frame_id: "ti_mmwave"
point_id: 12
x: 2.69140625
y: -0.08984375
z: 0.974609375
range: 3.05038785934
velocity: 0.0
doppler_bin: 8
bearing: -1.91192126274
intensity: 32.1351776123
---
header: 
  seq: 50181
  stamp: 
    secs: 1561866161
    nsecs:   7624228
  frame_id: "ti_mmwave"
point_id: 13
x: 2.77734375
y: -0.0
z: 0.849609375
range: 3.09396481514
velocity: 0.0
doppler_bin: 8
bearing: -0.0
intensity: 31.05169487
---
header: 
  seq: 50182
  stamp: 
    secs: 1561866161
    nsecs:   7643659
  frame_id: "ti_mmwave"
point_id: 14
x: 0.0078125
y: 0.03125
z: 0.025390625
range: 0.0435769706964
velocity: 0.0
doppler_bin: 8
bearing: 75.963760376
intensity: 29.3043956757
---
header: 
  seq: 50183
  stamp: 
    secs: 1561866161
    nsecs:   7659279
  frame_id: "ti_mmwave"
point_id: 15
x: 0.041015625
y: -0.033203125
z: 0.0625
range: 0.0871539413929
velocity: 0.0
doppler_bin: 8
bearing: -38.9909973145
intensity: 30.0945091248
---
header: 
  seq: 50184
  stamp: 
    secs: 1561866161
    nsecs:   7677447
  frame_id: "ti_mmwave"
point_id: 16
x: 0.044921875
y: -0.046875
z: 0.103515625
range: 0.130730912089
velocity: 0.0
doppler_bin: 8
bearing: -46.218875885
intensity: 28.9927310944
---
header: 
  seq: 50185
  stamp: 
    secs: 1561866161
    nsecs:   7697992
  frame_id: "ti_mmwave"
point_id: 19
x: 2.734375
y: -0.181640625
z: 0.9609375
range: 3.09396481514
velocity: 0.0
doppler_bin: 8
bearing: -3.80049324036
intensity: 31.05169487
---
header: 
  seq: 50186
  stamp: 
    secs: 1561866161
    nsecs:   8619316
  frame_id: "ti_mmwave"
point_id: 0
x: 0.01171875
y: -0.0390625
z: -0.0078125
range: 0.0435769706964
velocity: 0.0
doppler_bin: 8
bearing: -73.3007583618
intensity: 30.6483230591
---
header: 
  seq: 50187
  stamp: 
    secs: 1561866161
    nsecs:   8684800
  frame_id: "ti_mmwave"
point_id: 1
x: 0.017578125
y: -0.080078125
z: -0.0078125
range: 0.0871539413929
velocity: 0.0
doppler_bin: 8
bearing: -77.6192398071
intensity: 31.9033164978
---
header: 
  seq: 50188
  stamp: 
    secs: 1561866161
    nsecs:   8704918
  frame_id: "ti_mmwave"
point_id: 2
x: 0.029296875
y: -0.119140625
z: -0.005859375
range: 0.130730912089
velocity: 0.0
doppler_bin: 8
bearing: -76.1849746704
intensity: 30.1367969513
---
header: 
  seq: 50189
  stamp: 
    secs: 1561866161
    nsecs:   8719115
  frame_id: "ti_mmwave"
point_id: 3
x: 0.056640625
y: -0.154296875
z: 0.005859375
range: 0.174307882786
velocity: 0.0
doppler_bin: 8
bearing: -69.8423843384
intensity: 25.4406795502
---
header: 
  seq: 50190
  stamp: 
    secs: 1561866161
    nsecs:   8735436
  frame_id: "ti_mmwave"
point_id: 4
x: 0.125
y: -0.080078125
z: 1.259765625
range: 1.35088610649
velocity: 0.0
doppler_bin: 8
bearing: -32.6446380615
intensity: 23.1175384521
---
header: 
  seq: 50191
  stamp: 
    secs: 1561866161
    nsecs:   8751263
  frame_id: "ti_mmwave"
point_id: 6
x: 0.4140625
y: -0.083984375
z: -1.28125
range: 1.43804001808
velocity: 0.0
doppler_bin: 8
bearing: -11.4657688141
intensity: 23.0749607086
---
header: 
  seq: 50192
  stamp: 
    secs: 1561866161
    nsecs:   8769483
  frame_id: "ti_mmwave"
point_id: 7
x: 0.55859375
y: -0.04296875
z: -1.2734375
range: 1.48161697388
velocity: 0.0
doppler_bin: 8
bearing: -4.39870548248
intensity: 21.6435279846
---
header: 
  seq: 50193
  stamp: 
    secs: 1561866161
    nsecs:   8962043
  frame_id: "ti_mmwave"
point_id: 8
x: 1.537109375
y: 0.048828125
z: -0.23046875
range: 1.65592491627
velocity: 0.0
doppler_bin: 8
bearing: 1.81945765018
intensity: 26.0959434509
---
header: 
  seq: 50194
  stamp: 
    secs: 1561866161
    nsecs:   8993732
  frame_id: "ti_mmwave"
point_id: 9
x: 1.58984375
y: 0.05078125
z: -0.134765625
range: 1.69950187206
velocity: 0.0
doppler_bin: 8
bearing: 1.82946419716
intensity: 29.2531204224
---
header: 
  seq: 50195
  stamp: 
    secs: 1561866161
    nsecs:   9009311
  frame_id: "ti_mmwave"
point_id: 10
x: 1.63671875
y: -0.0
z: 0.01171875
range: 1.74307882786
velocity: 0.0
doppler_bin: 8
bearing: -0.0
intensity: 29.6848297119
---
header: 
  seq: 50196
  stamp: 
    secs: 1561866161
    nsecs:   9018787
  frame_id: "ti_mmwave"
point_id: 11
x: 1.662109375
y: -0.158203125
z: 0.16796875
range: 1.78665578365
velocity: 0.0
doppler_bin: 8
bearing: -5.4371547699
intensity: 29.4001808167
---
header: 
  seq: 50197
  stamp: 
    secs: 1561866161
    nsecs:   9029380
  frame_id: "ti_mmwave"
point_id: 12
x: 1.685546875
y: -0.21484375
z: 0.25390625
range: 1.83023273945
velocity: 0.0
doppler_bin: 8
bearing: -7.26388549805
intensity: 27.8746051788
---
header: 
  seq: 50198
  stamp: 
    secs: 1561866161
    nsecs:   9037771
  frame_id: "ti_mmwave"
point_id: 13
x: 2.603515625
y: -0.17578125
z: 1.078125
range: 3.00681090355
velocity: 0.0
doppler_bin: 8
bearing: -3.86257004738
intensity: 28.7390155792
---
header: 
  seq: 50199
  stamp: 
    secs: 1561866161
    nsecs:   9043192
  frame_id: "ti_mmwave"
point_id: 14
x: 2.6875
y: -0.08984375
z: 0.982421875
range: 3.05038785934
velocity: 0.0
doppler_bin: 8
bearing: -1.91469812393
intensity: 32.1085319519
---
header: 
  seq: 50200
  stamp: 
    secs: 1561866161
    nsecs:   9054959
  frame_id: "ti_mmwave"
point_id: 15
x: 2.7734375
y: -0.0
z: 0.861328125
range: 3.09396481514
velocity: 0.0
doppler_bin: 8
bearing: -0.0
intensity: 31.0687046051
---
header: 
  seq: 50201
  stamp: 
    secs: 1561866161
    nsecs:   9120679
  frame_id: "ti_mmwave"
point_id: 16
x: 0.009765625
y: 0.03125
z: 0.025390625
range: 0.0435769706964
velocity: 0.0
doppler_bin: 8
bearing: 72.6459732056
intensity: 29.2992954254
---
header: 
  seq: 50202
  stamp: 
    secs: 1561866161
    nsecs:   9139508
  frame_id: "ti_mmwave"
point_id: 17
x: 0.041015625
y: -0.033203125
z: 0.0625
range: 0.0871539413929
velocity: 0.0
doppler_bin: 8
bearing: -38.9909973145
intensity: 30.0945091248
---
header: 
  seq: 50203
  stamp: 
    secs: 1561866161
    nsecs:   9152083
  frame_id: "ti_mmwave"
point_id: 18
x: 0.044921875
y: -0.046875
z: 0.103515625
range: 0.130730912089
velocity: 0.0
doppler_bin: 8
bearing: -46.218875885
intensity: 28.9927310944
---
header: 
  seq: 50204
  stamp: 
    secs: 1561866161
    nsecs:   9170758
  frame_id: "ti_mmwave"
point_id: 21
x: 2.732421875
y: -0.181640625
z: 0.966796875
range: 3.09396481514
velocity: 0.0
doppler_bin: 8
bearing: -3.80320167542
intensity: 31.0653076172
---
header: 
  seq: 50205
  stamp: 
    secs: 1561866161
    nsecs:  67126869
  frame_id: "ti_mmwave"
point_id: 0
x: 0.01171875
y: -0.0390625
z: -0.0078125
range: 0.0435769706964
velocity: 0.0
doppler_bin: 8
bearing: -73.3007583618
intensity: 30.6445808411
---
header: 
  seq: 50206
  stamp: 
    secs: 1561866161
    nsecs:  67242197
  frame_id: "ti_mmwave"
point_id: 1
x: 0.017578125
y: -0.080078125
z: -0.0078125
range: 0.0871539413929
velocity: 0.0
doppler_bin: 8
bearing: -77.6192398071
intensity: 31.9005146027
---
header: 
  seq: 50207
  stamp: 
    secs: 1561866161
    nsecs:  67253785
  frame_id: "ti_mmwave"
point_id: 2
x: 0.029296875
y: -0.119140625
z: -0.005859375
range: 0.130730912089
velocity: 0.0
doppler_bin: 8
bearing: -76.1849746704
intensity: 30.1325874329
---
header: 
  seq: 50208
  stamp: 
    secs: 1561866161
    nsecs:  67262483
  frame_id: "ti_mmwave"
point_id: 3
x: 0.056640625
y: -0.154296875
z: 0.005859375
range: 0.174307882786
velocity: 0.0
doppler_bin: 8
bearing: -69.8423843384
intensity: 25.4406795502
---
header: 
  seq: 50209
  stamp: 
    secs: 1561866161
    nsecs:  67271286
  frame_id: "ti_mmwave"
point_id: 4
x: 0.080078125
y: -0.080078125
z: 1.263671875
range: 1.35088610649
velocity: 0.0
doppler_bin: 8
bearing: -45.0
intensity: 23.0749607086
---
header: 
  seq: 50210
  stamp: 
    secs: 1561866161
    nsecs:  67284651
  frame_id: "ti_mmwave"
point_id: 6
x: 0.3984375
y: -0.083984375
z: -1.287109375
range: 1.43804001808
velocity: 0.0
doppler_bin: 8
bearing: -11.9028120041
intensity: 23.0749607086
---
header: 
  seq: 50211
  stamp: 
    secs: 1561866161
    nsecs:  67292884
  frame_id: "ti_mmwave"
point_id: 7
x: 0.5546875
y: -0.04296875
z: -1.2734375
range: 1.48161697388
velocity: 0.0
doppler_bin: 8
bearing: -4.42955970764
intensity: 21.7026176453
---
header: 
  seq: 50212
  stamp: 
    secs: 1561866161
    nsecs:  67300972
  frame_id: "ti_mmwave"
point_id: 8
x: 1.55078125
y: 0.09765625
z: -0.0546875
range: 1.65592491627
velocity: 0.0
doppler_bin: 8
bearing: 3.60328841209
intensity: 28.2347431183
---
header: 
  seq: 50213
  stamp: 
    secs: 1561866161
    nsecs:  67309290
  frame_id: "ti_mmwave"
point_id: 9
x: 1.587890625
y: 0.150390625
z: -0.048828125
range: 1.69950187206
velocity: 0.0
doppler_bin: 8
bearing: 5.41039848328
intensity: 30.5804615021
---
header: 
  seq: 50214
  stamp: 
    secs: 1561866161
    nsecs:  67316797
  frame_id: "ti_mmwave"
point_id: 10
x: 1.623046875
y: 0.205078125
z: -0.01953125
range: 1.74307882786
velocity: 0.0
doppler_bin: 8
bearing: 7.20137643814
intensity: 30.293838501
---
header: 
  seq: 50215
  stamp: 
    secs: 1561866161
    nsecs:  67342803
  frame_id: "ti_mmwave"
point_id: 11
x: 2.60546875
y: -0.17578125
z: 1.068359375
range: 3.00681090355
velocity: 0.0
doppler_bin: 8
bearing: -3.85968351364
intensity: 28.9982051849
---
header: 
  seq: 50216
  stamp: 
    secs: 1561866161
    nsecs:  67352256
  frame_id: "ti_mmwave"
point_id: 12
x: 2.685546875
y: -0.08984375
z: 0.98828125
range: 3.05038785934
velocity: 0.0
doppler_bin: 8
bearing: -1.91608965397
intensity: 32.1984634399
---
header: 
  seq: 50217
  stamp: 
    secs: 1561866161
    nsecs:  67361764
  frame_id: "ti_mmwave"
point_id: 13
x: 2.7265625
y: -0.181640625
z: 0.982421875
range: 3.09396481514
velocity: 0.0
doppler_bin: 8
bearing: -3.81135106087
intensity: 31.1627559662
---
header: 
  seq: 50218
  stamp: 
    secs: 1561866161
    nsecs:  67373759
  frame_id: "ti_mmwave"
point_id: 14
x: 4.416015625
y: -0.283203125
z: 1.013671875
range: 4.83704376221
velocity: 0.0
doppler_bin: 8
bearing: -3.66940593719
intensity: 28.762178421
---
header: 
  seq: 50219
  stamp: 
    secs: 1561866161
    nsecs:  67553336
  frame_id: "ti_mmwave"
point_id: 15
x: 4.4296875
y: -0.142578125
z: 1.158203125
range: 4.88062095642
velocity: 0.0
doppler_bin: 8
bearing: -1.84353971481
intensity: 32.1031837463
---
header: 
  seq: 50220
  stamp: 
    secs: 1561866161
    nsecs:  67572627
  frame_id: "ti_mmwave"
point_id: 16
x: 4.458984375
y: -0.14453125
z: 1.2109375
range: 4.9241976738
velocity: 0.0
doppler_bin: 8
bearing: -1.85650622845
intensity: 31.5896530151
---
header: 
  seq: 50221
  stamp: 
    secs: 1561866161
    nsecs:  67581102
  frame_id: "ti_mmwave"
point_id: 17
x: 4.87890625
y: -0.154296875
z: 0.822265625
range: 5.27281332016
velocity: 0.0
doppler_bin: 8
bearing: -1.81139242649
intensity: 30.8742637634
---
header: 
  seq: 50222
  stamp: 
    secs: 1561866161
    nsecs:  67586639
  frame_id: "ti_mmwave"
point_id: 18
x: 1.638671875
y: -0.314453125
z: 0.171875
range: 1.78665578365
velocity: -0.614668667316
doppler_bin: 7
bearing: -10.8627290726
intensity: 30.3019485474
---
header: 
  seq: 50223
  stamp: 
    secs: 1561866161
    nsecs:  67598639
  frame_id: "ti_mmwave"
point_id: 19
x: 1.67578125
y: -0.322265625
z: 0.205078125
range: 1.83023273945
velocity: -0.614668667316
doppler_bin: 7
bearing: -10.8855266571
intensity: 29.1381378174
---
header: 
  seq: 50224
  stamp: 
    secs: 1561866161
    nsecs:  67671297
  frame_id: "ti_mmwave"
point_id: 21
x: 0.041015625
y: -0.033203125
z: 0.0625
range: 0.0871539413929
velocity: 0.0
doppler_bin: 8
bearing: -38.9909973145
intensity: 30.0902576447
---
header: 
  seq: 50225
  stamp: 
    secs: 1561866161
    nsecs:  67681310
  frame_id: "ti_mmwave"
point_id: 22
x: 0.046875
y: -0.046875
z: 0.103515625
range: 0.130730912089
velocity: 0.0
doppler_bin: 8
bearing: -45.0
intensity: 28.9927310944
---
header: 
  seq: 50226
  stamp: 
    secs: 1561866161
    nsecs:  67699644
  frame_id: "ti_mmwave"
point_id: 25
x: 1.29296875
y: -0.408203125
z: -0.9140625
range: 1.74307882786
velocity: 0.0
doppler_bin: 8
bearing: -17.5214271545
intensity: 28.4198474884
---
header: 
  seq: 50227
  stamp: 
    secs: 1561866161
    nsecs:  67712166
  frame_id: "ti_mmwave"
point_id: 26
x: 2.76953125
y: -0.0
z: 0.875
range: 3.09396481514
velocity: 0.0
doppler_bin: 8
bearing: -0.0
intensity: 31.1561050415
---
header: 
  seq: 50228
  stamp: 
    secs: 1561866161
    nsecs:  68971335
  frame_id: "ti_mmwave"
point_id: 0
x: 0.01171875
y: -0.0390625
z: -0.0078125
range: 0.0435769706964
velocity: 0.0
doppler_bin: 8
bearing: -73.3007583618
intensity: 30.6445808411
---
header: 
  seq: 50229
  stamp: 
    secs: 1561866161
    nsecs:  69024613
  frame_id: "ti_mmwave"
point_id: 1
x: 0.017578125
y: -0.080078125
z: -0.0078125
range: 0.0871539413929
velocity: 0.0
doppler_bin: 8
bearing: -77.6192398071
intensity: 31.9061183929
---
header: 
  seq: 50230
  stamp: 
    secs: 1561866161
    nsecs:  69037305
  frame_id: "ti_mmwave"
point_id: 2
x: 0.029296875
y: -0.119140625
z: -0.005859375
range: 0.130730912089
velocity: 0.0
doppler_bin: 8
bearing: -76.1849746704
intensity: 30.1367969513
---
header: 
  seq: 50231
  stamp: 
    secs: 1561866161
    nsecs:  69045922
  frame_id: "ti_mmwave"
point_id: 3
x: 0.056640625
y: -0.154296875
z: 0.005859375
range: 0.174307882786
velocity: 0.0
doppler_bin: 8
bearing: -69.8423843384
intensity: 25.4530715942
---
header: 
  seq: 50232
  stamp: 
    secs: 1561866161
    nsecs:  69054275
  frame_id: "ti_mmwave"
point_id: 4
x: 0.076171875
y: -0.080078125
z: 1.263671875
range: 1.35088610649
velocity: 0.0
doppler_bin: 8
bearing: -46.4320983887
intensity: 23.1175384521
---
header: 
  seq: 50233
  stamp: 
    secs: 1561866161
    nsecs:  69062191
  frame_id: "ti_mmwave"
point_id: 5
x: 0.025390625
y: -0.08203125
z: 1.306640625
range: 1.39446306229
velocity: 0.0
doppler_bin: 8
bearing: -72.8014526367
intensity: 24.6239795685
---
header: 
  seq: 50234
  stamp: 
    secs: 1561866161
    nsecs:  69070906
  frame_id: "ti_mmwave"
point_id: 6
x: 0.41015625
y: -0.083984375
z: -1.283203125
range: 1.43804001808
velocity: 0.0
doppler_bin: 8
bearing: -11.5720338821
intensity: 23.0749607086
---
header: 
  seq: 50235
  stamp: 
    secs: 1561866161
    nsecs:  69078816
  frame_id: "ti_mmwave"
point_id: 7
x: 0.572265625
y: -0.04296875
z: -1.265625
range: 1.48161697388
velocity: 0.0
doppler_bin: 8
bearing: -4.29401493073
intensity: 21.6731739044
---
header: 
  seq: 50236
  stamp: 
    secs: 1561866161
    nsecs:  69087097
  frame_id: "ti_mmwave"
point_id: 8
x: 1.54296875
y: 0.146484375
z: -0.12109375
range: 1.65592491627
velocity: 0.0
doppler_bin: 8
bearing: 5.42321825027
intensity: 30.3181228638
---
header: 
  seq: 50237
  stamp: 
    secs: 1561866161
    nsecs:  69095935
  frame_id: "ti_mmwave"
point_id: 9
x: 1.5859375
y: 0.150390625
z: -0.1015625
range: 1.69950187206
velocity: 0.0
doppler_bin: 8
bearing: 5.41702222824
intensity: 32.0924682617
---
header: 
  seq: 50238
  stamp: 
    secs: 1561866161
    nsecs:  69103347
  frame_id: "ti_mmwave"
point_id: 10
x: 1.626953125
y: 0.154296875
z: -0.08984375
range: 1.74307882786
velocity: 0.0
doppler_bin: 8
bearing: 5.41760969162
intensity: 30.5918464661
---
header: 
  seq: 50239
  stamp: 
    secs: 1561866161
    nsecs:  69111293
  frame_id: "ti_mmwave"
point_id: 11
x: 2.607421875
y: -0.17578125
z: 1.06640625
range: 3.00681090355
velocity: 0.0
doppler_bin: 8
bearing: -3.8568007946
intensity: 28.9097957611
---
header: 
  seq: 50240
  stamp: 
    secs: 1561866161
    nsecs:  69119314
  frame_id: "ti_mmwave"
point_id: 12
x: 2.69140625
y: -0.08984375
z: 0.974609375
range: 3.05038785934
velocity: 0.0
doppler_bin: 8
bearing: -1.91192126274
intensity: 32.1058616638
---
header: 
  seq: 50241
  stamp: 
    secs: 1561866161
    nsecs:  69127523
  frame_id: "ti_mmwave"
point_id: 13
x: 2.77734375
y: -0.0
z: 0.853515625
range: 3.09396481514
velocity: 0.0
doppler_bin: 8
bearing: -0.0
intensity: 31.0551013947
---
header: 
  seq: 50242
  stamp: 
    secs: 1561866161
    nsecs:  69136749
  frame_id: "ti_mmwave"
point_id: 14
x: 4.40625
y: -0.287109375
z: 1.22265625
range: 4.88062095642
velocity: 0.0
doppler_bin: 8
bearing: -3.72809815407
intensity: 31.0482845306
---
header: 
  seq: 50243
  stamp: 
    secs: 1561866161
    nsecs:  69144816
  frame_id: "ti_mmwave"
point_id: 15
x: 4.45703125
y: -0.14453125
z: 1.216796875
range: 4.9241976738
velocity: 0.0
doppler_bin: 8
bearing: -1.8573192358
intensity: 30.7627620697
---
header: 
  seq: 50244
  stamp: 
    secs: 1561866161
    nsecs:  69153722
  frame_id: "ti_mmwave"
point_id: 16
x: 4.705078125
y: -0.298828125
z: -0.822265625
range: 5.09850549698
velocity: 0.0
doppler_bin: 8
bearing: -3.63407897949
intensity: 30.7261753082
---
header: 
  seq: 50245
  stamp: 
    secs: 1561866161
    nsecs:  69161727
  frame_id: "ti_mmwave"
point_id: 17
x: 4.728515625
y: -0.30078125
z: -0.921875
range: 5.14208269119
velocity: 0.0
doppler_bin: 8
bearing: -3.63968539238
intensity: 30.7591171265
---
header: 
  seq: 50246
  stamp: 
    secs: 1561866161
    nsecs:  69182226
  frame_id: "ti_mmwave"
point_id: 18
x: 4.8046875
y: -0.154296875
z: 0.990234375
range: 5.22923660278
velocity: 0.0
doppler_bin: 8
bearing: -1.83935415745
intensity: 30.2775726318
---
header: 
  seq: 50247
  stamp: 
    secs: 1561866161
    nsecs:  69190198
  frame_id: "ti_mmwave"
point_id: 19
x: 4.88671875
y: -0.30859375
z: 0.72265625
range: 5.27281332016
velocity: 0.0
doppler_bin: 8
bearing: -3.61340069771
intensity: 31.8977088928
---
header: 
  seq: 50248
  stamp: 
    secs: 1561866161
    nsecs:  69359316
  frame_id: "ti_mmwave"
point_id: 20
x: 4.94921875
y: -0.623046875
z: 0.173828125
range: 5.31639051437
velocity: 0.0
doppler_bin: 8
bearing: -7.17510271072
intensity: 30.4178733826
---
header: 
  seq: 50249
  stamp: 
    secs: 1561866161
    nsecs:  69387031
  frame_id: "ti_mmwave"
point_id: 21
x: 1.58984375
y: -0.3671875
z: 0.38671875
range: 1.78665578365
velocity: -1.84400606155
doppler_bin: 5
bearing: -13.0048980713
intensity: 22.4797325134
---
header: 
  seq: 50250
  stamp: 
    secs: 1561866161
    nsecs:  69403972
  frame_id: "ti_mmwave"
point_id: 22
x: 0.009765625
y: 0.03125
z: 0.025390625
range: 0.0435769706964
velocity: 0.0
doppler_bin: 8
bearing: 72.6459732056
intensity: 29.2992954254
---
header: 
  seq: 50251
  stamp: 
    secs: 1561866161
    nsecs:  69418373
  frame_id: "ti_mmwave"
point_id: 23
x: 0.041015625
y: -0.033203125
z: 0.0625
range: 0.0871539413929
velocity: 0.0
doppler_bin: 8
bearing: -38.9909973145
intensity: 30.0945091248
---
header: 
  seq: 50252
  stamp: 
    secs: 1561866161
    nsecs:  69446854
  frame_id: "ti_mmwave"
point_id: 24
x: 0.044921875
y: -0.046875
z: 0.103515625
range: 0.130730912089
velocity: 0.0
doppler_bin: 8
bearing: -46.218875885
intensity: 28.9982051849
---
header: 
  seq: 50253
  stamp: 
    secs: 1561866161
    nsecs:  69473884
  frame_id: "ti_mmwave"
point_id: 26
x: 2.734375
y: -0.181640625
z: 0.9609375
range: 3.09396481514
velocity: 0.0
doppler_bin: 8
bearing: -3.80049324036
intensity: 31.0551013947
---
header: 
  seq: 50254
  stamp: 
    secs: 1561866161
    nsecs: 127215228
  frame_id: "ti_mmwave"
point_id: 0
x: 0.01171875
y: -0.0390625
z: -0.0078125
range: 0.0435769706964
velocity: 0.0
doppler_bin: 8
bearing: -73.3007583618
intensity: 30.6408348083
---
header: 
  seq: 50255
  stamp: 
    secs: 1561866161
    nsecs: 127284061
  frame_id: "ti_mmwave"
point_id: 1
x: 0.017578125
y: -0.080078125
z: -0.0078125
range: 0.0871539413929
velocity: 0.0
doppler_bin: 8
bearing: -77.6192398071
intensity: 31.9033164978
---
header: 
  seq: 50256
  stamp: 
    secs: 1561866161
    nsecs: 127294049
  frame_id: "ti_mmwave"
point_id: 2
x: 0.029296875
y: -0.119140625
z: -0.005859375
range: 0.130730912089
velocity: 0.0
doppler_bin: 8
bearing: -76.1849746704
intensity: 30.1367969513
---
header: 
  seq: 50257
  stamp: 
    secs: 1561866161
    nsecs: 127304561
  frame_id: "ti_mmwave"
point_id: 3
x: 0.056640625
y: -0.154296875
z: 0.005859375
range: 0.174307882786
velocity: 0.0
doppler_bin: 8
bearing: -69.8423843384
intensity: 25.4406795502
---
header: 
  seq: 50258
  stamp: 
    secs: 1561866161
    nsecs: 127316040
  frame_id: "ti_mmwave"
point_id: 5
x: 0.05078125
y: -0.08203125
z: -1.3046875
range: 1.39446306229
velocity: 0.0
doppler_bin: 8
bearing: -58.2405166626
intensity: 24.6389293671
---
header: 
  seq: 50259
  stamp: 
    secs: 1561866161
    nsecs: 127324953
  frame_id: "ti_mmwave"
point_id: 6
x: 0.4375
y: -0.083984375
z: -1.275390625
range: 1.43804001808
velocity: 0.0
doppler_bin: 8
bearing: -10.8665513992
intensity: 23.0963020325
---
header: 
  seq: 50260
  stamp: 
    secs: 1561866161
    nsecs: 127333155
  frame_id: "ti_mmwave"
point_id: 7
x: 0.56640625
y: -0.04296875
z: -1.26953125
range: 1.48161697388
velocity: 0.0
doppler_bin: 8
bearing: -4.33826684952
intensity: 21.7318630219
---
header: 
  seq: 50261
  stamp: 
    secs: 1561866161
    nsecs: 127341502
  frame_id: "ti_mmwave"
point_id: 8
x: 1.681640625
y: 0.689453125
z: 0.287109375
range: 1.96096372604
velocity: 0.0
doppler_bin: 8
bearing: 22.2930603027
intensity: 26.839471817
---
header: 
  seq: 50262
  stamp: 
    secs: 1561866161
    nsecs: 127352087
  frame_id: "ti_mmwave"
point_id: 9
x: 2.619140625
y: -0.17578125
z: 1.037109375
range: 3.00681090355
velocity: 0.0
doppler_bin: 8
bearing: -3.83959650993
intensity: 28.9817657471
---
header: 
  seq: 50263
  stamp: 
    secs: 1561866161
    nsecs: 127509548
  frame_id: "ti_mmwave"
point_id: 10
x: 2.693359375
y: -0.08984375
z: 0.966796875
range: 3.05038785934
velocity: 0.0
doppler_bin: 8
bearing: -1.91053581238
intensity: 32.1748390198
---
header: 
  seq: 50264
  stamp: 
    secs: 1561866161
    nsecs: 127530565
  frame_id: "ti_mmwave"
point_id: 11
x: 2.7734375
y: -0.0
z: 0.861328125
range: 3.09396481514
velocity: 0.0
doppler_bin: 8
bearing: -0.0
intensity: 31.119342804
---
header: 
  seq: 50265
  stamp: 
    secs: 1561866161
    nsecs: 127539121
  frame_id: "ti_mmwave"
point_id: 12
x: 4.376953125
y: -0.142578125
z: 1.203125
range: 4.83704376221
velocity: 0.0
doppler_bin: 8
bearing: -1.86573553085
intensity: 27.9726753235
---
header: 
  seq: 50266
  stamp: 
    secs: 1561866161
    nsecs: 127546818
  frame_id: "ti_mmwave"
point_id: 13
x: 4.412109375
y: -0.142578125
z: 1.2265625
range: 4.88062095642
velocity: 0.0
doppler_bin: 8
bearing: -1.85087943077
intensity: 31.3129787445
---
header: 
  seq: 50267
  stamp: 
    secs: 1561866161
    nsecs: 127571636
  frame_id: "ti_mmwave"
point_id: 14
x: 4.46484375
y: -0.14453125
z: 1.19140625
range: 4.9241976738
velocity: 0.0
doppler_bin: 8
bearing: -1.85407173634
intensity: 31.0174713135
---
header: 
  seq: 50268
  stamp: 
    secs: 1561866161
    nsecs: 127585655
  frame_id: "ti_mmwave"
point_id: 15
x: 4.740234375
y: -0.298828125
z: -0.591796875
range: 5.09850549698
velocity: 0.0
doppler_bin: 8
bearing: -3.60719799995
intensity: 32.6717185974
---
header: 
  seq: 50269
  stamp: 
    secs: 1561866161
    nsecs: 127600023
  frame_id: "ti_mmwave"
point_id: 16
x: 4.76953125
y: -0.30078125
z: -0.681640625
range: 5.14208269119
velocity: 0.0
doppler_bin: 8
bearing: -3.60846877098
intensity: 32.9424552917
---
header: 
  seq: 50270
  stamp: 
    secs: 1561866161
    nsecs: 127613508
  frame_id: "ti_mmwave"
point_id: 17
x: 4.876953125
y: -0.30859375
z: 0.7890625
range: 5.27281332016
velocity: 0.0
doppler_bin: 8
bearing: -3.62061715126
intensity: 31.5075645447
---
header: 
  seq: 50271
  stamp: 
    secs: 1561866161
    nsecs: 127625178
  frame_id: "ti_mmwave"
point_id: 18
x: 4.966796875
y: -0.46875
z: 0.119140625
range: 5.31639051437
velocity: 0.0
doppler_bin: 8
bearing: -5.39141845703
intensity: 29.6047077179
---
header: 
  seq: 50272
  stamp: 
    secs: 1561866161
    nsecs: 127697233
  frame_id: "ti_mmwave"
point_id: 19
x: 0.009765625
y: 0.03125
z: 0.025390625
range: 0.0435769706964
velocity: 0.0
doppler_bin: 8
bearing: 72.6459732056
intensity: 29.3043956757
---
header: 
  seq: 50273
  stamp: 
    secs: 1561866161
    nsecs: 127709982
  frame_id: "ti_mmwave"
point_id: 20
x: 0.041015625
y: -0.033203125
z: 0.0625
range: 0.0871539413929
velocity: 0.0
doppler_bin: 8
bearing: -38.9909973145
intensity: 30.0902576447
---
header: 
  seq: 50274
  stamp: 
    secs: 1561866161
    nsecs: 127723096
  frame_id: "ti_mmwave"
point_id: 21
x: 0.046875
y: -0.046875
z: 0.103515625
range: 0.130730912089
velocity: 0.0
doppler_bin: 8
bearing: -45.0
intensity: 28.9927310944
---
header: 
  seq: 50275
  stamp: 
    secs: 1561866161
    nsecs: 127738375
  frame_id: "ti_mmwave"
point_id: 23
x: 2.732421875
y: -0.181640625
z: 0.966796875
range: 3.09396481514
velocity: 0.0
doppler_bin: 8
bearing: -3.80320167542
intensity: 31.0991592407
---
header: 
  seq: 50276
  stamp: 
    secs: 1561866161
    nsecs: 187164572
  frame_id: "ti_mmwave"
point_id: 0
x: 0.01171875
y: -0.0390625
z: -0.0078125
range: 0.0435769706964
velocity: 0.0
doppler_bin: 8
bearing: -73.3007583618
intensity: 30.6483230591
---
header: 
  seq: 50277
  stamp: 
    secs: 1561866161
    nsecs: 187234449
  frame_id: "ti_mmwave"
point_id: 1
x: 0.017578125
y: -0.080078125
z: -0.0078125
range: 0.0871539413929
velocity: 0.0
doppler_bin: 8
bearing: -77.6192398071
intensity: 31.9033164978
---
header: 
  seq: 50278
  stamp: 
    secs: 1561866161
    nsecs: 187246096
  frame_id: "ti_mmwave"
point_id: 2
x: 0.029296875
y: -0.119140625
z: -0.005859375
range: 0.130730912089
velocity: 0.0
doppler_bin: 8
bearing: -76.1849746704
intensity: 30.1325874329
---
header: 
  seq: 50279
  stamp: 
    secs: 1561866161
    nsecs: 187255386
  frame_id: "ti_mmwave"
point_id: 3
x: 0.056640625
y: -0.154296875
z: 0.0078125
range: 0.174307882786
velocity: 0.0
doppler_bin: 8
bearing: -69.8423843384
intensity: 25.4406795502
---
header: 
  seq: 50280
  stamp: 
    secs: 1561866161
    nsecs: 187263870
  frame_id: "ti_mmwave"
point_id: 4
x: 0.15625
y: -0.080078125
z: 1.255859375
range: 1.35088610649
velocity: 0.0
doppler_bin: 8
bearing: -27.1351394653
intensity: 23.0749607086
---
header: 
  seq: 50281
  stamp: 
    secs: 1561866161
    nsecs: 187273737
  frame_id: "ti_mmwave"
point_id: 6
x: 0.408203125
y: -0.083984375
z: -1.283203125
range: 1.43804001808
velocity: 0.0
doppler_bin: 8
bearing: -11.6258993149
intensity: 23.0749607086
---
header: 
  seq: 50282
  stamp: 
    secs: 1561866161
    nsecs: 187285083
  frame_id: "ti_mmwave"
point_id: 7
x: 0.548828125
y: -0.04296875
z: -1.27734375
range: 1.48161697388
velocity: 0.0
doppler_bin: 8
bearing: -4.47665882111
intensity: 21.6731739044
---
header: 
  seq: 50283
  stamp: 
    secs: 1561866161
    nsecs: 187293995
  frame_id: "ti_mmwave"
point_id: 8
x: 1.541015625
y: 0.09765625
z: -0.177734375
range: 1.65592491627
velocity: 0.0
doppler_bin: 8
bearing: 3.62606215477
intensity: 29.1009063721
---
header: 
  seq: 50284
  stamp: 
    secs: 1561866161
    nsecs: 187316679
  frame_id: "ti_mmwave"
point_id: 9
x: 1.5859375
y: 0.099609375
z: -0.14453125
range: 1.69950187206
velocity: 0.0
doppler_bin: 8
bearing: 3.59390544891
intensity: 29.2788333893
---
header: 
  seq: 50285
  stamp: 
    secs: 1561866161
    nsecs: 187331817
  frame_id: "ti_mmwave"
point_id: 10
x: 1.576171875
y: 0.208984375
z: -0.533203125
range: 1.78665578365
velocity: 0.0
doppler_bin: 8
bearing: 7.55278396606
intensity: 27.5204849243
---
header: 
  seq: 50286
  stamp: 
    secs: 1561866161
    nsecs: 187339968
  frame_id: "ti_mmwave"
point_id: 11
x: 2.611328125
y: -0.17578125
z: 1.0546875
range: 3.00681090355
velocity: 0.0
doppler_bin: 8
bearing: -3.85104894638
intensity: 28.9872512817
---
header: 
  seq: 50287
  stamp: 
    secs: 1561866161
    nsecs: 187534525
  frame_id: "ti_mmwave"
point_id: 12
x: 2.68359375
y: -0.08984375
z: 0.994140625
range: 3.05038785934
velocity: 0.0
doppler_bin: 8
bearing: -1.91748321056
intensity: 32.1404876709
---
header: 
  seq: 50288
  stamp: 
    secs: 1561866161
    nsecs: 187554929
  frame_id: "ti_mmwave"
point_id: 13
x: 2.72265625
y: -0.181640625
z: 0.998046875
range: 3.09396481514
velocity: 0.0
doppler_bin: 8
bearing: -3.8168027401
intensity: 31.0243377686
---
header: 
  seq: 50289
  stamp: 
    secs: 1561866161
    nsecs: 187595393
  frame_id: "ti_mmwave"
point_id: 14
x: 4.423828125
y: -0.142578125
z: 1.013671875
range: 4.83704376221
velocity: 0.0
doppler_bin: 8
bearing: -1.84597980976
intensity: 28.1358089447
---
header: 
  seq: 50290
  stamp: 
    secs: 1561866161
    nsecs: 187607306
  frame_id: "ti_mmwave"
point_id: 15
x: 4.431640625
y: -0.142578125
z: 1.154296875
range: 4.88062095642
velocity: 0.0
doppler_bin: 8
bearing: -1.84272778034
intensity: 31.5228843689
---
header: 
  seq: 50291
  stamp: 
    secs: 1561866161
    nsecs: 187614455
  frame_id: "ti_mmwave"
point_id: 16
x: 4.48046875
y: -0.14453125
z: 1.130859375
range: 4.9241976738
velocity: 0.0
doppler_bin: 8
bearing: -1.847610116
intensity: 31.3161869049
---
header: 
  seq: 50292
  stamp: 
    secs: 1561866161
