header: 
  seq: 1493716
  stamp: 
    secs: 1561865809
    nsecs: 347405594
  frame_id: "ti_mmwave"
point_id: 0
x: 0.01171875
y: -0.0390625
z: -0.0078125
range: 0.0435769706964
velocity: 0.0
doppler_bin: 8
bearing: -73.3007583618
intensity: 30.6408348083
---
header: 
  seq: 1493717
  stamp: 
    secs: 1561865809
    nsecs: 347496427
  frame_id: "ti_mmwave"
point_id: 1
x: 0.017578125
y: -0.080078125
z: -0.0078125
range: 0.0871539413929
velocity: 0.0
doppler_bin: 8
bearing: -77.6192398071
intensity: 31.9033164978
---
header: 
  seq: 1493718
  stamp: 
    secs: 1561865809
    nsecs: 347515397
  frame_id: "ti_mmwave"
point_id: 2
x: 0.029296875
y: -0.119140625
z: -0.005859375
range: 0.130730912089
velocity: 0.0
doppler_bin: 8
bearing: -76.1849746704
intensity: 30.141002655
---
header: 
  seq: 1493719
  stamp: 
    secs: 1561865809
    nsecs: 347530149
  frame_id: "ti_mmwave"
point_id: 3
x: 0.056640625
y: -0.154296875
z: 0.005859375
range: 0.174307882786
velocity: 0.0
doppler_bin: 8
bearing: -69.8423843384
intensity: 25.4406795502
---
header: 
  seq: 1493720
  stamp: 
    secs: 1561865809
    nsecs: 347544990
  frame_id: "ti_mmwave"
point_id: 4
x: 0.111328125
y: -0.080078125
z: 1.259765625
range: 1.35088610649
velocity: 0.0
doppler_bin: 8
bearing: -35.7273979187
intensity: 23.138671875
---
header: 
  seq: 1493721
  stamp: 
    secs: 1561865809
    nsecs: 347558390
  frame_id: "ti_mmwave"
point_id: 5
x: 0.033203125
y: -0.08203125
z: -1.306640625
range: 1.39446306229
velocity: 0.0
doppler_bin: 8
bearing: -67.9637680054
intensity: 24.6538276672
---
header: 
  seq: 1493722
  stamp: 
    secs: 1561865809
    nsecs: 347571710
  frame_id: "ti_mmwave"
point_id: 6
x: 0.439453125
y: -0.083984375
z: -1.2734375
range: 1.43804001808
velocity: 0.0
doppler_bin: 8
bearing: -10.81939888
intensity: 23.1175384521
---
header: 
  seq: 1493723
  stamp: 
    secs: 1561865809
    nsecs: 347584466
  frame_id: "ti_mmwave"
point_id: 7
x: 0.583984375
y: -0.04296875
z: -1.26171875
range: 1.48161697388
velocity: 0.0
doppler_bin: 8
bearing: -4.20815992355
intensity: 21.7318630219
---
header: 
  seq: 1493724
  stamp: 
    secs: 1561865809
    nsecs: 347599677
  frame_id: "ti_mmwave"
point_id: 8
x: 2.033203125
y: -0.064453125
z: -0.21484375
range: 2.17884850502
velocity: 0.0
doppler_bin: 8
bearing: -1.81568455696
intensity: 29.2839584351
---
header: 
  seq: 1493725
  stamp: 
    secs: 1561865809
    nsecs: 347614953
  frame_id: "ti_mmwave"
point_id: 9
x: 2.07421875
y: -0.0
z: -0.21875
range: 2.22242546082
velocity: 0.0
doppler_bin: 8
bearing: -0.0
intensity: 29.1960105896
---
header: 
  seq: 1493726
  stamp: 
    secs: 1561865809
    nsecs: 347640052
  frame_id: "ti_mmwave"
point_id: 10
x: 2.626953125
y: -0.17578125
z: 1.01953125
range: 3.00681090355
velocity: 0.0
doppler_bin: 8
bearing: -3.82821130753
intensity: 29.2168655396
---
header: 
  seq: 1493727
  stamp: 
    secs: 1561865809
    nsecs: 347738927
  frame_id: "ti_mmwave"
point_id: 11
x: 2.666015625
y: -0.1796875
z: 1.03125
range: 3.05038785934
velocity: 0.0
doppler_bin: 8
bearing: -3.85586214066
intensity: 32.3121452332
---
header: 
  seq: 1493728
  stamp: 
    secs: 1561865809
    nsecs: 347754049
  frame_id: "ti_mmwave"
point_id: 12
x: 2.728515625
y: -0.181640625
z: 0.9765625
range: 3.09396481514
velocity: 0.0
doppler_bin: 8
bearing: -3.80863046646
intensity: 31.2807598114
---
header: 
  seq: 1493729
  stamp: 
    secs: 1561865809
    nsecs: 347769313
  frame_id: "ti_mmwave"
point_id: 13
x: 4.40625
y: -0.142578125
z: 1.0859375
range: 4.83704376221
velocity: 0.0
doppler_bin: 8
bearing: -1.85333895683
intensity: 28.3632411957
---
header: 
  seq: 1493730
  stamp: 
    secs: 1561865809
    nsecs: 347782236
  frame_id: "ti_mmwave"
point_id: 14
x: 4.40234375
y: -0.287109375
z: 1.234375
range: 4.88062095642
velocity: 0.0
doppler_bin: 8
bearing: -3.73139691353
intensity: 31.4798526764
---
header: 
  seq: 1493731
  stamp: 
    secs: 1561865809
    nsecs: 347796480
  frame_id: "ti_mmwave"
point_id: 15
x: 4.447265625
y: -0.14453125
z: 1.251953125
range: 4.9241976738
velocity: 0.0
doppler_bin: 8
bearing: -1.86139500141
intensity: 30.9377174377
---
header: 
  seq: 1493732
  stamp: 
    secs: 1561865809
    nsecs: 347809991
  frame_id: "ti_mmwave"
point_id: 16
x: 0.009765625
y: 0.03125
z: 0.025390625
range: 0.0435769706964
velocity: 0.0
doppler_bin: 8
bearing: 72.6459732056
intensity: 29.3043956757
---
header: 
  seq: 1493733
  stamp: 
    secs: 1561865809
    nsecs: 347825353
  frame_id: "ti_mmwave"
point_id: 17
x: 0.041015625
y: -0.033203125
z: 0.0625
range: 0.0871539413929
velocity: 0.0
doppler_bin: 8
bearing: -38.9909973145
intensity: 30.0902576447
---
header: 
  seq: 1493734
  stamp: 
    secs: 1561865809
    nsecs: 347838745
  frame_id: "ti_mmwave"
point_id: 18
x: 0.044921875
y: -0.046875
z: 0.103515625
range: 0.130730912089
velocity: 0.0
doppler_bin: 8
bearing: -46.218875885
intensity: 28.9872512817
---
header: 
  seq: 1493735
  stamp: 
    secs: 1561865809
    nsecs: 348825382
  frame_id: "ti_mmwave"
point_id: 0
x: 0.01171875
y: -0.0390625
z: -0.0078125
range: 0.0435769706964
velocity: 0.0
doppler_bin: 8
bearing: -73.3007583618
intensity: 30.6408348083
---
header: 
  seq: 1493736
  stamp: 
    secs: 1561865809
    nsecs: 348890590
  frame_id: "ti_mmwave"
point_id: 1
x: 0.017578125
y: -0.080078125
z: -0.0078125
range: 0.0871539413929
velocity: 0.0
doppler_bin: 8
bearing: -77.6192398071
intensity: 31.9033164978
---
header: 
  seq: 1493737
  stamp: 
    secs: 1561865809
    nsecs: 348912052
  frame_id: "ti_mmwave"
point_id: 2
x: 0.029296875
y: -0.119140625
z: -0.005859375
range: 0.130730912089
velocity: 0.0
doppler_bin: 8
bearing: -76.1849746704
intensity: 30.141002655
---
header: 
  seq: 1493738
  stamp: 
    secs: 1561865809
    nsecs: 348937684
  frame_id: "ti_mmwave"
point_id: 3
x: 0.056640625
y: -0.154296875
z: 0.005859375
range: 0.174307882786
velocity: 0.0
doppler_bin: 8
bearing: -69.8423843384
intensity: 25.4530715942
---
header: 
  seq: 1493739
  stamp: 
    secs: 1561865809
    nsecs: 348964344
  frame_id: "ti_mmwave"
point_id: 4
x: 0.177734375
y: -0.080078125
z: 1.25390625
range: 1.35088610649
velocity: 0.0
doppler_bin: 8
bearing: -24.2539196014
intensity: 23.1175384521
---
header: 
  seq: 1493740
  stamp: 
    secs: 1561865809
    nsecs: 348988693
  frame_id: "ti_mmwave"
point_id: 5
x: 0.017578125
y: -0.08203125
z: 1.306640625
range: 1.39446306229
velocity: 0.0
doppler_bin: 8
bearing: -77.9052429199
intensity: 24.6389293671
---
header: 
  seq: 1493741
  stamp: 
    secs: 1561865809
    nsecs: 349009511
  frame_id: "ti_mmwave"
point_id: 6
x: 0.421875
y: -0.083984375
z: -1.279296875
range: 1.43804001808
velocity: 0.0
doppler_bin: 8
bearing: -11.2589120865
intensity: 23.0963020325
---
header: 
  seq: 1493742
  stamp: 
    secs: 1561865809
    nsecs: 349074094
  frame_id: "ti_mmwave"
point_id: 7
x: 2.080078125
y: 0.064453125
z: -0.138671875
range: 2.22242546082
velocity: 0.0
doppler_bin: 8
bearing: 1.77479434013
intensity: 28.0618000031
---
header: 
  seq: 1493743
  stamp: 
    secs: 1561865809
    nsecs: 349093132
  frame_id: "ti_mmwave"
point_id: 8
x: 2.107421875
y: -0.0
z: -0.283203125
range: 2.26600241661
velocity: 0.0
doppler_bin: 8
bearing: -0.0
intensity: 27.5204849243
---
header: 
  seq: 1493744
  stamp: 
    secs: 1561865809
    nsecs: 349108029
  frame_id: "ti_mmwave"
point_id: 9
x: 2.6171875
y: -0.17578125
z: 1.04296875
range: 3.00681090355
velocity: 0.0
doppler_bin: 8
bearing: -3.84245300293
intensity: 28.8986167908
---
header: 
  seq: 1493745
  stamp: 
    secs: 1561865809
    nsecs: 349120265
  frame_id: "ti_mmwave"
point_id: 10
x: 2.6953125
y: -0.08984375
z: 0.9609375
range: 3.05038785934
velocity: 0.0
doppler_bin: 8
bearing: -1.90915250778
intensity: 32.1774711609
---
header: 
  seq: 1493746
  stamp: 
    secs: 1561865809
    nsecs: 349131003
  frame_id: "ti_mmwave"
point_id: 11
x: 2.771484375
y: -0.0
z: 0.869140625
range: 3.09396481514
velocity: 0.0
doppler_bin: 8
bearing: -0.0
intensity: 31.1159858704
---
header: 
  seq: 1493747
  stamp: 
    secs: 1561865809
    nsecs: 349141973
  frame_id: "ti_mmwave"
point_id: 12
x: 4.408203125
y: -0.142578125
z: 1.08203125
range: 4.83704376221
velocity: 0.0
doppler_bin: 8
bearing: -1.85251843929
intensity: 28.2736930847
---
header: 
  seq: 1493748
  stamp: 
    secs: 1561865809
    nsecs: 349153348
  frame_id: "ti_mmwave"
point_id: 13
x: 4.40625
y: -0.287109375
z: 1.224609375
range: 4.88062095642
velocity: 0.0
doppler_bin: 8
bearing: -3.72809815407
intensity: 31.4019374847
---
header: 
  seq: 1493749
  stamp: 
    secs: 1561865809
    nsecs: 349164261
  frame_id: "ti_mmwave"
point_id: 14
x: 4.453125
y: -0.14453125
z: 1.232421875
range: 4.9241976738
velocity: 0.0
doppler_bin: 8
bearing: -1.85894739628
intensity: 30.9236965179
---
header: 
  seq: 1493750
  stamp: 
    secs: 1561865809
    nsecs: 349178550
  frame_id: "ti_mmwave"
point_id: 15
x: 0.009765625
y: 0.03125
z: 0.025390625
range: 0.0435769706964
velocity: 0.0
doppler_bin: 8
bearing: 72.6459732056
intensity: 29.3094902039
---
header: 
  seq: 1493751
  stamp: 
    secs: 1561865809
    nsecs: 349189981
  frame_id: "ti_mmwave"
point_id: 16
x: 0.041015625
y: -0.033203125
z: 0.0625
range: 0.0871539413929
velocity: 0.0
doppler_bin: 8
bearing: -38.9909973145
intensity: 30.0860023499
---
header: 
  seq: 1493752
  stamp: 
    secs: 1561865809
    nsecs: 349202957
  frame_id: "ti_mmwave"
point_id: 17
x: 0.044921875
y: -0.046875
z: 0.103515625
range: 0.130730912089
velocity: 0.0
doppler_bin: 8
bearing: -46.218875885
intensity: 28.9872512817
---
header: 
  seq: 1493753
  stamp: 
    secs: 1561865809
    nsecs: 349221461
  frame_id: "ti_mmwave"
point_id: 19
x: 2.7265625
y: -0.181640625
z: 0.982421875
range: 3.09396481514
velocity: 0.0
doppler_bin: 8
bearing: -3.81135106087
intensity: 31.1126251221
---
header: 
  seq: 1493754
  stamp: 
    secs: 1561865809
    nsecs: 407469484
  frame_id: "ti_mmwave"
point_id: 0
x: 0.01171875
y: -0.0390625
z: -0.0078125
range: 0.0435769706964
velocity: 0.0
doppler_bin: 8
bearing: -73.3007583618
intensity: 30.6370849609
---
header: 
  seq: 1493755
  stamp: 
    secs: 1561865809
    nsecs: 407548944
  frame_id: "ti_mmwave"
point_id: 1
x: 0.017578125
y: -0.080078125
z: -0.0078125
range: 0.0871539413929
velocity: 0.0
doppler_bin: 8
bearing: -77.6192398071
intensity: 31.9005146027
---
header: 
  seq: 1493756
  stamp: 
    secs: 1561865809
    nsecs: 407563042
  frame_id: "ti_mmwave"
point_id: 2
x: 0.029296875
y: -0.119140625
z: -0.005859375
range: 0.130730912089
velocity: 0.0
doppler_bin: 8
bearing: -76.1849746704
intensity: 30.141002655
---
header: 
  seq: 1493757
  stamp: 
    secs: 1561865809
    nsecs: 407571960
  frame_id: "ti_mmwave"
point_id: 3
x: 0.056640625
y: -0.154296875
z: 0.005859375
range: 0.174307882786
velocity: 0.0
doppler_bin: 8
bearing: -69.8423843384
intensity: 25.4530715942
---
header: 
  seq: 1493758
  stamp: 
    secs: 1561865809
    nsecs: 407580752
  frame_id: "ti_mmwave"
point_id: 4
x: 0.134765625
y: -0.080078125
z: 1.2578125
range: 1.35088610649
velocity: 0.0
doppler_bin: 8
bearing: -30.7189025879
intensity: 23.0963020325
---
header: 
  seq: 1493759
  stamp: 
    secs: 1561865809
    nsecs: 407590756
  frame_id: "ti_mmwave"
point_id: 5
x: 0.01171875
y: -0.08203125
z: 1.306640625
range: 1.39446306229
velocity: 0.0
doppler_bin: 8
bearing: -81.8698959351
intensity: 24.6239795685
---
header: 
  seq: 1493760
  stamp: 
    secs: 1561865809
    nsecs: 407602213
  frame_id: "ti_mmwave"
point_id: 6
x: 0.4140625
y: -0.083984375
z: -1.28125
range: 1.43804001808
velocity: 0.0
doppler_bin: 8
bearing: -11.4657688141
intensity: 23.0749607086
---
header: 
  seq: 1493761
  stamp: 
    secs: 1561865809
    nsecs: 407610766
  frame_id: "ti_mmwave"
point_id: 7
x: 0.56640625
y: -0.04296875
z: -1.26953125
range: 1.48161697388
velocity: 0.0
doppler_bin: 8
bearing: -4.33826684952
intensity: 21.7026176453
---
header: 
  seq: 1493762
  stamp: 
    secs: 1561865809
    nsecs: 407619001
  frame_id: "ti_mmwave"
point_id: 8
x: 2.107421875
y: -0.0
z: -0.28515625
range: 2.26600241661
velocity: 0.0
doppler_bin: 8
bearing: -0.0
intensity: 28.1090431213
---
header: 
  seq: 1493763
  stamp: 
    secs: 1561865809
    nsecs: 407628926
  frame_id: "ti_mmwave"
point_id: 9
x: 2.166015625
y: -0.0
z: -0.091796875
range: 2.30957937241
velocity: 0.0
doppler_bin: 8
bearing: -0.0
intensity: 27.6715583801
---
header: 
  seq: 1493764
  stamp: 
    secs: 1561865809
    nsecs: 407637361
  frame_id: "ti_mmwave"
point_id: 10
x: 2.650390625
y: -0.17578125
z: 0.95703125
range: 3.00681090355
velocity: 0.0
doppler_bin: 8
bearing: -3.79445791245
intensity: 29.1169013977
---
header: 
  seq: 1493765
  stamp: 
    secs: 1561865809
    nsecs: 407644730
  frame_id: "ti_mmwave"
point_id: 11
x: 2.703125
y: -0.08984375
z: 0.94140625
range: 3.05038785934
velocity: 0.0
doppler_bin: 8
bearing: -1.90363883972
intensity: 32.1906051636
---
header: 
  seq: 1493766
  stamp: 
    secs: 1561865809
    nsecs: 407655199
  frame_id: "ti_mmwave"
point_id: 12
x: 2.771484375
y: -0.0
z: 0.869140625
range: 3.09396481514
velocity: 0.0
doppler_bin: 8
bearing: -0.0
intensity: 31.0311927795
---
header: 
  seq: 1493767
  stamp: 
    secs: 1561865809
    nsecs: 407887988
  frame_id: "ti_mmwave"
point_id: 13
x: 4.4140625
y: -0.142578125
z: 1.05859375
range: 4.83704376221
velocity: 0.0
doppler_bin: 8
bearing: -1.850061059
intensity: 28.3378429413
---
header: 
  seq: 1493768
  stamp: 
    secs: 1561865809
    nsecs: 407915372
  frame_id: "ti_mmwave"
point_id: 14
x: 4.40625
y: -0.287109375
z: 1.21875
range: 4.88062095642
velocity: 0.0
doppler_bin: 8
bearing: -3.72809815407
intensity: 31.4426269531
---
header: 
  seq: 1493769
  stamp: 
    secs: 1561865809
    nsecs: 407927830
  frame_id: "ti_mmwave"
point_id: 15
x: 4.44921875
y: -0.14453125
z: 1.2421875
range: 4.9241976738
velocity: 0.0
doppler_bin: 8
bearing: -1.86057829857
intensity: 30.8955192566
---
header: 
  seq: 1493770
  stamp: 
    secs: 1561865809
    nsecs: 407987446
  frame_id: "ti_mmwave"
point_id: 16
x: 0.009765625
y: 0.03125
z: 0.025390625
range: 0.0435769706964
velocity: 0.0
doppler_bin: 8
bearing: 72.6459732056
intensity: 29.2992954254
---
header: 
  seq: 1493771
  stamp: 
    secs: 1561865809
    nsecs: 408007027
  frame_id: "ti_mmwave"
point_id: 17
x: 0.041015625
y: -0.033203125
z: 0.0625
range: 0.0871539413929
velocity: 0.0
doppler_bin: 8
bearing: -38.9909973145
intensity: 30.0860023499
---
header: 
  seq: 1493772
  stamp: 
    secs: 1561865809
    nsecs: 408020412
  frame_id: "ti_mmwave"
point_id: 18
x: 0.046875
y: -0.046875
z: 0.103515625
range: 0.130730912089
velocity: 0.0
doppler_bin: 8
bearing: -45.0
intensity: 28.9872512817
---
header: 
  seq: 1493773
  stamp: 
    secs: 1561865809
    nsecs: 408043141
  frame_id: "ti_mmwave"
point_id: 20
x: 2.732421875
y: -0.181640625
z: 0.96875
range: 3.09396481514
velocity: 0.0
doppler_bin: 8
bearing: -3.80320167542
intensity: 31.0105934143
---
header: 
  seq: 1493774
  stamp: 
    secs: 1561865809
    nsecs: 408966383
  frame_id: "ti_mmwave"
point_id: 0
x: 0.01171875
y: -0.0390625
z: -0.0078125
range: 0.0435769706964
velocity: 0.0
doppler_bin: 8
bearing: -73.3007583618
intensity: 30.6408348083
---
header: 
  seq: 1493775
  stamp: 
    secs: 1561865809
    nsecs: 409025569
  frame_id: "ti_mmwave"
point_id: 1
x: 0.017578125
y: -0.080078125
z: -0.0078125
range: 0.0871539413929
velocity: 0.0
doppler_bin: 8
bearing: -77.6192398071
intensity: 31.9061183929
---
header: 
  seq: 1493776
  stamp: 
    secs: 1561865809
    nsecs: 409046675
  frame_id: "ti_mmwave"
point_id: 2
x: 0.029296875
y: -0.119140625
z: -0.005859375
range: 0.130730912089
velocity: 0.0
doppler_bin: 8
bearing: -76.1849746704
intensity: 30.1452045441
---
header: 
  seq: 1493777
  stamp: 
    secs: 1561865809
    nsecs: 409062749
  frame_id: "ti_mmwave"
point_id: 3
x: 0.056640625
y: -0.154296875
z: 0.005859375
range: 0.174307882786
velocity: 0.0
doppler_bin: 8
bearing: -69.8423843384
intensity: 25.4530715942
---
header: 
  seq: 1493778
  stamp: 
    secs: 1561865809
    nsecs: 409077834
  frame_id: "ti_mmwave"
point_id: 4
x: 0.080078125
y: -0.080078125
z: 1.263671875
range: 1.35088610649
velocity: 0.0
doppler_bin: 8
bearing: -45.0
intensity: 23.0749607086
---
header: 
  seq: 1493779
  stamp: 
    secs: 1561865809
    nsecs: 409160891
  frame_id: "ti_mmwave"
point_id: 6
x: 0.42578125
y: -0.083984375
z: -1.27734375
range: 1.43804001808
velocity: 0.0
doppler_bin: 8
bearing: -11.1582231522
intensity: 23.0535144806
---
header: 
  seq: 1493780
  stamp: 
    secs: 1561865809
    nsecs: 409172709
  frame_id: "ti_mmwave"
point_id: 7
x: 0.56640625
y: -0.04296875
z: -1.26953125
range: 1.48161697388
velocity: 0.0
doppler_bin: 8
bearing: -4.33826684952
intensity: 21.7026176453
---
header: 
  seq: 1493781
  stamp: 
    secs: 1561865809
    nsecs: 409182350
  frame_id: "ti_mmwave"
point_id: 8
x: 2.021484375
y: -0.0
z: -0.31640625
range: 2.17884850502
velocity: 0.0
doppler_bin: 8
bearing: -0.0
intensity: 29.5616836548
---
header: 
  seq: 1493782
  stamp: 
    secs: 1561865809
    nsecs: 409190743
  frame_id: "ti_mmwave"
point_id: 9
x: 2.064453125
y: -0.0
z: -0.298828125
range: 2.22242546082
velocity: 0.0
doppler_bin: 8
bearing: -0.0
intensity: 30.979511261
---
header: 
  seq: 1493783
  stamp: 
    secs: 1561865809
    nsecs: 409199755
  frame_id: "ti_mmwave"
point_id: 10
x: 2.109375
y: -0.0
z: -0.27734375
range: 2.26600241661
velocity: 0.0
doppler_bin: 8
bearing: -0.0
intensity: 28.5308952332
---
header: 
  seq: 1493784
  stamp: 
    secs: 1561865809
    nsecs: 409210683
  frame_id: "ti_mmwave"
point_id: 11
x: 2.578125
y: -0.17578125
z: 1.134765625
range: 3.00681090355
velocity: 0.0
doppler_bin: 8
bearing: -3.90049386024
intensity: 28.8986167908
---
header: 
  seq: 1493785
  stamp: 
    secs: 1561865809
    nsecs: 409222747
  frame_id: "ti_mmwave"
point_id: 12
x: 2.673828125
y: -0.08984375
z: 1.017578125
range: 3.05038785934
velocity: 0.0
doppler_bin: 8
bearing: -1.92448115349
intensity: 32.1218757629
---
header: 
  seq: 1493786
  stamp: 
    secs: 1561865809
    nsecs: 409234830
  frame_id: "ti_mmwave"
point_id: 13
x: 2.720703125
y: -0.181640625
z: 1.001953125
range: 3.09396481514
velocity: 0.0
doppler_bin: 8
bearing: -3.81953430176
intensity: 31.0687046051
---
header: 
  seq: 1493787
  stamp: 
    secs: 1561865809
    nsecs: 409242475
  frame_id: "ti_mmwave"
point_id: 14
x: 4.40234375
y: -0.142578125
z: 1.099609375
range: 4.83704376221
velocity: 0.0
doppler_bin: 8
bearing: -1.85498249531
intensity: 28.2216815948
---
header: 
  seq: 1493788
  stamp: 
    secs: 1561865809
    nsecs: 409266076
  frame_id: "ti_mmwave"
point_id: 15
x: 4.4140625
y: -0.142578125
z: 1.21875
range: 4.88062095642
velocity: 0.0
doppler_bin: 8
bearing: -1.850061059
intensity: 31.4952697754
---
header: 
  seq: 1493789
  stamp: 
    secs: 1561865809
    nsecs: 409368933
  frame_id: "ti_mmwave"
point_id: 16
x: 4.44921875
y: -0.14453125
z: 1.244140625
range: 4.9241976738
velocity: 0.0
doppler_bin: 8
bearing: -1.86057829857
intensity: 31.020904541
---
header: 
  seq: 1493790
  stamp: 
    secs: 1561865809
    nsecs: 409400005
  frame_id: "ti_mmwave"
point_id: 17
x: 0.009765625
y: 0.03125
z: 0.025390625
range: 0.0435769706964
velocity: 0.0
doppler_bin: 8
bearing: 72.6459732056
intensity: 29.3043956757
---
header: 
  seq: 1493791
  stamp: 
    secs: 1561865809
    nsecs: 409415405
  frame_id: "ti_mmwave"
point_id: 18
x: 0.041015625
y: -0.033203125
z: 0.0625
range: 0.0871539413929
velocity: 0.0
doppler_bin: 8
bearing: -38.9909973145
intensity: 30.0902576447
---
header: 
  seq: 1493792
  stamp: 
    secs: 1561865809
    nsecs: 409429421
  frame_id: "ti_mmwave"
point_id: 19
x: 0.046875
y: -0.046875
z: 0.103515625
range: 0.130730912089
velocity: 0.0
doppler_bin: 8
bearing: -45.0
intensity: 28.9927310944
---
header: 
  seq: 1493793
  stamp: 
    secs: 1561865809
    nsecs: 409445692
  frame_id: "ti_mmwave"
point_id: 21
x: 2.76171875
y: -0.0
z: 0.8984375
range: 3.09396481514
velocity: 0.0
doppler_bin: 8
bearing: -0.0
intensity: 31.058506012
---
header: 
  seq: 1493794
  stamp: 
    secs: 1561865809
    nsecs: 467454270
  frame_id: "ti_mmwave"
point_id: 0
x: 0.01171875
y: -0.0390625
z: -0.0078125
range: 0.0435769706964
velocity: 0.0
doppler_bin: 8
bearing: -73.3007583618
intensity: 30.6483230591
---
header: 
  seq: 1493795
  stamp: 
    secs: 1561865809
    nsecs: 467556309
  frame_id: "ti_mmwave"
point_id: 1
x: 0.017578125
y: -0.080078125
z: -0.0078125
range: 0.0871539413929
velocity: 0.0
doppler_bin: 8
bearing: -77.6192398071
intensity: 31.9033164978
---
header: 
  seq: 1493796
  stamp: 
    secs: 1561865809
    nsecs: 467579862
  frame_id: "ti_mmwave"
point_id: 2
x: 0.029296875
y: -0.119140625
z: -0.005859375
range: 0.130730912089
velocity: 0.0
doppler_bin: 8
bearing: -76.1849746704
intensity: 30.141002655
---
header: 
  seq: 1493797
  stamp: 
    secs: 1561865809
    nsecs: 467596235
  frame_id: "ti_mmwave"
point_id: 3
x: 0.056640625
y: -0.154296875
z: 0.005859375
range: 0.174307882786
velocity: 0.0
doppler_bin: 8
bearing: -69.8423843384
intensity: 25.4406795502
---
header: 
  seq: 1493798
  stamp: 
    secs: 1561865809
    nsecs: 467612154
  frame_id: "ti_mmwave"
point_id: 4
x: 0.11328125
y: -0.080078125
z: 1.259765625
range: 1.35088610649
velocity: 0.0
doppler_bin: 8
bearing: -35.2563591003
intensity: 23.1175384521
---
header: 
  seq: 1493799
  stamp: 
    secs: 1561865809
    nsecs: 467626211
  frame_id: "ti_mmwave"
point_id: 5
x: 0.013671875
y: -0.08203125
z: -1.306640625
range: 1.39446306229
velocity: 0.0
doppler_bin: 8
bearing: -80.5376739502
intensity: 24.6239795685
---
header: 
  seq: 1493800
  stamp: 
    secs: 1561865809
    nsecs: 467640200
  frame_id: "ti_mmwave"
point_id: 6
x: 0.431640625
y: -0.083984375
z: -1.27734375
range: 1.43804001808
velocity: 0.0
doppler_bin: 8
bearing: -11.0104799271
intensity: 23.0749607086
---
header: 
  seq: 1493801
  stamp: 
    secs: 1561865809
    nsecs: 467653836
  frame_id: "ti_mmwave"
point_id: 7
x: 0.57421875
y: -0.04296875
z: -1.265625
range: 1.48161697388
velocity: 0.0
doppler_bin: 8
bearing: -4.27946329117
intensity: 21.7026176453
---
header: 
  seq: 1493802
  stamp: 
    secs: 1561865809
    nsecs: 467671910
  frame_id: "ti_mmwave"
point_id: 8
x: 2.029296875
y: -0.064453125
z: -0.248046875
range: 2.17884850502
velocity: 0.0
doppler_bin: 8
bearing: -1.81917738914
intensity: 28.6923179626
---
header: 
  seq: 1493803
  stamp: 
    secs: 1561865809
    nsecs: 467754323
  frame_id: "ti_mmwave"
point_id: 9
x: 2.0703125
y: -0.0
z: -0.2578125
range: 2.22242546082
velocity: 0.0
doppler_bin: 8
bearing: -0.0
intensity: 28.2282161713
---
header: 
  seq: 1493804
  stamp: 
    secs: 1561865809
    nsecs: 467770085
  frame_id: "ti_mmwave"
point_id: 10
x: 2.640625
y: -0.17578125
z: 0.98046875
range: 3.00681090355
velocity: 0.0
doppler_bin: 8
bearing: -3.80844950676
intensity: 28.9982051849
---
header: 
  seq: 1493805
  stamp: 
    secs: 1561865809
    nsecs: 467785635
  frame_id: "ti_mmwave"
point_id: 11
x: 2.705078125
y: -0.08984375
z: 0.93359375
range: 3.05038785934
velocity: 0.0
doppler_bin: 8
bearing: -1.90226531029
intensity: 32.1984634399
---
header: 
  seq: 1493806
  stamp: 
    secs: 1561865809
    nsecs: 467799011
  frame_id: "ti_mmwave"
point_id: 12
x: 2.78125
y: -0.0
z: 0.837890625
range: 3.09396481514
velocity: 0.0
doppler_bin: 8
bearing: -0.0
intensity: 31.1594314575
---
header: 
  seq: 1493807
  stamp: 
    secs: 1561865809
    nsecs: 467811926
  frame_id: "ti_mmwave"
point_id: 13
x: 4.404296875
y: -0.142578125
z: 1.25390625
range: 4.88062095642
velocity: 0.0
doppler_bin: 8
bearing: -1.85416030884
intensity: 31.1058979034
---
header: 
  seq: 1493808
  stamp: 
    secs: 1561865809
    nsecs: 467825133
  frame_id: "ti_mmwave"
point_id: 14
x: 4.4375
y: -0.14453125
z: 1.2890625
range: 4.9241976738
velocity: 0.0
doppler_bin: 8
bearing: -1.86548817158
intensity: 30.6669845581
---
header: 
  seq: 1493809
  stamp: 
    secs: 1561865809
    nsecs: 467838618
  frame_id: "ti_mmwave"
point_id: 15
x: 4.900390625
y: -0.30859375
z: 0.62109375
range: 5.27281332016
velocity: 0.0
doppler_bin: 8
bearing: -3.60334610939
intensity: 29.9651165009
---
header: 
  seq: 1493810
  stamp: 
    secs: 1561865809
    nsecs: 467852448
  frame_id: "ti_mmwave"
point_id: 16
x: 4.951171875
y: -0.623046875
z: -0.017578125
range: 5.31639051437
velocity: 0.0
doppler_bin: 8
bearing: -7.17230129242
intensity: 29.3951931
---
header: 
  seq: 1493811
  stamp: 
    secs: 1561865809
    nsecs: 467865258
  frame_id: "ti_mmwave"
point_id: 17
x: 0.009765625
y: 0.03125
z: 0.025390625
range: 0.0435769706964
velocity: 0.0
doppler_bin: 8
bearing: 72.6459732056
intensity: 29.2992954254
---
header: 
  seq: 1493812
  stamp: 
    secs: 1561865809
    nsecs: 467877957
  frame_id: "ti_mmwave"
point_id: 18
x: 0.041015625
y: -0.033203125
z: 0.0625
range: 0.0871539413929
velocity: 0.0
doppler_bin: 8
bearing: -38.9909973145
intensity: 30.0860023499
---
header: 
  seq: 1493813
  stamp: 
    secs: 1561865809
    nsecs: 467891580
  frame_id: "ti_mmwave"
point_id: 19
x: 0.044921875
y: -0.046875
z: 0.103515625
range: 0.130730912089
velocity: 0.0
doppler_bin: 8
bearing: -46.218875885
intensity: 28.9872512817
---
header: 
  seq: 1493814
  stamp: 
    secs: 1561865809
    nsecs: 467909502
  frame_id: "ti_mmwave"
point_id: 21
x: 2.740234375
y: -0.181640625
z: 0.947265625
range: 3.09396481514
velocity: 0.0
doppler_bin: 8
bearing: -3.79239034653
intensity: 31.1159858704
---
header: 
  seq: 1493815
  stamp: 
    secs: 1561865809
    nsecs: 468752598
  frame_id: "ti_mmwave"
point_id: 0
x: 0.01171875
y: -0.0390625
z: -0.0078125
range: 0.0435769706964
velocity: 0.0
doppler_bin: 8
bearing: -73.3007583618
intensity: 30.6370849609
---
header: 
  seq: 1493816
  stamp: 
    secs: 1561865809
    nsecs: 468818266
  frame_id: "ti_mmwave"
point_id: 1
x: 0.017578125
y: -0.080078125
z: -0.0078125
range: 0.0871539413929
velocity: 0.0
doppler_bin: 8
bearing: -77.6192398071
intensity: 31.8977088928
---
header: 
  seq: 1493817
  stamp: 
    secs: 1561865809
    nsecs: 468836185
  frame_id: "ti_mmwave"
point_id: 2
x: 0.029296875
y: -0.119140625
z: -0.005859375
range: 0.130730912089
velocity: 0.0
doppler_bin: 8
bearing: -76.1849746704
intensity: 30.1325874329
---
header: 
  seq: 1493818
  stamp: 
    secs: 1561865809
    nsecs: 468850380
  frame_id: "ti_mmwave"
point_id: 3
x: 0.056640625
y: -0.154296875
z: 0.005859375
range: 0.174307882786
velocity: 0.0
doppler_bin: 8
bearing: -69.8423843384
intensity: 25.4406795502
---
header: 
  seq: 1493819
  stamp: 
    secs: 1561865809
    nsecs: 468862981
  frame_id: "ti_mmwave"
point_id: 4
x: 0.142578125
y: -0.080078125
z: 1.2578125
range: 1.35088610649
velocity: 0.0
doppler_bin: 8
bearing: -29.3204746246
intensity: 23.1597042084
---
header: 
  seq: 1493820
  stamp: 
    secs: 1561865809
    nsecs: 468914768
  frame_id: "ti_mmwave"
point_id: 6
x: 0.42578125
y: -0.083984375
z: -1.27734375
range: 1.43804001808
velocity: 0.0
doppler_bin: 8
bearing: -11.1582231522
intensity: 23.0535144806
---
header: 
  seq: 1493821
  stamp: 
    secs: 1561865809
    nsecs: 468927632
  frame_id: "ti_mmwave"
point_id: 7
x: 0.560546875
y: -0.04296875
z: -1.2734375
range: 1.48161697388
velocity: 0.0
doppler_bin: 8
bearing: -4.38343858719
intensity: 21.6731739044
---
header: 
  seq: 1493822
  stamp: 
    secs: 1561865809
    nsecs: 468943946
  frame_id: "ti_mmwave"
point_id: 8
x: 2.609375
y: -0.17578125
z: 1.0625
range: 3.00681090355
velocity: 0.0
doppler_bin: 8
bearing: -3.85392260551
intensity: 28.9652614594
---
header: 
  seq: 1493823
  stamp: 
    secs: 1561865809
    nsecs: 469011597
  frame_id: "ti_mmwave"
point_id: 9
x: 2.6796875
y: -0.08984375
z: 1.001953125
range: 3.05038785934
velocity: 0.0
doppler_bin: 8
bearing: -1.92027628422
intensity: 32.1748390198
---
header: 
  seq: 1493824
  stamp: 
    secs: 1561865809
    nsecs: 469028481
  frame_id: "ti_mmwave"
point_id: 10
x: 2.720703125
y: -0.181640625
z: 1.0
range: 3.09396481514
velocity: 0.0
doppler_bin: 8
bearing: -3.81953430176
intensity: 31.172712326
---
header: 
  seq: 1493825
  stamp: 
    secs: 1561865809
    nsecs: 469042849
  frame_id: "ti_mmwave"
point_id: 11
x: 4.41015625
y: -0.142578125
z: 1.234375
range: 4.88062095642
velocity: 0.0
doppler_bin: 8
bearing: -1.85169863701
intensity: 31.2678050995
---
header: 
  seq: 1493826
  stamp: 
    secs: 1561865809
    nsecs: 469055365
  frame_id: "ti_mmwave"
point_id: 12
x: 4.44140625
y: -0.14453125
z: 1.275390625
range: 4.9241976738
velocity: 0.0
doppler_bin: 8
bearing: -1.86384868622
intensity: 30.7845687866
---
header: 
  seq: 1493827
  stamp: 
    secs: 1561865809
    nsecs: 469068689
  frame_id: "ti_mmwave"
point_id: 13
x: 4.8828125
y: -0.30859375
z: 0.74609375
range: 5.27281332016
velocity: 0.0
doppler_bin: 8
bearing: -3.61628341675
intensity: 30.8707122803
---
header: 
  seq: 1493828
  stamp: 
    secs: 1561865809
    nsecs: 469082784
  frame_id: "ti_mmwave"
point_id: 14
x: 4.94921875
y: -0.623046875
z: 0.17578125
range: 5.31639051437
velocity: 0.0
doppler_bin: 8
bearing: -7.17510271072
intensity: 29.4987773895
---
header: 
  seq: 1493829
  stamp: 
    secs: 1561865809
    nsecs: 469097231
  frame_id: "ti_mmwave"
point_id: 15
x: 0.009765625
y: 0.03125
z: 0.025390625
range: 0.0435769706964
velocity: 0.0
doppler_bin: 8
bearing: 72.6459732056
intensity: 29.3043956757
---
header: 
  seq: 1493830
  stamp: 
    secs: 1561865809
    nsecs: 469130086
  frame_id: "ti_mmwave"
point_id: 16
x: 0.041015625
y: -0.033203125
z: 0.0625
range: 0.0871539413929
velocity: 0.0
doppler_bin: 8
bearing: -38.9909973145
intensity: 30.0860023499
---
header: 
  seq: 1493831
  stamp: 
    secs: 1561865809
    nsecs: 469290257
  frame_id: "ti_mmwave"
point_id: 17
x: 0.046875
y: -0.046875
z: 0.103515625
range: 0.130730912089
velocity: 0.0
doppler_bin: 8
bearing: -45.0
intensity: 28.9872512817
---
header: 
  seq: 1493832
  stamp: 
    secs: 1561865809
    nsecs: 469406689
  frame_id: "ti_mmwave"
point_id: 19
x: 2.765625
y: -0.0
z: 0.88671875
range: 3.09396481514
velocity: 0.0
doppler_bin: 8
bearing: -0.0
intensity: 31.1527767181
---
header: 
  seq: 1493833
  stamp: 
    secs: 1561865809
    nsecs: 527614349
  frame_id: "ti_mmwave"
point_id: 0
x: 0.01171875
y: -0.0390625
z: -0.0078125
range: 0.0435769706964
velocity: 0.0
doppler_bin: 8
bearing: -73.3007583618
intensity: 30.6408348083
---
header: 
  seq: 1493834
  stamp: 
    secs: 1561865809
    nsecs: 527688144
  frame_id: "ti_mmwave"
point_id: 1
x: 0.017578125
y: -0.080078125
z: -0.0078125
range: 0.0871539413929
velocity: 0.0
doppler_bin: 8
bearing: -77.6192398071
intensity: 31.9005146027
---
header: 
  seq: 1493835
  stamp: 
    secs: 1561865809
    nsecs: 527699059
  frame_id: "ti_mmwave"
point_id: 2
x: 0.029296875
y: -0.119140625
z: -0.005859375
range: 0.130730912089
velocity: 0.0
doppler_bin: 8
bearing: -76.1849746704
intensity: 30.1367969513
---
header: 
  seq: 1493836
  stamp: 
    secs: 1561865809
    nsecs: 527707493
  frame_id: "ti_mmwave"
point_id: 3
x: 0.056640625
y: -0.154296875
z: 0.005859375
range: 0.174307882786
velocity: 0.0
doppler_bin: 8
bearing: -69.8423843384
intensity: 25.4530715942
---
header: 
  seq: 1493837
  stamp: 
    secs: 1561865809
    nsecs: 527716219
  frame_id: "ti_mmwave"
point_id: 4
x: 0.15625
y: -0.080078125
z: 1.255859375
range: 1.35088610649
velocity: 0.0
doppler_bin: 8
bearing: -27.1351394653
intensity: 23.1175384521
---
header: 
  seq: 1493838
  stamp: 
    secs: 1561865809
    nsecs: 527728387
  frame_id: "ti_mmwave"
point_id: 6
x: 0.404296875
y: -0.083984375
z: -1.28515625
range: 1.43804001808
velocity: 0.0
doppler_bin: 8
bearing: -11.7351255417
intensity: 23.1175384521
---
header: 
  seq: 1493839
  stamp: 
    secs: 1561865809
    nsecs: 527736680
  frame_id: "ti_mmwave"
point_id: 7
x: 2.611328125
y: -0.17578125
z: 1.056640625
range: 3.00681090355
velocity: 0.0
doppler_bin: 8
bearing: -3.85104894638
intensity: 29.0417442322
---
header: 
  seq: 1493840
  stamp: 
    secs: 1561865809
    nsecs: 527745674
  frame_id: "ti_mmwave"
point_id: 8
x: 2.685546875
y: -0.08984375
z: 0.98828125
range: 3.05038785934
velocity: 0.0
doppler_bin: 8
bearing: -1.91608965397
intensity: 32.2010803223
---
header: 
  seq: 1493841
  stamp: 
    secs: 1561865809
    nsecs: 527754230
  frame_id: "ti_mmwave"
point_id: 9
x: 2.72265625
y: -0.181640625
z: 0.994140625
range: 3.09396481514
velocity: 0.0
doppler_bin: 8
bearing: -3.8168027401
intensity: 31.176027298
---
header: 
  seq: 1493842
  stamp: 
    secs: 1561865809
    nsecs: 527762329
  frame_id: "ti_mmwave"
point_id: 10
x: 4.412109375
y: -0.142578125
z: 1.224609375
range: 4.88062095642
velocity: 0.0
doppler_bin: 8
bearing: -1.85087943077
intensity: 31.3033370972
---
header: 
  seq: 1493843
  stamp: 
    secs: 1561865809
    nsecs: 527770878
  frame_id: "ti_mmwave"
point_id: 11
x: 4.44921875
y: -0.14453125
z: 1.244140625
range: 4.9241976738
velocity: 0.0
doppler_bin: 8
bearing: -1.86057829857
intensity: 30.8813610077
---
header: 
  seq: 1493844
  stamp: 
    secs: 1561865809
    nsecs: 527779325
  frame_id: "ti_mmwave"
point_id: 12
x: 4.89453125
y: -0.30859375
z: 0.662109375
range: 5.27281332016
velocity: 0.0
doppler_bin: 8
bearing: -3.60764837265
intensity: 30.6258201599
---
header: 
  seq: 1493845
  stamp: 
    secs: 1561865809
    nsecs: 527788887
  frame_id: "ti_mmwave"
point_id: 13
x: 4.951171875
y: -0.623046875
z: 0.05078125
range: 5.31639051437
velocity: 0.0
doppler_bin: 8
bearing: -7.17230129242
intensity: 29.4743366241
---
header: 
  seq: 1493846
  stamp: 
    secs: 1561865809
    nsecs: 527810660
  frame_id: "ti_mmwave"
point_id: 14
x: 0.009765625
y: 0.03125
z: 0.025390625
range: 0.0435769706964
velocity: 0.0
doppler_bin: 8
bearing: 72.6459732056
intensity: 29.2992954254
---
header: 
  seq: 1493847
  stamp: 
    secs: 1561865809
    nsecs: 527824956
  frame_id: "ti_mmwave"
point_id: 15
x: 0.041015625
y: -0.033203125
z: 0.0625
range: 0.0871539413929
velocity: 0.0
doppler_bin: 8
bearing: -38.9909973145
intensity: 30.0860023499
---
header: 
  seq: 1493848
  stamp: 
    secs: 1561865809
    nsecs: 527838774
  frame_id: "ti_mmwave"
point_id: 16
x: 0.046875
y: -0.046875
z: 0.103515625
range: 0.130730912089
velocity: 0.0
doppler_bin: 8
bearing: -45.0
intensity: 28.9872512817
---
header: 
  seq: 1493849
  stamp: 
    secs: 1561865809
    nsecs: 527853787
  frame_id: "ti_mmwave"
point_id: 18
x: 2.765625
y: -0.0
z: 0.88671875
range: 3.09396481514
velocity: 0.0
doppler_bin: 8
bearing: -0.0
intensity: 31.1594314575
---
header: 
  seq: 1493850
  stamp: 
    secs: 1561865809
    nsecs: 587571064
  frame_id: "ti_mmwave"
point_id: 0
x: 0.01171875
y: -0.0390625
z: -0.0078125
range: 0.0435769706964
velocity: 0.0
doppler_bin: 8
bearing: -73.3007583618
intensity: 30.6333332062
---
header: 
  seq: 1493851
  stamp: 
    secs: 1561865809
    nsecs: 587672143
  frame_id: "ti_mmwave"
point_id: 1
x: 0.017578125
y: -0.080078125
z: -0.0078125
range: 0.0871539413929
velocity: 0.0
doppler_bin: 8
bearing: -77.6192398071
intensity: 31.9005146027
---
header: 
  seq: 1493852
  stamp: 
    secs: 1561865809
    nsecs: 587691651
  frame_id: "ti_mmwave"
point_id: 2
x: 0.029296875
y: -0.119140625
z: -0.005859375
range: 0.130730912089
velocity: 0.0
doppler_bin: 8
bearing: -76.1849746704
intensity: 30.141002655
---
header: 
  seq: 1493853
  stamp: 
    secs: 1561865809
    nsecs: 587706112
  frame_id: "ti_mmwave"
point_id: 3
x: 0.056640625
y: -0.154296875
z: 0.0078125
range: 0.174307882786
velocity: 0.0
doppler_bin: 8
bearing: -69.8423843384
intensity: 25.4530715942
---
header: 
  seq: 1493854
  stamp: 
    secs: 1561865809
    nsecs: 587720977
  frame_id: "ti_mmwave"
point_id: 4
x: 0.107421875
y: -0.080078125
z: 1.26171875
range: 1.35088610649
velocity: 0.0
doppler_bin: 8
bearing: -36.7028541565
intensity: 23.0749607086
---
header: 
  seq: 1493855
  stamp: 
    secs: 1561865809
    nsecs: 587738436
  frame_id: "ti_mmwave"
point_id: 6
x: 0.42578125
y: -0.083984375
z: -1.27734375
range: 1.43804001808
velocity: 0.0
doppler_bin: 8
bearing: -11.1582231522
intensity: 23.0535144806
---
header: 
  seq: 1493856
  stamp: 
    secs: 1561865809
    nsecs: 587752957
  frame_id: "ti_mmwave"
point_id: 7
x: 2.06640625
y: -0.0
z: -0.28515625
range: 2.22242546082
velocity: 0.0
doppler_bin: 8
bearing: -0.0
intensity: 27.6117572784
---
header: 
  seq: 1493857
  stamp: 
    secs: 1561865809
    nsecs: 587771972
  frame_id: "ti_mmwave"
point_id: 8
x: 2.65625
y: -0.17578125
z: 0.935546875
range: 3.00681090355
velocity: 0.0
doppler_bin: 8
bearing: -3.78611207008
intensity: 29.0902080536
---
header: 
  seq: 1493858
  stamp: 
    secs: 1561865809
    nsecs: 587855045
  frame_id: "ti_mmwave"
point_id: 9
x: 2.697265625
y: -0.08984375
z: 0.958984375
range: 3.05038785934
velocity: 0.0
doppler_bin: 8
bearing: -1.90777087212
intensity: 32.2505073547
---
header: 
  seq: 1493859
  stamp: 
    secs: 1561865809
    nsecs: 587872659
  frame_id: "ti_mmwave"
point_id: 10
x: 2.73046875
y: -0.181640625
z: 0.97265625
range: 3.09396481514
velocity: 0.0
doppler_bin: 8
bearing: -3.80591416359
intensity: 31.2287101746
---
header: 
  seq: 1493860
  stamp: 
    secs: 1561865809
    nsecs: 587888638
  frame_id: "ti_mmwave"
point_id: 11
x: 4.40234375
y: -0.142578125
z: 1.1015625
range: 4.83704376221
velocity: 0.0
doppler_bin: 8
bearing: -1.85498249531
intensity: 28.0208930969
---
header: 
  seq: 1493861
  stamp: 
    secs: 1561865809
    nsecs: 587902242
  frame_id: "ti_mmwave"
point_id: 12
x: 4.41015625
y: -0.142578125
z: 1.236328125
range: 4.88062095642
velocity: 0.0
doppler_bin: 8
bearing: -1.85169863701
intensity: 31.2936763763
---
header: 
  seq: 1493862
  stamp: 
    secs: 1561865809
    nsecs: 587915080
  frame_id: "ti_mmwave"
point_id: 13
x: 4.44140625
y: -0.14453125
z: 1.271484375
range: 4.9241976738
velocity: 0.0
doppler_bin: 8
bearing: -1.86384868622
intensity: 30.8529052734
---
header: 
  seq: 1493863
  stamp: 
    secs: 1561865809
    nsecs: 587927880
  frame_id: "ti_mmwave"
point_id: 14
x: 4.892578125
y: -0.30859375
z: 0.685546875
range: 5.27281332016
velocity: 0.0
doppler_bin: 8
bearing: -3.60908436775
intensity: 31.095785141
---
header: 
  seq: 1493864
  stamp: 
    secs: 1561865809
    nsecs: 587940622
  frame_id: "ti_mmwave"
point_id: 15
x: 4.951171875
y: -0.623046875
z: 0.068359375
range: 5.31639051437
velocity: 0.0
doppler_bin: 8
bearing: -7.17230129242
intensity: 29.7405090332
---
header: 
  seq: 1493865
  stamp: 
    secs: 1561865809
    nsecs: 587992596
  frame_id: "ti_mmwave"
point_id: 16
x: 0.009765625
y: 0.03125
z: 0.025390625
range: 0.0435769706964
velocity: 0.0
doppler_bin: 8
bearing: 72.6459732056
intensity: 29.3094902039
---
header: 
  seq: 1493866
  stamp: 
    secs: 1561865809
    nsecs: 588022025
  frame_id: "ti_mmwave"
point_id: 17
x: 0.041015625
y: -0.033203125
z: 0.0625
range: 0.0871539413929
velocity: 0.0
doppler_bin: 8
bearing: -38.9909973145
intensity: 30.0945091248
---
header: 
  seq: 1493867
  stamp: 
    secs: 1561865809
    nsecs: 588044922
  frame_id: "ti_mmwave"
point_id: 18
x: 0.044921875
y: -0.046875
z: 0.103515625
range: 0.130730912089
velocity: 0.0
doppler_bin: 8
bearing: -46.218875885
intensity: 28.9927310944
---
header: 
  seq: 1493868
  stamp: 
    secs: 1561865809
    nsecs: 588063672
  frame_id: "ti_mmwave"
point_id: 20
x: 2.775390625
y: -0.0
z: 0.857421875
range: 3.09396481514
velocity: 0.0
doppler_bin: 8
bearing: -0.0
intensity: 31.222158432
---
header: 
  seq: 1493869
  stamp: 
    secs: 1561865809
    nsecs: 589061688
  frame_id: "ti_mmwave"
point_id: 0
x: 0.01171875
y: -0.0390625
z: -0.0078125
range: 0.0435769706964
velocity: 0.0
doppler_bin: 8
bearing: -73.3007583618
intensity: 30.6445808411
---
header: 
  seq: 1493870
  stamp: 
    secs: 1561865809
    nsecs: 589130538
  frame_id: "ti_mmwave"
point_id: 1
x: 0.017578125
y: -0.080078125
z: -0.0078125
range: 0.0871539413929
velocity: 0.0
doppler_bin: 8
bearing: -77.6192398071
intensity: 31.9089164734
---
header: 
  seq: 1493871
  stamp: 
    secs: 1561865809
    nsecs: 589152058
  frame_id: "ti_mmwave"
point_id: 2
x: 0.029296875
y: -0.119140625
z: -0.005859375
range: 0.130730912089
velocity: 0.0
doppler_bin: 8
bearing: -76.1849746704
intensity: 30.1494026184
---
header: 
  seq: 1493872
  stamp: 
    secs: 1561865809
    nsecs: 589161801
  frame_id: "ti_mmwave"
point_id: 3
x: 0.056640625
y: -0.154296875
z: 0.005859375
range: 0.174307882786
velocity: 0.0
doppler_bin: 8
bearing: -69.8423843384
intensity: 25.4654273987
---
header: 
  seq: 1493873
  stamp: 
    secs: 1561865809
    nsecs: 589183014
  frame_id: "ti_mmwave"
point_id: 4
x: 0.119140625
y: -0.080078125
z: 1.259765625
range: 1.35088610649
velocity: 0.0
doppler_bin: 8
bearing: -33.9062767029
intensity: 23.1175384521
---
header: 
  seq: 1493874
  stamp: 
    secs: 1561865809
    nsecs: 589200754
  frame_id: "ti_mmwave"
point_id: 6
x: 0.4453125
y: -0.083984375
z: -1.271484375
range: 1.43804001808
velocity: 0.0
doppler_bin: 8
bearing: -10.6803331375
intensity: 23.0749607086
---
header: 
  seq: 1493875
  stamp: 
    secs: 1561865809
    nsecs: 589271200
  frame_id: "ti_mmwave"
point_id: 7
x: 0.576171875
y: -0.04296875
z: -1.265625
range: 1.48161697388
velocity: 0.0
doppler_bin: 8
bearing: -4.2650103569
intensity: 21.6731739044
---
header: 
  seq: 1493876
  stamp: 
    secs: 1561865809
    nsecs: 589287431
  frame_id: "ti_mmwave"
point_id: 8
x: 2.064453125
y: -0.0
z: -0.294921875
range: 2.22242546082
velocity: 0.0
doppler_bin: 8
bearing: -0.0
intensity: 27.3078231812
---
header: 
  seq: 1493877
  stamp: 
    secs: 1561865809
    nsecs: 589298418
  frame_id: "ti_mmwave"
point_id: 9
x: 2.611328125
y: -0.17578125
z: 1.0546875
range: 3.00681090355
velocity: 0.0
doppler_bin: 8
bearing: -3.85104894638
intensity: 29.0741138458
---
header: 
  seq: 1493878
  stamp: 
    secs: 1561865809
    nsecs: 589311264
  frame_id: "ti_mmwave"
point_id: 10
x: 2.68359375
y: -0.08984375
z: 0.9921875
range: 3.05038785934
velocity: 0.0
doppler_bin: 8
bearing: -1.91748321056
intensity: 32.2219619751
---
header: 
  seq: 1493879
  stamp: 
    secs: 1561865809
    nsecs: 589322996
  frame_id: "ti_mmwave"
point_id: 11
x: 2.716796875
y: -0.181640625
z: 1.0078125
range: 3.09396481514
velocity: 0.0
doppler_bin: 8
bearing: -3.82501006126
intensity: 31.205739975
---
header: 
  seq: 1493880
  stamp: 
    secs: 1561865809
    nsecs: 589335593
  frame_id: "ti_mmwave"
point_id: 12
x: 4.3984375
y: -0.142578125
z: 1.12109375
range: 4.83704376221
velocity: 0.0
doppler_bin: 8
bearing: -1.8566287756
intensity: 28.0002937317
---
header: 
  seq: 1493881
  stamp: 
    secs: 1561865809
    nsecs: 589346518
  frame_id: "ti_mmwave"
point_id: 13
x: 4.408203125
y: -0.142578125
z: 1.244140625
range: 4.88062095642
velocity: 0.0
doppler_bin: 8
bearing: -1.85251843929
intensity: 31.2450428009
---
header: 
  seq: 1493882
  stamp: 
    secs: 1561865809
    nsecs: 589360484
  frame_id: "ti_mmwave"
point_id: 14
x: 4.44140625
y: -0.14453125
z: 1.275390625
range: 4.9241976738
velocity: 0.0
doppler_bin: 8
bearing: -1.86384868622
intensity: 30.7990455627
---
header: 
  seq: 1493883
  stamp: 
    secs: 1561865809
    nsecs: 589372166
  frame_id: "ti_mmwave"
point_id: 15
x: 4.890625
y: -0.30859375
z: 0.701171875
range: 5.27281332016
velocity: 0.0
doppler_bin: 8
bearing: -3.61052203178
intensity: 30.9166698456
---
header: 
  seq: 1493884
  stamp: 
    secs: 1561865809
    nsecs: 589385223
  frame_id: "ti_mmwave"
point_id: 16
x: 4.951171875
y: -0.623046875
z: 0.095703125
range: 5.31639051437
velocity: 0.0
doppler_bin: 8
bearing: -7.17230129242
intensity: 29.6988162994
---
header: 
  seq: 1493885
  stamp: 
    secs: 1561865809
    nsecs: 589447526
  frame_id: "ti_mmwave"
point_id: 17
x: 0.009765625
y: 0.03125
z: 0.025390625
range: 0.0435769706964
velocity: 0.0
doppler_bin: 8
bearing: 72.6459732056
intensity: 29.3043956757
---
header: 
  seq: 1493886
  stamp: 
    secs: 1561865809
    nsecs: 589464284
  frame_id: "ti_mmwave"
point_id: 18
x: 0.041015625
y: -0.033203125
z: 0.0625
range: 0.0871539413929
velocity: 0.0
doppler_bin: 8
bearing: -38.9909973145
intensity: 30.0902576447
---
header: 
  seq: 1493887
  stamp: 
    secs: 1561865809
    nsecs: 589476231
  frame_id: "ti_mmwave"
point_id: 19
x: 0.046875
y: -0.046875
z: 0.103515625
range: 0.130730912089
velocity: 0.0
doppler_bin: 8
bearing: -45.0
intensity: 28.9817657471
---
header: 
  seq: 1493888
  stamp: 
    secs: 1561865809
    nsecs: 647453852
  frame_id: "ti_mmwave"
point_id: 0
x: 0.01171875
y: -0.0390625
z: -0.0078125
range: 0.0435769706964
velocity: 0.0
doppler_bin: 8
bearing: -73.3007583618
intensity: 30.6445808411
---
header: 
  seq: 1493889
  stamp: 
    secs: 1561865809
    nsecs: 647528425
  frame_id: "ti_mmwave"
point_id: 1
x: 0.017578125
y: -0.080078125
z: -0.0078125
range: 0.0871539413929
velocity: 0.0
doppler_bin: 8
bearing: -77.6192398071
intensity: 31.9033164978
---
header: 
  seq: 1493890
  stamp: 
    secs: 1561865809
    nsecs: 647544411
  frame_id: "ti_mmwave"
point_id: 2
x: 0.029296875
y: -0.119140625
z: -0.005859375
range: 0.130730912089
velocity: 0.0
doppler_bin: 8
bearing: -76.1849746704
intensity: 30.141002655
---
header: 
  seq: 1493891
  stamp: 
    secs: 1561865809
    nsecs: 647559454
  frame_id: "ti_mmwave"
point_id: 3
x: 0.056640625
y: -0.154296875
z: 0.005859375
range: 0.174307882786
velocity: 0.0
doppler_bin: 8
bearing: -69.8423843384
intensity: 25.4530715942
---
header: 
  seq: 1493892
  stamp: 
    secs: 1561865809
    nsecs: 647634456
  frame_id: "ti_mmwave"
point_id: 4
x: 0.123046875
y: -0.080078125
z: 1.259765625
range: 1.35088610649
velocity: 0.0
doppler_bin: 8
bearing: -33.0558242798
intensity: 23.1175384521
---
header: 
  seq: 1493893
  stamp: 
    secs: 1561865809
    nsecs: 647648463
  frame_id: "ti_mmwave"
point_id: 5
x: 0.037109375
y: -0.08203125
z: -1.306640625
range: 1.39446306229
velocity: 0.0
doppler_bin: 8
bearing: -65.6589126587
intensity: 24.6239795685
---
header: 
  seq: 1493894
  stamp: 
    secs: 1561865809
    nsecs: 647659460
  frame_id: "ti_mmwave"
point_id: 6
x: 0.42578125
y: -0.083984375
z: -1.27734375
range: 1.43804001808
velocity: 0.0
doppler_bin: 8
bearing: -11.1582231522
intensity: 23.0749607086
---
header: 
  seq: 1493895
  stamp: 
    secs: 1561865809
    nsecs: 647670248
  frame_id: "ti_mmwave"
point_id: 7
x: 0.5625
y: -0.04296875
z: -1.271484375
range: 1.48161697388
velocity: 0.0
doppler_bin: 8
bearing: -4.36827754974
intensity: 21.6731739044
---
header: 
  seq: 1493896
  stamp: 
    secs: 1561865809
    nsecs: 647680939
  frame_id: "ti_mmwave"
point_id: 8
x: 2.5703125
y: -0.17578125
z: 1.15234375
range: 3.00681090355
velocity: 0.0
doppler_bin: 8
bearing: -3.91231274605
intensity: 29.0579586029
---
header: 
  seq: 1493897
  stamp: 
    secs: 1561865809
    nsecs: 647691914
  frame_id: "ti_mmwave"
point_id: 9
x: 2.642578125
y: -0.1796875
z: 1.08984375
range: 3.05038785934
velocity: 0.0
doppler_bin: 8
bearing: -3.88995575905
intensity: 32.1748390198
---
header: 
  seq: 1493898
  stamp: 
    secs: 1561865809
    nsecs: 647705774
  frame_id: "ti_mmwave"
point_id: 10
x: 2.720703125
y: -0.181640625
z: 1.0
range: 3.09396481514
velocity: 0.0
doppler_bin: 8
bearing: -3.81953430176
intensity: 31.1494445801
---
header: 
  seq: 1493899
  stamp: 
    secs: 1561865809
    nsecs: 647716777
  frame_id: "ti_mmwave"
point_id: 11
x: 4.41015625
y: -0.142578125
z: 1.236328125
range: 4.88062095642
velocity: 0.0
doppler_bin: 8
bearing: -1.85169863701
intensity: 31.2319812775
---
header: 
  seq: 1493900
  stamp: 
    secs: 1561865809
    nsecs: 647730914
  frame_id: "ti_mmwave"
point_id: 12
x: 4.4453125
y: -0.14453125
z: 1.259765625
range: 4.9241976738
velocity: 0.0
doppler_bin: 8
bearing: -1.86221218109
intensity: 30.7773113251
---
header: 
  seq: 1493901
  stamp: 
    secs: 1561865809
    nsecs: 647740437
  frame_id: "ti_mmwave"
point_id: 13
x: 4.900390625
y: -0.30859375
z: 0.630859375
range: 5.27281332016
velocity: 0.0
doppler_bin: 8
bearing: -3.60334610939
intensity: 30.5192394257
---
header: 
  seq: 1493902
  stamp: 
    secs: 1561865809
    nsecs: 647760960
  frame_id: "ti_mmwave"
point_id: 14
x: 4.951171875
y: -0.623046875
z: -0.021484375
range: 5.31639051437
velocity: 0.0
doppler_bin: 8
bearing: -7.17230129242
intensity: 29.4448261261
---
header: 
  seq: 1493903
  stamp: 
    secs: 1561865809
    nsecs: 647779960
  frame_id: "ti_mmwave"
point_id: 15
x: 0.009765625
y: 0.03125
z: 0.025390625
range: 0.0435769706964
velocity: 0.0
doppler_bin: 8
bearing: 72.6459732056
intensity: 29.2992954254
---
header: 
  seq: 1493904
  stamp: 
    secs: 1561865809
    nsecs: 647842389
  frame_id: "ti_mmwave"
point_id: 16
x: 0.041015625
y: -0.033203125
z: 0.0625
range: 0.0871539413929
velocity: 0.0
doppler_bin: 8
bearing: -38.9909973145
intensity: 30.0902576447
---
header: 
  seq: 1493905
  stamp: 
    secs: 1561865809
    nsecs: 647859515
  frame_id: "ti_mmwave"
point_id: 17
x: 0.044921875
y: -0.046875
z: 0.103515625
range: 0.130730912089
velocity: 0.0
doppler_bin: 8
bearing: -46.218875885
intensity: 28.9927310944
---
header: 
  seq: 1493906
  stamp: 
    secs: 1561865809
    nsecs: 648989442
  frame_id: "ti_mmwave"
point_id: 0
x: 0.01171875
y: -0.0390625
z: -0.0078125
range: 0.0435769706964
velocity: 0.0
doppler_bin: 8
bearing: -73.3007583618
intensity: 30.6370849609
---
header: 
  seq: 1493907
  stamp: 
    secs: 1561865809
    nsecs: 649047290
  frame_id: "ti_mmwave"
point_id: 1
x: 0.017578125
y: -0.080078125
z: -0.0078125
range: 0.0871539413929
velocity: 0.0
doppler_bin: 8
bearing: -77.6192398071
intensity: 31.9005146027
---
header: 
  seq: 1493908
  stamp: 
    secs: 1561865809
    nsecs: 649065062
  frame_id: "ti_mmwave"
point_id: 2
x: 0.029296875
y: -0.119140625
z: -0.005859375
range: 0.130730912089
velocity: 0.0
doppler_bin: 8
bearing: -76.1849746704
intensity: 30.1367969513
---
header: 
  seq: 1493909
  stamp: 
    secs: 1561865809
    nsecs: 649080608
  frame_id: "ti_mmwave"
point_id: 3
x: 0.056640625
y: -0.154296875
z: 0.005859375
range: 0.174307882786
velocity: 0.0
doppler_bin: 8
bearing: -69.8423843384
intensity: 25.4406795502
---
header: 
  seq: 1493910
  stamp: 
    secs: 1561865809
    nsecs: 649094370
  frame_id: "ti_mmwave"
point_id: 4
x: 0.154296875
y: -0.080078125
z: 1.255859375
range: 1.35088610649
velocity: 0.0
doppler_bin: 8
bearing: -27.4287414551
intensity: 23.1175384521
---
header: 
  seq: 1493911
  stamp: 
    secs: 1561865809
    nsecs: 649111194
  frame_id: "ti_mmwave"
point_id: 6
x: 0.453125
y: -0.083984375
z: -1.26953125
range: 1.43804001808
velocity: 0.0
doppler_bin: 8
bearing: -10.5003204346
intensity: 23.0749607086
---
header: 
  seq: 1493912
  stamp: 
    secs: 1561865809
    nsecs: 649124682
  frame_id: "ti_mmwave"
point_id: 7
x: 0.58984375
y: -0.04296875
z: -1.2578125
range: 1.48161697388
velocity: 0.0
doppler_bin: 8
bearing: -4.16650438309
intensity: 21.6731739044
---
header: 
  seq: 1493913
  stamp: 
    secs: 1561865809
    nsecs: 649137806
  frame_id: "ti_mmwave"
point_id: 8
x: 2.029296875
y: -0.064453125
z: -0.25390625
range: 2.17884850502
velocity: 0.0
doppler_bin: 8
bearing: -1.81917738914
intensity: 27.8031730652
---
header: 
  seq: 1493914
  stamp: 
    secs: 1561865809
    nsecs: 649151290
  frame_id: "ti_mmwave"
point_id: 9
x: 2.076171875
y: -0.064453125
z: -0.193359375
range: 2.22242546082
velocity: 0.0
doppler_bin: 8
bearing: -1.77813148499
intensity: 28.7794704437
---
header: 
  seq: 1493915
  stamp: 
    secs: 1561865809
    nsecs: 649226199
  frame_id: "ti_mmwave"
point_id: 10
x: 2.125
y: -0.06640625
z: -0.046875
range: 2.26600241661
velocity: 0.0
doppler_bin: 8
bearing: -1.7899106741
intensity: 27.8604125977
---
header: 
  seq: 1493916
  stamp: 
    secs: 1561865809
    nsecs: 649244311
  frame_id: "ti_mmwave"
point_id: 11
x: 2.626953125
y: -0.17578125
z: 1.015625
range: 3.00681090355
velocity: 0.0
doppler_bin: 8
bearing: -3.82821130753
intensity: 28.9209461212
---
header: 
  seq: 1493917
  stamp: 
    secs: 1561865809
    nsecs: 649257472
  frame_id: "ti_mmwave"
point_id: 12
x: 2.69921875
y: -0.08984375
z: 0.953125
range: 3.05038785934
velocity: 0.0
doppler_bin: 8
bearing: -1.90639162064
intensity: 32.1590194702
---
header: 
  seq: 1493918
  stamp: 
    secs: 1561865809
    nsecs: 649270704
  frame_id: "ti_mmwave"
point_id: 13
x: 2.775390625
y: -0.0
z: 0.853515625
range: 3.09396481514
velocity: 0.0
doppler_bin: 8
bearing: -0.0
intensity: 31.1092624664
---
header: 
  seq: 1493919
  stamp: 
    secs: 1561865809
    nsecs: 649283498
  frame_id: "ti_mmwave"
point_id: 14
x: 4.400390625
y: -0.142578125
z: 1.11328125
range: 4.83704376221
velocity: 0.0
doppler_bin: 8
bearing: -1.85580503941
intensity: 28.1023254395
---
header: 
  seq: 1493920
  stamp: 
    secs: 1561865809
    nsecs: 649296239
  frame_id: "ti_mmwave"
point_id: 15
x: 4.41015625
y: -0.142578125
z: 1.23046875
range: 4.88062095642
velocity: 0.0
doppler_bin: 8
bearing: -1.85169863701
intensity: 31.3672065735
---
header: 
  seq: 1493921
  stamp: 
    secs: 1561865809
    nsecs: 649329561
  frame_id: "ti_mmwave"
point_id: 16
x: 4.443359375
y: -0.14453125
z: 1.265625
range: 4.9241976738
velocity: 0.0
doppler_bin: 8
bearing: -1.86303019524
intensity: 30.9131507874
---
header: 
  seq: 1493922
  stamp: 
    secs: 1561865809
    nsecs: 649351290
  frame_id: "ti_mmwave"
point_id: 17
x: 4.888671875
y: -0.30859375
z: 0.705078125
range: 5.27281332016
velocity: 0.0
doppler_bin: 8
bearing: -3.61196112633
intensity: 30.6069774628
---
header: 
  seq: 1493923
  stamp: 
    secs: 1561865809
    nsecs: 649376998
  frame_id: "ti_mmwave"
point_id: 18
x: 4.951171875
y: -0.623046875
z: 0.087890625
range: 5.31639051437
velocity: 0.0
doppler_bin: 8
bearing: -7.17230129242
intensity: 29.5375976562
---
header: 
  seq: 1493924
  stamp: 
    secs: 1561865809
    nsecs: 649515937
  frame_id: "ti_mmwave"
point_id: 19
x: 0.009765625
y: 0.03125
z: 0.025390625
range: 0.0435769706964
velocity: 0.0
doppler_bin: 8
bearing: 72.6459732056
intensity: 29.3043956757
---
header: 
  seq: 1493925
  stamp: 
    secs: 1561865809
    nsecs: 649546478
  frame_id: "ti_mmwave"
point_id: 20
x: 0.041015625
y: -0.033203125
z: 0.0625
range: 0.0871539413929
velocity: 0.0
doppler_bin: 8
bearing: -38.9909973145
intensity: 30.0902576447
---
header: 
  seq: 1493926
  stamp: 
    secs: 1561865809
    nsecs: 649560028
  frame_id: "ti_mmwave"
point_id: 21
x: 0.046875
y: -0.046875
z: 0.103515625
range: 0.130730912089
velocity: 0.0
doppler_bin: 8
bearing: -45.0
intensity: 28.9872512817
---
header: 
  seq: 1493927
  stamp: 
    secs: 1561865809
    nsecs: 649572199
  frame_id: "ti_mmwave"
point_id: 23
x: 2.736328125
y: -0.181640625
z: 0.955078125
range: 3.09396481514
velocity: 0.0
doppler_bin: 8
bearing: -3.79778838158
intensity: 31.095785141
---
header: 
  seq: 1493928
  stamp: 
    secs: 1561865809
    nsecs: 707446285
  frame_id: "ti_mmwave"
point_id: 0
x: 0.01171875
y: -0.0390625
z: -0.0078125
range: 0.0435769706964
velocity: 0.0
doppler_bin: 8
bearing: -73.3007583618
intensity: 30.6408348083
---
header: 
  seq: 1493929
  stamp: 
    secs: 1561865809
    nsecs: 707527179
  frame_id: "ti_mmwave"
point_id: 1
x: 0.017578125
y: -0.080078125
z: -0.0078125
range: 0.0871539413929
velocity: 0.0
doppler_bin: 8
bearing: -77.6192398071
intensity: 31.9033164978
---
header: 
  seq: 1493930
  stamp: 
    secs: 1561865809
    nsecs: 707538358
  frame_id: "ti_mmwave"
point_id: 2
x: 0.029296875
y: -0.119140625
z: -0.005859375
range: 0.130730912089
velocity: 0.0
doppler_bin: 8
bearing: -76.1849746704
intensity: 30.141002655
---
header: 
  seq: 1493931
  stamp: 
    secs: 1561865809
    nsecs: 707546816
  frame_id: "ti_mmwave"
point_id: 3
x: 0.056640625
y: -0.154296875
z: 0.0078125
range: 0.174307882786
velocity: 0.0
doppler_bin: 8
bearing: -69.8423843384
intensity: 25.4530715942
---
header: 
  seq: 1493932
  stamp: 
    secs: 1561865809
    nsecs: 707557754
  frame_id: "ti_mmwave"
point_id: 4
x: 0.130859375
y: -0.080078125
z: 1.259765625
range: 1.35088610649
velocity: 0.0
doppler_bin: 8
bearing: -31.4641437531
intensity: 23.1175384521
---
header: 
  seq: 1493933
  stamp: 
    secs: 1561865809
    nsecs: 707567745
  frame_id: "ti_mmwave"
point_id: 6
x: 0.416015625
y: -0.083984375
z: -1.28125
range: 1.43804001808
velocity: 0.0
doppler_bin: 8
bearing: -11.4133548737
intensity: 23.0963020325
---
header: 
  seq: 1493934
  stamp: 
    secs: 1561865809
    nsecs: 707576075
  frame_id: "ti_mmwave"
point_id: 7
x: 2.08203125
y: 0.064453125
z: -0.119140625
range: 2.22242546082
velocity: 0.0
doppler_bin: 8
bearing: 1.77313041687
intensity: 27.3798732758
---
header: 
  seq: 1493935
  stamp: 
    secs: 1561865809
    nsecs: 707584441
  frame_id: "ti_mmwave"
point_id: 8
x: 2.126953125
y: -0.0
z: -0.05859375
range: 2.26600241661
velocity: 0.0
doppler_bin: 8
bearing: -0.0
intensity: 28.3758850098
---
header: 
  seq: 1493936
  stamp: 
    secs: 1561865809
    nsecs: 707594312
  frame_id: "ti_mmwave"
point_id: 9
x: 2.16796875
y: -0.0
z: -0.017578125
range: 2.30957937241
velocity: 0.0
doppler_bin: 8
bearing: -0.0
intensity: 27.3399925232
---
header: 
  seq: 1493937
  stamp: 
    secs: 1561865809
    nsecs: 707603158
  frame_id: "ti_mmwave"
point_id: 10
x: 2.576171875
y: -0.17578125
z: 1.142578125
range: 3.00681090355
velocity: 0.0
doppler_bin: 8
bearing: -3.90344190598
intensity: 29.0471553802
---
header: 
  seq: 1493938
  stamp: 
    secs: 1561865809
    nsecs: 707611207
  frame_id: "ti_mmwave"
point_id: 11
x: 2.671875
y: -0.08984375
z: 1.025390625
range: 3.05038785934
velocity: 0.0
doppler_bin: 8
bearing: -1.92588663101
intensity: 32.1906051636
---
header: 
  seq: 1493939
  stamp: 
    secs: 1561865809
    nsecs: 707619192
  frame_id: "ti_mmwave"
point_id: 12
x: 2.716796875
y: -0.181640625
z: 1.009765625
range: 3.09396481514
velocity: 0.0
doppler_bin: 8
bearing: -3.82501006126
intensity: 31.1693973541
---
header: 
  seq: 1493940
  stamp: 
    secs: 1561865809
    nsecs: 707629136
  frame_id: "ti_mmwave"
point_id: 13
x: 4.404296875
y: -0.142578125
z: 1.09765625
range: 4.83704376221
velocity: 0.0
doppler_bin: 8
bearing: -1.85416030884
intensity: 28.1690387726
---
header: 
  seq: 1493941
  stamp: 
    secs: 1561865809
    nsecs: 707637556
  frame_id: "ti_mmwave"
point_id: 14
x: 4.4140625
y: -0.142578125
z: 1.22265625
range: 4.88062095642
velocity: 0.0
doppler_bin: 8
bearing: -1.850061059
intensity: 31.4395103455
---
header: 
  seq: 1493942
  stamp: 
    secs: 1561865809
    nsecs: 707646469
  frame_id: "ti_mmwave"
point_id: 15
x: 4.443359375
y: -0.14453125
z: 1.263671875
range: 4.9241976738
velocity: 0.0
doppler_bin: 8
bearing: -1.86303019524
intensity: 30.9829750061
---
header: 
  seq: 1493943
  stamp: 
    secs: 1561865809
    nsecs: 707658804
  frame_id: "ti_mmwave"
point_id: 16
x: 0.009765625
y: 0.03125
z: 0.025390625
range: 0.0435769706964
velocity: 0.0
doppler_bin: 8
bearing: 72.6459732056
intensity: 29.2992954254
---
header: 
  seq: 1493944
  stamp: 
    secs: 1561865809
    nsecs: 707844292
  frame_id: "ti_mmwave"
point_id: 17
x: 0.041015625
y: -0.033203125
z: 0.0625
range: 0.0871539413929
velocity: 0.0
doppler_bin: 8
bearing: -38.9909973145
intensity: 30.0902576447
---
header: 
  seq: 1493945
  stamp: 
    secs: 1561865809
    nsecs: 707864967
  frame_id: "ti_mmwave"
point_id: 18
x: 0.044921875
y: -0.046875
z: 0.103515625
range: 0.130730912089
velocity: 0.0
doppler_bin: 8
bearing: -46.218875885
intensity: 28.9872512817
---
header: 
  seq: 1493946
  stamp: 
    secs: 1561865809
    nsecs: 708905924
  frame_id: "ti_mmwave"
point_id: 0
x: 0.01171875
y: -0.0390625
z: -0.0078125
range: 0.0435769706964
velocity: 0.0
doppler_bin: 8
bearing: -73.3007583618
intensity: 30.6445808411
---
header: 
  seq: 1493947
  stamp: 
    secs: 1561865809
    nsecs: 708971491
  frame_id: "ti_mmwave"
point_id: 1
x: 0.017578125
y: -0.080078125
z: -0.0078125
range: 0.0871539413929
velocity: 0.0
doppler_bin: 8
bearing: -77.6192398071
intensity: 31.9033164978
---
header: 
  seq: 1493948
  stamp: 
    secs: 1561865809
    nsecs: 708989866
  frame_id: "ti_mmwave"
point_id: 2
x: 0.029296875
y: -0.119140625
z: -0.005859375
range: 0.130730912089
velocity: 0.0
doppler_bin: 8
