header: 
  seq: 1364994
  stamp: 
    secs: 1561683417
    nsecs: 203544548
  frame_id: "ti_mmwave"
point_id: 0
x: 0.01171875
y: -0.0390625
z: -0.0078125
range: 0.0435769706964
velocity: 0.0
doppler_bin: 8
bearing: -73.3007583618
intensity: 30.7445068359
---
header: 
  seq: 1364995
  stamp: 
    secs: 1561683417
    nsecs: 203628046
  frame_id: "ti_mmwave"
point_id: 1
x: 0.017578125
y: -0.080078125
z: -0.0078125
range: 0.0871539413929
velocity: 0.0
doppler_bin: 8
bearing: -77.6192398071
intensity: 31.9783172607
---
header: 
  seq: 1364996
  stamp: 
    secs: 1561683417
    nsecs: 203649063
  frame_id: "ti_mmwave"
point_id: 2
x: 0.029296875
y: -0.119140625
z: -0.005859375
range: 0.130730912089
velocity: 0.0
doppler_bin: 8
bearing: -76.1849746704
intensity: 30.2284069061
---
header: 
  seq: 1364997
  stamp: 
    secs: 1561683417
    nsecs: 203660382
  frame_id: "ti_mmwave"
point_id: 3
x: 0.056640625
y: -0.154296875
z: 0.005859375
range: 0.174307882786
velocity: 0.0
doppler_bin: 8
bearing: -69.8423843384
intensity: 25.5144996643
---
header: 
  seq: 1364998
  stamp: 
    secs: 1561683417
    nsecs: 203672136
  frame_id: "ti_mmwave"
point_id: 4
x: 0.333984375
y: -0.080078125
z: -1.220703125
range: 1.35088610649
velocity: 0.0
doppler_bin: 8
bearing: -13.4830598831
intensity: 21.9033164978
---
header: 
  seq: 1364999
  stamp: 
    secs: 1561683417
    nsecs: 203684382
  frame_id: "ti_mmwave"
point_id: 5
x: 0.400390625
y: -0.041015625
z: 1.24609375
range: 1.39446306229
velocity: 0.0
doppler_bin: 8
bearing: -5.84892129898
intensity: 23.1806335449
---
header: 
  seq: 1365000
  stamp: 
    secs: 1561683417
    nsecs: 203695682
  frame_id: "ti_mmwave"
point_id: 6
x: 1.376953125
y: 0.42578125
z: -0.46484375
range: 1.61234796047
velocity: 0.0
doppler_bin: 8
bearing: 17.1826477051
intensity: 25.15873909
---
header: 
  seq: 1365001
  stamp: 
    secs: 1561683417
    nsecs: 203707630
  frame_id: "ti_mmwave"
point_id: 7
x: 1.1015625
y: 0.630859375
z: -0.896484375
range: 1.65592491627
velocity: 0.0
doppler_bin: 8
bearing: 29.7995510101
intensity: 26.1384181976
---
header: 
  seq: 1365002
  stamp: 
    secs: 1561683417
    nsecs: 203719125
  frame_id: "ti_mmwave"
point_id: 8
x: 2.556640625
y: -0.263671875
z: 1.16796875
range: 3.00681090355
velocity: 0.0
doppler_bin: 8
bearing: -5.88822031021
intensity: 29.4200801849
---
header: 
  seq: 1365003
  stamp: 
    secs: 1561683417
    nsecs: 203746092
  frame_id: "ti_mmwave"
point_id: 9
x: 2.60546875
y: -0.267578125
z: 1.15625
range: 3.05038785934
velocity: 0.0
doppler_bin: 8
bearing: -5.86364221573
intensity: 32.7829627991
---
header: 
  seq: 1365004
  stamp: 
    secs: 1561683417
    nsecs: 203762952
  frame_id: "ti_mmwave"
point_id: 10
x: 2.658203125
y: -0.271484375
z: 1.140625
range: 3.09396481514
velocity: 0.0
doppler_bin: 8
bearing: -5.83144378662
intensity: 31.9865703583
---
header: 
  seq: 1365005
  stamp: 
    secs: 1561683417
    nsecs: 203845708
  frame_id: "ti_mmwave"
point_id: 11
x: 4.4140625
y: -0.287109375
z: 1.19140625
range: 4.88062095642
velocity: 0.0
doppler_bin: 8
bearing: -3.72151875496
intensity: 30.8134727478
---
header: 
  seq: 1365006
  stamp: 
    secs: 1561683417
    nsecs: 203862166
  frame_id: "ti_mmwave"
point_id: 12
x: 4.462890625
y: -0.2890625
z: 1.166015625
range: 4.9241976738
velocity: 0.0
doppler_bin: 8
bearing: -3.70588517189
intensity: 30.5307846069
---
header: 
  seq: 1365007
  stamp: 
    secs: 1561683417
    nsecs: 203874266
  frame_id: "ti_mmwave"
point_id: 13
x: 4.73828125
y: -0.44921875
z: -0.5
range: 5.09850549698
velocity: 0.0
doppler_bin: 8
bearing: -5.4158115387
intensity: 33.1534042358
---
header: 
  seq: 1365008
  stamp: 
    secs: 1561683417
    nsecs: 203887073
  frame_id: "ti_mmwave"
point_id: 14
x: 4.7890625
y: -0.453125
z: -0.3984375
range: 5.14208269119
velocity: 0.0
doppler_bin: 8
bearing: -5.40504264832
intensity: 33.7493171692
---
header: 
  seq: 1365009
  stamp: 
    secs: 1561683417
    nsecs: 203898985
  frame_id: "ti_mmwave"
point_id: 15
x: 4.845703125
y: -0.45703125
z: -0.126953125
range: 5.18565940857
velocity: 0.0
doppler_bin: 8
bearing: -5.38801622391
intensity: 30.6032009125
---
header: 
  seq: 1365010
  stamp: 
    secs: 1561683417
    nsecs: 203910842
  frame_id: "ti_mmwave"
point_id: 16
x: 4.83203125
y: -0.4609375
z: 0.73828125
range: 5.22923660278
velocity: 0.0
doppler_bin: 8
bearing: -5.44907474518
intensity: 29.986951828
---
header: 
  seq: 1365011
  stamp: 
    secs: 1561683417
    nsecs: 203924170
  frame_id: "ti_mmwave"
point_id: 17
x: 4.8828125
y: -0.30859375
z: 0.744140625
range: 5.27281332016
velocity: 0.0
doppler_bin: 8
bearing: -3.61628341675
intensity: 30.8849048615
---
header: 
  seq: 1365012
  stamp: 
    secs: 1561683417
    nsecs: 203935833
  frame_id: "ti_mmwave"
point_id: 18
x: 1.33984375
y: 0.16796875
z: -0.03125
range: 1.43804001808
velocity: 0.614668667316
doppler_bin: 9
bearing: 7.14557504654
intensity: 22.7646179199
---
header: 
  seq: 1365013
  stamp: 
    secs: 1561683417
    nsecs: 203947979
  frame_id: "ti_mmwave"
point_id: 19
x: 1.36328125
y: 0.216796875
z: -0.171875
range: 1.48161697388
velocity: 0.614668667316
doppler_bin: 9
bearing: 9.03584384918
intensity: 26.9108142853
---
header: 
  seq: 1365014
  stamp: 
    secs: 1561683417
    nsecs: 203959142
  frame_id: "ti_mmwave"
point_id: 20
x: 1.40234375
y: 0.1796875
z: -0.224609375
range: 1.52519392967
velocity: 0.614668667316
doppler_bin: 9
bearing: 7.3017334938
intensity: 27.0243053436
---
header: 
  seq: 1365015
  stamp: 
    secs: 1561683417
    nsecs: 203971896
  frame_id: "ti_mmwave"
point_id: 21
x: 1.42578125
y: 0.23046875
z: -0.283203125
range: 1.56877088547
velocity: 0.614668667316
doppler_bin: 9
bearing: 9.18208694458
intensity: 23.5218257904
---
header: 
  seq: 1365016
  stamp: 
    secs: 1561683417
    nsecs: 203987058
  frame_id: "ti_mmwave"
point_id: 23
x: 0.041015625
y: -0.033203125
z: 0.0625
range: 0.0871539413929
velocity: 0.0
doppler_bin: 8
bearing: -38.9909973145
intensity: 30.1452045441
---
header: 
  seq: 1365017
  stamp: 
    secs: 1561683417
    nsecs: 203999177
  frame_id: "ti_mmwave"
point_id: 24
x: 0.044921875
y: -0.046875
z: 0.103515625
range: 0.130730912089
velocity: 0.0
doppler_bin: 8
bearing: -46.218875885
intensity: 29.0308990479
---
header: 
  seq: 1365018
  stamp: 
    secs: 1561683417
    nsecs: 204014553
  frame_id: "ti_mmwave"
point_id: 26
x: 1.111328125
y: -0.515625
z: 0.326171875
range: 1.35088610649
velocity: 0.0
doppler_bin: 8
bearing: -24.8899745941
intensity: 18.9762706757
---
header: 
  seq: 1365019
  stamp: 
    secs: 1561683417
    nsecs: 204027795
  frame_id: "ti_mmwave"
point_id: 27
x: 0.591796875
y: -0.236328125
z: -1.373046875
range: 1.61234796047
velocity: 0.0
doppler_bin: 8
bearing: -21.7688007355
intensity: 22.4303798676
---
header: 
  seq: 1365020
  stamp: 
    secs: 1561683417
    nsecs: 204040300
  frame_id: "ti_mmwave"
point_id: 28
x: 0.716796875
y: 1.21484375
z: -0.654296875
range: 1.65592491627
velocity: 0.0
doppler_bin: 8
bearing: 59.458026886
intensity: 23.7657699585
---
header: 
  seq: 1365021
  stamp: 
    secs: 1561683417
    nsecs: 204052704
  frame_id: "ti_mmwave"
point_id: 29
x: 2.8359375
y: -2.00390625
z: -2.98828125
range: 4.88062095642
velocity: 0.0
doppler_bin: 8
bearing: -35.2454681396
intensity: 27.8318862915
---
header: 
  seq: 1365022
  stamp: 
    secs: 1561683417
    nsecs: 204064772
  frame_id: "ti_mmwave"
point_id: 30
x: 2.68359375
y: -2.021484375
z: -3.173828125
range: 4.9241976738
velocity: 0.0
doppler_bin: 8
bearing: -36.9898033142
intensity: 27.5511226654
---
header: 
  seq: 1365023
  stamp: 
    secs: 1561683417
    nsecs: 205036262
  frame_id: "ti_mmwave"
point_id: 0
x: 0.01171875
y: -0.0390625
z: -0.0078125
range: 0.0435769706964
velocity: 0.0
doppler_bin: 8
bearing: -73.3007583618
intensity: 30.7445068359
---
header: 
  seq: 1365024
  stamp: 
    secs: 1561683417
    nsecs: 205106100
  frame_id: "ti_mmwave"
point_id: 1
x: 0.017578125
y: -0.080078125
z: -0.0078125
range: 0.0871539413929
velocity: 0.0
doppler_bin: 8
bearing: -77.6192398071
intensity: 31.9810695648
---
header: 
  seq: 1365025
  stamp: 
    secs: 1561683417
    nsecs: 205120333
  frame_id: "ti_mmwave"
point_id: 2
x: 0.041015625
y: -0.115234375
z: -0.0078125
range: 0.130730912089
velocity: 0.0
doppler_bin: 8
bearing: -70.4077224731
intensity: 30.2284069061
---
header: 
  seq: 1365026
  stamp: 
    secs: 1561683417
    nsecs: 205129038
  frame_id: "ti_mmwave"
point_id: 3
x: 0.056640625
y: -0.154296875
z: 0.005859375
range: 0.174307882786
velocity: 0.0
doppler_bin: 8
bearing: -69.8423843384
intensity: 25.5022830963
---
header: 
  seq: 1365027
  stamp: 
    secs: 1561683417
    nsecs: 205140401
  frame_id: "ti_mmwave"
point_id: 4
x: 0.369140625
y: -0.080078125
z: -1.2109375
range: 1.35088610649
velocity: 0.0
doppler_bin: 8
bearing: -12.2396001816
intensity: 21.9312458038
---
header: 
  seq: 1365028
  stamp: 
    secs: 1561683417
    nsecs: 205157553
  frame_id: "ti_mmwave"
point_id: 5
x: 0.2265625
y: -0.041015625
z: 1.2890625
range: 1.39446306229
velocity: 0.0
doppler_bin: 8
bearing: -10.2613735199
intensity: 23.2837963104
---
header: 
  seq: 1365029
  stamp: 
    secs: 1561683417
    nsecs: 205754075
  frame_id: "ti_mmwave"
point_id: 6
x: 0.87109375
y: 0.04296875
z: -1.029296875
range: 1.43804001808
velocity: 0.0
doppler_bin: 8
bearing: 2.82396030426
intensity: 22.5767860413
---
header: 
  seq: 1365030
  stamp: 
    secs: 1561683417
    nsecs: 205770396
  frame_id: "ti_mmwave"
point_id: 7
x: 1.50390625
y: 0.33984375
z: 0.193359375
range: 1.65592491627
velocity: 0.0
doppler_bin: 8
bearing: 12.7334909439
intensity: 26.0097293854
---
header: 
  seq: 1365031
  stamp: 
    secs: 1561683417
    nsecs: 205781154
  frame_id: "ti_mmwave"
point_id: 8
x: 2.548828125
y: -0.263671875
z: 1.181640625
range: 3.00681090355
velocity: 0.0
doppler_bin: 8
bearing: -5.90614128113
intensity: 29.4890174866
---
header: 
  seq: 1365032
  stamp: 
    secs: 1561683417
    nsecs: 205790507
  frame_id: "ti_mmwave"
point_id: 9
x: 2.6015625
y: -0.267578125
z: 1.1640625
range: 3.05038785934
velocity: 0.0
doppler_bin: 8
bearing: -5.87238502502
intensity: 32.8330116272
---
header: 
  seq: 1365033
  stamp: 
    secs: 1561683417
    nsecs: 205808110
  frame_id: "ti_mmwave"
point_id: 10
x: 2.654296875
y: -0.181640625
z: 1.1640625
range: 3.09396481514
velocity: 0.0
doppler_bin: 8
bearing: -3.91479969025
intensity: 32.0574569702
---
header: 
  seq: 1365034
  stamp: 
    secs: 1561683417
    nsecs: 205823866
  frame_id: "ti_mmwave"
point_id: 11
x: 4.42578125
y: -0.287109375
z: 1.1484375
range: 4.88062095642
velocity: 0.0
doppler_bin: 8
bearing: -3.7116920948
intensity: 30.8350257874
---
header: 
  seq: 1365035
  stamp: 
    secs: 1561683417
    nsecs: 205840130
  frame_id: "ti_mmwave"
point_id: 12
x: 4.490234375
y: -0.2890625
z: 1.060546875
range: 4.9241976738
velocity: 0.0
doppler_bin: 8
bearing: -3.68338012695
intensity: 30.5422992706
---
header: 
  seq: 1365036
  stamp: 
    secs: 1561683417
    nsecs: 205857055
  frame_id: "ti_mmwave"
point_id: 13
x: 4.734375
y: -0.44921875
z: -0.533203125
range: 5.09850549698
velocity: 0.0
doppler_bin: 8
bearing: -5.42025327682
intensity: 33.0899085999
---
header: 
  seq: 1365037
  stamp: 
    secs: 1561683417
    nsecs: 205873072
  frame_id: "ti_mmwave"
point_id: 14
x: 4.791015625
y: -0.453125
z: -0.375
range: 5.14208269119
velocity: 0.0
doppler_bin: 8
bearing: -5.40285253525
intensity: 33.4927749634
---
header: 
  seq: 1365038
  stamp: 
    secs: 1561683417
    nsecs: 205888721
  frame_id: "ti_mmwave"
point_id: 15
x: 4.857421875
y: -0.3046875
z: 0.044921875
range: 5.18565940857
velocity: 0.0
doppler_bin: 8
bearing: -3.58924269676
intensity: 29.854265213
---
header: 
  seq: 1365039
  stamp: 
    secs: 1561683417
    nsecs: 205904652
  frame_id: "ti_mmwave"
point_id: 16
x: 4.775390625
y: -0.4609375
z: 1.037109375
range: 5.22923660278
velocity: 0.0
doppler_bin: 8
bearing: -5.51331043243
intensity: 29.7589111328
---
header: 
  seq: 1365040
  stamp: 
    secs: 1561683417
    nsecs: 205920781
  frame_id: "ti_mmwave"
point_id: 17
x: 4.869140625
y: -0.30859375
z: 0.828125
range: 5.27281332016
velocity: 0.0
doppler_bin: 8
bearing: -3.62641048431
intensity: 30.8564720154
---
header: 
  seq: 1365041
  stamp: 
    secs: 1561683417
    nsecs: 205937033
  frame_id: "ti_mmwave"
point_id: 18
x: 1.349609375
y: 0.173828125
z: -0.287109375
range: 1.48161697388
velocity: 0.614668667316
doppler_bin: 9
bearing: 7.33922433853
intensity: 25.5870857239
---
header: 
  seq: 1365042
  stamp: 
    secs: 1561683417
    nsecs: 205952958
  frame_id: "ti_mmwave"
point_id: 19
x: 1.3984375
y: 0.224609375
z: -0.216796875
range: 1.52519392967
velocity: 0.614668667316
doppler_bin: 9
bearing: 9.12460422516
intensity: 27.1096305847
---
header: 
  seq: 1365043
  stamp: 
    secs: 1561683417
    nsecs: 205969155
  frame_id: "ti_mmwave"
point_id: 20
x: 1.443359375
y: 0.275390625
z: -0.091796875
range: 1.56877088547
velocity: 0.614668667316
doppler_bin: 9
bearing: 10.8021097183
intensity: 26.875289917
---
header: 
  seq: 1365044
  stamp: 
    secs: 1561683417
    nsecs: 205985424
  frame_id: "ti_mmwave"
point_id: 21
x: 1.474609375
y: 0.33203125
z: 0.0625
range: 1.61234796047
velocity: 0.614668667316
doppler_bin: 9
bearing: 12.689412117
intensity: 26.839471817
---
header: 
  seq: 1365045
  stamp: 
    secs: 1561683417
    nsecs: 206003480
  frame_id: "ti_mmwave"
point_id: 23
x: 0.041015625
y: -0.033203125
z: 0.0625
range: 0.0871539413929
velocity: 0.0
doppler_bin: 8
bearing: -38.9909973145
intensity: 30.1494026184
---
header: 
  seq: 1365046
  stamp: 
    secs: 1561683417
    nsecs: 206017505
  frame_id: "ti_mmwave"
point_id: 24
x: 0.044921875
y: -0.046875
z: 0.103515625
range: 0.130730912089
velocity: 0.0
doppler_bin: 8
bearing: -46.218875885
intensity: 29.0363254547
---
header: 
  seq: 1365047
  stamp: 
    secs: 1561683417
    nsecs: 206035042
  frame_id: "ti_mmwave"
point_id: 26
x: 1.11328125
y: -0.515625
z: 0.318359375
range: 1.35088610649
velocity: 0.0
doppler_bin: 8
bearing: -24.8515853882
intensity: 19.0308990479
---
header: 
  seq: 1365048
  stamp: 
    secs: 1561683417
    nsecs: 263865302
  frame_id: "ti_mmwave"
point_id: 0
x: 0.01171875
y: -0.0390625
z: -0.0078125
range: 0.0435769706964
velocity: 0.0
doppler_bin: 8
bearing: -73.3007583618
intensity: 30.7445068359
---
header: 
  seq: 1365049
  stamp: 
    secs: 1561683417
    nsecs: 263955330
  frame_id: "ti_mmwave"
point_id: 1
x: 0.017578125
y: -0.080078125
z: -0.0078125
range: 0.0871539413929
velocity: 0.0
doppler_bin: 8
bearing: -77.6192398071
intensity: 31.9810695648
---
header: 
  seq: 1365050
  stamp: 
    secs: 1561683417
    nsecs: 263971260
  frame_id: "ti_mmwave"
point_id: 2
x: 0.029296875
y: -0.119140625
z: -0.005859375
range: 0.130730912089
velocity: 0.0
doppler_bin: 8
bearing: -76.1849746704
intensity: 30.2325248718
---
header: 
  seq: 1365051
  stamp: 
    secs: 1561683417
    nsecs: 263979443
  frame_id: "ti_mmwave"
point_id: 3
x: 0.056640625
y: -0.154296875
z: 0.005859375
range: 0.174307882786
velocity: 0.0
doppler_bin: 8
bearing: -69.8423843384
intensity: 25.5022830963
---
header: 
  seq: 1365052
  stamp: 
    secs: 1561683417
    nsecs: 263987688
  frame_id: "ti_mmwave"
point_id: 4
x: 0.33984375
y: -0.080078125
z: -1.21875
range: 1.35088610649
velocity: 0.0
doppler_bin: 8
bearing: -13.2588720322
intensity: 21.9033164978
---
header: 
  seq: 1365053
  stamp: 
    secs: 1561683417
    nsecs: 263995914
  frame_id: "ti_mmwave"
point_id: 5
x: 0.30078125
y: -0.041015625
z: 1.2734375
range: 1.39446306229
velocity: 0.0
doppler_bin: 8
bearing: -7.76516628265
intensity: 23.2428245544
---
header: 
  seq: 1365054
  stamp: 
    secs: 1561683417
    nsecs: 264004017
  frame_id: "ti_mmwave"
point_id: 6
x: 0.5859375
y: -0.0
z: 1.216796875
range: 1.43804001808
velocity: 0.0
doppler_bin: 8
bearing: -0.0
intensity: 22.5285301208
---
header: 
  seq: 1365055
  stamp: 
    secs: 1561683417
    nsecs: 264012274
  frame_id: "ti_mmwave"
point_id: 7
x: 1.482421875
y: 0.291015625
z: -0.3671875
range: 1.65592491627
velocity: 0.0
doppler_bin: 8
bearing: 11.1065511703
intensity: 25.9106464386
---
header: 
  seq: 1365056
  stamp: 
    secs: 1561683417
    nsecs: 264021344
  frame_id: "ti_mmwave"
point_id: 8
x: 2.541015625
y: -0.263671875
z: 1.201171875
range: 3.00681090355
velocity: 0.0
doppler_bin: 8
bearing: -5.92417097092
intensity: 29.4398880005
---
header: 
  seq: 1365057
  stamp: 
    secs: 1561683417
    nsecs: 264030643
  frame_id: "ti_mmwave"
point_id: 9
x: 2.6015625
y: -0.267578125
z: 1.1640625
range: 3.05038785934
velocity: 0.0
doppler_bin: 8
bearing: -5.87238502502
intensity: 32.8307495117
---
header: 
  seq: 1365058
  stamp: 
    secs: 1561683417
    nsecs: 264142094
  frame_id: "ti_mmwave"
point_id: 10
x: 2.66015625
y: -0.271484375
z: 1.134765625
range: 3.09396481514
velocity: 0.0
doppler_bin: 8
bearing: -5.82719182968
intensity: 32.0547485352
---
header: 
  seq: 1365059
  stamp: 
    secs: 1561683417
    nsecs: 264154293
  frame_id: "ti_mmwave"
point_id: 11
x: 4.40625
y: -0.287109375
z: 1.21875
range: 4.88062095642
velocity: 0.0
doppler_bin: 8
bearing: -3.72809815407
intensity: 30.8919830322
---
header: 
  seq: 1365060
  stamp: 
    secs: 1561683417
    nsecs: 264162155
  frame_id: "ti_mmwave"
point_id: 12
x: 4.462890625
y: -0.2890625
z: 1.169921875
range: 4.9241976738
velocity: 0.0
doppler_bin: 8
bearing: -3.70588517189
intensity: 30.6107540131
---
header: 
  seq: 1365061
  stamp: 
    secs: 1561683417
    nsecs: 264169971
  frame_id: "ti_mmwave"
point_id: 13
x: 4.73828125
y: -0.44921875
z: -0.501953125
range: 5.09850549698
velocity: 0.0
doppler_bin: 8
bearing: -5.4158115387
intensity: 33.0749588013
---
header: 
  seq: 1365062
  stamp: 
    secs: 1561683417
    nsecs: 264177339
  frame_id: "ti_mmwave"
point_id: 14
x: 4.794921875
y: -0.453125
z: -0.328125
range: 5.14208269119
velocity: 0.0
doppler_bin: 8
bearing: -5.39847755432
intensity: 33.571723938
---
header: 
  seq: 1365063
  stamp: 
    secs: 1561683417
    nsecs: 264184768
  frame_id: "ti_mmwave"
point_id: 15
x: 4.845703125
y: -0.45703125
z: 0.041015625
range: 5.18565940857
velocity: 0.0
doppler_bin: 8
bearing: -5.38801622391
intensity: 30.6557979584
---
header: 
  seq: 1365064
  stamp: 
    secs: 1561683417
    nsecs: 264193523
  frame_id: "ti_mmwave"
point_id: 16
x: 4.869140625
y: -0.306640625
z: 0.5390625
range: 5.22923660278
velocity: 0.0
doppler_bin: 8
bearing: -3.60351896286
intensity: 30.5652370453
---
header: 
  seq: 1365065
  stamp: 
    secs: 1561683417
    nsecs: 264201111
  frame_id: "ti_mmwave"
point_id: 17
x: 4.8984375
y: -0.30859375
z: 0.638671875
range: 5.27281332016
velocity: 0.0
doppler_bin: 8
bearing: -3.60477876663
intensity: 30.962146759
---
header: 
  seq: 1365066
  stamp: 
    secs: 1561683417
    nsecs: 264209685
  frame_id: "ti_mmwave"
point_id: 18
x: 1.365234375
y: 0.130859375
z: -0.228515625
range: 1.48161697388
velocity: 0.614668667316
doppler_bin: 9
bearing: 5.47514343262
intensity: 25.9217681885
---
header: 
  seq: 1365067
  stamp: 
    secs: 1561683417
    nsecs: 264217179
  frame_id: "ti_mmwave"
point_id: 19
x: 1.404296875
y: 0.1796875
z: -0.21484375
range: 1.52519392967
velocity: 0.614668667316
doppler_bin: 9
bearing: 7.29168701172
intensity: 28.5853729248
---
header: 
  seq: 1365068
  stamp: 
    secs: 1561683417
    nsecs: 264224782
  frame_id: "ti_mmwave"
point_id: 20
x: 1.443359375
y: 0.23046875
z: -0.177734375
range: 1.56877088547
velocity: 0.614668667316
doppler_bin: 9
bearing: 9.07213306427
intensity: 28.312297821
---
header: 
  seq: 1365069
  stamp: 
    secs: 1561683417
    nsecs: 264232481
  frame_id: "ti_mmwave"
point_id: 21
x: 1.4765625
y: 0.283203125
z: -0.17578125
range: 1.61234796047
velocity: 0.614668667316
doppler_bin: 9
bearing: 10.8574142456
intensity: 27.466342926
---
header: 
  seq: 1365070
  stamp: 
    secs: 1561683417
    nsecs: 264240714
  frame_id: "ti_mmwave"
point_id: 22
x: 1.650390625
y: 0.267578125
z: 0.39453125
range: 1.83023273945
velocity: 0.614668667316
doppler_bin: 9
bearing: 9.20924091339
intensity: 26.3447723389
---
header: 
  seq: 1365071
  stamp: 
    secs: 1561683417
    nsecs: 264251773
  frame_id: "ti_mmwave"
point_id: 24
x: 0.041015625
y: -0.033203125
z: 0.0625
range: 0.0871539413929
velocity: 0.0
doppler_bin: 8
bearing: -38.9909973145
intensity: 30.1452045441
---
header: 
  seq: 1365072
  stamp: 
    secs: 1561683417
    nsecs: 264259944
  frame_id: "ti_mmwave"
point_id: 25
x: 0.044921875
y: -0.046875
z: 0.103515625
range: 0.130730912089
velocity: 0.0
doppler_bin: 8
bearing: -46.218875885
intensity: 29.0308990479
---
header: 
  seq: 1365073
  stamp: 
    secs: 1561683417
    nsecs: 264271573
  frame_id: "ti_mmwave"
point_id: 27
x: 1.212890625
y: 0.357421875
z: 0.107421875
range: 1.35088610649
velocity: 0.0
doppler_bin: 8
bearing: 16.419506073
intensity: 18.9762706757
---
header: 
  seq: 1365074
  stamp: 
    secs: 1561683417
    nsecs: 264279214
  frame_id: "ti_mmwave"
point_id: 28
x: 1.40234375
y: 0.388671875
z: -0.544921875
range: 1.65592491627
velocity: 0.0
doppler_bin: 8
bearing: 15.4911794662
intensity: 25.7978363037
---
header: 
  seq: 1365075
  stamp: 
    secs: 1561683417
    nsecs: 265533017
  frame_id: "ti_mmwave"
point_id: 0
x: 0.01171875
y: -0.0390625
z: -0.0078125
range: 0.0435769706964
velocity: 0.0
doppler_bin: 8
bearing: -73.3007583618
intensity: 30.7481651306
---
header: 
  seq: 1365076
  stamp: 
    secs: 1561683417
    nsecs: 265606263
  frame_id: "ti_mmwave"
point_id: 1
x: 0.017578125
y: -0.080078125
z: -0.0078125
range: 0.0871539413929
velocity: 0.0
doppler_bin: 8
bearing: -77.6192398071
intensity: 31.9810695648
---
header: 
  seq: 1365077
  stamp: 
    secs: 1561683417
    nsecs: 265627203
  frame_id: "ti_mmwave"
point_id: 2
x: 0.041015625
y: -0.115234375
z: -0.0078125
range: 0.130730912089
velocity: 0.0
doppler_bin: 8
bearing: -70.4077224731
intensity: 30.2284069061
---
header: 
  seq: 1365078
  stamp: 
    secs: 1561683417
    nsecs: 265652551
  frame_id: "ti_mmwave"
point_id: 3
x: 0.056640625
y: -0.154296875
z: 0.005859375
range: 0.174307882786
velocity: 0.0
doppler_bin: 8
bearing: -69.8423843384
intensity: 25.5022830963
---
header: 
  seq: 1365079
  stamp: 
    secs: 1561683417
    nsecs: 265714731
  frame_id: "ti_mmwave"
point_id: 4
x: 0.361328125
y: -0.080078125
z: -1.212890625
range: 1.35088610649
velocity: 0.0
doppler_bin: 8
bearing: -12.4960107803
intensity: 21.9312458038
---
header: 
  seq: 1365080
  stamp: 
    secs: 1561683417
    nsecs: 265730035
  frame_id: "ti_mmwave"
point_id: 5
x: 0.28125
y: -0.041015625
z: 1.27734375
range: 1.39446306229
velocity: 0.0
doppler_bin: 8
bearing: -8.29714488983
intensity: 23.2837963104
---
header: 
  seq: 1365081
  stamp: 
    secs: 1561683417
    nsecs: 265743582
  frame_id: "ti_mmwave"
point_id: 6
x: 0.5078125
y: -0.04296875
z: 1.25
range: 1.43804001808
velocity: 0.0
doppler_bin: 8
bearing: -4.83658361435
intensity: 21.6731739044
---
header: 
  seq: 1365082
  stamp: 
    secs: 1561683417
    nsecs: 265757054
  frame_id: "ti_mmwave"
point_id: 7
x: 2.54296875
y: -0.263671875
z: 1.197265625
range: 3.00681090355
velocity: 0.0
doppler_bin: 8
bearing: -5.91965341568
intensity: 29.4448261261
---
header: 
  seq: 1365083
  stamp: 
    secs: 1561683417
    nsecs: 265770444
  frame_id: "ti_mmwave"
point_id: 8
x: 2.59765625
y: -0.267578125
z: 1.171875
range: 3.05038785934
velocity: 0.0
doppler_bin: 8
bearing: -5.88115358353
intensity: 32.8012275696
---
header: 
  seq: 1365084
  stamp: 
    secs: 1561683417
    nsecs: 265782277
  frame_id: "ti_mmwave"
point_id: 9
x: 2.654296875
y: -0.271484375
z: 1.146484375
range: 3.09396481514
velocity: 0.0
doppler_bin: 8
bearing: -5.83996629715
intensity: 32.0439147949
---
header: 
  seq: 1365085
  stamp: 
    secs: 1561683417
    nsecs: 265805356
  frame_id: "ti_mmwave"
point_id: 10
x: 4.41015625
y: -0.287109375
z: 1.20703125
range: 4.88062095642
velocity: 0.0
doppler_bin: 8
bearing: -3.72480559349
intensity: 30.8955192566
---
header: 
  seq: 1365086
  stamp: 
    secs: 1561683417
    nsecs: 265832056
  frame_id: "ti_mmwave"
point_id: 11
x: 4.45703125
y: -0.2890625
z: 1.193359375
range: 4.9241976738
velocity: 0.0
doppler_bin: 8
bearing: -3.71074318886
intensity: 30.6182937622
---
header: 
  seq: 1365087
  stamp: 
    secs: 1561683417
    nsecs: 265845631
  frame_id: "ti_mmwave"
point_id: 12
x: 4.73828125
y: -0.44921875
z: -0.51171875
range: 5.09850549698
velocity: 0.0
doppler_bin: 8
bearing: -5.4158115387
intensity: 33.300075531
---
header: 
  seq: 1365088
  stamp: 
    secs: 1561683417
    nsecs: 265859172
  frame_id: "ti_mmwave"
point_id: 13
x: 4.7890625
y: -0.453125
z: -0.41015625
range: 5.14208269119
velocity: 0.0
doppler_bin: 8
bearing: -5.40504264832
intensity: 33.92345047
---
header: 
  seq: 1365089
  stamp: 
    secs: 1561683417
    nsecs: 265872131
  frame_id: "ti_mmwave"
point_id: 14
x: 4.85546875
y: -0.3046875
z: -0.171875
range: 5.18565940857
velocity: 0.0
doppler_bin: 8
bearing: -3.59068250656
intensity: 31.2188796997
---
header: 
  seq: 1365090
  stamp: 
    secs: 1561683417
    nsecs: 265885023
  frame_id: "ti_mmwave"
point_id: 15
x: 4.853515625
y: -0.4609375
z: 0.578125
range: 5.22923660278
velocity: 0.0
doppler_bin: 8
bearing: -5.42509841919
intensity: 30.3702793121
---
header: 
  seq: 1365091
  stamp: 
    secs: 1561683417
    nsecs: 265899302
  frame_id: "ti_mmwave"
point_id: 16
x: 4.888671875
y: -0.30859375
z: 0.70703125
range: 5.27281332016
velocity: 0.0
doppler_bin: 8
bearing: -3.61196112633
intensity: 30.824262619
---
header: 
  seq: 1365092
  stamp: 
    secs: 1561683417
    nsecs: 265912527
  frame_id: "ti_mmwave"
point_id: 17
x: 1.37890625
y: 0.173828125
z: -0.037109375
range: 1.48161697388
velocity: 0.614668667316
doppler_bin: 9
bearing: 7.18493795395
intensity: 20.9691009521
---
header: 
  seq: 1365093
  stamp: 
    secs: 1561683417
    nsecs: 265939332
  frame_id: "ti_mmwave"
point_id: 18
x: 1.416015625
y: 0.1796875
z: -0.123046875
range: 1.52519392967
velocity: 0.614668667316
doppler_bin: 9
bearing: 7.23198366165
intensity: 26.3447723389
---
header: 
  seq: 1365094
  stamp: 
    secs: 1561683417
    nsecs: 265962886
  frame_id: "ti_mmwave"
point_id: 19
x: 1.45703125
y: 0.138671875
z: -0.16015625
range: 1.56877088547
velocity: 0.614668667316
doppler_bin: 9
bearing: 5.43670701981
intensity: 26.637008667
---
header: 
  seq: 1365095
  stamp: 
    secs: 1561683417
    nsecs: 265985047
  frame_id: "ti_mmwave"
point_id: 20
x: 1.53515625
y: 0.2421875
z: 0.001953125
range: 1.65592491627
velocity: 0.614668667316
doppler_bin: 9
bearing: 8.96513938904
intensity: 27.3319721222
---
header: 
  seq: 1365096
  stamp: 
    secs: 1561683417
    nsecs: 266060898
  frame_id: "ti_mmwave"
point_id: 21
x: 1.56640625
y: 0.298828125
z: -0.033203125
range: 1.69950187206
velocity: 0.614668667316
doppler_bin: 9
bearing: 10.8007116318
intensity: 26.3848934174
---
header: 
  seq: 1365097
  stamp: 
    secs: 1561683417
    nsecs: 266079648
  frame_id: "ti_mmwave"
point_id: 23
x: 0.041015625
y: -0.033203125
z: 0.0625
range: 0.0871539413929
velocity: 0.0
doppler_bin: 8
bearing: -38.9909973145
intensity: 30.1535968781
---
header: 
  seq: 1365098
  stamp: 
    secs: 1561683417
    nsecs: 266095414
  frame_id: "ti_mmwave"
point_id: 24
x: 0.044921875
y: -0.046875
z: 0.103515625
range: 0.130730912089
velocity: 0.0
doppler_bin: 8
bearing: -46.218875885
intensity: 29.0308990479
---
header: 
  seq: 1365099
  stamp: 
    secs: 1561683417
    nsecs: 266113688
  frame_id: "ti_mmwave"
point_id: 26
x: 1.208984375
y: 0.357421875
z: 0.130859375
range: 1.35088610649
velocity: 0.0
doppler_bin: 8
bearing: 16.4696884155
intensity: 19.0308990479
---
header: 
  seq: 1365100
  stamp: 
    secs: 1561683417
    nsecs: 323622694
  frame_id: "ti_mmwave"
point_id: 0
x: 0.01171875
y: -0.0390625
z: -0.0078125
range: 0.0435769706964
velocity: 0.0
doppler_bin: 8
bearing: -73.3007583618
intensity: 30.7481651306
---
header: 
  seq: 1365101
  stamp: 
    secs: 1561683417
    nsecs: 323720787
  frame_id: "ti_mmwave"
point_id: 1
x: 0.017578125
y: -0.080078125
z: -0.0078125
range: 0.0871539413929
velocity: 0.0
doppler_bin: 8
bearing: -77.6192398071
intensity: 31.9810695648
---
header: 
  seq: 1365102
  stamp: 
    secs: 1561683417
    nsecs: 323740533
  frame_id: "ti_mmwave"
point_id: 2
x: 0.029296875
y: -0.119140625
z: -0.00390625
range: 0.130730912089
velocity: 0.0
doppler_bin: 8
bearing: -76.1849746704
intensity: 30.2284069061
---
header: 
  seq: 1365103
  stamp: 
    secs: 1561683417
    nsecs: 323754654
  frame_id: "ti_mmwave"
point_id: 3
x: 0.056640625
y: -0.154296875
z: 0.005859375
range: 0.174307882786
velocity: 0.0
doppler_bin: 8
bearing: -69.8423843384
intensity: 25.5022830963
---
header: 
  seq: 1365104
  stamp: 
    secs: 1561683417
    nsecs: 323768982
  frame_id: "ti_mmwave"
point_id: 4
x: 0.3359375
y: -0.080078125
z: -1.220703125
range: 1.35088610649
velocity: 0.0
doppler_bin: 8
bearing: -13.4075088501
intensity: 21.875207901
---
header: 
  seq: 1365105
  stamp: 
    secs: 1561683417
    nsecs: 323785128
  frame_id: "ti_mmwave"
point_id: 5
x: 0.287109375
y: -0.041015625
z: 1.27734375
range: 1.39446306229
velocity: 0.0
doppler_bin: 8
bearing: -8.13010311127
intensity: 23.1806335449
---
header: 
  seq: 1365106
  stamp: 
    secs: 1561683417
    nsecs: 323799111
  frame_id: "ti_mmwave"
point_id: 6
x: 0.3828125
y: -0.0
z: 1.294921875
range: 1.43804001808
velocity: 0.0
doppler_bin: 8
bearing: -0.0
intensity: 21.8184356689
---
header: 
  seq: 1365107
  stamp: 
    secs: 1561683417
    nsecs: 323818777
  frame_id: "ti_mmwave"
point_id: 7
x: 2.552734375
y: -0.263671875
z: 1.173828125
range: 3.00681090355
velocity: 0.0
doppler_bin: 8
bearing: -5.89716720581
intensity: 29.4151134491
---
header: 
  seq: 1365108
  stamp: 
    secs: 1561683417
    nsecs: 323897591
  frame_id: "ti_mmwave"
point_id: 8
x: 2.609375
y: -0.267578125
z: 1.1484375
range: 3.05038785934
velocity: 0.0
doppler_bin: 8
bearing: -5.85492515564
intensity: 32.7921066284
---
header: 
  seq: 1365109
  stamp: 
    secs: 1561683417
    nsecs: 323914058
  frame_id: "ti_mmwave"
point_id: 9
x: 2.666015625
y: -0.271484375
z: 1.119140625
range: 3.09396481514
velocity: 0.0
doppler_bin: 8
bearing: -5.81447267532
intensity: 32.0085067749
---
header: 
  seq: 1365110
  stamp: 
    secs: 1561683417
    nsecs: 323930695
  frame_id: "ti_mmwave"
point_id: 10
x: 4.408203125
y: -0.287109375
z: 1.21484375
range: 4.88062095642
velocity: 0.0
doppler_bin: 8
bearing: -3.72645139694
intensity: 30.9516925812
---
header: 
  seq: 1365111
  stamp: 
    secs: 1561683417
    nsecs: 323944970
  frame_id: "ti_mmwave"
point_id: 11
x: 4.462890625
y: -0.2890625
z: 1.171875
range: 4.9241976738
velocity: 0.0
doppler_bin: 8
bearing: -3.70588517189
intensity: 30.8493366241
---
header: 
  seq: 1365112
  stamp: 
    secs: 1561683417
    nsecs: 323962111
  frame_id: "ti_mmwave"
point_id: 12
x: 4.740234375
y: -0.44921875
z: -0.490234375
range: 5.09850549698
velocity: 0.0
doppler_bin: 8
bearing: -5.41359329224
intensity: 33.2531051636
---
header: 
  seq: 1365113
  stamp: 
    secs: 1561683417
    nsecs: 323976916
  frame_id: "ti_mmwave"
point_id: 13
x: 4.7890625
y: -0.453125
z: -0.390625
range: 5.14208269119
velocity: 0.0
doppler_bin: 8
bearing: -5.40504264832
intensity: 33.9357528687
---
header: 
  seq: 1365114
  stamp: 
    secs: 1561683417
    nsecs: 323992737
  frame_id: "ti_mmwave"
point_id: 14
x: 4.85546875
y: -0.3046875
z: -0.15625
range: 5.18565940857
velocity: 0.0
doppler_bin: 8
bearing: -3.59068250656
intensity: 31.0448703766
---
header: 
  seq: 1365115
  stamp: 
    secs: 1561683417
    nsecs: 324040439
  frame_id: "ti_mmwave"
point_id: 15
x: 4.865234375
y: -0.306640625
z: 0.580078125
range: 5.22923660278
velocity: 0.0
doppler_bin: 8
bearing: -3.60640478134
intensity: 30.3059978485
---
header: 
  seq: 1365116
  stamp: 
    secs: 1561683417
    nsecs: 324056048
  frame_id: "ti_mmwave"
point_id: 16
x: 4.8828125
y: -0.30859375
z: 0.75
range: 5.27281332016
velocity: 0.0
doppler_bin: 8
bearing: -3.61628341675
intensity: 30.9131507874
---
header: 
  seq: 1365117
  stamp: 
    secs: 1561683417
    nsecs: 324070022
  frame_id: "ti_mmwave"
point_id: 17
x: 1.404296875
y: 0.1796875
z: -0.220703125
range: 1.52519392967
velocity: 0.614668667316
doppler_bin: 9
bearing: 7.29168701172
intensity: 24.2160396576
---
header: 
  seq: 1365118
  stamp: 
    secs: 1561683417
    nsecs: 324086731
  frame_id: "ti_mmwave"
point_id: 18
x: 1.4453125
y: 0.18359375
z: -0.20703125
range: 1.56877088547
velocity: 0.614668667316
doppler_bin: 9
bearing: 7.23934078217
intensity: 26.7302093506
---
header: 
  seq: 1365119
  stamp: 
    secs: 1561683417
    nsecs: 324104553
  frame_id: "ti_mmwave"
point_id: 19
x: 1.478515625
y: 0.236328125
z: -0.21875
range: 1.61234796047
velocity: 0.614668667316
doppler_bin: 9
bearing: 9.08141994476
intensity: 27.9028511047
---
header: 
  seq: 1365120
  stamp: 
    secs: 1561683417
    nsecs: 324149704
  frame_id: "ti_mmwave"
point_id: 20
x: 1.49609375
y: 0.33984375
z: -0.251953125
range: 1.65592491627
velocity: 0.614668667316
doppler_bin: 9
bearing: 12.7978000641
intensity: 29.1539974213
---
header: 
  seq: 1365121
  stamp: 
    secs: 1561683417
    nsecs: 324167449
  frame_id: "ti_mmwave"
point_id: 21
x: 1.525390625
y: 0.349609375
z: -0.310546875
range: 1.69950187206
velocity: 0.614668667316
doppler_bin: 9
bearing: 12.9088611603
intensity: 28.7215633392
---
header: 
  seq: 1365122
  stamp: 
    secs: 1561683417
    nsecs: 324187467
  frame_id: "ti_mmwave"
point_id: 23
x: 0.041015625
y: -0.033203125
z: 0.0625
range: 0.0871539413929
velocity: 0.0
doppler_bin: 8
bearing: -38.9909973145
intensity: 30.1452045441
---
header: 
  seq: 1365123
  stamp: 
    secs: 1561683417
    nsecs: 324219079
  frame_id: "ti_mmwave"
point_id: 24
x: 0.044921875
y: -0.046875
z: 0.103515625
range: 0.130730912089
velocity: 0.0
doppler_bin: 8
bearing: -46.218875885
intensity: 29.0308990479
---
header: 
  seq: 1365124
  stamp: 
    secs: 1561683417
    nsecs: 324239979
  frame_id: "ti_mmwave"
point_id: 26
x: 1.2109375
y: 0.357421875
z: 0.12109375
range: 1.35088610649
velocity: 0.0
doppler_bin: 8
bearing: 16.4445590973
intensity: 18.9762706757
---
header: 
  seq: 1365125
  stamp: 
    secs: 1561683417
    nsecs: 325490413
  frame_id: "ti_mmwave"
point_id: 0
x: 0.01171875
y: -0.0390625
z: -0.0078125
range: 0.0435769706964
velocity: 0.0
doppler_bin: 8
bearing: -73.3007583618
intensity: 30.7445068359
---
header: 
  seq: 1365126
  stamp: 
    secs: 1561683417
    nsecs: 325534376
  frame_id: "ti_mmwave"
point_id: 1
x: 0.017578125
y: -0.080078125
z: -0.0078125
range: 0.0871539413929
velocity: 0.0
doppler_bin: 8
bearing: -77.6192398071
intensity: 31.9783172607
---
header: 
  seq: 1365127
  stamp: 
    secs: 1561683417
    nsecs: 325549590
  frame_id: "ti_mmwave"
point_id: 2
x: 0.029296875
y: -0.119140625
z: -0.00390625
range: 0.130730912089
velocity: 0.0
doppler_bin: 8
bearing: -76.1849746704
intensity: 30.2284069061
---
header: 
  seq: 1365128
  stamp: 
    secs: 1561683417
    nsecs: 325565299
  frame_id: "ti_mmwave"
point_id: 3
x: 0.056640625
y: -0.154296875
z: 0.005859375
range: 0.174307882786
velocity: 0.0
doppler_bin: 8
bearing: -69.8423843384
intensity: 25.5144996643
---
header: 
  seq: 1365129
  stamp: 
    secs: 1561683417
    nsecs: 325578643
  frame_id: "ti_mmwave"
point_id: 4
x: 0.375
y: -0.080078125
z: -1.208984375
range: 1.35088610649
velocity: 0.0
doppler_bin: 8
bearing: -12.0539922714
intensity: 21.9033164978
---
header: 
  seq: 1365130
  stamp: 
    secs: 1561683417
    nsecs: 325592349
  frame_id: "ti_mmwave"
point_id: 5
x: 0.287109375
y: -0.041015625
z: 1.27734375
range: 1.39446306229
velocity: 0.0
doppler_bin: 8
bearing: -8.13010311127
intensity: 23.2221927643
---
header: 
  seq: 1365131
  stamp: 
    secs: 1561683417
    nsecs: 325607057
  frame_id: "ti_mmwave"
point_id: 6
x: 0.4453125
y: -0.0
z: 1.275390625
range: 1.43804001808
velocity: 0.0
doppler_bin: 8
bearing: -0.0
intensity: 21.8184356689
---
header: 
  seq: 1365132
  stamp: 
    secs: 1561683417
    nsecs: 325620704
  frame_id: "ti_mmwave"
point_id: 7
x: 2.537109375
y: -0.263671875
z: 1.20703125
range: 3.00681090355
velocity: 0.0
doppler_bin: 8
bearing: -5.93322753906
intensity: 29.4448261261
---
header: 
  seq: 1365133
  stamp: 
    secs: 1561683417
    nsecs: 325635713
  frame_id: "ti_mmwave"
point_id: 8
x: 2.603515625
y: -0.267578125
z: 1.162109375
range: 3.05038785934
velocity: 0.0
doppler_bin: 8
bearing: -5.8680100441
intensity: 32.7875366211
---
header: 
  seq: 1365134
  stamp: 
    secs: 1561683417
    nsecs: 325663747
  frame_id: "ti_mmwave"
point_id: 9
x: 2.66015625
y: -0.271484375
z: 1.130859375
range: 3.09396481514
velocity: 0.0
doppler_bin: 8
bearing: -5.82719182968
intensity: 32.0357666016
---
header: 
  seq: 1365135
  stamp: 
    secs: 1561683417
    nsecs: 325734946
  frame_id: "ti_mmwave"
point_id: 10
x: 4.4140625
y: -0.287109375
z: 1.1953125
range: 4.88062095642
velocity: 0.0
doppler_bin: 8
bearing: -3.72151875496
intensity: 30.8421859741
---
header: 
  seq: 1365136
  stamp: 
    secs: 1561683417
    nsecs: 325750155
  frame_id: "ti_mmwave"
point_id: 11
x: 4.458984375
y: -0.2890625
z: 1.18359375
range: 4.9241976738
velocity: 0.0
doppler_bin: 8
bearing: -3.70912218094
intensity: 30.6333332062
---
header: 
  seq: 1365137
  stamp: 
    secs: 1561683417
    nsecs: 325763454
  frame_id: "ti_mmwave"
point_id: 12
x: 4.740234375
y: -0.44921875
z: -0.48046875
range: 5.09850549698
velocity: 0.0
doppler_bin: 8
bearing: -5.41359329224
intensity: 33.2366447449
---
header: 
  seq: 1365138
  stamp: 
    secs: 1561683417
    nsecs: 325776408
  frame_id: "ti_mmwave"
point_id: 13
x: 4.791015625
y: -0.453125
z: -0.376953125
range: 5.14208269119
velocity: 0.0
doppler_bin: 8
bearing: -5.40285253525
intensity: 33.8201713562
---
header: 
  seq: 1365139
  stamp: 
    secs: 1561683417
    nsecs: 325789582
  frame_id: "ti_mmwave"
point_id: 14
x: 4.857421875
y: -0.3046875
z: -0.12890625
range: 5.18565940857
velocity: 0.0
doppler_bin: 8
bearing: -3.58924269676
intensity: 30.8707122803
---
header: 
  seq: 1365140
  stamp: 
    secs: 1561683417
    nsecs: 325802829
  frame_id: "ti_mmwave"
point_id: 15
x: 4.853515625
y: -0.4609375
z: 0.568359375
range: 5.22923660278
velocity: 0.0
doppler_bin: 8
bearing: -5.42509841919
intensity: 30.1870040894
---
header: 
  seq: 1365141
  stamp: 
    secs: 1561683417
    nsecs: 325815861
  frame_id: "ti_mmwave"
point_id: 16
x: 4.888671875
y: -0.30859375
z: 0.70703125
range: 5.27281332016
velocity: 0.0
doppler_bin: 8
bearing: -3.61196112633
intensity: 30.8314418793
---
header: 
  seq: 1365142
  stamp: 
    secs: 1561683417
    nsecs: 325836189
  frame_id: "ti_mmwave"
point_id: 17
x: 1.39453125
y: 0.1796875
z: -0.271484375
range: 1.52519392967
velocity: 0.614668667316
doppler_bin: 9
bearing: 7.34219455719
intensity: 23.1806335449
---
header: 
  seq: 1365143
  stamp: 
    secs: 1561683417
    nsecs: 325893111
  frame_id: "ti_mmwave"
point_id: 18
x: 1.4453125
y: 0.18359375
z: -0.208984375
range: 1.56877088547
velocity: 0.614668667316
doppler_bin: 9
bearing: 7.23934078217
intensity: 26.9460525513
---
header: 
  seq: 1365144
  stamp: 
    secs: 1561683417
    nsecs: 325908033
  frame_id: "ti_mmwave"
point_id: 19
x: 1.48828125
y: 0.189453125
z: -0.203125
range: 1.61234796047
velocity: 0.614668667316
doppler_bin: 9
bearing: 7.25453948975
intensity: 27.678976059
---
header: 
  seq: 1365145
  stamp: 
    secs: 1561683417
    nsecs: 325922261
  frame_id: "ti_mmwave"
point_id: 20
x: 1.517578125
y: 0.291015625
z: -0.17578125
range: 1.65592491627
velocity: 0.614668667316
doppler_bin: 9
bearing: 10.8554391861
intensity: 28.6628742218
---
header: 
  seq: 1365146
  stamp: 
    secs: 1561683417
    nsecs: 325935761
  frame_id: "ti_mmwave"
point_id: 21
x: 1.5546875
y: 0.298828125
z: -0.203125
range: 1.69950187206
velocity: 0.614668667316
doppler_bin: 9
bearing: 10.8801879883
intensity: 28.6391735077
---
header: 
  seq: 1365147
  stamp: 
    secs: 1561683417
    nsecs: 325948737
  frame_id: "ti_mmwave"
point_id: 22
x: 1.59765625
y: 0.255859375
z: -0.248046875
range: 1.74307882786
velocity: 0.614668667316
doppler_bin: 9
bearing: 9.09847164154
intensity: 26.4738292694
---
header: 
  seq: 1365148
  stamp: 
    secs: 1561683417
    nsecs: 325962457
  frame_id: "ti_mmwave"
point_id: 23
x: 1.6875
y: 0.220703125
z: 0.443359375
range: 1.87380969524
velocity: 0.614668667316
doppler_bin: 9
bearing: 7.45125150681
intensity: 27.0926990509
---
header: 
  seq: 1365149
  stamp: 
    secs: 1561683417
    nsecs: 325977928
  frame_id: "ti_mmwave"
point_id: 24
x: 1.728515625
y: 0.224609375
z: 0.447265625
range: 1.91738677025
velocity: 0.614668667316
doppler_bin: 9
bearing: 7.40372848511
intensity: 25.6584777832
---
header: 
  seq: 1365150
  stamp: 
    secs: 1561683417
    nsecs: 325996546
  frame_id: "ti_mmwave"
point_id: 26
x: 0.041015625
y: -0.033203125
z: 0.0625
range: 0.0871539413929
velocity: 0.0
doppler_bin: 8
bearing: -38.9909973145
intensity: 30.141002655
---
header: 
  seq: 1365151
  stamp: 
    secs: 1561683417
    nsecs: 326023363
  frame_id: "ti_mmwave"
point_id: 27
x: 0.044921875
y: -0.046875
z: 0.103515625
range: 0.130730912089
velocity: 0.0
doppler_bin: 8
bearing: -46.218875885
intensity: 29.0254669189
---
header: 
  seq: 1365152
  stamp: 
    secs: 1561683417
    nsecs: 326053867
  frame_id: "ti_mmwave"
point_id: 29
x: 1.111328125
y: -0.515625
z: 0.326171875
range: 1.35088610649
velocity: 0.0
doppler_bin: 8
bearing: -24.8899745941
intensity: 19.0848503113
---
header: 
  seq: 1365153
  stamp: 
    secs: 1561683417
    nsecs: 326115408
  frame_id: "ti_mmwave"
point_id: 30
x: 2.814453125
y: -2.00390625
z: -3.009765625
range: 4.88062095642
velocity: 0.0
doppler_bin: 8
bearing: -35.4510803223
intensity: 27.8461723328
---
header: 
  seq: 1365154
  stamp: 
    secs: 1561683417
    nsecs: 383643469
  frame_id: "ti_mmwave"
point_id: 0
x: 0.01171875
y: -0.0390625
z: -0.0078125
range: 0.0435769706964
velocity: 0.0
doppler_bin: 8
bearing: -73.3007583618
intensity: 30.7445068359
---
header: 
  seq: 1365155
  stamp: 
    secs: 1561683417
    nsecs: 383742293
  frame_id: "ti_mmwave"
point_id: 1
x: 0.017578125
y: -0.080078125
z: -0.0078125
range: 0.0871539413929
velocity: 0.0
doppler_bin: 8
bearing: -77.6192398071
intensity: 31.9783172607
---
header: 
  seq: 1365156
  stamp: 
    secs: 1561683417
    nsecs: 383759655
  frame_id: "ti_mmwave"
point_id: 2
x: 0.029296875
y: -0.119140625
z: -0.005859375
range: 0.130730912089
velocity: 0.0
doppler_bin: 8
bearing: -76.1849746704
intensity: 30.2284069061
---
header: 
  seq: 1365157
  stamp: 
    secs: 1561683417
    nsecs: 383773635
  frame_id: "ti_mmwave"
point_id: 3
x: 0.056640625
y: -0.154296875
z: 0.005859375
range: 0.174307882786
velocity: 0.0
doppler_bin: 8
bearing: -69.8423843384
intensity: 25.490032196
---
header: 
  seq: 1365158
  stamp: 
    secs: 1561683417
    nsecs: 383789403
  frame_id: "ti_mmwave"
point_id: 4
x: 0.369140625
y: -0.080078125
z: -1.2109375
range: 1.35088610649
velocity: 0.0
doppler_bin: 8
bearing: -12.2396001816
intensity: 21.9312458038
---
header: 
  seq: 1365159
  stamp: 
    secs: 1561683417
    nsecs: 383803471
  frame_id: "ti_mmwave"
point_id: 5
x: 0.296875
y: -0.041015625
z: 1.2734375
range: 1.39446306229
velocity: 0.0
doppler_bin: 8
bearing: -7.86606836319
intensity: 23.2837963104
---
header: 
  seq: 1365160
  stamp: 
    secs: 1561683417
    nsecs: 383817392
  frame_id: "ti_mmwave"
point_id: 6
x: 0.486328125
y: -0.04296875
z: 1.2578125
range: 1.43804001808
velocity: 0.0
doppler_bin: 8
bearing: -5.04916620255
intensity: 21.9589958191
---
header: 
  seq: 1365161
  stamp: 
    secs: 1561683417
    nsecs: 383833838
  frame_id: "ti_mmwave"
point_id: 8
x: 2.541015625
y: -0.263671875
z: 1.19921875
range: 3.00681090355
velocity: 0.0
doppler_bin: 8
bearing: -5.92417097092
intensity: 29.4694328308
---
header: 
  seq: 1365162
  stamp: 
    secs: 1561683417
    nsecs: 383849642
  frame_id: "ti_mmwave"
point_id: 9
x: 2.603515625
y: -0.267578125
z: 1.162109375
range: 3.05038785934
velocity: 0.0
doppler_bin: 8
bearing: -5.8680100441
intensity: 32.7921066284
---
header: 
  seq: 1365163
  stamp: 
    secs: 1561683417
    nsecs: 383930401
  frame_id: "ti_mmwave"
point_id: 10
x: 2.662109375
y: -0.271484375
z: 1.130859375
range: 3.09396481514
velocity: 0.0
doppler_bin: 8
bearing: -5.82294607162
intensity: 31.9975509644
---
header: 
  seq: 1365164
  stamp: 
    secs: 1561683417
    nsecs: 383946511
  frame_id: "ti_mmwave"
point_id: 11
x: 4.421875
y: -0.287109375
z: 1.1640625
range: 4.88062095642
velocity: 0.0
doppler_bin: 8
bearing: -3.7149617672
intensity: 30.8134727478
---
header: 
  seq: 1365165
  stamp: 
    secs: 1561683417
    nsecs: 383959741
  frame_id: "ti_mmwave"
point_id: 12
x: 4.486328125
y: -0.2890625
z: 1.076171875
range: 4.9241976738
velocity: 0.0
doppler_bin: 8
bearing: -3.68657827377
intensity: 30.5269393921
---
header: 
  seq: 1365166
  stamp: 
    secs: 1561683417
    nsecs: 383973021
  frame_id: "ti_mmwave"
point_id: 13
x: 4.7421875
y: -0.44921875
z: -0.45703125
range: 5.09850549698
velocity: 0.0
doppler_bin: 8
bearing: -5.41137647629
intensity: 33.2056159973
---
header: 
  seq: 1365167
  stamp: 
    secs: 1561683417
    nsecs: 383987225
  frame_id: "ti_mmwave"
point_id: 14
x: 4.79296875
y: -0.453125
z: -0.34765625
range: 5.14208269119
velocity: 0.0
doppler_bin: 8
bearing: -5.40066432953
intensity: 33.7730636597
---
header: 
  seq: 1365168
  stamp: 
    secs: 1561683417
    nsecs: 384001910
  frame_id: "ti_mmwave"
point_id: 15
x: 4.845703125
y: -0.45703125
z: -0.05078125
range: 5.18565940857
velocity: 0.0
doppler_bin: 8
bearing: -5.38801622391
intensity: 30.5728569031
---
header: 
  seq: 1365169
  stamp: 
    secs: 1561683417
    nsecs: 384016809
  frame_id: "ti_mmwave"
point_id: 16
x: 4.830078125
y: -0.4609375
z: 0.748046875
range: 5.22923660278
velocity: 0.0
doppler_bin: 8
bearing: -5.45126533508
intensity: 29.8407707214
---
header: 
  seq: 1365170
  stamp: 
    secs: 1561683417
    nsecs: 384031314
  frame_id: "ti_mmwave"
point_id: 17
x: 4.888671875
y: -0.30859375
z: 0.703125
range: 5.27281332016
velocity: 0.0
doppler_bin: 8
bearing: -3.61196112633
intensity: 30.7114524841
---
header: 
  seq: 1365171
  stamp: 
    secs: 1561683417
    nsecs: 384082909
  frame_id: "ti_mmwave"
point_id: 18
x: 1.447265625
y: 0.138671875
z: -0.240234375
range: 1.56877088547
velocity: 0.614668667316
doppler_bin: 9
bearing: 5.47317075729
intensity: 25.8883171082
---
header: 
  seq: 1365172
  stamp: 
    secs: 1561683417
    nsecs: 384105362
  frame_id: "ti_mmwave"
point_id: 19
x: 1.49609375
y: 0.189453125
z: -0.125
range: 1.61234796047
velocity: 0.614668667316
doppler_bin: 9
bearing: 7.21705770493
intensity: 27.0757026672
---
header: 
  seq: 1365173
  stamp: 
    secs: 1561683417
    nsecs: 384129261
  frame_id: "ti_mmwave"
point_id: 20
x: 1.587890625
y: 0.150390625
z: 0.029296875
range: 1.69950187206
velocity: 0.614668667316
doppler_bin: 9
bearing: 5.41039848328
intensity: 24.5331840515
---
header: 
  seq: 1365174
  stamp: 
    secs: 1561683417
    nsecs: 384153094
  frame_id: "ti_mmwave"
point_id: 22
x: 0.041015625
y: -0.033203125
z: 0.0625
range: 0.0871539413929
velocity: 0.0
doppler_bin: 8
bearing: -38.9909973145
intensity: 30.1452045441
---
header: 
  seq: 1365175
  stamp: 
    secs: 1561683417
    nsecs: 384176123
  frame_id: "ti_mmwave"
point_id: 23
x: 0.044921875
y: -0.046875
z: 0.103515625
range: 0.130730912089
velocity: 0.0
doppler_bin: 8
bearing: -46.218875885
intensity: 29.0308990479
---
header: 
  seq: 1365176
  stamp: 
    secs: 1561683417
    nsecs: 384205471
  frame_id: "ti_mmwave"
point_id: 25
x: 1.109375
y: -0.515625
z: 0.3359375
range: 1.35088610649
velocity: 0.0
doppler_bin: 8
bearing: -24.9284744263
intensity: 19.1381378174
---
header: 
  seq: 1365177
  stamp: 
    secs: 1561683417
    nsecs: 384235654
  frame_id: "ti_mmwave"
point_id: 26
x: 1.537109375
y: 0.193359375
z: 0.134765625
range: 1.65592491627
velocity: 0.0
doppler_bin: 8
bearing: 7.16981363297
intensity: 24.7129173279
---
header: 
  seq: 1365178
  stamp: 
    secs: 1561683417
    nsecs: 385143510
  frame_id: "ti_mmwave"
point_id: 0
x: 0.01171875
y: -0.0390625
z: -0.0078125
range: 0.0435769706964
velocity: 0.0
doppler_bin: 8
bearing: -73.3007583618
intensity: 30.7445068359
---
header: 
  seq: 1365179
  stamp: 
    secs: 1561683417
    nsecs: 385208598
  frame_id: "ti_mmwave"
point_id: 1
x: 0.017578125
y: -0.080078125
z: -0.0078125
range: 0.0871539413929
velocity: 0.0
doppler_bin: 8
bearing: -77.6192398071
intensity: 31.9783172607
---
header: 
  seq: 1365180
  stamp: 
    secs: 1561683417
    nsecs: 385232272
  frame_id: "ti_mmwave"
point_id: 2
x: 0.041015625
y: -0.115234375
z: -0.0078125
range: 0.130730912089
velocity: 0.0
doppler_bin: 8
bearing: -70.4077224731
intensity: 30.2284069061
---
header: 
  seq: 1365181
  stamp: 
    secs: 1561683417
    nsecs: 385297356
  frame_id: "ti_mmwave"
point_id: 3
x: 0.056640625
y: -0.154296875
z: 0.005859375
range: 0.174307882786
velocity: 0.0
doppler_bin: 8
bearing: -69.8423843384
intensity: 25.5022830963
---
header: 
  seq: 1365182
  stamp: 
    secs: 1561683417
    nsecs: 385315108
  frame_id: "ti_mmwave"
point_id: 4
x: 0.34375
y: -0.080078125
z: -1.21875
range: 1.35088610649
velocity: 0.0
doppler_bin: 8
bearing: -13.1134386063
intensity: 21.9033164978
---
header: 
  seq: 1365183
  stamp: 
    secs: 1561683417
    nsecs: 385342184
  frame_id: "ti_mmwave"
point_id: 5
x: 0.3359375
y: -0.041015625
z: 1.265625
range: 1.39446306229
velocity: 0.0
doppler_bin: 8
bearing: -6.96096277237
intensity: 23.2428245544
---
header: 
  seq: 1365184
  stamp: 
    secs: 1561683417
    nsecs: 385365521
  frame_id: "ti_mmwave"
point_id: 6
x: 0.470703125
y: -0.0
z: 1.265625
range: 1.43804001808
velocity: 0.0
doppler_bin: 8
bearing: -0.0
intensity: 21.9312458038
---
header: 
  seq: 1365185
  stamp: 
    secs: 1561683417
    nsecs: 385440211
  frame_id: "ti_mmwave"
point_id: 7
x: 2.5546875
y: -0.263671875
z: 1.171875
range: 3.00681090355
velocity: 0.0
doppler_bin: 8
bearing: -5.89269018173
intensity: 29.5182304382
---
header: 
  seq: 1365186
  stamp: 
    secs: 1561683417
    nsecs: 385459967
  frame_id: "ti_mmwave"
point_id: 8
x: 2.603515625
y: -0.267578125
z: 1.162109375
range: 3.05038785934
velocity: 0.0
doppler_bin: 8
bearing: -5.8680100441
intensity: 32.8239555359
---
header: 
  seq: 1365187
  stamp: 
    secs: 1561683417
    nsecs: 385473304
  frame_id: "ti_mmwave"
point_id: 9
x: 2.65625
y: -0.271484375
z: 1.14453125
range: 3.09396481514
velocity: 0.0
doppler_bin: 8
bearing: -5.83570146561
intensity: 32.0167007446
---
header: 
  seq: 1365188
  stamp: 
    secs: 1561683417
    nsecs: 385489445
  frame_id: "ti_mmwave"
point_id: 10
x: 4.41015625
y: -0.287109375
z: 1.2109375
range: 4.88062095642
velocity: 0.0
doppler_bin: 8
bearing: -3.72480559349
intensity: 30.8849048615
---
header: 
  seq: 1365189
  stamp: 
    secs: 1561683417
    nsecs: 385516821
  frame_id: "ti_mmwave"
point_id: 11
x: 4.4296875
y: -0.2890625
z: 1.287109375
range: 4.9241976738
velocity: 0.0
doppler_bin: 8
bearing: -3.73358464241
intensity: 30.5499591827
---
header: 
  seq: 1365190
  stamp: 
    secs: 1561683417
    nsecs: 385538892
  frame_id: "ti_mmwave"
point_id: 12
x: 4.736328125
y: -0.44921875
z: -0.513671875
range: 5.09850549698
velocity: 0.0
doppler_bin: 8
bearing: -5.41803121567
intensity: 33.2878723145
---
header: 
  seq: 1365191
  stamp: 
    secs: 1561683417
    nsecs: 385611497
  frame_id: "ti_mmwave"
point_id: 13
x: 4.787109375
y: -0.453125
z: -0.41796875
range: 5.14208269119
velocity: 0.0
doppler_bin: 8
bearing: -5.40723514557
intensity: 33.9216918945
---
header: 
  seq: 1365192
  stamp: 
    secs: 1561683417
    nsecs: 385629559
  frame_id: "ti_mmwave"
point_id: 14
x: 4.853515625
y: -0.3046875
z: -0.19921875
range: 5.18565940857
velocity: 0.0
doppler_bin: 8
bearing: -3.59212422371
intensity: 31.0105934143
---
header: 
  seq: 1365193
  stamp: 
    secs: 1561683417
    nsecs: 385643731
  frame_id: "ti_mmwave"
point_id: 15
x: 4.837890625
y: -0.4609375
z: 0.6953125
range: 5.22923660278
velocity: 0.0
doppler_bin: 8
bearing: -5.44251489639
intensity: 29.9519634247
---
header: 
  seq: 1365194
  stamp: 
    secs: 1561683417
    nsecs: 385657581
  frame_id: "ti_mmwave"
point_id: 16
x: 4.890625
y: -0.30859375
z: 0.693359375
range: 5.27281332016
velocity: 0.0
doppler_bin: 8
bearing: -3.61052203178
intensity: 30.7298469543
---
header: 
  seq: 1365195
  stamp: 
    secs: 1561683417
    nsecs: 385671101
  frame_id: "ti_mmwave"
point_id: 17
x: 1.443359375
y: 0.138671875
z: -0.259765625
range: 1.56877088547
velocity: 0.614668667316
doppler_bin: 9
bearing: 5.48789262772
intensity: 27.5434837341
---
header: 
  seq: 1365196
  stamp: 
    secs: 1561683417
    nsecs: 385685711
  frame_id: "ti_mmwave"
point_id: 18
x: 1.494140625
y: 0.142578125
z: -0.19140625
range: 1.61234796047
velocity: 0.614668667316
doppler_bin: 9
bearing: 5.45093536377
intensity: 30.0302944183
---
header: 
  seq: 1365197
  stamp: 
    secs: 1561683417
    nsecs: 385698302
  frame_id: "ti_mmwave"
point_id: 19
x: 1.5390625
y: 0.146484375
z: -0.15625
range: 1.65592491627
velocity: 0.614668667316
doppler_bin: 9
bearing: 5.43690061569
intensity: 29.1328392029
---
header: 
  seq: 1365198
  stamp: 
    secs: 1561683417
    nsecs: 385711676
  frame_id: "ti_mmwave"
point_id: 21
x: 0.041015625
y: -0.033203125
z: 0.0625
range: 0.0871539413929
velocity: 0.0
doppler_bin: 8
bearing: -38.9909973145
intensity: 30.1494026184
---
header: 
  seq: 1365199
  stamp: 
    secs: 1561683417
    nsecs: 385762160
  frame_id: "ti_mmwave"
point_id: 22
x: 0.044921875
y: -0.046875
z: 0.103515625
range: 0.130730912089
velocity: 0.0
doppler_bin: 8
bearing: -46.218875885
intensity: 29.0308990479
---
header: 
  seq: 1365200
  stamp: 
    secs: 1561683417
    nsecs: 385785071
  frame_id: "ti_mmwave"
point_id: 24
x: 1.2109375
y: 0.357421875
z: 0.12109375
range: 1.35088610649
velocity: 0.0
doppler_bin: 8
bearing: 16.4445590973
intensity: 19.0308990479
---
header: 
  seq: 1365201
  stamp: 
    secs: 1561683417
    nsecs: 443578873
  frame_id: "ti_mmwave"
point_id: 0
x: 0.01171875
y: -0.0390625
z: -0.0078125
range: 0.0435769706964
velocity: 0.0
doppler_bin: 8
bearing: -73.3007583618
intensity: 30.7481651306
---
header: 
  seq: 1365202
  stamp: 
    secs: 1561683417
    nsecs: 443649045
  frame_id: "ti_mmwave"
point_id: 1
x: 0.017578125
y: -0.080078125
z: -0.0078125
range: 0.0871539413929
velocity: 0.0
doppler_bin: 8
bearing: -77.6192398071
intensity: 31.9810695648
---
header: 
  seq: 1365203
  stamp: 
    secs: 1561683417
    nsecs: 443659961
  frame_id: "ti_mmwave"
point_id: 2
x: 0.041015625
y: -0.115234375
z: -0.0078125
range: 0.130730912089
velocity: 0.0
doppler_bin: 8
bearing: -70.4077224731
intensity: 30.2284069061
---
header: 
  seq: 1365204
  stamp: 
    secs: 1561683417
    nsecs: 443670873
  frame_id: "ti_mmwave"
point_id: 3
x: 0.056640625
y: -0.154296875
z: 0.005859375
range: 0.174307882786
velocity: 0.0
doppler_bin: 8
bearing: -69.8423843384
intensity: 25.5144996643
---
header: 
  seq: 1365205
  stamp: 
    secs: 1561683417
    nsecs: 443679277
  frame_id: "ti_mmwave"
point_id: 4
x: 0.359375
y: -0.080078125
z: -1.212890625
range: 1.35088610649
velocity: 0.0
doppler_bin: 8
bearing: -12.5617752075
intensity: 21.9033164978
---
header: 
  seq: 1365206
  stamp: 
    secs: 1561683417
    nsecs: 443691935
  frame_id: "ti_mmwave"
point_id: 5
x: 0.287109375
y: -0.041015625
z: 1.27734375
range: 1.39446306229
velocity: 0.0
doppler_bin: 8
bearing: -8.13010311127
intensity: 23.2428245544
---
header: 
  seq: 1365207
  stamp: 
    secs: 1561683417
    nsecs: 443703374
  frame_id: "ti_mmwave"
point_id: 6
x: 0.4765625
y: -0.04296875
z: 1.26171875
range: 1.43804001808
velocity: 0.0
doppler_bin: 8
bearing: -5.15208148956
intensity: 21.9312458038
---
header: 
  seq: 1365208
  stamp: 
    secs: 1561683417
    nsecs: 443716518
  frame_id: "ti_mmwave"
point_id: 7
x: 2.552734375
y: -0.263671875
z: 1.173828125
range: 3.00681090355
velocity: 0.0
doppler_bin: 8
bearing: -5.89716720581
intensity: 29.4939002991
---
header: 
  seq: 1365209
  stamp: 
    secs: 1561683417
    nsecs: 443727738
  frame_id: "ti_mmwave"
point_id: 8
x: 2.60546875
y: -0.267578125
z: 1.15625
range: 3.05038785934
velocity: 0.0
doppler_bin: 8
bearing: -5.86364221573
intensity: 32.8284873962
---
header: 
  seq: 1365210
  stamp: 
    secs: 1561683417
    nsecs: 443738841
  frame_id: "ti_mmwave"
point_id: 9
x: 2.66015625
y: -0.271484375
z: 1.1328125
range: 3.09396481514
velocity: 0.0
doppler_bin: 8
bearing: -5.82719182968
intensity: 31.9975509644
---
header: 
  seq: 1365211
  stamp: 
    secs: 1561683417
    nsecs: 443750893
  frame_id: "ti_mmwave"
point_id: 10
x: 4.423828125
y: -0.287109375
z: 1.15625
range: 4.88062095642
velocity: 0.0
doppler_bin: 8
bearing: -3.71332621574
intensity: 30.9272060394
---
header: 
  seq: 1365212
  stamp: 
    secs: 1561683417
    nsecs: 443764677
  frame_id: "ti_mmwave"
point_id: 11
x: 4.50390625
y: -0.2890625
z: 0.99609375
range: 4.9241976738
velocity: 0.0
doppler_bin: 8
bearing: -3.67222952843
intensity: 30.8635978699
---
header: 
  seq: 1365213
  stamp: 
    secs: 1561683417
    nsecs: 443778714
  frame_id: "ti_mmwave"
point_id: 12
x: 4.705078125
y: -0.296875
z: -0.546875
range: 5.0549287796
velocity: 0.0
doppler_bin: 8
bearing: -3.61038923264
intensity: 29.8227119446
---
header: 
  seq: 1365214
  stamp: 
    secs: 1561683417
    nsecs: 443805628
  frame_id: "ti_mmwave"
point_id: 13
x: 4.73828125
y: -0.44921875
z: -0.501953125
range: 5.09850549698
velocity: 0.0
doppler_bin: 8
bearing: -5.4158115387
intensity: 33.3605918884
---
header: 
  seq: 1365215
  stamp: 
    secs: 1561683417
    nsecs: 443820945
  frame_id: "ti_mmwave"
point_id: 14
x: 4.7890625
y: -0.453125
z: -0.404296875
range: 5.14208269119
velocity: 0.0
doppler_bin: 8
bearing: -5.40504264832
intensity: 33.9741859436
---
header: 
  seq: 1365216
  stamp: 
    secs: 1561683417
    nsecs: 443829136
  frame_id: "ti_mmwave"
point_id: 15
x: 4.85546875
y: -0.3046875
z: -0.1796875
range: 5.18565940857
velocity: 0.0
doppler_bin: 8
bearing: -3.59068250656
intensity: 31.2678050995
---
header: 
  seq: 1365217
  stamp: 
    secs: 1561683417
    nsecs: 443995702
  frame_id: "ti_mmwave"
point_id: 16
x: 4.873046875
y: -0.306640625
z: 0.5
range: 5.22923660278
velocity: 0.0
doppler_bin: 8
bearing: -3.60063838959
intensity: 30.4178733826
---
header: 
  seq: 1365218
  stamp: 
    secs: 1561683417
    nsecs: 444014415
  frame_id: "ti_mmwave"
point_id: 17
x: 4.892578125
y: -0.30859375
z: 0.681640625
range: 5.27281332016
velocity: 0.0
doppler_bin: 8
bearing: -3.60908436775
intensity: 30.8062648773
---
header: 
  seq: 1365219
  stamp: 
    secs: 1561683417
    nsecs: 444025265
  frame_id: "ti_mmwave"
point_id: 18
x: 1.455078125
y: 0.091796875
z: -0.2109375
range: 1.56877088547
velocity: 0.614668667316
doppler_bin: 9
bearing: 3.60984897614
intensity: 25.1454772949
---
header: 
  seq: 1365220
  stamp: 
    secs: 1561683417
    nsecs: 444035503
  frame_id: "ti_mmwave"
point_id: 19
x: 1.4921875
y: 0.09375
z: -0.236328125
range: 1.61234796047
velocity: 0.614668667316
doppler_bin: 9
bearing: 3.59500956535
intensity: 28.5491294861
---
header: 
  seq: 1365221
  stamp: 
    secs: 1561683417
    nsecs: 444043652
  frame_id: "ti_mmwave"
point_id: 20
x: 1.537109375
y: 0.09765625
z: -0.203125
range: 1.65592491627
velocity: 0.614668667316
doppler_bin: 9
bearing: 3.63525295258
intensity: 28.444770813
---
header: 
  seq: 1365222
  stamp: 
    secs: 1561683417
    nsecs: 444051664
  frame_id: "ti_mmwave"
point_id: 21
x: 1.5859375
y: 0.099609375
z: -0.1484375
range: 1.69950187206
velocity: 0.614668667316
doppler_bin: 9
bearing: 3.59390544891
intensity: 26.211763382
---
header: 
  seq: 1365223
  stamp: 
    secs: 1561683417
    nsecs: 444059394
  frame_id: "ti_mmwave"
point_id: 22
x: 1.619140625
y: 0.154296875
z: -0.177734375
range: 1.74307882786
velocity: 0.614668667316
doppler_bin: 9
bearing: 5.44359350204
intensity: 26.1066017151
---
header: 
  seq: 1365224
  stamp: 
    secs: 1561683417
