header: 
  seq: 1398002
  stamp: 
    secs: 1561683465
    nsecs: 743723626
  frame_id: "ti_mmwave"
point_id: 0
x: 0.01171875
y: -0.0390625
z: -0.0078125
range: 0.0435769706964
velocity: 0.0
doppler_bin: 8
bearing: -73.3007583618
intensity: 30.7700424194
---
header: 
  seq: 1398003
  stamp: 
    secs: 1561683465
    nsecs: 743784493
  frame_id: "ti_mmwave"
point_id: 1
x: 0.017578125
y: -0.080078125
z: -0.0078125
range: 0.0871539413929
velocity: 0.0
doppler_bin: 8
bearing: -77.6192398071
intensity: 32.0002937317
---
header: 
  seq: 1398004
  stamp: 
    secs: 1561683465
    nsecs: 743795993
  frame_id: "ti_mmwave"
point_id: 2
x: 0.029296875
y: -0.119140625
z: -0.00390625
range: 0.130730912089
velocity: 0.0
doppler_bin: 8
bearing: -76.1849746704
intensity: 30.248960495
---
header: 
  seq: 1398005
  stamp: 
    secs: 1561683465
    nsecs: 743804436
  frame_id: "ti_mmwave"
point_id: 3
x: 0.056640625
y: -0.154296875
z: 0.005859375
range: 0.174307882786
velocity: 0.0
doppler_bin: 8
bearing: -69.8423843384
intensity: 25.5266819
---
header: 
  seq: 1398006
  stamp: 
    secs: 1561683465
    nsecs: 743813566
  frame_id: "ti_mmwave"
point_id: 4
x: 0.37109375
y: -0.080078125
z: -1.2109375
range: 1.35088610649
velocity: 0.0
doppler_bin: 8
bearing: -12.177107811
intensity: 21.9033164978
---
header: 
  seq: 1398007
  stamp: 
    secs: 1561683465
    nsecs: 743821539
  frame_id: "ti_mmwave"
point_id: 5
x: 0.255859375
y: -0.041015625
z: 1.283203125
range: 1.39446306229
velocity: 0.0
doppler_bin: 8
bearing: -9.10733413696
intensity: 23.2428245544
---
header: 
  seq: 1398008
  stamp: 
    secs: 1561683465
    nsecs: 743829976
  frame_id: "ti_mmwave"
point_id: 6
x: 2.55078125
y: -0.263671875
z: 1.177734375
range: 3.00681090355
velocity: 0.0
doppler_bin: 8
bearing: -5.90165042877
intensity: 29.4596061707
---
header: 
  seq: 1398009
  stamp: 
    secs: 1561683465
    nsecs: 743838079
  frame_id: "ti_mmwave"
point_id: 7
x: 2.607421875
y: -0.267578125
z: 1.154296875
range: 3.05038785934
velocity: 0.0
doppler_bin: 8
bearing: -5.85928010941
intensity: 32.8080596924
---
header: 
  seq: 1398010
  stamp: 
    secs: 1561683465
    nsecs: 743848567
  frame_id: "ti_mmwave"
point_id: 8
x: 2.6640625
y: -0.271484375
z: 1.123046875
range: 3.09396481514
velocity: 0.0
doppler_bin: 8
bearing: -5.81870603561
intensity: 32.0221595764
---
header: 
  seq: 1398011
  stamp: 
    secs: 1561683465
    nsecs: 743858471
  frame_id: "ti_mmwave"
point_id: 9
x: 4.416015625
y: -0.287109375
z: 1.185546875
range: 4.88062095642
velocity: 0.0
doppler_bin: 8
bearing: -3.71987724304
intensity: 30.7990455627
---
header: 
  seq: 1398012
  stamp: 
    secs: 1561683465
    nsecs: 743867764
  frame_id: "ti_mmwave"
point_id: 10
x: 4.470703125
y: -0.2890625
z: 1.140625
range: 4.9241976738
velocity: 0.0
doppler_bin: 8
bearing: -3.69942688942
intensity: 30.4453983307
---
header: 
  seq: 1398013
  stamp: 
    secs: 1561683465
    nsecs: 743876502
  frame_id: "ti_mmwave"
point_id: 11
x: 4.693359375
y: -0.4453125
z: -0.541015625
range: 5.0549287796
velocity: 0.0
doppler_bin: 8
bearing: -5.42007780075
intensity: 29.2839584351
---
header: 
  seq: 1398014
  stamp: 
    secs: 1561683465
    nsecs: 743885827
  frame_id: "ti_mmwave"
point_id: 12
x: 4.7421875
y: -0.44921875
z: -0.470703125
range: 5.09850549698
velocity: 0.0
doppler_bin: 8
bearing: -5.41137647629
intensity: 33.1806335449
---
header: 
  seq: 1398015
  stamp: 
    secs: 1561683465
    nsecs: 744027488
  frame_id: "ti_mmwave"
point_id: 13
x: 4.7890625
y: -0.453125
z: -0.39453125
range: 5.14208269119
velocity: 0.0
doppler_bin: 8
bearing: -5.40504264832
intensity: 33.6285934448
---
header: 
  seq: 1398016
  stamp: 
    secs: 1561683465
    nsecs: 744054425
  frame_id: "ti_mmwave"
point_id: 14
x: 4.845703125
y: -0.45703125
z: -0.123046875
range: 5.18565940857
velocity: 0.0
doppler_bin: 8
bearing: -5.38801622391
intensity: 30.310043335
---
header: 
  seq: 1398017
  stamp: 
    secs: 1561683465
    nsecs: 744067472
  frame_id: "ti_mmwave"
point_id: 15
x: 4.82421875
y: -0.4609375
z: 0.779296875
range: 5.22923660278
velocity: 0.0
doppler_bin: 8
bearing: -5.4578461647
intensity: 29.8407707214
---
header: 
  seq: 1398018
  stamp: 
    secs: 1561683465
    nsecs: 744080540
  frame_id: "ti_mmwave"
point_id: 16
x: 4.880859375
y: -0.30859375
z: 0.755859375
range: 5.27281332016
velocity: 0.0
doppler_bin: 8
bearing: -3.61772704124
intensity: 30.7261753082
---
header: 
  seq: 1398019
  stamp: 
    secs: 1561683465
    nsecs: 744092026
  frame_id: "ti_mmwave"
point_id: 17
x: 0.787109375
y: 1.09765625
z: -0.0234375
range: 1.43804001808
velocity: 0.614668667316
doppler_bin: 9
bearing: 54.3563804626
intensity: 22.3299617767
---
header: 
  seq: 1398020
  stamp: 
    secs: 1561683465
    nsecs: 744104050
  frame_id: "ti_mmwave"
point_id: 18
x: 1.015625
y: 0.826171875
z: 0.46875
range: 1.48161697388
velocity: 0.614668667316
doppler_bin: 9
bearing: 39.1270294189
intensity: 24.8144264221
---
header: 
  seq: 1398021
  stamp: 
    secs: 1561683465
    nsecs: 744116888
  frame_id: "ti_mmwave"
point_id: 19
x: 1.11328125
y: 0.89453125
z: 0.103515625
range: 1.52519392967
velocity: 0.614668667316
doppler_bin: 9
bearing: 38.7821846008
intensity: 28.0753498077
---
header: 
  seq: 1398022
  stamp: 
    secs: 1561683465
    nsecs: 744129592
  frame_id: "ti_mmwave"
point_id: 20
x: 1.10546875
y: 0.966796875
z: -0.11328125
range: 1.56877088547
velocity: 0.614668667316
doppler_bin: 9
bearing: 41.1715888977
intensity: 28.0821094513
---
header: 
  seq: 1398023
  stamp: 
    secs: 1561683465
    nsecs: 744141542
  frame_id: "ti_mmwave"
point_id: 21
x: 0.748046875
y: 0.615234375
z: 1.1640625
range: 1.61234796047
velocity: 0.614668667316
doppler_bin: 9
bearing: 39.4357376099
intensity: 23.6548805237
---
header: 
  seq: 1398024
  stamp: 
    secs: 1561683465
    nsecs: 744173516
  frame_id: "ti_mmwave"
point_id: 22
x: 1.01171875
y: 0.826171875
z: 0.84375
range: 1.65592491627
velocity: 0.614668667316
doppler_bin: 9
bearing: 39.2351531982
intensity: 25.5388298035
---
header: 
  seq: 1398025
  stamp: 
    secs: 1561683465
    nsecs: 744229625
  frame_id: "ti_mmwave"
point_id: 24
x: 0.041015625
y: -0.033203125
z: 0.0625
range: 0.0871539413929
velocity: 0.0
doppler_bin: 8
bearing: -38.9909973145
intensity: 30.157787323
---
header: 
  seq: 1398026
  stamp: 
    secs: 1561683465
    nsecs: 744248088
  frame_id: "ti_mmwave"
point_id: 25
x: 0.044921875
y: -0.046875
z: 0.103515625
range: 0.130730912089
velocity: 0.0
doppler_bin: 8
bearing: -46.218875885
intensity: 29.0525608063
---
header: 
  seq: 1398027
  stamp: 
    secs: 1561683465
    nsecs: 744264651
  frame_id: "ti_mmwave"
point_id: 27
x: 1.11328125
y: -0.515625
z: 0.32421875
range: 1.35088610649
velocity: 0.0
doppler_bin: 8
bearing: -24.8515853882
intensity: 19.0308990479
---
header: 
  seq: 1398028
  stamp: 
    secs: 1561683465
    nsecs: 744278639
  frame_id: "ti_mmwave"
point_id: 28
x: 2.6796875
y: -2.021484375
z: -3.177734375
range: 4.9241976738
velocity: 0.0
doppler_bin: 8
bearing: -37.0299263
intensity: 27.4429302216
---
header: 
  seq: 1398029
  stamp: 
    secs: 1561683465
    nsecs: 744292092
  frame_id: "ti_mmwave"
point_id: 29
x: 1.275390625
y: -0.04296875
z: -0.443359375
range: 1.43804001808
velocity: 0.614668667316
doppler_bin: 9
bearing: -1.9296027422
intensity: 20.5307846069
---
header: 
  seq: 1398030
  stamp: 
    secs: 1561683465
    nsecs: 744304050
  frame_id: "ti_mmwave"
point_id: 30
x: 0.912109375
y: 1.134765625
z: -0.4140625
range: 1.61234796047
velocity: 0.614668667316
doppler_bin: 9
bearing: 51.2081451416
intensity: 23.138671875
---
header: 
  seq: 1398031
  stamp: 
    secs: 1561683465
    nsecs: 744315738
  frame_id: "ti_mmwave"
point_id: 31
x: 1.052734375
y: 0.728515625
z: 0.8828125
range: 1.65592491627
velocity: 0.614668667316
doppler_bin: 9
bearing: 34.68409729
intensity: 25.5144996643
---
header: 
  seq: 1398032
  stamp: 
    secs: 1561683465
    nsecs: 803537165
  frame_id: "ti_mmwave"
point_id: 0
x: 0.01171875
y: -0.0390625
z: -0.0078125
range: 0.0435769706964
velocity: 0.0
doppler_bin: 8
bearing: -73.3007583618
intensity: 30.7627620697
---
header: 
  seq: 1398033
  stamp: 
    secs: 1561683465
    nsecs: 803610405
  frame_id: "ti_mmwave"
point_id: 1
x: 0.017578125
y: -0.080078125
z: -0.0078125
range: 0.0871539413929
velocity: 0.0
doppler_bin: 8
bearing: -77.6192398071
intensity: 32.0002937317
---
header: 
  seq: 1398034
  stamp: 
    secs: 1561683465
    nsecs: 803620957
  frame_id: "ti_mmwave"
point_id: 2
x: 0.029296875
y: -0.119140625
z: -0.005859375
range: 0.130730912089
velocity: 0.0
doppler_bin: 8
bearing: -76.1849746704
intensity: 30.2448558807
---
header: 
  seq: 1398035
  stamp: 
    secs: 1561683465
    nsecs: 803629110
  frame_id: "ti_mmwave"
point_id: 3
x: 0.056640625
y: -0.154296875
z: 0.005859375
range: 0.174307882786
velocity: 0.0
doppler_bin: 8
bearing: -69.8423843384
intensity: 25.5266819
---
header: 
  seq: 1398036
  stamp: 
    secs: 1561683465
    nsecs: 803636827
  frame_id: "ti_mmwave"
point_id: 4
x: 0.380859375
y: -0.080078125
z: -1.20703125
range: 1.35088610649
velocity: 0.0
doppler_bin: 8
bearing: -11.8738489151
intensity: 21.9312458038
---
header: 
  seq: 1398037
  stamp: 
    secs: 1561683465
    nsecs: 803644503
  frame_id: "ti_mmwave"
point_id: 5
x: 0.236328125
y: -0.041015625
z: 1.287109375
range: 1.39446306229
velocity: 0.0
doppler_bin: 8
bearing: -9.84582233429
intensity: 23.2221927643
---
header: 
  seq: 1398038
  stamp: 
    secs: 1561683465
    nsecs: 803652124
  frame_id: "ti_mmwave"
point_id: 6
x: 0.294921875
y: -0.04296875
z: 1.31640625
range: 1.43804001808
velocity: 0.0
doppler_bin: 8
bearing: -8.28940486908
intensity: 21.8184356689
---
header: 
  seq: 1398039
  stamp: 
    secs: 1561683465
    nsecs: 803660102
  frame_id: "ti_mmwave"
point_id: 7
x: 2.55078125
y: -0.263671875
z: 1.177734375
range: 3.00681090355
velocity: 0.0
doppler_bin: 8
bearing: -5.90165042877
intensity: 29.4645233154
---
header: 
  seq: 1398040
  stamp: 
    secs: 1561683465
    nsecs: 803669027
  frame_id: "ti_mmwave"
point_id: 8
x: 2.603515625
y: -0.267578125
z: 1.162109375
range: 3.05038785934
velocity: 0.0
doppler_bin: 8
bearing: -5.8680100441
intensity: 32.8057823181
---
header: 
  seq: 1398041
  stamp: 
    secs: 1561683465
    nsecs: 803677740
  frame_id: "ti_mmwave"
point_id: 9
x: 2.658203125
y: -0.271484375
z: 1.138671875
range: 3.09396481514
velocity: 0.0
doppler_bin: 8
bearing: -5.83144378662
intensity: 32.0030326843
---
header: 
  seq: 1398042
  stamp: 
    secs: 1561683465
    nsecs: 803685442
  frame_id: "ti_mmwave"
point_id: 10
x: 4.416015625
y: -0.287109375
z: 1.189453125
range: 4.88062095642
velocity: 0.0
doppler_bin: 8
bearing: -3.71987724304
intensity: 30.8098697662
---
header: 
  seq: 1398043
  stamp: 
    secs: 1561683465
    nsecs: 803693181
  frame_id: "ti_mmwave"
point_id: 11
x: 4.466796875
y: -0.2890625
z: 1.15625
range: 4.9241976738
velocity: 0.0
doppler_bin: 8
bearing: -3.70265316963
intensity: 30.4571399689
---
header: 
  seq: 1398044
  stamp: 
    secs: 1561683465
    nsecs: 803700781
  frame_id: "ti_mmwave"
point_id: 12
x: 4.6875
y: -0.4453125
z: -0.5859375
range: 5.0549287796
velocity: 0.0
doppler_bin: 8
bearing: -5.42681217194
intensity: 29.3247375488
---
header: 
  seq: 1398045
  stamp: 
    secs: 1561683465
    nsecs: 803710603
  frame_id: "ti_mmwave"
point_id: 13
x: 4.740234375
y: -0.44921875
z: -0.490234375
range: 5.09850549698
velocity: 0.0
doppler_bin: 8
bearing: -5.41359329224
intensity: 33.2221946716
---
header: 
  seq: 1398046
  stamp: 
    secs: 1561683465
    nsecs: 803720843
  frame_id: "ti_mmwave"
point_id: 14
x: 4.7890625
y: -0.453125
z: -0.40234375
range: 5.14208269119
velocity: 0.0
doppler_bin: 8
bearing: -5.40504264832
intensity: 33.6865882874
---
header: 
  seq: 1398047
  stamp: 
    secs: 1561683465
    nsecs: 803882327
  frame_id: "ti_mmwave"
point_id: 15
x: 4.84375
y: -0.45703125
z: -0.158203125
range: 5.18565940857
velocity: 0.0
doppler_bin: 8
bearing: -5.3901758194
intensity: 30.3782482147
---
header: 
  seq: 1398048
  stamp: 
    secs: 1561683465
    nsecs: 803904352
  frame_id: "ti_mmwave"
point_id: 16
x: 4.8203125
y: -0.4609375
z: 0.8046875
range: 5.22923660278
velocity: 0.0
doppler_bin: 8
bearing: -5.46224212646
intensity: 29.8587532043
---
header: 
  seq: 1398049
  stamp: 
    secs: 1561683465
    nsecs: 803912931
  frame_id: "ti_mmwave"
point_id: 17
x: 4.8671875
y: -0.30859375
z: 0.84765625
range: 5.27281332016
velocity: 0.0
doppler_bin: 8
bearing: -3.62786221504
intensity: 30.7481651306
---
header: 
  seq: 1398050
  stamp: 
    secs: 1561683465
    nsecs: 803920864
  frame_id: "ti_mmwave"
point_id: 18
x: 0.966796875
y: 1.0
z: -0.03125
range: 1.48161697388
velocity: 0.614668667316
doppler_bin: 9
bearing: 45.9671669006
intensity: 25.8092498779
---
header: 
  seq: 1398051
  stamp: 
    secs: 1561683465
    nsecs: 803928514
  frame_id: "ti_mmwave"
point_id: 19
x: 1.1171875
y: 0.89453125
z: 0.02734375
range: 1.52519392967
velocity: 0.614668667316
doppler_bin: 9
bearing: 38.6842308044
intensity: 30.1029987335
---
header: 
  seq: 1398052
  stamp: 
    secs: 1561683465
    nsecs: 803936199
  frame_id: "ti_mmwave"
point_id: 20
x: 1.150390625
y: 0.919921875
z: 0.005859375
range: 1.56877088547
velocity: 0.614668667316
doppler_bin: 9
bearing: 38.6479415894
intensity: 31.8497524261
---
header: 
  seq: 1398053
  stamp: 
    secs: 1561683465
    nsecs: 803943677
  frame_id: "ti_mmwave"
point_id: 21
x: 1.181640625
y: 0.9453125
z: 0.015625
range: 1.61234796047
velocity: 0.614668667316
doppler_bin: 9
bearing: 38.6598091125
intensity: 29.8407707214
---
header: 
  seq: 1398054
  stamp: 
    secs: 1561683465
    nsecs: 803948777
  frame_id: "ti_mmwave"
point_id: 22
x: 1.212890625
y: 0.970703125
z: -0.0078125
range: 1.65592491627
velocity: 0.614668667316
doppler_bin: 9
bearing: 38.6710586548
intensity: 25.6348114014
---
header: 
  seq: 1398055
  stamp: 
    secs: 1561683465
    nsecs: 803979728
  frame_id: "ti_mmwave"
point_id: 24
x: 0.041015625
y: -0.033203125
z: 0.0625
range: 0.0871539413929
velocity: 0.0
doppler_bin: 8
bearing: -38.9909973145
intensity: 30.1619739532
---
header: 
  seq: 1398056
  stamp: 
    secs: 1561683465
    nsecs: 803997609
  frame_id: "ti_mmwave"
point_id: 25
x: 0.044921875
y: -0.046875
z: 0.103515625
range: 0.130730912089
velocity: 0.0
doppler_bin: 8
bearing: -46.218875885
intensity: 29.0579586029
---
header: 
  seq: 1398057
  stamp: 
    secs: 1561683465
    nsecs: 804014666
  frame_id: "ti_mmwave"
point_id: 27
x: 1.208984375
y: 0.357421875
z: 0.130859375
range: 1.35088610649
velocity: 0.0
doppler_bin: 8
bearing: 16.4696884155
intensity: 19.0848503113
---
header: 
  seq: 1398058
  stamp: 
    secs: 1561683465
    nsecs: 804028173
  frame_id: "ti_mmwave"
point_id: 28
x: 2.734375
y: -2.021484375
z: -3.130859375
range: 4.9241976738
velocity: 0.0
doppler_bin: 8
bearing: -36.47498703
intensity: 27.466342926
---
header: 
  seq: 1398059
  stamp: 
    secs: 1561683465
    nsecs: 804046462
  frame_id: "ti_mmwave"
point_id: 29
x: 0.396484375
y: 0.4375
z: 1.4375
range: 1.65592491627
velocity: 0.614668667316
doppler_bin: 9
bearing: 47.8155555725
intensity: 22.718416214
---
header: 
  seq: 1398060
  stamp: 
    secs: 1561683465
    nsecs: 805284232
  frame_id: "ti_mmwave"
point_id: 0
x: 0.01171875
y: -0.0390625
z: -0.0078125
range: 0.0435769706964
velocity: 0.0
doppler_bin: 8
bearing: -73.3007583618
intensity: 30.7627620697
---
header: 
  seq: 1398061
  stamp: 
    secs: 1561683465
    nsecs: 805345872
  frame_id: "ti_mmwave"
point_id: 1
x: 0.017578125
y: -0.080078125
z: -0.0078125
range: 0.0871539413929
velocity: 0.0
doppler_bin: 8
bearing: -77.6192398071
intensity: 31.9975509644
---
header: 
  seq: 1398062
  stamp: 
    secs: 1561683465
    nsecs: 805367436
  frame_id: "ti_mmwave"
point_id: 2
x: 0.029296875
y: -0.119140625
z: -0.005859375
range: 0.130730912089
velocity: 0.0
doppler_bin: 8
bearing: -76.1849746704
intensity: 30.2448558807
---
header: 
  seq: 1398063
  stamp: 
    secs: 1561683465
    nsecs: 805392973
  frame_id: "ti_mmwave"
point_id: 3
x: 0.056640625
y: -0.154296875
z: 0.005859375
range: 0.174307882786
velocity: 0.0
doppler_bin: 8
bearing: -69.8423843384
intensity: 25.5266819
---
header: 
  seq: 1398064
  stamp: 
    secs: 1561683465
    nsecs: 805477580
  frame_id: "ti_mmwave"
point_id: 4
x: 0.37109375
y: -0.080078125
z: -1.208984375
range: 1.35088610649
velocity: 0.0
doppler_bin: 8
bearing: -12.177107811
intensity: 21.875207901
---
header: 
  seq: 1398065
  stamp: 
    secs: 1561683465
    nsecs: 805496359
  frame_id: "ti_mmwave"
point_id: 5
x: 0.248046875
y: -0.041015625
z: 1.28515625
range: 1.39446306229
velocity: 0.0
doppler_bin: 8
bearing: -9.38914775848
intensity: 23.2014636993
---
header: 
  seq: 1398066
  stamp: 
    secs: 1561683465
    nsecs: 805504310
  frame_id: "ti_mmwave"
point_id: 6
x: 0.39453125
y: -0.0
z: 1.291015625
range: 1.43804001808
velocity: 0.0
doppler_bin: 8
bearing: -0.0
intensity: 21.8184356689
---
header: 
  seq: 1398067
  stamp: 
    secs: 1561683465
    nsecs: 805512210
  frame_id: "ti_mmwave"
point_id: 7
x: 2.546875
y: -0.263671875
z: 1.185546875
range: 3.00681090355
velocity: 0.0
doppler_bin: 8
bearing: -5.91063833237
intensity: 29.4497585297
---
header: 
  seq: 1398068
  stamp: 
    secs: 1561683465
    nsecs: 805521787
  frame_id: "ti_mmwave"
point_id: 8
x: 2.603515625
y: -0.267578125
z: 1.1640625
range: 3.05038785934
velocity: 0.0
doppler_bin: 8
bearing: -5.8680100441
intensity: 32.8035087585
---
header: 
  seq: 1398069
  stamp: 
    secs: 1561683465
    nsecs: 805527037
  frame_id: "ti_mmwave"
point_id: 9
x: 2.65625
y: -0.271484375
z: 1.142578125
range: 3.09396481514
velocity: 0.0
doppler_bin: 8
bearing: -5.83570146561
intensity: 32.0112380981
---
header: 
  seq: 1398070
  stamp: 
    secs: 1561683465
    nsecs: 805546139
  frame_id: "ti_mmwave"
point_id: 10
x: 4.41796875
y: -0.287109375
z: 1.1796875
range: 4.88062095642
velocity: 0.0
doppler_bin: 8
bearing: -3.71823716164
intensity: 30.788192749
---
header: 
  seq: 1398071
  stamp: 
    secs: 1561683465
    nsecs: 805561730
  frame_id: "ti_mmwave"
point_id: 11
x: 4.46875
y: -0.2890625
z: 1.146484375
range: 4.9241976738
velocity: 0.0
doppler_bin: 8
bearing: -3.70103907585
intensity: 30.4336223602
---
header: 
  seq: 1398072
  stamp: 
    secs: 1561683465
    nsecs: 805578345
  frame_id: "ti_mmwave"
point_id: 12
x: 4.6875
y: -0.4453125
z: -0.58203125
range: 5.0549287796
velocity: 0.0
doppler_bin: 8
bearing: -5.42681217194
intensity: 29.2890777588
---
header: 
  seq: 1398073
  stamp: 
    secs: 1561683465
    nsecs: 805597844
  frame_id: "ti_mmwave"
point_id: 13
x: 4.73828125
y: -0.44921875
z: -0.49609375
range: 5.09850549698
velocity: 0.0
doppler_bin: 8
bearing: -5.4158115387
intensity: 33.2118415833
---
header: 
  seq: 1398074
  stamp: 
    secs: 1561683465
    nsecs: 805605681
  frame_id: "ti_mmwave"
point_id: 14
x: 4.787109375
y: -0.453125
z: -0.42578125
range: 5.14208269119
velocity: 0.0
doppler_bin: 8
bearing: -5.40723514557
intensity: 33.6903038025
---
header: 
  seq: 1398075
  stamp: 
    secs: 1561683465
    nsecs: 805614014
  frame_id: "ti_mmwave"
point_id: 15
x: 4.841796875
y: -0.45703125
z: -0.23046875
range: 5.18565940857
velocity: 0.0
doppler_bin: 8
bearing: -5.39233732224
intensity: 30.4178733826
---
header: 
  seq: 1398076
  stamp: 
    secs: 1561683465
    nsecs: 805621478
  frame_id: "ti_mmwave"
point_id: 16
x: 4.884765625
y: -0.30859375
z: 0.740234375
range: 5.27281332016
velocity: 0.0
doppler_bin: 8
bearing: -3.6148416996
intensity: 30.6483230591
---
header: 
  seq: 1398077
  stamp: 
    secs: 1561683465
    nsecs: 805629218
  frame_id: "ti_mmwave"
point_id: 17
x: 0.908203125
y: 1.04296875
z: 0.1484375
range: 1.48161697388
velocity: 0.614668667316
doppler_bin: 9
bearing: 48.9510917664
intensity: 21.2710475922
---
header: 
  seq: 1398078
  stamp: 
    secs: 1561683465
    nsecs: 805637082
  frame_id: "ti_mmwave"
point_id: 18
x: 0.9453125
y: 1.07421875
z: 0.0390625
range: 1.52519392967
velocity: 0.614668667316
doppler_bin: 9
bearing: 48.6522216797
intensity: 26.2324924469
---
header: 
  seq: 1398079
  stamp: 
    secs: 1561683465
    nsecs: 805648673
  frame_id: "ti_mmwave"
point_id: 19
x: 1.0234375
y: 1.05859375
z: 0.0078125
range: 1.56877088547
velocity: 0.614668667316
doppler_bin: 9
bearing: 45.967376709
intensity: 27.8532981873
---
header: 
  seq: 1398080
  stamp: 
    secs: 1561683465
    nsecs: 805661703
  frame_id: "ti_mmwave"
point_id: 20
x: 1.052734375
y: 1.087890625
z: -0.03125
range: 1.61234796047
velocity: 0.614668667316
doppler_bin: 9
bearing: 45.94090271
intensity: 26.6275787354
---
header: 
  seq: 1398081
  stamp: 
    secs: 1561683465
    nsecs: 805743548
  frame_id: "ti_mmwave"
point_id: 21
x: 1.212890625
y: 0.970703125
z: -0.03125
range: 1.65592491627
velocity: 0.614668667316
doppler_bin: 9
bearing: 38.6710586548
intensity: 26.6931686401
---
header: 
  seq: 1398082
  stamp: 
    secs: 1561683465
    nsecs: 805760157
  frame_id: "ti_mmwave"
point_id: 22
x: 1.275390625
y: 0.947265625
z: 0.14453125
range: 1.69950187206
velocity: 0.614668667316
doppler_bin: 9
bearing: 36.602230072
intensity: 28.5733242035
---
header: 
  seq: 1398083
  stamp: 
    secs: 1561683465
    nsecs: 805773744
  frame_id: "ti_mmwave"
point_id: 23
x: 1.32421875
y: 0.919921875
z: 0.27734375
range: 1.74307882786
velocity: 0.614668667316
doppler_bin: 9
bearing: 34.7873306274
intensity: 26.0314445496
---
header: 
  seq: 1398084
  stamp: 
    secs: 1561683465
    nsecs: 805789673
  frame_id: "ti_mmwave"
point_id: 25
x: 0.041015625
y: -0.033203125
z: 0.0625
range: 0.0871539413929
velocity: 0.0
doppler_bin: 8
bearing: -38.9909973145
intensity: 30.1661548615
---
header: 
  seq: 1398085
  stamp: 
    secs: 1561683465
    nsecs: 805803973
  frame_id: "ti_mmwave"
point_id: 26
x: 0.044921875
y: -0.046875
z: 0.103515625
range: 0.130730912089
velocity: 0.0
doppler_bin: 8
bearing: -46.218875885
intensity: 29.0579586029
---
header: 
  seq: 1398086
  stamp: 
    secs: 1561683465
    nsecs: 805821098
  frame_id: "ti_mmwave"
point_id: 28
x: 1.208984375
y: 0.357421875
z: 0.14453125
range: 1.35088610649
velocity: 0.0
doppler_bin: 8
bearing: 16.4696884155
intensity: 19.0848503113
---
header: 
  seq: 1398087
  stamp: 
    secs: 1561683465
    nsecs: 805835931
  frame_id: "ti_mmwave"
point_id: 29
x: 2.755859375
y: -2.021484375
z: -3.11328125
range: 4.9241976738
velocity: 0.0
doppler_bin: 8
bearing: -36.2608757019
intensity: 27.4585514069
---
header: 
  seq: 1398088
  stamp: 
    secs: 1561683465
    nsecs: 805849260
  frame_id: "ti_mmwave"
point_id: 30
x: 1.294921875
y: -0.130859375
z: 0.4921875
range: 1.48161697388
velocity: 0.614668667316
doppler_bin: 9
bearing: -5.77048158646
intensity: 19.2427921295
---
header: 
  seq: 1398089
  stamp: 
    secs: 1561683465
    nsecs: 863533836
  frame_id: "ti_mmwave"
point_id: 0
x: 0.01171875
y: -0.0390625
z: -0.0078125
range: 0.0435769706964
velocity: 0.0
doppler_bin: 8
bearing: -73.3007583618
intensity: 30.7627620697
---
header: 
  seq: 1398090
  stamp: 
    secs: 1561683465
    nsecs: 863605505
  frame_id: "ti_mmwave"
point_id: 1
x: 0.017578125
y: -0.080078125
z: -0.0078125
range: 0.0871539413929
velocity: 0.0
doppler_bin: 8
bearing: -77.6192398071
intensity: 31.9975509644
---
header: 
  seq: 1398091
  stamp: 
    secs: 1561683465
    nsecs: 863618233
  frame_id: "ti_mmwave"
point_id: 2
x: 0.029296875
y: -0.119140625
z: -0.00390625
range: 0.130730912089
velocity: 0.0
doppler_bin: 8
bearing: -76.1849746704
intensity: 30.2448558807
---
header: 
  seq: 1398092
  stamp: 
    secs: 1561683465
    nsecs: 863626395
  frame_id: "ti_mmwave"
point_id: 3
x: 0.056640625
y: -0.154296875
z: 0.005859375
range: 0.174307882786
velocity: 0.0
doppler_bin: 8
bearing: -69.8423843384
intensity: 25.5266819
---
header: 
  seq: 1398093
  stamp: 
    secs: 1561683465
    nsecs: 863634209
  frame_id: "ti_mmwave"
point_id: 4
x: 0.333984375
y: -0.080078125
z: -1.220703125
range: 1.35088610649
velocity: 0.0
doppler_bin: 8
bearing: -13.4830598831
intensity: 21.9033164978
---
header: 
  seq: 1398094
  stamp: 
    secs: 1561683465
    nsecs: 863642119
  frame_id: "ti_mmwave"
point_id: 5
x: 0.28125
y: -0.041015625
z: 1.27734375
range: 1.39446306229
velocity: 0.0
doppler_bin: 8
bearing: -8.29714488983
intensity: 23.2428245544
---
header: 
  seq: 1398095
  stamp: 
    secs: 1561683465
    nsecs: 863649987
  frame_id: "ti_mmwave"
point_id: 6
x: 0.447265625
y: -0.04296875
z: 1.2734375
range: 1.43804001808
velocity: 0.0
doppler_bin: 8
bearing: -5.48755693436
intensity: 21.9033164978
---
header: 
  seq: 1398096
  stamp: 
    secs: 1561683465
    nsecs: 863658054
  frame_id: "ti_mmwave"
point_id: 7
x: 2.548828125
y: -0.263671875
z: 1.185546875
range: 3.00681090355
velocity: 0.0
doppler_bin: 8
bearing: -5.90614128113
intensity: 29.4645233154
---
header: 
  seq: 1398097
  stamp: 
    secs: 1561683465
    nsecs: 863666339
  frame_id: "ti_mmwave"
point_id: 8
x: 2.603515625
y: -0.267578125
z: 1.16015625
range: 3.05038785934
velocity: 0.0
doppler_bin: 8
bearing: -5.8680100441
intensity: 32.810333252
---
header: 
  seq: 1398098
  stamp: 
    secs: 1561683465
    nsecs: 863677525
  frame_id: "ti_mmwave"
point_id: 9
x: 2.658203125
y: -0.271484375
z: 1.138671875
range: 3.09396481514
velocity: 0.0
doppler_bin: 8
bearing: -5.83144378662
intensity: 32.0221595764
---
header: 
  seq: 1398099
  stamp: 
    secs: 1561683465
    nsecs: 863686294
  frame_id: "ti_mmwave"
point_id: 10
x: 4.416015625
y: -0.287109375
z: 1.18359375
range: 4.88062095642
velocity: 0.0
doppler_bin: 8
bearing: -3.71987724304
intensity: 30.7990455627
---
header: 
  seq: 1398100
  stamp: 
    secs: 1561683465
    nsecs: 863694125
  frame_id: "ti_mmwave"
point_id: 11
x: 4.46875
y: -0.2890625
z: 1.146484375
range: 4.9241976738
velocity: 0.0
doppler_bin: 8
bearing: -3.70103907585
intensity: 30.4414768219
---
header: 
  seq: 1398101
  stamp: 
    secs: 1561683465
    nsecs: 863702024
  frame_id: "ti_mmwave"
point_id: 12
x: 4.69140625
y: -0.4453125
z: -0.552734375
range: 5.0549287796
velocity: 0.0
doppler_bin: 8
bearing: -5.42232084274
intensity: 29.3247375488
---
header: 
  seq: 1398102
  stamp: 
    secs: 1561683465
    nsecs: 863711453
  frame_id: "ti_mmwave"
point_id: 13
x: 4.7421875
y: -0.44921875
z: -0.46875
range: 5.09850549698
velocity: 0.0
doppler_bin: 8
bearing: -5.41137647629
intensity: 33.220123291
---
header: 
  seq: 1398103
  stamp: 
    secs: 1561683465
    nsecs: 863719393
  frame_id: "ti_mmwave"
point_id: 14
x: 4.791015625
y: -0.453125
z: -0.38671875
range: 5.14208269119
velocity: 0.0
doppler_bin: 8
bearing: -5.40285253525
intensity: 33.6810073853
---
header: 
  seq: 1398104
  stamp: 
    secs: 1561683465
    nsecs: 863741205
  frame_id: "ti_mmwave"
point_id: 15
x: 4.84375
y: -0.45703125
z: -0.166015625
range: 5.18565940857
velocity: 0.0
doppler_bin: 8
bearing: -5.3901758194
intensity: 30.382226944
---
header: 
  seq: 1398105
  stamp: 
    secs: 1561683465
    nsecs: 863755816
  frame_id: "ti_mmwave"
point_id: 16
x: 4.85546875
y: -0.46484375
z: 0.84375
range: 5.27281332016
velocity: 0.0
doppler_bin: 8
bearing: -5.46860933304
intensity: 30.696680069
---
header: 
  seq: 1398106
  stamp: 
    secs: 1561683465
    nsecs: 863764350
  frame_id: "ti_mmwave"
point_id: 17
x: 0.833984375
y: 1.1640625
z: 0.033203125
range: 1.52519392967
velocity: 0.614668667316
doppler_bin: 9
bearing: 54.3805618286
intensity: 21.8184356689
---
header: 
  seq: 1398107
  stamp: 
    secs: 1561683465
    nsecs: 863777228
  frame_id: "ti_mmwave"
point_id: 18
x: 1.060546875
y: 1.01171875
z: -0.134765625
range: 1.56877088547
velocity: 0.614668667316
doppler_bin: 9
bearing: 43.6502075195
intensity: 27.3319721222
---
header: 
  seq: 1398108
  stamp: 
    secs: 1561683465
    nsecs: 863785428
  frame_id: "ti_mmwave"
point_id: 19
x: 1.138671875
y: 0.994140625
z: -0.09765625
range: 1.61234796047
velocity: 0.614668667316
doppler_bin: 9
bearing: 41.1232452393
intensity: 30.1619739532
---
header: 
  seq: 1398109
  stamp: 
    secs: 1561683465
    nsecs: 863966775
  frame_id: "ti_mmwave"
point_id: 20
x: 1.171875
y: 1.01953125
z: -0.03515625
range: 1.65592491627
velocity: 0.614668667316
doppler_bin: 9
bearing: 41.0232696533
intensity: 29.4349460602
---
header: 
  seq: 1398110
  stamp: 
    secs: 1561683465
    nsecs: 863990036
  frame_id: "ti_mmwave"
point_id: 22
x: 0.041015625
y: -0.033203125
z: 0.0625
range: 0.0871539413929
velocity: 0.0
doppler_bin: 8
bearing: -38.9909973145
intensity: 30.1619739532
---
header: 
  seq: 1398111
  stamp: 
    secs: 1561683465
    nsecs: 863998750
  frame_id: "ti_mmwave"
point_id: 23
x: 0.044921875
y: -0.046875
z: 0.103515625
range: 0.130730912089
velocity: 0.0
doppler_bin: 8
bearing: -46.218875885
intensity: 29.0471553802
---
header: 
  seq: 1398112
  stamp: 
    secs: 1561683465
    nsecs: 864010853
  frame_id: "ti_mmwave"
point_id: 25
x: 1.1171875
y: -0.515625
z: 0.30859375
range: 1.35088610649
velocity: 0.0
doppler_bin: 8
bearing: -24.7751407623
intensity: 19.0308990479
---
header: 
  seq: 1398113
  stamp: 
    secs: 1561683465
    nsecs: 864018531
  frame_id: "ti_mmwave"
point_id: 26
x: 2.806640625
y: -2.00390625
z: -3.015625
range: 4.88062095642
velocity: 0.0
doppler_bin: 8
bearing: -35.5263633728
intensity: 27.8031730652
---
header: 
  seq: 1398114
  stamp: 
    secs: 1561683465
    nsecs: 864026133
  frame_id: "ti_mmwave"
point_id: 27
x: 2.734375
y: -2.021484375
z: -3.130859375
range: 4.9241976738
velocity: 0.0
doppler_bin: 8
bearing: -36.47498703
intensity: 27.4585514069
---
header: 
  seq: 1398115
  stamp: 
    secs: 1561683465
    nsecs: 864033924
  frame_id: "ti_mmwave"
point_id: 28
x: 0.677734375
y: 0.671875
z: -1.068359375
range: 1.52519392967
velocity: 0.614668667316
doppler_bin: 9
bearing: 44.751247406
intensity: 19.3951931
---
header: 
  seq: 1398116
  stamp: 
    secs: 1561683465
    nsecs: 865221264
  frame_id: "ti_mmwave"
point_id: 0
x: 0.01171875
y: -0.0390625
z: -0.0078125
range: 0.0435769706964
velocity: 0.0
doppler_bin: 8
bearing: -73.3007583618
intensity: 30.7591171265
---
header: 
  seq: 1398117
  stamp: 
    secs: 1561683465
    nsecs: 865271608
  frame_id: "ti_mmwave"
point_id: 1
x: 0.017578125
y: -0.080078125
z: -0.0078125
range: 0.0871539413929
velocity: 0.0
doppler_bin: 8
bearing: -77.6192398071
intensity: 31.9975509644
---
header: 
  seq: 1398118
  stamp: 
    secs: 1561683465
    nsecs: 865295351
  frame_id: "ti_mmwave"
point_id: 2
x: 0.029296875
y: -0.119140625
z: -0.00390625
range: 0.130730912089
velocity: 0.0
doppler_bin: 8
bearing: -76.1849746704
intensity: 30.2407493591
---
header: 
  seq: 1398119
  stamp: 
    secs: 1561683465
    nsecs: 865348294
  frame_id: "ti_mmwave"
point_id: 3
x: 0.056640625
y: -0.154296875
z: 0.005859375
range: 0.174307882786
velocity: 0.0
doppler_bin: 8
bearing: -69.8423843384
intensity: 25.5144996643
---
header: 
  seq: 1398120
  stamp: 
    secs: 1561683465
    nsecs: 865363667
  frame_id: "ti_mmwave"
point_id: 4
x: 0.337890625
y: -0.080078125
z: -1.21875
range: 1.35088610649
velocity: 0.0
doppler_bin: 8
bearing: -13.332783699
intensity: 21.875207901
---
header: 
  seq: 1398121
  stamp: 
    secs: 1561683465
    nsecs: 865377759
  frame_id: "ti_mmwave"
point_id: 5
x: 0.294921875
y: -0.041015625
z: 1.275390625
range: 1.39446306229
velocity: 0.0
doppler_bin: 8
bearing: -7.91750335693
intensity: 23.2428245544
---
header: 
  seq: 1398122
  stamp: 
    secs: 1561683465
    nsecs: 865388658
  frame_id: "ti_mmwave"
point_id: 6
x: 0.408203125
y: -0.0
z: 1.287109375
range: 1.43804001808
velocity: 0.0
doppler_bin: 8
bearing: -0.0
intensity: 21.9589958191
---
header: 
  seq: 1398123
  stamp: 
    secs: 1561683465
    nsecs: 865444131
  frame_id: "ti_mmwave"
point_id: 7
x: 2.544921875
y: -0.263671875
z: 1.19140625
range: 3.00681090355
velocity: 0.0
doppler_bin: 8
bearing: -5.91514253616
intensity: 29.4546852112
---
header: 
  seq: 1398124
  stamp: 
    secs: 1561683465
    nsecs: 865460662
  frame_id: "ti_mmwave"
point_id: 8
x: 2.603515625
y: -0.267578125
z: 1.1640625
range: 3.05038785934
velocity: 0.0
doppler_bin: 8
bearing: -5.8680100441
intensity: 32.8080596924
---
header: 
  seq: 1398125
  stamp: 
    secs: 1561683465
    nsecs: 865476441
  frame_id: "ti_mmwave"
point_id: 9
x: 2.658203125
y: -0.271484375
z: 1.13671875
range: 3.09396481514
velocity: 0.0
doppler_bin: 8
bearing: -5.83144378662
intensity: 32.0112380981
---
header: 
  seq: 1398126
  stamp: 
    secs: 1561683465
    nsecs: 865487270
  frame_id: "ti_mmwave"
point_id: 10
x: 4.4140625
y: -0.287109375
z: 1.193359375
range: 4.88062095642
velocity: 0.0
doppler_bin: 8
bearing: -3.72151875496
intensity: 30.8386077881
---
header: 
  seq: 1398127
  stamp: 
    secs: 1561683465
    nsecs: 865543441
  frame_id: "ti_mmwave"
point_id: 11
x: 4.466796875
y: -0.2890625
z: 1.15625
range: 4.9241976738
velocity: 0.0
doppler_bin: 8
bearing: -3.70265316963
intensity: 30.4766426086
---
header: 
  seq: 1398128
  stamp: 
    secs: 1561683465
    nsecs: 865559091
  frame_id: "ti_mmwave"
point_id: 12
x: 4.693359375
y: -0.4453125
z: -0.544921875
range: 5.0549287796
velocity: 0.0
doppler_bin: 8
bearing: -5.42007780075
intensity: 29.2941894531
---
header: 
  seq: 1398129
  stamp: 
    secs: 1561683465
    nsecs: 865571299
  frame_id: "ti_mmwave"
point_id: 13
x: 4.7421875
y: -0.44921875
z: -0.462890625
range: 5.09850549698
velocity: 0.0
doppler_bin: 8
bearing: -5.41137647629
intensity: 33.220123291
---
header: 
  seq: 1398130
  stamp: 
    secs: 1561683465
    nsecs: 865583141
  frame_id: "ti_mmwave"
point_id: 14
x: 4.791015625
y: -0.453125
z: -0.384765625
range: 5.14208269119
velocity: 0.0
doppler_bin: 8
bearing: -5.40285253525
intensity: 33.6977233887
---
header: 
  seq: 1398131
  stamp: 
    secs: 1561683465
    nsecs: 865593520
  frame_id: "ti_mmwave"
point_id: 15
x: 4.84375
y: -0.45703125
z: -0.169921875
range: 5.18565940857
velocity: 0.0
doppler_bin: 8
bearing: -5.3901758194
intensity: 30.4099769592
---
header: 
  seq: 1398132
  stamp: 
    secs: 1561683465
    nsecs: 865647449
  frame_id: "ti_mmwave"
point_id: 16
x: 4.828125
y: -0.4609375
z: 0.76171875
range: 5.22923660278
velocity: 0.0
doppler_bin: 8
bearing: -5.4534573555
intensity: 29.8407707214
---
header: 
  seq: 1398133
  stamp: 
    secs: 1561683465
    nsecs: 865663924
  frame_id: "ti_mmwave"
point_id: 17
x: 4.87109375
y: -0.30859375
z: 0.82421875
range: 5.27281332016
velocity: 0.0
doppler_bin: 8
bearing: -3.62496066093
intensity: 30.7261753082
---
header: 
  seq: 1398134
  stamp: 
    secs: 1561683465
    nsecs: 865679010
  frame_id: "ti_mmwave"
point_id: 18
x: 1.107421875
y: 0.875
z: 0.421875
range: 1.56877088547
velocity: 0.614668667316
doppler_bin: 9
bearing: 38.3130912781
intensity: 23.2633590698
---
header: 
  seq: 1398135
  stamp: 
    secs: 1561683465
    nsecs: 865690724
  frame_id: "ti_mmwave"
point_id: 19
x: 1.150390625
y: 0.8984375
z: 0.400390625
range: 1.61234796047
velocity: 0.614668667316
doppler_bin: 9
bearing: 37.9892921448
intensity: 28.5003318787
---
header: 
  seq: 1398136
  stamp: 
    secs: 1561683465
    nsecs: 865725621
  frame_id: "ti_mmwave"
point_id: 20
x: 1.185546875
y: 0.923828125
z: 0.3984375
range: 1.65592491627
velocity: 0.614668667316
doppler_bin: 9
bearing: 37.9272232056
intensity: 29.9825935364
---
header: 
  seq: 1398137
  stamp: 
    secs: 1561683465
    nsecs: 865739661
  frame_id: "ti_mmwave"
point_id: 21
x: 1.275390625
y: 0.896484375
z: 0.33984375
range: 1.69950187206
velocity: 0.614668667316
doppler_bin: 9
bearing: 35.1037521362
intensity: 28.6981811523
---
header: 
  seq: 1398138
  stamp: 
    secs: 1561683465
    nsecs: 865753149
  frame_id: "ti_mmwave"
point_id: 22
x: 1.375
y: 0.869140625
z: 0.1796875
range: 1.74307882786
velocity: 0.614668667316
doppler_bin: 9
bearing: 32.2970733643
intensity: 26.1595001221
---
header: 
  seq: 1398139
  stamp: 
    secs: 1561683465
    nsecs: 865773013
  frame_id: "ti_mmwave"
point_id: 24
x: 0.041015625
y: -0.033203125
z: 0.0625
range: 0.0871539413929
velocity: 0.0
doppler_bin: 8
bearing: -38.9909973145
intensity: 30.1619739532
---
header: 
  seq: 1398140
  stamp: 
    secs: 1561683465
    nsecs: 865785400
  frame_id: "ti_mmwave"
point_id: 25
x: 0.044921875
y: -0.046875
z: 0.103515625
range: 0.130730912089
velocity: 0.0
doppler_bin: 8
bearing: -46.218875885
intensity: 29.0579586029
---
header: 
  seq: 1398141
  stamp: 
    secs: 1561683465
    nsecs: 865799986
  frame_id: "ti_mmwave"
point_id: 27
x: 1.115234375
y: -0.515625
z: 0.314453125
range: 1.35088610649
velocity: 0.0
doppler_bin: 8
bearing: -24.8133087158
intensity: 19.0308990479
---
header: 
  seq: 1398142
  stamp: 
    secs: 1561683465
    nsecs: 865816716
  frame_id: "ti_mmwave"
point_id: 28
x: 2.82421875
y: -2.00390625
z: -2.998046875
range: 4.88062095642
velocity: 0.0
doppler_bin: 8
bearing: -35.3573608398
intensity: 27.8390350342
---
header: 
  seq: 1398143
  stamp: 
    secs: 1561683465
    nsecs: 865830483
  frame_id: "ti_mmwave"
point_id: 29
x: 2.75
y: -2.021484375
z: -3.1171875
range: 4.9241976738
velocity: 0.0
doppler_bin: 8
bearing: -36.3190612793
intensity: 27.5050830841
---
header: 
  seq: 1398144
  stamp: 
    secs: 1561683465
    nsecs: 923495651
  frame_id: "ti_mmwave"
point_id: 0
x: 0.01171875
y: -0.0390625
z: -0.0078125
range: 0.0435769706964
velocity: 0.0
doppler_bin: 8
bearing: -73.3007583618
intensity: 30.7627620697
---
header: 
  seq: 1398145
  stamp: 
    secs: 1561683465
    nsecs: 923569751
  frame_id: "ti_mmwave"
point_id: 1
x: 0.017578125
y: -0.080078125
z: -0.0078125
range: 0.0871539413929
velocity: 0.0
doppler_bin: 8
bearing: -77.6192398071
intensity: 31.9975509644
---
header: 
  seq: 1398146
  stamp: 
    secs: 1561683465
    nsecs: 923580605
  frame_id: "ti_mmwave"
point_id: 2
x: 0.041015625
y: -0.115234375
z: -0.0078125
range: 0.130730912089
velocity: 0.0
doppler_bin: 8
bearing: -70.4077224731
intensity: 30.2366390228
---
header: 
  seq: 1398147
  stamp: 
    secs: 1561683465
    nsecs: 923588817
  frame_id: "ti_mmwave"
point_id: 3
x: 0.056640625
y: -0.154296875
z: 0.005859375
range: 0.174307882786
velocity: 0.0
doppler_bin: 8
bearing: -69.8423843384
intensity: 25.5022830963
---
header: 
  seq: 1398148
  stamp: 
    secs: 1561683465
    nsecs: 923599094
  frame_id: "ti_mmwave"
point_id: 4
x: 0.353515625
y: -0.080078125
z: -1.21484375
range: 1.35088610649
velocity: 0.0
doppler_bin: 8
bearing: -12.7632131577
intensity: 21.9312458038
---
header: 
  seq: 1398149
  stamp: 
    secs: 1561683465
    nsecs: 923607428
  frame_id: "ti_mmwave"
point_id: 5
x: 0.30078125
y: -0.041015625
z: 1.2734375
range: 1.39446306229
velocity: 0.0
doppler_bin: 8
bearing: -7.76516628265
intensity: 23.2633590698
---
header: 
  seq: 1398150
  stamp: 
    secs: 1561683465
    nsecs: 923616935
  frame_id: "ti_mmwave"
point_id: 6
x: 0.419921875
y: -0.0
z: 1.283203125
range: 1.43804001808
velocity: 0.0
doppler_bin: 8
bearing: -0.0
intensity: 21.9033164978
---
header: 
  seq: 1398151
  stamp: 
    secs: 1561683465
    nsecs: 923628126
  frame_id: "ti_mmwave"
point_id: 7
x: 2.55078125
y: -0.263671875
z: 1.1796875
range: 3.00681090355
velocity: 0.0
doppler_bin: 8
bearing: -5.90165042877
intensity: 29.4497585297
---
header: 
  seq: 1398152
  stamp: 
    secs: 1561683465
    nsecs: 923706913
  frame_id: "ti_mmwave"
point_id: 8
x: 2.603515625
y: -0.267578125
z: 1.16015625
range: 3.05038785934
velocity: 0.0
doppler_bin: 8
bearing: -5.8680100441
intensity: 32.8035087585
---
header: 
  seq: 1398153
  stamp: 
    secs: 1561683465
    nsecs: 923717323
  frame_id: "ti_mmwave"
point_id: 9
x: 2.65625
y: -0.271484375
z: 1.142578125
range: 3.09396481514
velocity: 0.0
doppler_bin: 8
bearing: -5.83570146561
intensity: 32.0085067749
---
header: 
  seq: 1398154
  stamp: 
    secs: 1561683465
    nsecs: 923725435
  frame_id: "ti_mmwave"
point_id: 10
x: 4.416015625
y: -0.287109375
z: 1.185546875
range: 4.88062095642
velocity: 0.0
doppler_bin: 8
bearing: -3.71987724304
intensity: 30.8026561737
---
header: 
  seq: 1398155
  stamp: 
    secs: 1561683465
    nsecs: 923733198
  frame_id: "ti_mmwave"
point_id: 11
x: 4.466796875
y: -0.2890625
z: 1.15625
range: 4.9241976738
velocity: 0.0
doppler_bin: 8
bearing: -3.70265316963
intensity: 30.4453983307
---
header: 
  seq: 1398156
  stamp: 
    secs: 1561683465
    nsecs: 923740982
  frame_id: "ti_mmwave"
point_id: 12
x: 4.69140625
y: -0.4453125
z: -0.560546875
range: 5.0549287796
velocity: 0.0
doppler_bin: 8
bearing: -5.42232084274
intensity: 29.2839584351
---
header: 
  seq: 1398157
  stamp: 
    secs: 1561683465
    nsecs: 923748822
  frame_id: "ti_mmwave"
point_id: 13
x: 4.7421875
y: -0.44921875
z: -0.466796875
range: 5.09850549698
velocity: 0.0
doppler_bin: 8
bearing: -5.41137647629
intensity: 33.2139129639
---
header: 
  seq: 1398158
  stamp: 
    secs: 1561683465
    nsecs: 923757785
  frame_id: "ti_mmwave"
point_id: 14
x: 4.791015625
y: -0.453125
z: -0.376953125
range: 5.14208269119
velocity: 0.0
doppler_bin: 8
bearing: -5.40285253525
intensity: 33.6754226685
---
header: 
  seq: 1398159
  stamp: 
    secs: 1561683465
    nsecs: 923767668
  frame_id: "ti_mmwave"
point_id: 15
x: 4.84375
y: -0.45703125
z: -0.130859375
range: 5.18565940857
velocity: 0.0
doppler_bin: 8
bearing: -5.3901758194
intensity: 30.3742656708
---
header: 
  seq: 1398160
  stamp: 
    secs: 1561683465
    nsecs: 923774970
  frame_id: "ti_mmwave"
point_id: 16
x: 4.822265625
y: -0.4609375
z: 0.7890625
range: 5.22923660278
velocity: 0.0
doppler_bin: 8
bearing: -5.46004343033
intensity: 29.8317508698
---
header: 
  seq: 1398161
  stamp: 
    secs: 1561683465
    nsecs: 923783081
  frame_id: "ti_mmwave"
point_id: 17
x: 4.87109375
y: -0.30859375
z: 0.828125
range: 5.27281332016
velocity: 0.0
doppler_bin: 8
bearing: -3.62496066093
intensity: 30.6818580627
---
header: 
  seq: 1398162
  stamp: 
    secs: 1561683465
    nsecs: 923791184
  frame_id: "ti_mmwave"
point_id: 18
x: 0.951171875
y: 1.103515625
z: -0.205078125
range: 1.56877088547
velocity: 0.614668667316
doppler_bin: 9
bearing: 49.2404060364
intensity: 24.2813472748
---
header: 
  seq: 1398163
  stamp: 
    secs: 1561683465
    nsecs: 923800168
  frame_id: "ti_mmwave"
point_id: 19
x: 0.982421875
y: 1.134765625
z: -0.193359375
range: 1.61234796047
velocity: 0.614668667316
doppler_bin: 9
bearing: 49.1156654358
intensity: 28.9927310944
---
header: 
  seq: 1398164
  stamp: 
    secs: 1561683465
    nsecs: 923807792
  frame_id: "ti_mmwave"
point_id: 20
x: 1.056640625
y: 1.1171875
z: -0.224609375
range: 1.65592491627
velocity: 0.614668667316
doppler_bin: 9
bearing: 46.5954284668
intensity: 30.248960495
---
header: 
  seq: 1398165
  stamp: 
    secs: 1561683465
    nsecs: 923815505
  frame_id: "ti_mmwave"
point_id: 21
x: 1.126953125
y: 1.09765625
z: -0.267578125
range: 1.69950187206
velocity: 0.614668667316
doppler_bin: 9
bearing: 44.2454910278
intensity: 28.6628742218
---
header: 
  seq: 1398166
  stamp: 
    secs: 1561683465
    nsecs: 923842359
  frame_id: "ti_mmwave"
point_id: 22
x: 1.185546875
y: 1.125
z: -0.0703125
range: 1.74307882786
velocity: 1.22933733463
doppler_bin: 10
bearing: 43.4989318848
intensity: 21.5836257935
---
header: 
  seq: 1398167
  stamp: 
    secs: 1561683465
    nsecs: 923861055
  frame_id: "ti_mmwave"
point_id: 24
x: 0.041015625
y: -0.033203125
z: 0.0625
range: 0.0871539413929
velocity: 0.0
doppler_bin: 8
bearing: -38.9909973145
intensity: 30.1619739532
---
header: 
  seq: 1398168
  stamp: 
    secs: 1561683465
    nsecs: 923875376
  frame_id: "ti_mmwave"
point_id: 25
x: 0.044921875
y: -0.046875
z: 0.103515625
range: 0.130730912089
velocity: 0.0
doppler_bin: 8
bearing: -46.218875885
intensity: 29.0525608063
---
header: 
  seq: 1398169
  stamp: 
    secs: 1561683465
    nsecs: 923887182
  frame_id: "ti_mmwave"
point_id: 27
x: 1.115234375
y: -0.515625
z: 0.318359375
range: 1.35088610649
velocity: 0.0
doppler_bin: 8
bearing: -24.8133087158
intensity: 19.1381378174
---
header: 
  seq: 1398170
  stamp: 
    secs: 1561683465
    nsecs: 923977511
  frame_id: "ti_mmwave"
point_id: 28
x: 2.7421875
y: -2.021484375
z: -3.123046875
range: 4.9241976738
velocity: 0.0
doppler_bin: 8
bearing: -36.3968772888
intensity: 27.4507484436
---
header: 
  seq: 1398171
  stamp: 
    secs: 1561683465
    nsecs: 923995560
  frame_id: "ti_mmwave"
point_id: 29
x: 0.67578125
y: 0.5625
z: -1.37890625
range: 1.74307882786
velocity: 1.22933733463
doppler_bin: 10
bearing: 39.7729797363
intensity: 20.4921798706
---
header: 
  seq: 1398172
  stamp: 
    secs: 1561683465
    nsecs: 925159252
  frame_id: "ti_mmwave"
point_id: 0
x: 0.01171875
y: -0.0390625
z: -0.0078125
range: 0.0435769706964
velocity: 0.0
doppler_bin: 8
bearing: -73.3007583618
intensity: 30.7591171265
---
header: 
  seq: 1398173
  stamp: 
    secs: 1561683465
    nsecs: 925227440
  frame_id: "ti_mmwave"
point_id: 1
x: 0.017578125
y: -0.080078125
z: -0.0078125
range: 0.0871539413929
velocity: 0.0
doppler_bin: 8
bearing: -77.6192398071
intensity: 31.994808197
---
header: 
  seq: 1398174
  stamp: 
    secs: 1561683465
    nsecs: 925246662
  frame_id: "ti_mmwave"
point_id: 2
x: 0.029296875
y: -0.119140625
z: -0.005859375
range: 0.130730912089
velocity: 0.0
doppler_bin: 8
bearing: -76.1849746704
intensity: 30.2407493591
---
header: 
  seq: 1398175
  stamp: 
    secs: 1561683465
    nsecs: 925265390
  frame_id: "ti_mmwave"
point_id: 3
x: 0.056640625
y: -0.154296875
z: 0.005859375
range: 0.174307882786
velocity: 0.0
doppler_bin: 8
bearing: -69.8423843384
intensity: 25.5144996643
---
header: 
  seq: 1398176
  stamp: 
    secs: 1561683465
    nsecs: 925336918
  frame_id: "ti_mmwave"
point_id: 4
x: 0.376953125
y: -0.080078125
z: -1.208984375
range: 1.35088610649
velocity: 0.0
doppler_bin: 8
bearing: -11.9933481216
intensity: 21.9033164978
---
header: 
  seq: 1398177
  stamp: 
    secs: 1561683465
    nsecs: 925354741
  frame_id: "ti_mmwave"
point_id: 5
x: 0.2734375
y: -0.041015625
z: 1.279296875
range: 1.39446306229
velocity: 0.0
doppler_bin: 8
bearing: -8.53076648712
intensity: 23.2633590698
---
header: 
  seq: 1398178
  stamp: 
    secs: 1561683465
    nsecs: 925367573
  frame_id: "ti_mmwave"
point_id: 6
x: 0.470703125
y: -0.04296875
z: 1.263671875
range: 1.43804001808
velocity: 0.0
doppler_bin: 8
bearing: -5.21586418152
intensity: 21.9312458038
---
header: 
  seq: 1398179
  stamp: 
    secs: 1561683465
    nsecs: 925382755
  frame_id: "ti_mmwave"
point_id: 7
x: 2.552734375
y: -0.263671875
z: 1.177734375
range: 3.00681090355
velocity: 0.0
doppler_bin: 8
bearing: -5.89716720581
intensity: 29.4596061707
---
header: 
  seq: 1398180
  stamp: 
    secs: 1561683465
    nsecs: 925430427
  frame_id: "ti_mmwave"
point_id: 8
x: 2.60546875
y: -0.267578125
z: 1.15625
range: 3.05038785934
velocity: 0.0
doppler_bin: 8
bearing: -5.86364221573
intensity: 32.8057823181
---
header: 
  seq: 1398181
  stamp: 
    secs: 1561683465
    nsecs: 925449448
  frame_id: "ti_mmwave"
point_id: 9
x: 2.66015625
y: -0.271484375
z: 1.1328125
range: 3.09396481514
velocity: 0.0
doppler_bin: 8
bearing: -5.82719182968
intensity: 32.0194320679
---
header: 
  seq: 1398182
  stamp: 
    secs: 1561683465
    nsecs: 925461726
  frame_id: "ti_mmwave"
point_id: 10
x: 4.41015625
y: -0.287109375
z: 1.205078125
range: 4.88062095642
velocity: 0.0
doppler_bin: 8
bearing: -3.72480559349
intensity: 30.8062648773
---
header: 
  seq: 1398183
  stamp: 
    secs: 1561683465
    nsecs: 925469871
  frame_id: "ti_mmwave"
point_id: 11
x: 4.462890625
y: -0.2890625
z: 1.16796875
range: 4.9241976738
velocity: 0.0
doppler_bin: 8
bearing: -3.70588517189
intensity: 30.4493160248
---
header: 
  seq: 1398184
  stamp: 
    secs: 1561683465
    nsecs: 925533281
  frame_id: "ti_mmwave"
point_id: 12
x: 4.689453125
y: -0.4453125
z: -0.568359375
range: 5.0549287796
velocity: 0.0
doppler_bin: 8
bearing: -5.42456626892
intensity: 29.3094902039
---
header: 
  seq: 1398185
  stamp: 
    secs: 1561683465
    nsecs: 925552048
  frame_id: "ti_mmwave"
point_id: 13
x: 4.740234375
y: -0.44921875
z: -0.48046875
range: 5.09850549698
velocity: 0.0
doppler_bin: 8
bearing: -5.41359329224
intensity: 33.2242622375
---
header: 
  seq: 1398186
  stamp: 
    secs: 1561683465
    nsecs: 925569522
  frame_id: "ti_mmwave"
point_id: 14
x: 4.7890625
y: -0.453125
z: -0.39453125
range: 5.14208269119
velocity: 0.0
doppler_bin: 8
bearing: -5.40504264832
intensity: 33.6847267151
---
header: 
  seq: 1398187
  stamp: 
    secs: 1561683465
    nsecs: 925619822
  frame_id: "ti_mmwave"
point_id: 15
x: 4.84375
y: -0.45703125
z: -0.158203125
range: 5.18565940857
velocity: 0.0
doppler_bin: 8
bearing: -5.3901758194
intensity: 30.3742656708
---
header: 
  seq: 1398188
  stamp: 
    secs: 1561683465
    nsecs: 925635602
  frame_id: "ti_mmwave"
point_id: 16
x: 4.82421875
y: -0.4609375
z: 0.783203125
range: 5.22923660278
velocity: 0.0
doppler_bin: 8
bearing: -5.4578461647
intensity: 29.8045787811
---
header: 
  seq: 1398189
  stamp: 
    secs: 1561683465
    nsecs: 925651663
  frame_id: "ti_mmwave"
point_id: 17
x: 4.875
y: -0.30859375
z: 0.796875
range: 5.27281332016
velocity: 0.0
doppler_bin: 8
bearing: -3.62206339836
intensity: 30.6855697632
---
header: 
  seq: 1398190
  stamp: 
    secs: 1561683465
    nsecs: 925694173
  frame_id: "ti_mmwave"
point_id: 18
x: 1.12890625
y: 1.068359375
z: -0.0234375
range: 1.65592491627
velocity: 0.614668667316
doppler_bin: 9
bearing: 43.4215812683
intensity: 29.4645233154
---
header: 
  seq: 1398191
  stamp: 
    secs: 1561683465
    nsecs: 925707952
  frame_id: "ti_mmwave"
point_id: 19
x: 1.2421875
y: 0.998046875
z: -0.08203125
range: 1.69950187206
velocity: 0.614668667316
doppler_bin: 9
bearing: 38.780456543
intensity: 31.1461105347
---
header: 
  seq: 1398192
  stamp: 
    secs: 1561683465
    nsecs: 925717126
  frame_id: "ti_mmwave"
point_id: 20
x: 1.26953125
y: 1.0234375
z: -0.134765625
range: 1.74307882786
velocity: 0.614668667316
doppler_bin: 9
bearing: 38.8741569519
intensity: 30.2366390228
---
header: 
  seq: 1398193
  stamp: 
    secs: 1561683465
    nsecs: 925756205
  frame_id: "ti_mmwave"
point_id: 21
x: 1.34765625
y: 0.99609375
z: -0.07421875
range: 1.78665578365
velocity: 0.614668667316
doppler_bin: 9
bearing: 36.4692344666
intensity: 27.5358314514
---
header: 
  seq: 1398194
  stamp: 
    secs: 1561683465
    nsecs: 925774055
  frame_id: "ti_mmwave"
point_id: 22
x: 1.0
y: 1.134765625
z: -0.056640625
range: 1.61234796047
velocity: 1.22933733463
doppler_bin: 10
bearing: 48.6122322083
intensity: 24.9415454865
---
header: 
  seq: 1398195
  stamp: 
    secs: 1561683465
    nsecs: 925805405
  frame_id: "ti_mmwave"
point_id: 24
x: 0.041015625
y: -0.033203125
z: 0.0625
range: 0.0871539413929
velocity: 0.0
doppler_bin: 8
bearing: -38.9909973145
intensity: 30.157787323
---
header: 
  seq: 1398196
  stamp: 
    secs: 1561683465
    nsecs: 925869660
  frame_id: "ti_mmwave"
point_id: 25
x: 0.044921875
y: -0.046875
z: 0.103515625
range: 0.130730912089
velocity: 0.0
doppler_bin: 8
bearing: -46.218875885
intensity: 29.0525608063
---
header: 
  seq: 1398197
  stamp: 
    secs: 1561683465
    nsecs: 925904476
  frame_id: "ti_mmwave"
point_id: 27
x: 1.1171875
y: -0.515625
z: 0.30859375
range: 1.35088610649
velocity: 0.0
doppler_bin: 8
bearing: -24.7751407623
intensity: 19.0848503113
---
header: 
  seq: 1398198
  stamp: 
    secs: 1561683465
    nsecs: 925991136
  frame_id: "ti_mmwave"
point_id: 28
x: 2.7890625
y: -2.021484375
z: -3.08203125
range: 4.9241976738
velocity: 0.0
doppler_bin: 8
bearing: -35.9342193604
intensity: 27.4973640442
---
header: 
  seq: 1398199
  stamp: 
    secs: 1561683465
    nsecs: 926039803
  frame_id: "ti_mmwave"
point_id: 29
x: 1.212890625
y: 0.970703125
z: 0.03515625
range: 1.65592491627
velocity: 0.614668667316
doppler_bin: 9
bearing: 38.6710586548
intensity: 29.3601074219
---
header: 
  seq: 1398200
  stamp: 
    secs: 1561683465
    nsecs: 983663869
  frame_id: "ti_mmwave"
point_id: 0
x: 0.01171875
y: -0.0390625
z: -0.0078125
range: 0.0435769706964
velocity: 0.0
doppler_bin: 8
bearing: -73.3007583618
intensity: 30.7591171265
---
header: 
  seq: 1398201
  stamp: 
    secs: 1561683465
    nsecs: 983731907
  frame_id: "ti_mmwave"
point_id: 1
x: 0.017578125
y: -0.080078125
z: -0.0078125
range: 0.0871539413929
velocity: 0.0
doppler_bin: 8
bearing: -77.6192398071
intensity: 31.9975509644
---
header: 
  seq: 1398202
  stamp: 
    secs: 1561683465
    nsecs: 983743091
  frame_id: "ti_mmwave"
point_id: 2
x: 0.041015625
y: -0.115234375
z: -0.0078125
range: 0.130730912089
velocity: 0.0
doppler_bin: 8
bearing: -70.4077224731
intensity: 30.2448558807
---
header: 
  seq: 1398203
  stamp: 
    secs: 1561683465
    nsecs: 983751924
  frame_id: "ti_mmwave"
point_id: 3
x: 0.056640625
y: -0.154296875
z: 0.005859375
range: 0.174307882786
velocity: 0.0
doppler_bin: 8
bearing: -69.8423843384
intensity: 25.5388298035
---
header: 
  seq: 1398204
  stamp: 
    secs: 1561683465
    nsecs: 983759747
  frame_id: "ti_mmwave"
point_id: 4
x: 0.380859375
y: -0.080078125
z: -1.20703125
range: 1.35088610649
velocity: 0.0
doppler_bin: 8
bearing: -11.8738489151
intensity: 21.9589958191
---
header: 
  seq: 1398205
  stamp: 
    secs: 1561683465
    nsecs: 983768744
  frame_id: "ti_mmwave"
point_id: 5
x: 0.25390625
y: -0.041015625
z: 1.283203125
range: 1.39446306229
velocity: 0.0
doppler_bin: 8
bearing: -9.17620372772
intensity: 23.2428245544
---
header: 
  seq: 1398206
  stamp: 
    secs: 1561683465
    nsecs: 983777577
  frame_id: "ti_mmwave"
point_id: 6
x: 0.361328125
y: -0.0
z: 1.30078125
range: 1.43804001808
velocity: 0.0
doppler_bin: 8
bearing: -0.0
intensity: 21.875207901
---
header: 
  seq: 1398207
  stamp: 
    secs: 1561683465
    nsecs: 983787740
  frame_id: "ti_mmwave"
point_id: 7
x: 2.54296875
y: -0.263671875
z: 1.197265625
range: 3.00681090355
velocity: 0.0
doppler_bin: 8
bearing: -5.91965341568
intensity: 29.4743366241
---
header: 
  seq: 1398208
  stamp: 
    secs: 1561683465
    nsecs: 983796419
  frame_id: "ti_mmwave"
point_id: 8
x: 2.603515625
y: -0.267578125
z: 1.162109375
range: 3.05038785934
velocity: 0.0
doppler_bin: 8
bearing: -5.8680100441
intensity: 32.810333252
---
header: 
  seq: 1398209
  stamp: 
    secs: 1561683465
    nsecs: 983807019
  frame_id: "ti_mmwave"
point_id: 9
x: 2.66015625
y: -0.271484375
z: 1.1328125
range: 3.09396481514
velocity: 0.0
doppler_bin: 8
bearing: -5.82719182968
intensity: 32.0194320679
---
header: 
  seq: 1398210
  stamp: 
    secs: 1561683465
    nsecs: 984007007
  frame_id: "ti_mmwave"
point_id: 10
x: 4.416015625
y: -0.287109375
z: 1.1875
range: 4.88062095642
velocity: 0.0
doppler_bin: 8
bearing: -3.71987724304
intensity: 30.8062648773
---
header: 
  seq: 1398211
  stamp: 
    secs: 1561683465
    nsecs: 984033753
  frame_id: "ti_mmwave"
point_id: 11
x: 4.466796875
y: -0.2890625
z: 1.158203125
range: 4.9241976738
velocity: 0.0
doppler_bin: 8
bearing: -3.70265316963
intensity: 30.4571399689
---
header: 
  seq: 1398212
  stamp: 
    secs: 1561683465
    nsecs: 984045257
  frame_id: "ti_mmwave"
point_id: 12
x: 4.69140625
y: -0.4453125
z: -0.5625
range: 5.0549287796
velocity: 0.0
doppler_bin: 8
bearing: -5.42232084274
intensity: 29.3094902039
---
header: 
  seq: 1398213
  stamp: 
    secs: 1561683465
    nsecs: 984057858
  frame_id: "ti_mmwave"
point_id: 13
x: 4.740234375
y: -0.44921875
z: -0.478515625
range: 5.09850549698
velocity: 0.0
doppler_bin: 8
bearing: -5.41359329224
intensity: 33.2263259888
---
header: 
  seq: 1398214
  stamp: 
    secs: 1561683465
    nsecs: 984071637
  frame_id: "ti_mmwave"
point_id: 14
x: 4.7890625
y: -0.453125
z: -0.396484375
range: 5.14208269119
velocity: 0.0
doppler_bin: 8
bearing: -5.40504264832
intensity: 33.6977233887
---
header: 
  seq: 1398215
  stamp: 
    secs: 1561683465
    nsecs: 984079477
  frame_id: "ti_mmwave"
point_id: 15
x: 4.84375
y: -0.45703125
z: -0.1875
range: 5.18565940857
velocity: 0.0
doppler_bin: 8
bearing: -5.3901758194
intensity: 30.4296913147
---
header: 
  seq: 1398216
  stamp: 
    secs: 1561683465
    nsecs: 984091112
  frame_id: "ti_mmwave"
point_id: 16
x: 4.8828125
y: -0.30859375
z: 0.751953125
range: 5.27281332016
velocity: 0.0
doppler_bin: 8
bearing: -3.61628341675
intensity: 30.7990455627
---
header: 
  seq: 1398217
  stamp: 
    secs: 1561683465
    nsecs: 984097168
  frame_id: "ti_mmwave"
point_id: 17
x: 1.267578125
y: 0.875
z: -0.21484375
range: 1.65592491627
velocity: 0.614668667316
doppler_bin: 9
bearing: 34.6170387268
intensity: 27.2672729492
---
header: 
  seq: 1398218
  stamp: 
    secs: 1561683465
    nsecs: 984106203
  frame_id: "ti_mmwave"
point_id: 18
x: 1.279296875
y: 0.947265625
z: -0.10546875
range: 1.69950187206
velocity: 0.614668667316
doppler_bin: 9
bearing: 36.5183944702
intensity: 31.4643821716
---
header: 
  seq: 1398219
  stamp: 
    secs: 1561683465
    nsecs: 984157761
  frame_id: "ti_mmwave"
point_id: 19
x: 1.26953125
y: 1.0234375
z: -0.138671875
range: 1.74307882786
velocity: 0.614668667316
doppler_bin: 9
bearing: 38.8741569519
intensity: 32.5478973389
---
header: 
  seq: 1398220
  stamp: 
    secs: 1561683465
    nsecs: 984168069
  frame_id: "ti_mmwave"
point_id: 20
x: 1.30078125
y: 1.048828125
z: -0.150390625
range: 1.78665578365
velocity: 0.614668667316
doppler_bin: 9
bearing: 38.8794517517
intensity: 30.4099769592
---
header: 
  seq: 1398221
  stamp: 
    secs: 1561683465
    nsecs: 984178067
  frame_id: "ti_mmwave"
point_id: 21
x: 1.3828125
y: 1.01953125
z: -0.041015625
range: 1.83023273945
velocity: 0.614668667316
doppler_bin: 9
bearing: 36.4009132385
intensity: 25.7749176025
---
header: 
  seq: 1398222
  stamp: 
    secs: 1561683465
    nsecs: 984189396
  frame_id: "ti_mmwave"
point_id: 23
x: 0.041015625
y: -0.033203125
z: 0.0625
range: 0.0871539413929
velocity: 0.0
doppler_bin: 8
bearing: -38.9909973145
intensity: 30.1619739532
---
header: 
  seq: 1398223
  stamp: 
    secs: 1561683465
    nsecs: 984198282
  frame_id: "ti_mmwave"
point_id: 24
x: 0.052734375
y: -0.04296875
z: 0.1015625
range: 0.130730912089
velocity: 0.0
doppler_bin: 8
bearing: -39.1736602783
intensity: 29.0525608063
---
header: 
  seq: 1398224
  stamp: 
    secs: 1561683465
    nsecs: 984209508
  frame_id: "ti_mmwave"
point_id: 26
x: 1.2109375
y: 0.357421875
z: 0.123046875
range: 1.35088610649
velocity: 0.0
doppler_bin: 8
bearing: 16.4445590973
intensity: 19.1381378174
---
header: 
  seq: 1398225
  stamp: 
    secs: 1561683465
    nsecs: 984218733
  frame_id: "ti_mmwave"
point_id: 27
x: 2.822265625
y: -2.00390625
z: -3.001953125
range: 4.88062095642
velocity: 0.0
doppler_bin: 8
bearing: -35.3760719299
intensity: 27.8031730652
---
header: 
  seq: 1398226
  stamp: 
    secs: 1561683465
    nsecs: 984226637
  frame_id: "ti_mmwave"
point_id: 28
x: 2.78125
y: -2.021484375
z: -3.08984375
range: 4.9241976738
velocity: 0.0
doppler_bin: 8
bearing: -36.0106201172
intensity: 27.4973640442
---
header: 
  seq: 1398227
  stamp: 
    secs: 1561683465
    nsecs: 985260323
  frame_id: "ti_mmwave"
point_id: 0
x: 0.01171875
y: -0.0390625
z: -0.0078125
range: 0.0435769706964
velocity: 0.0
doppler_bin: 8
bearing: -73.3007583618
intensity: 30.7700424194
---
header: 
  seq: 1398228
  stamp: 
    secs: 1561683465
    nsecs: 985334543
  frame_id: "ti_mmwave"
point_id: 1
x: 0.017578125
y: -0.080078125
z: -0.0078125
range: 0.0871539413929
velocity: 0.0
doppler_bin: 8
bearing: -77.6192398071
intensity: 31.9975509644
---
header: 
  seq: 1398229
  stamp: 
    secs: 1561683465
    nsecs: 985353309
  frame_id: "ti_mmwave"
point_id: 2
x: 0.041015625
y: -0.115234375
z: -0.0078125
range: 0.130730912089
velocity: 0.0
doppler_bin: 8
bearing: -70.4077224731
intensity: 30.2407493591
---
header: 
  seq: 1398230
  stamp: 
    secs: 1561683465
    nsecs: 985367120
  frame_id: "ti_mmwave"
point_id: 3
x: 0.056640625
y: -0.154296875
z: 0.005859375
range: 0.174307882786
velocity: 0.0
doppler_bin: 8
bearing: -69.8423843384
intensity: 25.5144996643
---
header: 
  seq: 1398231
  stamp: 
    secs: 1561683465
    nsecs: 985437511
  frame_id: "ti_mmwave"
point_id: 4
x: 0.361328125
y: -0.080078125
z: -1.212890625
range: 1.35088610649
velocity: 0.0
doppler_bin: 8
bearing: -12.4960107803
intensity: 21.9312458038
---
header: 
  seq: 1398232
  stamp: 
