header: 
  seq: 1381195
  stamp: 
    secs: 1561683441
    nsecs:  83508929
  frame_id: "ti_mmwave"
point_id: 0
x: 0.01171875
y: -0.0390625
z: -0.0078125
range: 0.0435769706964
velocity: 0.0
doppler_bin: 8
bearing: -73.3007583618
intensity: 30.7518177032
---
header: 
  seq: 1381196
  stamp: 
    secs: 1561683441
    nsecs:  83586629
  frame_id: "ti_mmwave"
point_id: 1
x: 0.017578125
y: -0.080078125
z: -0.0078125
range: 0.0871539413929
velocity: 0.0
doppler_bin: 8
bearing: -77.6192398071
intensity: 31.9920654297
---
header: 
  seq: 1381197
  stamp: 
    secs: 1561683441
    nsecs:  83603441
  frame_id: "ti_mmwave"
point_id: 2
x: 0.029296875
y: -0.119140625
z: -0.00390625
range: 0.130730912089
velocity: 0.0
doppler_bin: 8
bearing: -76.1849746704
intensity: 30.2407493591
---
header: 
  seq: 1381198
  stamp: 
    secs: 1561683441
    nsecs:  83620050
  frame_id: "ti_mmwave"
point_id: 3
x: 0.056640625
y: -0.154296875
z: 0.005859375
range: 0.174307882786
velocity: 0.0
doppler_bin: 8
bearing: -69.8423843384
intensity: 25.5266819
---
header: 
  seq: 1381199
  stamp: 
    secs: 1561683441
    nsecs:  83633274
  frame_id: "ti_mmwave"
point_id: 4
x: 0.375
y: -0.080078125
z: -1.208984375
range: 1.35088610649
velocity: 0.0
doppler_bin: 8
bearing: -12.0539922714
intensity: 21.9033164978
---
header: 
  seq: 1381200
  stamp: 
    secs: 1561683441
    nsecs:  83642055
  frame_id: "ti_mmwave"
point_id: 5
x: 0.31640625
y: -0.041015625
z: 1.26953125
range: 1.39446306229
velocity: 0.0
doppler_bin: 8
bearing: -7.38604259491
intensity: 23.2633590698
---
header: 
  seq: 1381201
  stamp: 
    secs: 1561683441
    nsecs:  83834038
  frame_id: "ti_mmwave"
point_id: 6
x: 0.44140625
y: -0.0
z: 1.275390625
range: 1.43804001808
velocity: 0.0
doppler_bin: 8
bearing: -0.0
intensity: 21.9312458038
---
header: 
  seq: 1381202
  stamp: 
    secs: 1561683441
    nsecs:  83861409
  frame_id: "ti_mmwave"
point_id: 7
x: 2.546875
y: -0.263671875
z: 1.1875
range: 3.00681090355
velocity: 0.0
doppler_bin: 8
bearing: -5.91063833237
intensity: 29.4546852112
---
header: 
  seq: 1381203
  stamp: 
    secs: 1561683441
    nsecs:  83874432
  frame_id: "ti_mmwave"
point_id: 8
x: 2.603515625
y: -0.267578125
z: 1.162109375
range: 3.05038785934
velocity: 0.0
doppler_bin: 8
bearing: -5.8680100441
intensity: 32.8057823181
---
header: 
  seq: 1381204
  stamp: 
    secs: 1561683441
    nsecs:  83886645
  frame_id: "ti_mmwave"
point_id: 9
x: 2.66015625
y: -0.271484375
z: 1.134765625
range: 3.09396481514
velocity: 0.0
doppler_bin: 8
bearing: -5.82719182968
intensity: 32.0194320679
---
header: 
  seq: 1381205
  stamp: 
    secs: 1561683441
    nsecs:  83899429
  frame_id: "ti_mmwave"
point_id: 10
x: 4.41015625
y: -0.287109375
z: 1.2109375
range: 4.88062095642
velocity: 0.0
doppler_bin: 8
bearing: -3.72480559349
intensity: 30.7954292297
---
header: 
  seq: 1381206
  stamp: 
    secs: 1561683441
    nsecs:  83910967
  frame_id: "ti_mmwave"
point_id: 11
x: 4.46484375
y: -0.2890625
z: 1.162109375
range: 4.9241976738
velocity: 0.0
doppler_bin: 8
bearing: -3.70426845551
intensity: 30.4571399689
---
header: 
  seq: 1381207
  stamp: 
    secs: 1561683441
    nsecs:  83923526
  frame_id: "ti_mmwave"
point_id: 12
x: 4.69140625
y: -0.4453125
z: -0.556640625
range: 5.0549287796
velocity: 0.0
doppler_bin: 8
bearing: -5.42232084274
intensity: 29.3196620941
---
header: 
  seq: 1381208
  stamp: 
    secs: 1561683441
    nsecs:  83936275
  frame_id: "ti_mmwave"
point_id: 13
x: 4.7421875
y: -0.44921875
z: -0.47265625
range: 5.09850549698
velocity: 0.0
doppler_bin: 8
bearing: -5.41137647629
intensity: 33.2118415833
---
header: 
  seq: 1381209
  stamp: 
    secs: 1561683441
    nsecs:  83949467
  frame_id: "ti_mmwave"
point_id: 14
x: 4.7890625
y: -0.453125
z: -0.392578125
range: 5.14208269119
velocity: 0.0
doppler_bin: 8
bearing: -5.40504264832
intensity: 33.6735610962
---
header: 
  seq: 1381210
  stamp: 
    secs: 1561683441
    nsecs:  84031580
  frame_id: "ti_mmwave"
point_id: 15
x: 4.84375
y: -0.45703125
z: -0.15625
range: 5.18565940857
velocity: 0.0
doppler_bin: 8
bearing: -5.3901758194
intensity: 30.3981056213
---
header: 
  seq: 1381211
  stamp: 
    secs: 1561683441
    nsecs:  84048855
  frame_id: "ti_mmwave"
point_id: 16
x: 4.830078125
y: -0.4609375
z: 0.748046875
range: 5.22923660278
velocity: 0.0
doppler_bin: 8
bearing: -5.45126533508
intensity: 29.8362636566
---
header: 
  seq: 1381212
  stamp: 
    secs: 1561683441
    nsecs:  84060842
  frame_id: "ti_mmwave"
point_id: 17
x: 4.87890625
y: -0.30859375
z: 0.771484375
range: 5.27281332016
velocity: 0.0
doppler_bin: 8
bearing: -3.61917114258
intensity: 30.6744289398
---
header: 
  seq: 1381213
  stamp: 
    secs: 1561683441
    nsecs:  84078270
  frame_id: "ti_mmwave"
point_id: 19
x: 0.041015625
y: -0.033203125
z: 0.0625
range: 0.0871539413929
velocity: 0.0
doppler_bin: 8
bearing: -38.9909973145
intensity: 30.157787323
---
header: 
  seq: 1381214
  stamp: 
    secs: 1561683441
    nsecs:  84090847
  frame_id: "ti_mmwave"
point_id: 20
x: 0.044921875
y: -0.046875
z: 0.103515625
range: 0.130730912089
velocity: 0.0
doppler_bin: 8
bearing: -46.218875885
intensity: 29.0525608063
---
header: 
  seq: 1381215
  stamp: 
    secs: 1561683441
    nsecs:  84106837
  frame_id: "ti_mmwave"
point_id: 22
x: 2.83984375
y: -2.021484375
z: -3.03515625
range: 4.9241976738
velocity: 0.0
doppler_bin: 8
bearing: -35.4443778992
intensity: 27.481880188
---
header: 
  seq: 1381216
  stamp: 
    secs: 1561683441
    nsecs:  84823529
  frame_id: "ti_mmwave"
point_id: 0
x: 0.01171875
y: -0.0390625
z: -0.0078125
range: 0.0435769706964
velocity: 0.0
doppler_bin: 8
bearing: -73.3007583618
intensity: 30.7481651306
---
header: 
  seq: 1381217
  stamp: 
    secs: 1561683441
    nsecs:  84882675
  frame_id: "ti_mmwave"
point_id: 1
x: 0.017578125
y: -0.080078125
z: -0.0078125
range: 0.0871539413929
velocity: 0.0
doppler_bin: 8
bearing: -77.6192398071
intensity: 31.9920654297
---
header: 
  seq: 1381218
  stamp: 
    secs: 1561683441
    nsecs:  84899776
  frame_id: "ti_mmwave"
point_id: 2
x: 0.029296875
y: -0.119140625
z: -0.005859375
range: 0.130730912089
velocity: 0.0
doppler_bin: 8
bearing: -76.1849746704
intensity: 30.2366390228
---
header: 
  seq: 1381219
  stamp: 
    secs: 1561683441
    nsecs:  84913909
  frame_id: "ti_mmwave"
point_id: 3
x: 0.056640625
y: -0.154296875
z: 0.005859375
range: 0.174307882786
velocity: 0.0
doppler_bin: 8
bearing: -69.8423843384
intensity: 25.5022830963
---
header: 
  seq: 1381220
  stamp: 
    secs: 1561683441
    nsecs:  84928167
  frame_id: "ti_mmwave"
point_id: 4
x: 0.373046875
y: -0.080078125
z: -1.208984375
range: 1.35088610649
velocity: 0.0
doppler_bin: 8
bearing: -12.1152420044
intensity: 21.9312458038
---
header: 
  seq: 1381221
  stamp: 
    secs: 1561683441
    nsecs:  84941243
  frame_id: "ti_mmwave"
point_id: 5
x: 0.30859375
y: -0.041015625
z: 1.271484375
range: 1.39446306229
velocity: 0.0
doppler_bin: 8
bearing: -7.57088899612
intensity: 23.2837963104
---
header: 
  seq: 1381222
  stamp: 
    secs: 1561683441
    nsecs:  84954339
  frame_id: "ti_mmwave"
point_id: 6
x: 0.50390625
y: -0.04296875
z: 1.251953125
range: 1.43804001808
velocity: 0.0
doppler_bin: 8
bearing: -4.87389659882
intensity: 21.9865703583
---
header: 
  seq: 1381223
  stamp: 
    secs: 1561683441
    nsecs:  84995855
  frame_id: "ti_mmwave"
point_id: 7
x: 2.548828125
y: -0.263671875
z: 1.181640625
range: 3.00681090355
velocity: 0.0
doppler_bin: 8
bearing: -5.90614128113
intensity: 29.4546852112
---
header: 
  seq: 1381224
  stamp: 
    secs: 1561683441
    nsecs:  85107251
  frame_id: "ti_mmwave"
point_id: 8
x: 2.603515625
y: -0.267578125
z: 1.162109375
range: 3.05038785934
velocity: 0.0
doppler_bin: 8
bearing: -5.8680100441
intensity: 32.7989501953
---
header: 
  seq: 1381225
  stamp: 
    secs: 1561683441
    nsecs:  85119234
  frame_id: "ti_mmwave"
point_id: 9
x: 2.658203125
y: -0.271484375
z: 1.138671875
range: 3.09396481514
velocity: 0.0
doppler_bin: 8
bearing: -5.83144378662
intensity: 31.9893188477
---
header: 
  seq: 1381226
  stamp: 
    secs: 1561683441
    nsecs:  85128739
  frame_id: "ti_mmwave"
point_id: 10
x: 4.40625
y: -0.287109375
z: 1.220703125
range: 4.88062095642
velocity: 0.0
doppler_bin: 8
bearing: -3.72809815407
intensity: 30.8170719147
---
header: 
  seq: 1381227
  stamp: 
    secs: 1561683441
    nsecs:  85140208
  frame_id: "ti_mmwave"
point_id: 11
x: 4.4609375
y: -0.2890625
z: 1.173828125
range: 4.9241976738
velocity: 0.0
doppler_bin: 8
bearing: -3.70750308037
intensity: 30.4766426086
---
header: 
  seq: 1381228
  stamp: 
    secs: 1561683441
    nsecs:  85151826
  frame_id: "ti_mmwave"
point_id: 12
x: 4.689453125
y: -0.4453125
z: -0.580078125
range: 5.0549287796
velocity: 0.0
doppler_bin: 8
bearing: -5.42456626892
intensity: 29.31457901
---
header: 
  seq: 1381229
  stamp: 
    secs: 1561683441
    nsecs:  85164452
  frame_id: "ti_mmwave"
point_id: 13
x: 4.740234375
y: -0.44921875
z: -0.486328125
range: 5.09850549698
velocity: 0.0
doppler_bin: 8
bearing: -5.41359329224
intensity: 33.2118415833
---
header: 
  seq: 1381230
  stamp: 
    secs: 1561683441
    nsecs:  85176894
  frame_id: "ti_mmwave"
point_id: 14
x: 4.7890625
y: -0.453125
z: -0.400390625
range: 5.14208269119
velocity: 0.0
doppler_bin: 8
bearing: -5.40504264832
intensity: 33.679145813
---
header: 
  seq: 1381231
  stamp: 
    secs: 1561683441
    nsecs:  85190122
  frame_id: "ti_mmwave"
point_id: 15
x: 4.84375
y: -0.45703125
z: -0.166015625
range: 5.18565940857
velocity: 0.0
doppler_bin: 8
bearing: -5.3901758194
intensity: 30.3862018585
---
header: 
  seq: 1381232
  stamp: 
    secs: 1561683441
    nsecs:  85203816
  frame_id: "ti_mmwave"
point_id: 16
x: 4.880859375
y: -0.30859375
z: 0.7578125
range: 5.27281332016
velocity: 0.0
doppler_bin: 8
bearing: -3.61772704124
intensity: 30.7481651306
---
header: 
  seq: 1381233
  stamp: 
    secs: 1561683441
    nsecs:  85219305
  frame_id: "ti_mmwave"
point_id: 18
x: 0.041015625
y: -0.033203125
z: 0.0625
range: 0.0871539413929
velocity: 0.0
doppler_bin: 8
bearing: -38.9909973145
intensity: 30.157787323
---
header: 
  seq: 1381234
  stamp: 
    secs: 1561683441
    nsecs:  85232059
  frame_id: "ti_mmwave"
point_id: 19
x: 0.044921875
y: -0.046875
z: 0.103515625
range: 0.130730912089
velocity: 0.0
doppler_bin: 8
bearing: -46.218875885
intensity: 29.0471553802
---
header: 
  seq: 1381235
  stamp: 
    secs: 1561683441
    nsecs:  85245709
  frame_id: "ti_mmwave"
point_id: 21
x: 1.115234375
y: -0.515625
z: 0.31640625
range: 1.35088610649
velocity: 0.0
doppler_bin: 8
bearing: -24.8133087158
intensity: 19.0308990479
---
header: 
  seq: 1381236
  stamp: 
    secs: 1561683441
    nsecs: 143539359
  frame_id: "ti_mmwave"
point_id: 0
x: 0.01171875
y: -0.0390625
z: -0.0078125
range: 0.0435769706964
velocity: 0.0
doppler_bin: 8
bearing: -73.3007583618
intensity: 30.7518177032
---
header: 
  seq: 1381237
  stamp: 
    secs: 1561683441
    nsecs: 143634876
  frame_id: "ti_mmwave"
point_id: 1
x: 0.017578125
y: -0.080078125
z: -0.0078125
range: 0.0871539413929
velocity: 0.0
doppler_bin: 8
bearing: -77.6192398071
intensity: 31.9920654297
---
header: 
  seq: 1381238
  stamp: 
    secs: 1561683441
    nsecs: 143655496
  frame_id: "ti_mmwave"
point_id: 2
x: 0.029296875
y: -0.119140625
z: -0.005859375
range: 0.130730912089
velocity: 0.0
doppler_bin: 8
bearing: -76.1849746704
intensity: 30.2407493591
---
header: 
  seq: 1381239
  stamp: 
    secs: 1561683441
    nsecs: 143670686
  frame_id: "ti_mmwave"
point_id: 3
x: 0.056640625
y: -0.154296875
z: 0.005859375
range: 0.174307882786
velocity: 0.0
doppler_bin: 8
bearing: -69.8423843384
intensity: 25.5266819
---
header: 
  seq: 1381240
  stamp: 
    secs: 1561683441
    nsecs: 143685377
  frame_id: "ti_mmwave"
point_id: 4
x: 0.359375
y: -0.080078125
z: -1.212890625
range: 1.35088610649
velocity: 0.0
doppler_bin: 8
bearing: -12.5617752075
intensity: 21.9589958191
---
header: 
  seq: 1381241
  stamp: 
    secs: 1561683441
    nsecs: 143700911
  frame_id: "ti_mmwave"
point_id: 5
x: 0.31640625
y: -0.041015625
z: 1.26953125
range: 1.39446306229
velocity: 0.0
doppler_bin: 8
bearing: -7.38604259491
intensity: 23.2633590698
---
header: 
  seq: 1381242
  stamp: 
    secs: 1561683441
    nsecs: 143714781
  frame_id: "ti_mmwave"
point_id: 6
x: 0.51171875
y: -0.04296875
z: 1.248046875
range: 1.43804001808
velocity: 0.0
doppler_bin: 8
bearing: -4.79983615875
intensity: 21.9312458038
---
header: 
  seq: 1381243
  stamp: 
    secs: 1561683441
    nsecs: 143728238
  frame_id: "ti_mmwave"
point_id: 7
x: 2.548828125
y: -0.263671875
z: 1.185546875
range: 3.00681090355
velocity: 0.0
doppler_bin: 8
bearing: -5.90614128113
intensity: 29.4743366241
---
header: 
  seq: 1381244
  stamp: 
    secs: 1561683441
    nsecs: 143821597
  frame_id: "ti_mmwave"
point_id: 8
x: 2.603515625
y: -0.267578125
z: 1.1640625
range: 3.05038785934
velocity: 0.0
doppler_bin: 8
bearing: -5.8680100441
intensity: 32.8057823181
---
header: 
  seq: 1381245
  stamp: 
    secs: 1561683441
    nsecs: 143839047
  frame_id: "ti_mmwave"
point_id: 9
x: 2.658203125
y: -0.271484375
z: 1.138671875
range: 3.09396481514
velocity: 0.0
doppler_bin: 8
bearing: -5.83144378662
intensity: 32.0002937317
---
header: 
  seq: 1381246
  stamp: 
    secs: 1561683441
    nsecs: 143855583
  frame_id: "ti_mmwave"
point_id: 10
x: 4.4140625
y: -0.287109375
z: 1.193359375
range: 4.88062095642
velocity: 0.0
doppler_bin: 8
bearing: -3.72151875496
intensity: 30.8278541565
---
header: 
  seq: 1381247
  stamp: 
    secs: 1561683441
    nsecs: 143869277
  frame_id: "ti_mmwave"
point_id: 11
x: 4.46875
y: -0.2890625
z: 1.1484375
range: 4.9241976738
velocity: 0.0
doppler_bin: 8
bearing: -3.70103907585
intensity: 30.4883003235
---
header: 
  seq: 1381248
  stamp: 
    secs: 1561683441
    nsecs: 143884188
  frame_id: "ti_mmwave"
point_id: 12
x: 4.69140625
y: -0.4453125
z: -0.556640625
range: 5.0549287796
velocity: 0.0
doppler_bin: 8
bearing: -5.42232084274
intensity: 29.3043956757
---
header: 
  seq: 1381249
  stamp: 
    secs: 1561683441
    nsecs: 143897485
  frame_id: "ti_mmwave"
point_id: 13
x: 4.7421875
y: -0.44921875
z: -0.47265625
range: 5.09850549698
velocity: 0.0
doppler_bin: 8
bearing: -5.41137647629
intensity: 33.2056159973
---
header: 
  seq: 1381250
  stamp: 
    secs: 1561683441
    nsecs: 143911426
  frame_id: "ti_mmwave"
point_id: 14
x: 4.7890625
y: -0.453125
z: -0.392578125
range: 5.14208269119
velocity: 0.0
doppler_bin: 8
bearing: -5.40504264832
intensity: 33.6754226685
---
header: 
  seq: 1381251
  stamp: 
    secs: 1561683441
    nsecs: 143945686
  frame_id: "ti_mmwave"
point_id: 15
x: 4.84375
y: -0.45703125
z: -0.162109375
range: 5.18565940857
velocity: 0.0
doppler_bin: 8
bearing: -5.3901758194
intensity: 30.3901729584
---
header: 
  seq: 1381252
  stamp: 
    secs: 1561683441
    nsecs: 143968652
  frame_id: "ti_mmwave"
point_id: 16
x: 4.828125
y: -0.4609375
z: 0.759765625
range: 5.22923660278
velocity: 0.0
doppler_bin: 8
bearing: -5.4534573555
intensity: 29.8181858063
---
header: 
  seq: 1381253
  stamp: 
    secs: 1561683441
    nsecs: 143982608
  frame_id: "ti_mmwave"
point_id: 17
x: 4.873046875
y: -0.30859375
z: 0.810546875
range: 5.27281332016
velocity: 0.0
doppler_bin: 8
bearing: -3.62351131439
intensity: 30.6929798126
---
header: 
  seq: 1381254
  stamp: 
    secs: 1561683441
    nsecs: 144005621
  frame_id: "ti_mmwave"
point_id: 18
x: 1.71875
y: 1.380859375
z: -0.146484375
range: 2.3531563282
velocity: 0.614668667316
doppler_bin: 9
bearing: 38.7787132263
intensity: 24.9831047058
---
header: 
  seq: 1381255
  stamp: 
    secs: 1561683441
    nsecs: 144032097
  frame_id: "ti_mmwave"
point_id: 20
x: 0.041015625
y: -0.033203125
z: 0.0625
range: 0.0871539413929
velocity: 0.0
doppler_bin: 8
bearing: -38.9909973145
intensity: 30.1535968781
---
header: 
  seq: 1381256
  stamp: 
    secs: 1561683441
    nsecs: 144046608
  frame_id: "ti_mmwave"
point_id: 21
x: 0.044921875
y: -0.046875
z: 0.103515625
range: 0.130730912089
velocity: 0.0
doppler_bin: 8
bearing: -46.218875885
intensity: 29.0417442322
---
header: 
  seq: 1381257
  stamp: 
    secs: 1561683441
    nsecs: 144123666
  frame_id: "ti_mmwave"
point_id: 23
x: 2.79296875
y: -2.021484375
z: -3.078125
range: 4.9241976738
velocity: 0.0
doppler_bin: 8
bearing: -35.8961257935
intensity: 27.4973640442
---
header: 
  seq: 1381258
  stamp: 
    secs: 1561683441
    nsecs: 203511725
  frame_id: "ti_mmwave"
point_id: 0
x: 0.01171875
y: -0.0390625
z: -0.0078125
range: 0.0435769706964
velocity: 0.0
doppler_bin: 8
bearing: -73.3007583618
intensity: 30.7518177032
---
header: 
  seq: 1381259
  stamp: 
    secs: 1561683441
    nsecs: 203608245
  frame_id: "ti_mmwave"
point_id: 1
x: 0.017578125
y: -0.080078125
z: -0.0078125
range: 0.0871539413929
velocity: 0.0
doppler_bin: 8
bearing: -77.6192398071
intensity: 31.9893188477
---
header: 
  seq: 1381260
  stamp: 
    secs: 1561683441
    nsecs: 203628711
  frame_id: "ti_mmwave"
point_id: 2
x: 0.029296875
y: -0.119140625
z: -0.005859375
range: 0.130730912089
velocity: 0.0
doppler_bin: 8
bearing: -76.1849746704
intensity: 30.2366390228
---
header: 
  seq: 1381261
  stamp: 
    secs: 1561683441
    nsecs: 203642608
  frame_id: "ti_mmwave"
point_id: 3
x: 0.056640625
y: -0.154296875
z: 0.005859375
range: 0.174307882786
velocity: 0.0
doppler_bin: 8
bearing: -69.8423843384
intensity: 25.5144996643
---
header: 
  seq: 1381262
  stamp: 
    secs: 1561683441
    nsecs: 203656103
  frame_id: "ti_mmwave"
point_id: 4
x: 0.369140625
y: -0.080078125
z: -1.2109375
range: 1.35088610649
velocity: 0.0
doppler_bin: 8
bearing: -12.2396001816
intensity: 21.9312458038
---
header: 
  seq: 1381263
  stamp: 
    secs: 1561683441
    nsecs: 203669853
  frame_id: "ti_mmwave"
point_id: 5
x: 0.26953125
y: -0.041015625
z: 1.279296875
range: 1.39446306229
velocity: 0.0
doppler_bin: 8
bearing: -8.65254211426
intensity: 23.2837963104
---
header: 
  seq: 1381264
  stamp: 
    secs: 1561683441
    nsecs: 203684103
  frame_id: "ti_mmwave"
point_id: 6
x: 0.376953125
y: -0.0
z: 1.296875
range: 1.43804001808
velocity: 0.0
doppler_bin: 8
bearing: -0.0
intensity: 21.9589958191
---
header: 
  seq: 1381265
  stamp: 
    secs: 1561683441
    nsecs: 203698213
  frame_id: "ti_mmwave"
point_id: 7
x: 2.55078125
y: -0.263671875
z: 1.181640625
range: 3.00681090355
velocity: 0.0
doppler_bin: 8
bearing: -5.90165042877
intensity: 29.4448261261
---
header: 
  seq: 1381266
  stamp: 
    secs: 1561683441
    nsecs: 203715366
  frame_id: "ti_mmwave"
point_id: 8
x: 2.60546875
y: -0.267578125
z: 1.158203125
range: 3.05038785934
velocity: 0.0
doppler_bin: 8
bearing: -5.86364221573
intensity: 32.7989501953
---
header: 
  seq: 1381267
  stamp: 
    secs: 1561683441
    nsecs: 203731483
  frame_id: "ti_mmwave"
point_id: 9
x: 2.66015625
y: -0.271484375
z: 1.134765625
range: 3.09396481514
velocity: 0.0
doppler_bin: 8
bearing: -5.82719182968
intensity: 32.0112380981
---
header: 
  seq: 1381268
  stamp: 
    secs: 1561683441
    nsecs: 203743020
  frame_id: "ti_mmwave"
point_id: 10
x: 4.41015625
y: -0.287109375
z: 1.20703125
range: 4.88062095642
velocity: 0.0
doppler_bin: 8
bearing: -3.72480559349
intensity: 30.8062648773
---
header: 
  seq: 1381269
  stamp: 
    secs: 1561683441
    nsecs: 203832603
  frame_id: "ti_mmwave"
point_id: 11
x: 4.46484375
y: -0.2890625
z: 1.162109375
range: 4.9241976738
velocity: 0.0
doppler_bin: 8
bearing: -3.70426845551
intensity: 30.4532299042
---
header: 
  seq: 1381270
  stamp: 
    secs: 1561683441
    nsecs: 203848709
  frame_id: "ti_mmwave"
point_id: 12
x: 4.689453125
y: -0.4453125
z: -0.568359375
range: 5.0549287796
velocity: 0.0
doppler_bin: 8
bearing: -5.42456626892
intensity: 29.3298072815
---
header: 
  seq: 1381271
  stamp: 
    secs: 1561683441
    nsecs: 203862323
  frame_id: "ti_mmwave"
point_id: 13
x: 4.740234375
y: -0.44921875
z: -0.482421875
range: 5.09850549698
velocity: 0.0
doppler_bin: 8
bearing: -5.41359329224
intensity: 33.2139129639
---
header: 
  seq: 1381272
  stamp: 
    secs: 1561683441
    nsecs: 203876862
  frame_id: "ti_mmwave"
point_id: 14
x: 4.7890625
y: -0.453125
z: -0.400390625
range: 5.14208269119
velocity: 0.0
doppler_bin: 8
bearing: -5.40504264832
intensity: 33.6679649353
---
header: 
  seq: 1381273
  stamp: 
    secs: 1561683441
    nsecs: 203890108
  frame_id: "ti_mmwave"
point_id: 15
x: 4.84375
y: -0.45703125
z: -0.169921875
range: 5.18565940857
velocity: 0.0
doppler_bin: 8
bearing: -5.3901758194
intensity: 30.3862018585
---
header: 
  seq: 1381274
  stamp: 
    secs: 1561683441
    nsecs: 203903553
  frame_id: "ti_mmwave"
point_id: 16
x: 4.83203125
y: -0.4609375
z: 0.73828125
range: 5.22923660278
velocity: 0.0
doppler_bin: 8
bearing: -5.44907474518
intensity: 29.8091201782
---
header: 
  seq: 1381275
  stamp: 
    secs: 1561683441
    nsecs: 203916925
  frame_id: "ti_mmwave"
point_id: 17
x: 4.857421875
y: -0.46484375
z: 0.8359375
range: 5.27281332016
velocity: 0.0
doppler_bin: 8
bearing: -5.46642303467
intensity: 30.6520614624
---
header: 
  seq: 1381276
  stamp: 
    secs: 1561683441
    nsecs: 203940936
  frame_id: "ti_mmwave"
point_id: 19
x: 0.041015625
y: -0.033203125
z: 0.0625
range: 0.0871539413929
velocity: 0.0
doppler_bin: 8
bearing: -38.9909973145
intensity: 30.157787323
---
header: 
  seq: 1381277
  stamp: 
    secs: 1561683441
    nsecs: 203987900
  frame_id: "ti_mmwave"
point_id: 20
x: 0.052734375
y: -0.04296875
z: 0.1015625
range: 0.130730912089
velocity: 0.0
doppler_bin: 8
bearing: -39.1736602783
intensity: 29.0471553802
---
header: 
  seq: 1381278
  stamp: 
    secs: 1561683441
    nsecs: 204005762
  frame_id: "ti_mmwave"
point_id: 22
x: 1.11328125
y: -0.515625
z: 0.318359375
range: 1.35088610649
velocity: 0.0
doppler_bin: 8
bearing: -24.8515853882
intensity: 19.1381378174
---
header: 
  seq: 1381279
  stamp: 
    secs: 1561683441
    nsecs: 204018228
  frame_id: "ti_mmwave"
point_id: 23
x: 2.8515625
y: -2.021484375
z: -3.025390625
range: 4.9241976738
velocity: 0.0
doppler_bin: 8
bearing: -35.3329849243
intensity: 27.4741172791
---
header: 
  seq: 1381280
  stamp: 
    secs: 1561683441
    nsecs: 205281860
  frame_id: "ti_mmwave"
point_id: 0
x: 0.01171875
y: -0.0390625
z: -0.0078125
range: 0.0435769706964
velocity: 0.0
doppler_bin: 8
bearing: -73.3007583618
intensity: 30.7554702759
---
header: 
  seq: 1381281
  stamp: 
    secs: 1561683441
    nsecs: 205336554
  frame_id: "ti_mmwave"
point_id: 1
x: 0.017578125
y: -0.080078125
z: -0.0078125
range: 0.0871539413929
velocity: 0.0
doppler_bin: 8
bearing: -77.6192398071
intensity: 31.994808197
---
header: 
  seq: 1381282
  stamp: 
    secs: 1561683441
    nsecs: 205354933
  frame_id: "ti_mmwave"
point_id: 2
x: 0.029296875
y: -0.119140625
z: -0.005859375
range: 0.130730912089
velocity: 0.0
doppler_bin: 8
bearing: -76.1849746704
intensity: 30.2448558807
---
header: 
  seq: 1381283
  stamp: 
    secs: 1561683441
    nsecs: 205369808
  frame_id: "ti_mmwave"
point_id: 3
x: 0.056640625
y: -0.154296875
z: 0.005859375
range: 0.174307882786
velocity: 0.0
doppler_bin: 8
bearing: -69.8423843384
intensity: 25.5266819
---
header: 
  seq: 1381284
  stamp: 
    secs: 1561683441
    nsecs: 205384179
  frame_id: "ti_mmwave"
point_id: 4
x: 0.361328125
y: -0.080078125
z: -1.212890625
range: 1.35088610649
velocity: 0.0
doppler_bin: 8
bearing: -12.4960107803
intensity: 21.8469142914
---
header: 
  seq: 1381285
  stamp: 
    secs: 1561683441
    nsecs: 205397786
  frame_id: "ti_mmwave"
point_id: 5
x: 0.267578125
y: -0.041015625
z: 1.28125
range: 1.39446306229
velocity: 0.0
doppler_bin: 8
bearing: -8.71473312378
intensity: 23.2221927643
---
header: 
  seq: 1381286
  stamp: 
    secs: 1561683441
    nsecs: 205413527
  frame_id: "ti_mmwave"
point_id: 6
x: 0.41015625
y: -0.0
z: 1.287109375
range: 1.43804001808
velocity: 0.0
doppler_bin: 8
bearing: -0.0
intensity: 21.9033164978
---
header: 
  seq: 1381287
  stamp: 
    secs: 1561683441
    nsecs: 205427358
  frame_id: "ti_mmwave"
point_id: 7
x: 2.546875
y: -0.263671875
z: 1.185546875
range: 3.00681090355
velocity: 0.0
doppler_bin: 8
bearing: -5.91063833237
intensity: 29.4398880005
---
header: 
  seq: 1381288
  stamp: 
    secs: 1561683441
    nsecs: 205497297
  frame_id: "ti_mmwave"
point_id: 8
x: 2.603515625
y: -0.267578125
z: 1.1640625
range: 3.05038785934
velocity: 0.0
doppler_bin: 8
bearing: -5.8680100441
intensity: 32.7943878174
---
header: 
  seq: 1381289
  stamp: 
    secs: 1561683441
    nsecs: 205514129
  frame_id: "ti_mmwave"
point_id: 9
x: 2.66015625
y: -0.271484375
z: 1.134765625
range: 3.09396481514
velocity: 0.0
doppler_bin: 8
bearing: -5.82719182968
intensity: 32.0057678223
---
header: 
  seq: 1381290
  stamp: 
    secs: 1561683441
    nsecs: 205527555
  frame_id: "ti_mmwave"
point_id: 10
x: 4.41015625
y: -0.287109375
z: 1.208984375
range: 4.88062095642
velocity: 0.0
doppler_bin: 8
bearing: -3.72480559349
intensity: 30.8134727478
---
header: 
  seq: 1381291
  stamp: 
    secs: 1561683441
    nsecs: 205540491
  frame_id: "ti_mmwave"
point_id: 11
x: 4.462890625
y: -0.2890625
z: 1.16796875
range: 4.9241976738
velocity: 0.0
doppler_bin: 8
bearing: -3.70588517189
intensity: 30.4610481262
---
header: 
  seq: 1381292
  stamp: 
    secs: 1561683441
    nsecs: 205557199
  frame_id: "ti_mmwave"
point_id: 12
x: 4.740234375
y: -0.44921875
z: -0.482421875
range: 5.09850549698
velocity: 0.0
doppler_bin: 8
bearing: -5.41359329224
intensity: 33.2056159973
---
header: 
  seq: 1381293
  stamp: 
    secs: 1561683441
    nsecs: 205566458
  frame_id: "ti_mmwave"
point_id: 13
x: 4.7890625
y: -0.453125
z: -0.400390625
range: 5.14208269119
velocity: 0.0
doppler_bin: 8
bearing: -5.40504264832
intensity: 33.6679649353
---
header: 
  seq: 1381294
  stamp: 
    secs: 1561683441
    nsecs: 205612669
  frame_id: "ti_mmwave"
point_id: 14
x: 4.84375
y: -0.45703125
z: -0.166015625
range: 5.18565940857
velocity: 0.0
doppler_bin: 8
bearing: -5.3901758194
intensity: 30.382226944
---
header: 
  seq: 1381295
  stamp: 
    secs: 1561683441
    nsecs: 205628323
  frame_id: "ti_mmwave"
point_id: 15
x: 4.833984375
y: -0.4609375
z: 0.71875
range: 5.22923660278
velocity: 0.0
doppler_bin: 8
bearing: -5.44688653946
intensity: 29.8317508698
---
header: 
  seq: 1381296
  stamp: 
    secs: 1561683441
    nsecs: 205645541
  frame_id: "ti_mmwave"
point_id: 16
x: 4.89453125
y: -0.30859375
z: 0.66796875
range: 5.27281332016
velocity: 0.0
doppler_bin: 8
bearing: -3.60764837265
intensity: 30.7224998474
---
header: 
  seq: 1381297
  stamp: 
    secs: 1561683441
    nsecs: 205662619
  frame_id: "ti_mmwave"
point_id: 18
x: 0.041015625
y: -0.033203125
z: 0.0625
range: 0.0871539413929
velocity: 0.0
doppler_bin: 8
bearing: -38.9909973145
intensity: 30.1619739532
---
header: 
  seq: 1381298
  stamp: 
    secs: 1561683441
    nsecs: 205699671
  frame_id: "ti_mmwave"
point_id: 19
x: 0.044921875
y: -0.046875
z: 0.103515625
range: 0.130730912089
velocity: 0.0
doppler_bin: 8
bearing: -46.218875885
intensity: 29.0471553802
---
header: 
  seq: 1381299
  stamp: 
    secs: 1561683441
    nsecs: 205717130
  frame_id: "ti_mmwave"
point_id: 21
x: 1.111328125
y: -0.515625
z: 0.326171875
range: 1.35088610649
velocity: 0.0
doppler_bin: 8
bearing: -24.8899745941
intensity: 19.0308990479
---
header: 
  seq: 1381300
  stamp: 
    secs: 1561683441
    nsecs: 206025879
  frame_id: "ti_mmwave"
point_id: 22
x: 2.859375
y: -2.00390625
z: -2.966796875
range: 4.88062095642
velocity: 0.0
doppler_bin: 8
bearing: -35.0235290527
intensity: 27.8318862915
---
header: 
  seq: 1381301
  stamp: 
    secs: 1561683441
    nsecs: 206042853
  frame_id: "ti_mmwave"
point_id: 23
x: 2.8125
y: -2.021484375
z: -3.060546875
range: 4.9241976738
velocity: 0.0
doppler_bin: 8
bearing: -35.7066917419
intensity: 27.5127906799
---
header: 
  seq: 1381302
  stamp: 
    secs: 1561683441
    nsecs: 263669477
  frame_id: "ti_mmwave"
point_id: 0
x: 0.01171875
y: -0.0390625
z: -0.0078125
range: 0.0435769706964
velocity: 0.0
doppler_bin: 8
bearing: -73.3007583618
intensity: 30.7481651306
---
header: 
  seq: 1381303
  stamp: 
    secs: 1561683441
    nsecs: 263764401
  frame_id: "ti_mmwave"
point_id: 1
x: 0.017578125
y: -0.080078125
z: -0.0078125
range: 0.0871539413929
velocity: 0.0
doppler_bin: 8
bearing: -77.6192398071
intensity: 31.9865703583
---
header: 
  seq: 1381304
  stamp: 
    secs: 1561683441
    nsecs: 263785584
  frame_id: "ti_mmwave"
point_id: 2
x: 0.041015625
y: -0.115234375
z: -0.0078125
range: 0.130730912089
velocity: 0.0
doppler_bin: 8
bearing: -70.4077224731
intensity: 30.2325248718
---
header: 
  seq: 1381305
  stamp: 
    secs: 1561683441
    nsecs: 263800662
  frame_id: "ti_mmwave"
point_id: 3
x: 0.056640625
y: -0.154296875
z: 0.005859375
range: 0.174307882786
velocity: 0.0
doppler_bin: 8
bearing: -69.8423843384
intensity: 25.5022830963
---
header: 
  seq: 1381306
  stamp: 
    secs: 1561683441
    nsecs: 263815335
  frame_id: "ti_mmwave"
point_id: 4
x: 0.322265625
y: -0.080078125
z: -1.224609375
range: 1.35088610649
velocity: 0.0
doppler_bin: 8
bearing: -13.9545097351
intensity: 21.875207901
---
header: 
  seq: 1381307
  stamp: 
    secs: 1561683441
    nsecs: 263829714
  frame_id: "ti_mmwave"
point_id: 5
x: 0.2734375
y: -0.041015625
z: 1.279296875
range: 1.39446306229
velocity: 0.0
doppler_bin: 8
bearing: -8.53076648712
intensity: 23.2221927643
---
header: 
  seq: 1381308
  stamp: 
    secs: 1561683441
    nsecs: 263846708
  frame_id: "ti_mmwave"
point_id: 6
x: 0.357421875
y: -0.0
z: 1.302734375
range: 1.43804001808
velocity: 0.0
doppler_bin: 8
bearing: -0.0
intensity: 21.8469142914
---
header: 
  seq: 1381309
  stamp: 
    secs: 1561683441
    nsecs: 263863696
  frame_id: "ti_mmwave"
point_id: 7
x: 2.541015625
y: -0.263671875
z: 1.19921875
range: 3.00681090355
velocity: 0.0
doppler_bin: 8
bearing: -5.92417097092
intensity: 29.4497585297
---
header: 
  seq: 1381310
  stamp: 
    secs: 1561683441
    nsecs: 263963204
  frame_id: "ti_mmwave"
point_id: 8
x: 2.6015625
y: -0.267578125
z: 1.166015625
range: 3.05038785934
velocity: 0.0
doppler_bin: 8
bearing: -5.87238502502
intensity: 32.7966690063
---
header: 
  seq: 1381311
  stamp: 
    secs: 1561683441
    nsecs: 263982927
  frame_id: "ti_mmwave"
point_id: 9
x: 2.658203125
y: -0.271484375
z: 1.13671875
range: 3.09396481514
velocity: 0.0
doppler_bin: 8
bearing: -5.83144378662
intensity: 31.9975509644
---
header: 
  seq: 1381312
  stamp: 
    secs: 1561683441
    nsecs: 263997226
  frame_id: "ti_mmwave"
point_id: 10
x: 4.4140625
y: -0.287109375
z: 1.1953125
range: 4.88062095642
velocity: 0.0
doppler_bin: 8
bearing: -3.72151875496
intensity: 30.8098697662
---
header: 
  seq: 1381313
  stamp: 
    secs: 1561683441
    nsecs: 264012122
  frame_id: "ti_mmwave"
point_id: 11
x: 4.470703125
y: -0.2890625
z: 1.140625
range: 4.9241976738
velocity: 0.0
doppler_bin: 8
bearing: -3.69942688942
intensity: 30.4493160248
---
header: 
  seq: 1381314
  stamp: 
    secs: 1561683441
    nsecs: 264027109
  frame_id: "ti_mmwave"
point_id: 12
x: 4.689453125
y: -0.4453125
z: -0.572265625
range: 5.0549287796
velocity: 0.0
doppler_bin: 8
bearing: -5.42456626892
intensity: 29.3196620941
---
header: 
  seq: 1381315
  stamp: 
    secs: 1561683441
    nsecs: 264043283
  frame_id: "ti_mmwave"
point_id: 13
x: 4.740234375
y: -0.44921875
z: -0.484375
range: 5.09850549698
velocity: 0.0
doppler_bin: 8
bearing: -5.41359329224
intensity: 33.2242622375
---
header: 
  seq: 1381316
  stamp: 
    secs: 1561683441
    nsecs: 264093015
  frame_id: "ti_mmwave"
point_id: 14
x: 4.7890625
y: -0.453125
z: -0.40234375
range: 5.14208269119
velocity: 0.0
doppler_bin: 8
bearing: -5.40504264832
intensity: 33.6921577454
---
header: 
  seq: 1381317
  stamp: 
    secs: 1561683441
    nsecs: 264111810
  frame_id: "ti_mmwave"
point_id: 15
x: 4.84375
y: -0.45703125
z: -0.17578125
range: 5.18565940857
velocity: 0.0
doppler_bin: 8
bearing: -5.3901758194
intensity: 30.3941402435
---
header: 
  seq: 1381318
  stamp: 
    secs: 1561683441
    nsecs: 264128428
  frame_id: "ti_mmwave"
point_id: 16
x: 4.833984375
y: -0.4609375
z: 0.71484375
range: 5.22923660278
velocity: 0.0
doppler_bin: 8
bearing: -5.44688653946
intensity: 29.8136558533
---
header: 
  seq: 1381319
  stamp: 
    secs: 1561683441
    nsecs: 264143856
  frame_id: "ti_mmwave"
point_id: 17
x: 4.892578125
y: -0.30859375
z: 0.689453125
range: 5.27281332016
velocity: 0.0
doppler_bin: 8
bearing: -3.60908436775
intensity: 30.7700424194
---
header: 
  seq: 1381320
  stamp: 
    secs: 1561683441
    nsecs: 264156888
  frame_id: "ti_mmwave"
point_id: 18
x: 1.80078125
y: 1.3359375
z: -0.17578125
range: 2.396733284
velocity: 0.614668667316
doppler_bin: 9
bearing: 36.5704460144
intensity: 24.6686763763
---
header: 
  seq: 1381321
  stamp: 
    secs: 1561683441
    nsecs: 264204493
  frame_id: "ti_mmwave"
point_id: 20
x: 0.041015625
y: -0.033203125
z: 0.0625
range: 0.0871539413929
velocity: 0.0
doppler_bin: 8
bearing: -38.9909973145
intensity: 30.1535968781
---
header: 
  seq: 1381322
  stamp: 
    secs: 1561683441
    nsecs: 264221526
  frame_id: "ti_mmwave"
point_id: 21
x: 0.044921875
y: -0.046875
z: 0.103515625
range: 0.130730912089
velocity: 0.0
doppler_bin: 8
bearing: -46.218875885
intensity: 29.0417442322
---
header: 
  seq: 1381323
  stamp: 
    secs: 1561683441
    nsecs: 264239368
  frame_id: "ti_mmwave"
point_id: 23
x: 1.1171875
y: -0.515625
z: 0.310546875
range: 1.35088610649
velocity: 0.0
doppler_bin: 8
bearing: -24.7751407623
intensity: 19.0848503113
---
header: 
  seq: 1381324
  stamp: 
    secs: 1561683441
    nsecs: 264283616
  frame_id: "ti_mmwave"
point_id: 24
x: 2.7890625
y: -2.021484375
z: -3.08203125
range: 4.9241976738
velocity: 0.0
doppler_bin: 8
bearing: -35.9342193604
intensity: 27.4507484436
---
header: 
  seq: 1381325
  stamp: 
    secs: 1561683441
    nsecs: 265427978
  frame_id: "ti_mmwave"
point_id: 0
x: 0.01171875
y: -0.0390625
z: -0.0078125
range: 0.0435769706964
velocity: 0.0
doppler_bin: 8
bearing: -73.3007583618
intensity: 30.7627620697
---
header: 
  seq: 1381326
  stamp: 
    secs: 1561683441
    nsecs: 265479616
  frame_id: "ti_mmwave"
point_id: 1
x: 0.017578125
y: -0.080078125
z: -0.0078125
range: 0.0871539413929
velocity: 0.0
doppler_bin: 8
bearing: -77.6192398071
intensity: 31.9975509644
---
header: 
  seq: 1381327
  stamp: 
    secs: 1561683441
    nsecs: 265496005
  frame_id: "ti_mmwave"
point_id: 2
x: 0.041015625
y: -0.115234375
z: -0.0078125
range: 0.130730912089
velocity: 0.0
doppler_bin: 8
bearing: -70.4077224731
intensity: 30.2448558807
---
header: 
  seq: 1381328
  stamp: 
    secs: 1561683441
    nsecs: 265510013
  frame_id: "ti_mmwave"
point_id: 3
x: 0.056640625
y: -0.154296875
z: 0.005859375
range: 0.174307882786
velocity: 0.0
doppler_bin: 8
bearing: -69.8423843384
intensity: 25.5266819
---
header: 
  seq: 1381329
  stamp: 
    secs: 1561683441
    nsecs: 265527063
  frame_id: "ti_mmwave"
point_id: 4
x: 0.349609375
y: -0.080078125
z: -1.216796875
range: 1.35088610649
velocity: 0.0
doppler_bin: 8
bearing: -12.9010734558
intensity: 21.9312458038
---
header: 
  seq: 1381330
  stamp: 
    secs: 1561683441
    nsecs: 265542464
  frame_id: "ti_mmwave"
point_id: 5
x: 0.30859375
y: -0.041015625
z: 1.271484375
range: 1.39446306229
velocity: 0.0
doppler_bin: 8
bearing: -7.57088899612
intensity: 23.2633590698
---
header: 
  seq: 1381331
  stamp: 
    secs: 1561683441
    nsecs: 265645489
  frame_id: "ti_mmwave"
point_id: 6
x: 0.46875
y: -0.04296875
z: 1.265625
range: 1.43804001808
velocity: 0.0
doppler_bin: 8
bearing: -5.23747634888
intensity: 21.9312458038
---
header: 
  seq: 1381332
  stamp: 
    secs: 1561683441
    nsecs: 265668328
  frame_id: "ti_mmwave"
point_id: 7
x: 2.53515625
y: -0.263671875
z: 1.2109375
range: 3.00681090355
velocity: 0.0
doppler_bin: 8
bearing: -5.9377655983
intensity: 29.4645233154
---
header: 
  seq: 1381333
  stamp: 
    secs: 1561683441
    nsecs: 265677273
  frame_id: "ti_mmwave"
point_id: 8
x: 2.599609375
y: -0.267578125
z: 1.169921875
range: 3.05038785934
velocity: 0.0
doppler_bin: 8
bearing: -5.87676620483
intensity: 32.7989501953
---
header: 
  seq: 1381334
  stamp: 
    secs: 1561683441
    nsecs: 265685548
  frame_id: "ti_mmwave"
point_id: 9
x: 2.658203125
y: -0.271484375
z: 1.138671875
range: 3.09396481514
velocity: 0.0
doppler_bin: 8
bearing: -5.83144378662
intensity: 32.0085067749
---
header: 
  seq: 1381335
  stamp: 
    secs: 1561683441
    nsecs: 265693927
  frame_id: "ti_mmwave"
point_id: 10
x: 4.408203125
y: -0.287109375
z: 1.21484375
range: 4.88062095642
velocity: 0.0
doppler_bin: 8
bearing: -3.72645139694
intensity: 30.8134727478
---
header: 
  seq: 1381336
  stamp: 
    secs: 1561683441
    nsecs: 265725160
  frame_id: "ti_mmwave"
point_id: 11
x: 4.4609375
y: -0.2890625
z: 1.17578125
range: 4.9241976738
velocity: 0.0
doppler_bin: 8
bearing: -3.70750308037
intensity: 30.4493160248
---
header: 
  seq: 1381337
  stamp: 
    secs: 1561683441
    nsecs: 265745574
  frame_id: "ti_mmwave"
point_id: 12
x: 4.740234375
y: -0.44921875
z: -0.48046875
range: 5.09850549698
velocity: 0.0
doppler_bin: 8
bearing: -5.41359329224
intensity: 33.2180557251
---
header: 
  seq: 1381338
  stamp: 
    secs: 1561683441
    nsecs: 265809705
  frame_id: "ti_mmwave"
point_id: 13
x: 4.7890625
y: -0.453125
z: -0.400390625
range: 5.14208269119
velocity: 0.0
doppler_bin: 8
bearing: -5.40504264832
intensity: 33.6810073853
---
header: 
  seq: 1381339
  stamp: 
    secs: 1561683441
    nsecs: 265827056
  frame_id: "ti_mmwave"
point_id: 14
x: 4.84375
y: -0.45703125
z: -0.16796875
range: 5.18565940857
velocity: 0.0
doppler_bin: 8
bearing: -5.3901758194
intensity: 30.3941402435
---
header: 
  seq: 1381340
  stamp: 
    secs: 1561683441
    nsecs: 265841745
  frame_id: "ti_mmwave"
point_id: 15
x: 4.833984375
y: -0.4609375
z: 0.71875
range: 5.22923660278
velocity: 0.0
doppler_bin: 8
bearing: -5.44688653946
intensity: 29.854265213
---
header: 
  seq: 1381341
  stamp: 
    secs: 1561683441
    nsecs: 265854018
  frame_id: "ti_mmwave"
point_id: 16
x: 4.890625
y: -0.30859375
z: 0.6953125
range: 5.27281332016
velocity: 0.0
doppler_bin: 8
bearing: -3.61052203178
intensity: 30.7773113251
---
header: 
  seq: 1381342
  stamp: 
    secs: 1561683441
    nsecs: 265866163
  frame_id: "ti_mmwave"
point_id: 17
x: 1.7421875
y: 1.287109375
z: -0.107421875
range: 2.30957937241
velocity: 0.614668667316
doppler_bin: 9
bearing: 36.4565925598
intensity: 25.6702632904
---
header: 
  seq: 1381343
  stamp: 
    secs: 1561683441
    nsecs: 265878151
  frame_id: "ti_mmwave"
point_id: 18
x: 1.779296875
y: 1.431640625
z: -0.181640625
range: 2.44031047821
velocity: 0.614668667316
doppler_bin: 9
bearing: 38.820514679
intensity: 25.1719589233
---
header: 
  seq: 1381344
  stamp: 
    secs: 1561683441
    nsecs: 265893401
  frame_id: "ti_mmwave"
point_id: 20
x: 0.041015625
y: -0.033203125
z: 0.0625
range: 0.0871539413929
velocity: 0.0
doppler_bin: 8
bearing: -38.9909973145
intensity: 30.157787323
---
header: 
  seq: 1381345
  stamp: 
    secs: 1561683441
    nsecs: 265905030
  frame_id: "ti_mmwave"
point_id: 21
x: 0.044921875
y: -0.046875
z: 0.103515625
range: 0.130730912089
velocity: 0.0
doppler_bin: 8
bearing: -46.218875885
intensity: 29.0471553802
---
header: 
  seq: 1381346
  stamp: 
    secs: 1561683441
    nsecs: 265922163
  frame_id: "ti_mmwave"
point_id: 23
x: 1.1171875
y: -0.515625
z: 0.310546875
range: 1.35088610649
velocity: 0.0
doppler_bin: 8
bearing: -24.7751407623
intensity: 19.0308990479
---
header: 
  seq: 1381347
  stamp: 
    secs: 1561683441
    nsecs: 265935074
  frame_id: "ti_mmwave"
point_id: 24
x: 2.853515625
y: -2.00390625
z: -2.970703125
range: 4.88062095642
velocity: 0.0
doppler_bin: 8
bearing: -35.0787811279
intensity: 27.8103694916
---
header: 
  seq: 1381348
  stamp: 
    secs: 1561683441
    nsecs: 265947905
  frame_id: "ti_mmwave"
point_id: 25
x: 2.818359375
y: -2.021484375
z: -3.0546875
range: 4.9241976738
velocity: 0.0
doppler_bin: 8
bearing: -35.6501998901
intensity: 27.5050830841
---
header: 
  seq: 1381349
  stamp: 
    secs: 1561683441
    nsecs: 323559336
  frame_id: "ti_mmwave"
point_id: 0
x: 0.01171875
y: -0.0390625
z: -0.0078125
range: 0.0435769706964
velocity: 0.0
doppler_bin: 8
bearing: -73.3007583618
intensity: 30.7481651306
---
header: 
  seq: 1381350
  stamp: 
    secs: 1561683441
    nsecs: 323634154
  frame_id: "ti_mmwave"
point_id: 1
x: 0.017578125
y: -0.080078125
z: -0.0078125
range: 0.0871539413929
velocity: 0.0
doppler_bin: 8
bearing: -77.6192398071
intensity: 31.9893188477
---
header: 
  seq: 1381351
  stamp: 
    secs: 1561683441
    nsecs: 323649663
  frame_id: "ti_mmwave"
point_id: 2
x: 0.029296875
y: -0.119140625
z: -0.00390625
range: 0.130730912089
velocity: 0.0
doppler_bin: 8
bearing: -76.1849746704
intensity: 30.2407493591
---
header: 
  seq: 1381352
  stamp: 
    secs: 1561683441
    nsecs: 323664452
  frame_id: "ti_mmwave"
point_id: 3
x: 0.056640625
y: -0.154296875
z: 0.005859375
range: 0.174307882786
velocity: 0.0
doppler_bin: 8
bearing: -69.8423843384
intensity: 25.5266819
---
header: 
  seq: 1381353
  stamp: 
    secs: 1561683441
    nsecs: 323677673
  frame_id: "ti_mmwave"
point_id: 4
x: 0.349609375
y: -0.080078125
z: -1.216796875
range: 1.35088610649
velocity: 0.0
doppler_bin: 8
bearing: -12.9010734558
intensity: 21.9312458038
---
header: 
  seq: 1381354
  stamp: 
    secs: 1561683441
    nsecs: 323752299
  frame_id: "ti_mmwave"
point_id: 5
x: 0.306640625
y: -0.041015625
z: 1.271484375
range: 1.39446306229
velocity: 0.0
doppler_bin: 8
bearing: -7.6185464859
intensity: 23.2633590698
---
header: 
  seq: 1381355
  stamp: 
    secs: 1561683441
    nsecs: 323766715
  frame_id: "ti_mmwave"
point_id: 6
x: 0.416015625
y: -0.0
z: 1.283203125
range: 1.43804001808
velocity: 0.0
doppler_bin: 8
bearing: -0.0
intensity: 21.875207901
---
header: 
  seq: 1381356
  stamp: 
    secs: 1561683441
    nsecs: 323778231
  frame_id: "ti_mmwave"
point_id: 7
x: 1.78515625
y: 1.3359375
z: -0.3046875
range: 2.396733284
velocity: 0.0
doppler_bin: 8
bearing: 36.8096694946
intensity: 26.0314445496
---
header: 
  seq: 1381357
  stamp: 
    secs: 1561683441
    nsecs: 323791786
  frame_id: "ti_mmwave"
point_id: 8
x: 1.802734375
y: 1.359375
z: -0.38671875
range: 2.44031047821
velocity: 0.0
doppler_bin: 8
bearing: 37.0185890198
intensity: 26.3848934174
---
header: 
  seq: 1381358
  stamp: 
    secs: 1561683441
    nsecs: 323803136
  frame_id: "ti_mmwave"
point_id: 9
x: 2.55078125
y: -0.263671875
z: 1.177734375
range: 3.00681090355
velocity: 0.0
doppler_bin: 8
bearing: -5.90165042877
intensity: 29.4743366241
---
header: 
  seq: 1381359
  stamp: 
    secs: 1561683441
    nsecs: 323814267
  frame_id: "ti_mmwave"
point_id: 10
x: 2.603515625
y: -0.267578125
z: 1.16015625
range: 3.05038785934
velocity: 0.0
doppler_bin: 8
bearing: -5.8680100441
intensity: 32.8080596924
---
header: 
  seq: 1381360
  stamp: 
    secs: 1561683441
    nsecs: 323826299
  frame_id: "ti_mmwave"
point_id: 11
x: 2.662109375
y: -0.271484375
z: 1.130859375
range: 3.09396481514
velocity: 0.0
doppler_bin: 8
bearing: -5.82294607162
intensity: 32.0085067749
---
header: 
  seq: 1381361
  stamp: 
    secs: 1561683441
    nsecs: 323840394
  frame_id: "ti_mmwave"
point_id: 12
x: 4.412109375
y: -0.287109375
z: 1.205078125
range: 4.88062095642
velocity: 0.0
doppler_bin: 8
bearing: -3.72316122055
intensity: 30.8062648773
---
header: 
  seq: 1381362
  stamp: 
    secs: 1561683441
    nsecs: 323853573
  frame_id: "ti_mmwave"
point_id: 13
x: 4.46484375
y: -0.2890625
z: 1.16015625
range: 4.9241976738
velocity: 0.0
doppler_bin: 8
bearing: -3.70426845551
intensity: 30.4414768219
---
header: 
  seq: 1381363
  stamp: 
    secs: 1561683441
    nsecs: 323863240
  frame_id: "ti_mmwave"
point_id: 14
x: 4.7421875
y: -0.44921875
z: -0.474609375
range: 5.09850549698
velocity: 0.0
doppler_bin: 8
bearing: -5.41137647629
intensity: 33.2076911926
---
header: 
  seq: 1381364
  stamp: 
    secs: 1561683441
    nsecs: 323934899
  frame_id: "ti_mmwave"
point_id: 15
x: 4.7890625
y: -0.453125
z: -0.39453125
range: 5.14208269119
velocity: 0.0
doppler_bin: 8
bearing: -5.40504264832
intensity: 33.6679649353
---
header: 
  seq: 1381365
  stamp: 
    secs: 1561683441
    nsecs: 323951761
  frame_id: "ti_mmwave"
point_id: 16
x: 4.84375
y: -0.45703125
z: -0.1640625
range: 5.18565940857
velocity: 0.0
doppler_bin: 8
bearing: -5.3901758194
intensity: 30.382226944
---
header: 
  seq: 1381366
  stamp: 
    secs: 1561683441
    nsecs: 323966577
  frame_id: "ti_mmwave"
point_id: 17
x: 4.837890625
y: -0.4609375
z: 0.69921875
range: 5.22923660278
velocity: 0.0
doppler_bin: 8
bearing: -5.44251489639
intensity: 29.8677177429
---
header: 
  seq: 1381367
  stamp: 
    secs: 1561683441
    nsecs: 323980995
  frame_id: "ti_mmwave"
point_id: 18
x: 4.892578125
y: -0.30859375
z: 0.677734375
range: 5.27281332016
velocity: 0.0
doppler_bin: 8
bearing: -3.60908436775
intensity: 30.7736797333
---
header: 
  seq: 1381368
  stamp: 
    secs: 1561683441
    nsecs: 323996970
  frame_id: "ti_mmwave"
point_id: 19
x: 1.740234375
y: 1.197265625
z: -0.251953125
range: 2.26600241661
velocity: 0.614668667316
doppler_bin: 9
bearing: 34.5276222229
intensity: 25.3147888184
---
header: 
  seq: 1381369
  stamp: 
    secs: 1561683441
    nsecs: 324010725
  frame_id: "ti_mmwave"
point_id: 20
x: 1.734375
y: 1.287109375
z: -0.181640625
range: 2.30957937241
velocity: 0.614668667316
doppler_bin: 9
bearing: 36.5797424316
intensity: 28.1557769775
---
header: 
  seq: 1381370
  stamp: 
    secs: 1561683441
    nsecs: 324026466
  frame_id: "ti_mmwave"
point_id: 21
x: 1.775390625
y: 1.3125
z: -0.1015625
range: 2.3531563282
velocity: 0.614668667316
doppler_bin: 9
bearing: 36.4745483398
intensity: 27.2509460449
---
header: 
  seq: 1381371
  stamp: 
    secs: 1561683441
    nsecs: 324044302
  frame_id: "ti_mmwave"
point_id: 23
x: 0.041015625
y: -0.033203125
z: 0.0625
range: 0.0871539413929
velocity: 0.0
doppler_bin: 8
bearing: -38.9909973145
intensity: 30.157787323
---
header: 
  seq: 1381372
  stamp: 
    secs: 1561683441
    nsecs: 324087610
  frame_id: "ti_mmwave"
point_id: 24
x: 0.044921875
y: -0.046875
z: 0.103515625
range: 0.130730912089
velocity: 0.0
doppler_bin: 8
bearing: -46.218875885
intensity: 29.0525608063
---
header: 
  seq: 1381373
  stamp: 
    secs: 1561683441
    nsecs: 324114917
  frame_id: "ti_mmwave"
point_id: 26
x: 1.1171875
y: -0.515625
z: 0.30859375
range: 1.35088610649
velocity: 0.0
doppler_bin: 8
bearing: -24.7751407623
intensity: 19.0308990479
---
header: 
  seq: 1381374
  stamp: 
    secs: 1561683441
    nsecs: 324131595
  frame_id: "ti_mmwave"
point_id: 27
x: 2.81640625
y: -2.021484375
z: -3.056640625
range: 4.9241976738
velocity: 0.0
doppler_bin: 8
bearing: -35.6690139771
intensity: 27.4741172791
---
header: 
  seq: 1381375
  stamp: 
    secs: 1561683441
    nsecs: 325083964
  frame_id: "ti_mmwave"
point_id: 0
x: 0.01171875
y: -0.0390625
z: -0.0078125
range: 0.0435769706964
velocity: 0.0
doppler_bin: 8
bearing: -73.3007583618
intensity: 30.7591171265
---
header: 
  seq: 1381376
  stamp: 
    secs: 1561683441
    nsecs: 325134698
  frame_id: "ti_mmwave"
point_id: 1
x: 0.017578125
y: -0.080078125
z: -0.0078125
range: 0.0871539413929
velocity: 0.0
doppler_bin: 8
bearing: -77.6192398071
intensity: 31.9920654297
---
header: 
  seq: 1381377
  stamp: 
    secs: 1561683441
    nsecs: 325150349
  frame_id: "ti_mmwave"
point_id: 2
x: 0.029296875
y: -0.119140625
z: -0.00390625
range: 0.130730912089
velocity: 0.0
doppler_bin: 8
bearing: -76.1849746704
intensity: 30.2407493591
---
header: 
  seq: 1381378
  stamp: 
    secs: 1561683441
    nsecs: 325162960
  frame_id: "ti_mmwave"
point_id: 3
x: 0.056640625
y: -0.154296875
z: 0.0078125
range: 0.174307882786
velocity: 0.0
doppler_bin: 8
bearing: -69.8423843384
intensity: 25.5144996643
---
header: 
  seq: 1381379
  stamp: 
    secs: 1561683441
    nsecs: 325231181
  frame_id: "ti_mmwave"
point_id: 4
x: 0.3515625
y: -0.080078125
z: -1.216796875
range: 1.35088610649
velocity: 0.0
doppler_bin: 8
bearing: -12.83177948
intensity: 21.9312458038
---
header: 
  seq: 1381380
  stamp: 
    secs: 1561683441
    nsecs: 325245459
  frame_id: "ti_mmwave"
point_id: 5
x: 0.298828125
y: -0.041015625
z: 1.2734375
range: 1.39446306229
velocity: 0.0
doppler_bin: 8
bearing: -7.81529378891
intensity: 23.2633590698
---
header: 
  seq: 1381381
  stamp: 
    secs: 1561683441
    nsecs: 325256679
  frame_id: "ti_mmwave"
point_id: 6
x: 0.4765625
y: -0.04296875
z: 1.26171875
range: 1.43804001808
velocity: 0.0
doppler_bin: 8
bearing: -5.15208148956
intensity: 21.9312458038
---
header: 
  seq: 1381382
  stamp: 
    secs: 1561683441
    nsecs: 325267840
  frame_id: "ti_mmwave"
point_id: 7
x: 2.548828125
y: -0.263671875
z: 1.18359375
range: 3.00681090355
velocity: 0.0
doppler_bin: 8
bearing: -5.90614128113
intensity: 29.4497585297
---
header: 
  seq: 1381383
  stamp: 
    secs: 1561683441
    nsecs: 325281304
  frame_id: "ti_mmwave"
point_id: 8
x: 2.60546875
y: -0.267578125
z: 1.154296875
range: 3.05038785934
velocity: 0.0
doppler_bin: 8
bearing: -5.86364221573
intensity: 32.8057823181
---
header: 
  seq: 1381384
  stamp: 
    secs: 1561683441
    nsecs: 325293482
  frame_id: "ti_mmwave"
point_id: 9
x: 2.6640625
y: -0.271484375
z: 1.126953125
range: 3.09396481514
velocity: 0.0
doppler_bin: 8
bearing: -5.81870603561
intensity: 32.0276069641
---
header: 
  seq: 1381385
  stamp: 
    secs: 1561683441
    nsecs: 325306251
  frame_id: "ti_mmwave"
point_id: 10
x: 4.416015625
y: -0.287109375
z: 1.1875
range: 4.88062095642
velocity: 0.0
doppler_bin: 8
bearing: -3.71987724304
intensity: 30.7990455627
---
header: 
  seq: 1381386
  stamp: 
    secs: 1561683441
    nsecs: 325317521
  frame_id: "ti_mmwave"
point_id: 11
x: 4.47265625
y: -0.2890625
z: 1.130859375
range: 4.9241976738
velocity: 0.0
doppler_bin: 8
bearing: -3.6978161335
intensity: 30.4257545471
---
header: 
  seq: 1381387
  stamp: 
    secs: 1561683441
    nsecs: 325382696
  frame_id: "ti_mmwave"
point_id: 12
x: 4.740234375
y: -0.44921875
z: -0.484375
range: 5.09850549698
velocity: 0.0
doppler_bin: 8
bearing: -5.41359329224
intensity: 33.220123291
---
header: 
  seq: 1381388
  stamp: 
    secs: 1561683441
    nsecs: 325396615
  frame_id: "ti_mmwave"
point_id: 13
x: 4.7890625
y: -0.453125
z: -0.400390625
range: 5.14208269119
velocity: 0.0
doppler_bin: 8
bearing: -5.40504264832
intensity: 33.6828689575
---
header: 
  seq: 1381389
  stamp: 
    secs: 1561683441
    nsecs: 325408273
  frame_id: "ti_mmwave"
point_id: 14
x: 4.84375
y: -0.45703125
z: -0.158203125
range: 5.18565940857
velocity: 0.0
doppler_bin: 8
bearing: -5.3901758194
intensity: 30.3901729584
---
header: 
  seq: 1381390
  stamp: 
    secs: 1561683441
    nsecs: 325422270
  frame_id: "ti_mmwave"
point_id: 15
x: 4.822265625
y: -0.4609375
z: 0.798828125
range: 5.22923660278
velocity: 0.0
doppler_bin: 8
bearing: -5.46004343033
intensity: 29.8091201782
---
header: 
  seq: 1381391
  stamp: 
    secs: 1561683441
    nsecs: 325436703
  frame_id: "ti_mmwave"
point_id: 16
x: 4.865234375
y: -0.30859375
z: 0.85546875
range: 5.27281332016
velocity: 0.0
doppler_bin: 8
bearing: -3.62931442261
intensity: 30.6632595062
---
header: 
  seq: 1381392
  stamp: 
    secs: 1561683441
    nsecs: 325448554
  frame_id: "ti_mmwave"
point_id: 17
x: 1.71875
y: 1.287109375
z: -0.29296875
range: 2.30957937241
velocity: 0.614668667316
doppler_bin: 9
bearing: 36.8282051086
intensity: 26.6181259155
---
header: 
  seq: 1381393
  stamp: 
    secs: 1561683441
    nsecs: 325460849
  frame_id: "ti_mmwave"
point_id: 18
x: 1.8046875
y: 1.2421875
z: -0.279296875
range: 2.3531563282
velocity: 0.614668667316
doppler_bin: 9
bearing: 34.5400924683
intensity: 26.394865036
---
header: 
  seq: 1381394
  stamp: 
    secs: 1561683441
    nsecs: 325477110
  frame_id: "ti_mmwave"
point_id: 20
x: 0.041015625
y: -0.033203125
z: 0.0625
range: 0.0871539413929
velocity: 0.0
doppler_bin: 8
bearing: -38.9909973145
intensity: 30.157787323
---
header: 
  seq: 1381395
  stamp: 
    secs: 1561683441
    nsecs: 325491287
  frame_id: "ti_mmwave"
point_id: 21
x: 0.044921875
y: -0.046875
z: 0.103515625
range: 0.130730912089
velocity: 0.0
doppler_bin: 8
bearing: -46.218875885
intensity: 29.0525608063
---
header: 
  seq: 1381396
  stamp: 
    secs: 1561683441
    nsecs: 325509128
  frame_id: "ti_mmwave"
point_id: 23
x: 1.2109375
y: 0.357421875
z: 0.125
range: 1.35088610649
velocity: 0.0
doppler_bin: 8
bearing: 16.4445590973
intensity: 19.0848503113
---
header: 
  seq: 1381397
  stamp: 
    secs: 1561683441
    nsecs: 325518477
  frame_id: "ti_mmwave"
point_id: 24
x: 2.783203125
y: -2.021484375
z: -3.087890625
range: 4.9241976738
velocity: 0.0
doppler_bin: 8
bearing: -35.9914970398
intensity: 27.4507484436
---
header: 
  seq: 1381398
  stamp: 
    secs: 1561683441
    nsecs: 383708304
  frame_id: "ti_mmwave"
point_id: 0
x: 0.01171875
y: -0.0390625
z: -0.0078125
range: 0.0435769706964
velocity: 0.0
doppler_bin: 8
bearing: -73.3007583618
intensity: 30.7554702759
---
header: 
  seq: 1381399
  stamp: 
    secs: 1561683441
    nsecs: 383806249
  frame_id: "ti_mmwave"
point_id: 1
x: 0.017578125
y: -0.080078125
z: -0.0078125
range: 0.0871539413929
velocity: 0.0
doppler_bin: 8
bearing: -77.6192398071
intensity: 31.9920654297
---
header: 
  seq: 1381400
  stamp: 
    secs: 1561683441
    nsecs: 383823299
  frame_id: "ti_mmwave"
point_id: 2
x: 0.029296875
y: -0.119140625
z: -0.005859375
range: 0.130730912089
velocity: 0.0
doppler_bin: 8
bearing: -76.1849746704
intensity: 30.2407493591
---
header: 
  seq: 1381401
  stamp: 
    secs: 1561683441
    nsecs: 383838162
  frame_id: "ti_mmwave"
point_id: 3
x: 0.056640625
y: -0.154296875
z: 0.005859375
range: 0.174307882786
velocity: 0.0
doppler_bin: 8
bearing: -69.8423843384
intensity: 25.5266819
---
header: 
  seq: 1381402
  stamp: 
    secs: 1561683441
    nsecs: 383853088
  frame_id: "ti_mmwave"
point_id: 4
x: 0.369140625
y: -0.080078125
z: -1.2109375
range: 1.35088610649
velocity: 0.0
doppler_bin: 8
bearing: -12.2396001816
intensity: 21.9589958191
---
header: 
  seq: 1381403
  stamp: 
    secs: 1561683441
    nsecs: 383866517
  frame_id: "ti_mmwave"
point_id: 5
x: 0.296875
y: -0.041015625
z: 1.2734375
range: 1.39446306229
velocity: 0.0
doppler_bin: 8
bearing: -7.86606836319
intensity: 23.2633590698
---
header: 
  seq: 1381404
  stamp: 
    secs: 1561683441
    nsecs: 383879959
  frame_id: "ti_mmwave"
point_id: 6
x: 0.498046875
y: -0.04296875
z: 1.25390625
range: 1.43804001808
velocity: 0.0
doppler_bin: 8
bearing: -4.93095541
intensity: 21.9312458038
---
header: 
  seq: 1381405
  stamp: 
    secs: 1561683441
    nsecs: 383893583
  frame_id: "ti_mmwave"
point_id: 7
x: 1.794921875
y: 1.359375
z: -0.41796875
range: 2.44031047821
velocity: 0.0
doppler_bin: 8
bearing: 37.1382865906
intensity: 26.3144378662
---
header: 
  seq: 1381406
  stamp: 
    secs: 1561683441
    nsecs: 383909156
  frame_id: "ti_mmwave"
point_id: 8
x: 1.845703125
y: 1.384765625
z: -0.333984375
range: 2.48388743401
velocity: 0.0
doppler_bin: 8
bearing: 36.8795967102
intensity: 26.2221393585
---
header: 
  seq: 1381407
  stamp: 
    secs: 1561683441
    nsecs: 383922688
  frame_id: "ti_mmwave"
point_id: 9
x: 2.544921875
y: -0.263671875
z: 1.19140625
range: 3.00681090355
velocity: 0.0
doppler_bin: 8
bearing: -5.91514253616
intensity: 29.4890174866
---
header: 
  seq: 1381408
  stamp: 
    secs: 1561683441
    nsecs: 383973041
  frame_id: "ti_mmwave"
point_id: 10
x: 2.6015625
y: -0.267578125
z: 1.16796875
range: 3.05038785934
velocity: 0.0
doppler_bin: 8
bearing: -5.87238502502
intensity: 32.8057823181
---
header: 
  seq: 1381409
  stamp: 
    secs: 1561683441
    nsecs: 384058402
  frame_id: "ti_mmwave"
point_id: 11
x: 2.65625
y: -0.271484375
z: 1.140625
range: 3.09396481514
velocity: 0.0
doppler_bin: 8
bearing: -5.83570146561
intensity: 32.0112380981
---
header: 
  seq: 1381410
  stamp: 
    secs: 1561683441
    nsecs: 384074856
  frame_id: "ti_mmwave"
point_id: 12
x: 4.4140625
y: -0.287109375
z: 1.19140625
range: 4.88062095642
velocity: 0.0
doppler_bin: 8
bearing: -3.72151875496
intensity: 30.8062648773
---
header: 
  seq: 1381411
  stamp: 
    secs: 1561683441
    nsecs: 384087826
  frame_id: "ti_mmwave"
point_id: 13
x: 4.46875
y: -0.2890625
z: 1.142578125
range: 4.9241976738
velocity: 0.0
doppler_bin: 8
bearing: -3.70103907585
intensity: 30.4296913147
---
header: 
  seq: 1381412
  stamp: 
    secs: 1561683441
    nsecs: 384101137
  frame_id: "ti_mmwave"
point_id: 14
x: 4.740234375
y: -0.44921875
z: -0.4765625
range: 5.09850549698
velocity: 0.0
doppler_bin: 8
bearing: -5.41359329224
intensity: 33.2180557251
---
header: 
  seq: 1381413
  stamp: 
    secs: 1561683441
    nsecs: 384114725
  frame_id: "ti_mmwave"
point_id: 15
x: 4.7890625
y: -0.453125
z: -0.3984375
range: 5.14208269119
velocity: 0.0
doppler_bin: 8
bearing: -5.40504264832
intensity: 33.6847267151
---
header: 
  seq: 1381414
  stamp: 
    secs: 1561683441
    nsecs: 384128642
  frame_id: "ti_mmwave"
point_id: 16
x: 4.84375
y: -0.45703125
z: -0.177734375
range: 5.18565940857
velocity: 0.0
doppler_bin: 8
bearing: -5.3901758194
intensity: 30.3941402435
---
header: 
  seq: 1381415
  stamp: 
    secs: 1561683441
    nsecs: 384141683
  frame_id: "ti_mmwave"
point_id: 17
x: 4.841796875
y: -0.4609375
z: 0.66796875
range: 5.22923660278
velocity: 0.0
doppler_bin: 8
bearing: -5.43815040588
intensity: 29.7954845428
---
header: 
  seq: 1381416
  stamp: 
    secs: 1561683441
    nsecs: 384157647
  frame_id: "ti_mmwave"
point_id: 18
x: 4.8984375
y: -0.30859375
z: 0.6328125
range: 5.27281332016
velocity: 0.0
doppler_bin: 8
bearing: -3.60477876663
intensity: 30.6520614624
---
header: 
  seq: 1381417
  stamp: 
    secs: 1561683441
    nsecs: 384167824
  frame_id: "ti_mmwave"
point_id: 19
x: 1.8125
y: 1.2421875
z: -0.224609375
range: 2.3531563282
velocity: 0.614668667316
doppler_bin: 9
bearing: 34.4245910645
intensity: 25.0105934143
---
header: 
  seq: 1381418
  stamp: 
    secs: 1561683441
    nsecs: 384194571
  frame_id: "ti_mmwave"
point_id: 21
x: 0.041015625
y: -0.033203125
z: 0.0625
range: 0.0871539413929
velocity: 0.0
doppler_bin: 8
bearing: -38.9909973145
intensity: 30.157787323
---
header: 
  seq: 1381419
  stamp: 
    secs: 1561683441
    nsecs: 384255058
  frame_id: "ti_mmwave"
point_id: 22
x: 0.044921875
y: -0.046875
z: 0.103515625
range: 0.130730912089
velocity: 0.0
doppler_bin: 8
bearing: -46.218875885
intensity: 29.0471553802
---
header: 
  seq: 1381420
  stamp: 
    secs: 1561683441
    nsecs: 384273079
  frame_id: "ti_mmwave"
point_id: 24
x: 1.20703125
y: 0.357421875
z: 0.150390625
range: 1.35088610649
velocity: 0.0
doppler_bin: 8
bearing: 16.4948921204
intensity: 19.0848503113
---
header: 
  seq: 1381421
  stamp: 
    secs: 1561683441
    nsecs: 384286805
  frame_id: "ti_mmwave"
point_id: 25
x: 2.78515625
y: -2.021484375
z: -3.0859375
range: 4.9241976738
velocity: 0.0
doppler_bin: 8
bearing: -35.9723854065
intensity: 27.4429302216
---
header: 
  seq: 1381422
  stamp: 
    secs: 1561683441
    nsecs: 385116145
  frame_id: "ti_mmwave"
point_id: 0
x: 0.01171875
y: -0.0390625
z: -0.0078125
range: 0.0435769706964
velocity: 0.0
doppler_bin: 8
bearing: -73.3007583618
intensity: 30.7554702759
---
header: 
  seq: 1381423
  stamp: 
    secs: 1561683441
    nsecs: 385164783
  frame_id: "ti_mmwave"
point_id: 1
x: 0.017578125
y: -0.080078125
z: -0.0078125
range: 0.0871539413929
velocity: 0.0
doppler_bin: 8
bearing: -77.6192398071
intensity: 31.9920654297
---
header: 
  seq: 1381424
  stamp: 
    secs: 1561683441
    nsecs: 385186215
  frame_id: "ti_mmwave"
point_id: 2
x: 0.029296875
y: -0.119140625
z: -0.005859375
range: 0.130730912089
velocity: 0.0
doppler_bin: 8
bearing: -76.1849746704
intensity: 30.2366390228
---
header: 
  seq: 1381425
  stamp: 
    secs: 1561683441
    nsecs: 385200311
  frame_id: "ti_mmwave"
point_id: 3
x: 0.056640625
y: -0.154296875
z: 0.005859375
range: 0.174307882786
velocity: 0.0
doppler_bin: 8
bearing: -69.8423843384
intensity: 25.5022830963
---
header: 
  seq: 1381426
  stamp: 
    secs: 1561683441
    nsecs: 385302750
  frame_id: "ti_mmwave"
point_id: 4
x: 0.359375
y: -0.080078125
z: -1.212890625
