header: 
  seq: 1332214
  stamp: 
    secs: 1561683369
    nsecs: 983682118
  frame_id: "ti_mmwave"
point_id: 0
x: 0.01171875
y: -0.0390625
z: -0.0078125
range: 0.0435769706964
velocity: 0.0
doppler_bin: 8
bearing: -73.3007583618
intensity: 30.7481651306
---
header: 
  seq: 1332215
  stamp: 
    secs: 1561683369
    nsecs: 983777385
  frame_id: "ti_mmwave"
point_id: 1
x: 0.017578125
y: -0.080078125
z: -0.0078125
range: 0.0871539413929
velocity: 0.0
doppler_bin: 8
bearing: -77.6192398071
intensity: 31.9783172607
---
header: 
  seq: 1332216
  stamp: 
    secs: 1561683369
    nsecs: 983796880
  frame_id: "ti_mmwave"
point_id: 2
x: 0.029296875
y: -0.119140625
z: -0.005859375
range: 0.130730912089
velocity: 0.0
doppler_bin: 8
bearing: -76.1849746704
intensity: 30.2284069061
---
header: 
  seq: 1332217
  stamp: 
    secs: 1561683369
    nsecs: 983811173
  frame_id: "ti_mmwave"
point_id: 3
x: 0.056640625
y: -0.154296875
z: 0.005859375
range: 0.174307882786
velocity: 0.0
doppler_bin: 8
bearing: -69.8423843384
intensity: 25.5022830963
---
header: 
  seq: 1332218
  stamp: 
    secs: 1561683369
    nsecs: 983826285
  frame_id: "ti_mmwave"
point_id: 4
x: 1.17578125
y: -0.1796875
z: -0.796875
range: 1.52519392967
velocity: 0.0
doppler_bin: 8
bearing: -8.68893814087
intensity: 21.5836257935
---
header: 
  seq: 1332219
  stamp: 
    secs: 1561683369
    nsecs: 983854644
  frame_id: "ti_mmwave"
point_id: 5
x: 1.435546875
y: 0.046875
z: 0.32421875
range: 1.56877088547
velocity: 0.0
doppler_bin: 8
bearing: 1.87021803856
intensity: 25.9217681885
---
header: 
  seq: 1332220
  stamp: 
    secs: 1561683369
    nsecs: 983968099
  frame_id: "ti_mmwave"
point_id: 6
x: 1.451171875
y: 0.046875
z: 0.4296875
range: 1.61234796047
velocity: 0.0
doppler_bin: 8
bearing: 1.85009527206
intensity: 25.8883171082
---
header: 
  seq: 1332221
  stamp: 
    secs: 1561683369
    nsecs: 983985201
  frame_id: "ti_mmwave"
point_id: 7
x: 2.548828125
y: -0.263671875
z: 1.181640625
range: 3.00681090355
velocity: 0.0
doppler_bin: 8
bearing: -5.90614128113
intensity: 29.2788333893
---
header: 
  seq: 1332222
  stamp: 
    secs: 1561683369
    nsecs: 984000505
  frame_id: "ti_mmwave"
point_id: 8
x: 2.6015625
y: -0.267578125
z: 1.1640625
range: 3.05038785934
velocity: 0.0
doppler_bin: 8
bearing: -5.87238502502
intensity: 32.7485046387
---
header: 
  seq: 1332223
  stamp: 
    secs: 1561683369
    nsecs: 984014910
  frame_id: "ti_mmwave"
point_id: 9
x: 2.662109375
y: -0.181640625
z: 1.146484375
range: 3.09396481514
velocity: 0.0
doppler_bin: 8
bearing: -3.90334677696
intensity: 32.0276069641
---
header: 
  seq: 1332224
  stamp: 
    secs: 1561683369
    nsecs: 984029978
  frame_id: "ti_mmwave"
point_id: 10
x: 1.224609375
y: -0.158203125
z: -0.291015625
range: 1.35088610649
velocity: -0.614668667316
doppler_bin: 7
bearing: -7.36107778549
intensity: 22.6951293945
---
header: 
  seq: 1332225
  stamp: 
    secs: 1561683369
    nsecs: 984045426
  frame_id: "ti_mmwave"
point_id: 11
x: 1.294921875
y: -0.1640625
z: -0.087890625
range: 1.39446306229
velocity: -0.614668667316
doppler_bin: 7
bearing: -7.22072219849
intensity: 28.4073314667
---
header: 
  seq: 1332226
  stamp: 
    secs: 1561683369
    nsecs: 984060051
  frame_id: "ti_mmwave"
point_id: 12
x: 1.33984375
y: -0.16796875
z: -0.009765625
range: 1.43804001808
velocity: -0.614668667316
doppler_bin: 7
bearing: -7.14557504654
intensity: 29.5133743286
---
header: 
  seq: 1332227
  stamp: 
    secs: 1561683369
    nsecs: 984075004
  frame_id: "ti_mmwave"
point_id: 13
x: 1.373046875
y: -0.216796875
z: 0.048828125
range: 1.48161697388
velocity: -0.614668667316
doppler_bin: 7
bearing: -8.9726266861
intensity: 25.3019962311
---
header: 
  seq: 1332228
  stamp: 
    secs: 1561683369
    nsecs: 984092630
  frame_id: "ti_mmwave"
point_id: 15
x: 0.041015625
y: -0.033203125
z: 0.0625
range: 0.0871539413929
velocity: 0.0
doppler_bin: 8
bearing: -38.9909973145
intensity: 30.1494026184
---
header: 
  seq: 1332229
  stamp: 
    secs: 1561683369
    nsecs: 984107107
  frame_id: "ti_mmwave"
point_id: 16
x: 0.044921875
y: -0.046875
z: 0.103515625
range: 0.130730912089
velocity: 0.0
doppler_bin: 8
bearing: -46.218875885
intensity: 29.0308990479
---
header: 
  seq: 1332230
  stamp: 
    secs: 1561683369
    nsecs: 984124199
  frame_id: "ti_mmwave"
point_id: 18
x: 1.40234375
y: 0.224609375
z: 0.185546875
range: 1.52519392967
velocity: 0.0
doppler_bin: 8
bearing: 9.0996131897
intensity: 21.172712326
---
header: 
  seq: 1332231
  stamp: 
    secs: 1561683369
    nsecs: 984843052
  frame_id: "ti_mmwave"
point_id: 0
x: 0.01171875
y: -0.0390625
z: -0.0078125
range: 0.0435769706964
velocity: 0.0
doppler_bin: 8
bearing: -73.3007583618
intensity: 30.7518177032
---
header: 
  seq: 1332232
  stamp: 
    secs: 1561683369
    nsecs: 984896019
  frame_id: "ti_mmwave"
point_id: 1
x: 0.017578125
y: -0.080078125
z: -0.0078125
range: 0.0871539413929
velocity: 0.0
doppler_bin: 8
bearing: -77.6192398071
intensity: 31.9783172607
---
header: 
  seq: 1332233
  stamp: 
    secs: 1561683369
    nsecs: 984914879
  frame_id: "ti_mmwave"
point_id: 2
x: 0.041015625
y: -0.115234375
z: -0.0078125
range: 0.130730912089
velocity: 0.0
doppler_bin: 8
bearing: -70.4077224731
intensity: 30.2242832184
---
header: 
  seq: 1332234
  stamp: 
    secs: 1561683369
    nsecs: 984928707
  frame_id: "ti_mmwave"
point_id: 3
x: 0.056640625
y: -0.154296875
z: 0.005859375
range: 0.174307882786
velocity: 0.0
doppler_bin: 8
bearing: -69.8423843384
intensity: 25.490032196
---
header: 
  seq: 1332235
  stamp: 
    secs: 1561683369
    nsecs: 984946177
  frame_id: "ti_mmwave"
point_id: 4
x: 1.423828125
y: -0.0
z: 0.375
range: 1.56877088547
velocity: 0.0
doppler_bin: 8
bearing: -0.0
intensity: 24.0993309021
---
header: 
  seq: 1332236
  stamp: 
    secs: 1561683369
    nsecs: 985063539
  frame_id: "ti_mmwave"
point_id: 5
x: 2.552734375
y: -0.263671875
z: 1.173828125
range: 3.00681090355
velocity: 0.0
doppler_bin: 8
bearing: -5.89716720581
intensity: 29.4250411987
---
header: 
  seq: 1332237
  stamp: 
    secs: 1561683369
    nsecs: 985079968
  frame_id: "ti_mmwave"
point_id: 6
x: 2.60546875
y: -0.267578125
z: 1.158203125
range: 3.05038785934
velocity: 0.0
doppler_bin: 8
bearing: -5.86364221573
intensity: 32.7485046387
---
header: 
  seq: 1332238
  stamp: 
    secs: 1561683369
    nsecs: 985093469
  frame_id: "ti_mmwave"
point_id: 7
x: 2.662109375
y: -0.181640625
z: 1.1484375
range: 3.09396481514
velocity: 0.0
doppler_bin: 8
bearing: -3.90334677696
intensity: 31.9340286255
---
header: 
  seq: 1332239
  stamp: 
    secs: 1561683369
    nsecs: 985106623
  frame_id: "ti_mmwave"
point_id: 8
x: 1.259765625
y: -0.119140625
z: -0.0859375
range: 1.35088610649
velocity: -0.614668667316
doppler_bin: 7
bearing: -5.4026017189
intensity: 25.1719589233
---
header: 
  seq: 1332240
  stamp: 
    secs: 1561683369
    nsecs: 985119927
  frame_id: "ti_mmwave"
point_id: 9
x: 1.306640625
y: -0.08203125
z: 0.001953125
range: 1.39446306229
velocity: -0.614668667316
doppler_bin: 7
bearing: -3.59232997894
intensity: 28.4571800232
---
header: 
  seq: 1332241
  stamp: 
    secs: 1561683369
    nsecs: 985161998
  frame_id: "ti_mmwave"
point_id: 10
x: 1.345703125
y: -0.083984375
z: -0.05859375
range: 1.43804001808
velocity: -0.614668667316
doppler_bin: 7
bearing: -3.57115721703
intensity: 29.9343624115
---
header: 
  seq: 1332242
  stamp: 
    secs: 1561683369
    nsecs: 985192285
  frame_id: "ti_mmwave"
point_id: 11
x: 1.3828125
y: -0.087890625
z: -0.12890625
range: 1.48161697388
velocity: -0.614668667316
doppler_bin: 7
bearing: -3.63678884506
intensity: 29.7543182373
---
header: 
  seq: 1332243
  stamp: 
    secs: 1561683369
    nsecs: 985228223
  frame_id: "ti_mmwave"
point_id: 12
x: 1.4296875
y: -0.044921875
z: -0.041015625
range: 1.52519392967
velocity: -0.614668667316
doppler_bin: 7
bearing: -1.79968500137
intensity: 27.4585514069
---
header: 
  seq: 1332244
  stamp: 
    secs: 1561683369
    nsecs: 985255233
  frame_id: "ti_mmwave"
point_id: 14
x: 0.041015625
y: -0.033203125
z: 0.0625
range: 0.0871539413929
velocity: 0.0
doppler_bin: 8
bearing: -38.9909973145
intensity: 30.1494026184
---
header: 
  seq: 1332245
  stamp: 
    secs: 1561683369
    nsecs: 985278777
  frame_id: "ti_mmwave"
point_id: 15
x: 0.044921875
y: -0.046875
z: 0.103515625
range: 0.130730912089
velocity: 0.0
doppler_bin: 8
bearing: -46.218875885
intensity: 29.0308990479
---
header: 
  seq: 1332246
  stamp: 
    secs: 1561683370
    nsecs:  43645283
  frame_id: "ti_mmwave"
point_id: 0
x: 0.01171875
y: -0.0390625
z: -0.0078125
range: 0.0435769706964
velocity: 0.0
doppler_bin: 8
bearing: -73.3007583618
intensity: 30.7445068359
---
header: 
  seq: 1332247
  stamp: 
    secs: 1561683370
    nsecs:  43739749
  frame_id: "ti_mmwave"
point_id: 1
x: 0.017578125
y: -0.080078125
z: -0.0078125
range: 0.0871539413929
velocity: 0.0
doppler_bin: 8
bearing: -77.6192398071
intensity: 31.9783172607
---
header: 
  seq: 1332248
  stamp: 
    secs: 1561683370
    nsecs:  43760070
  frame_id: "ti_mmwave"
point_id: 2
x: 0.029296875
y: -0.119140625
z: -0.005859375
range: 0.130730912089
velocity: 0.0
doppler_bin: 8
bearing: -76.1849746704
intensity: 30.2284069061
---
header: 
  seq: 1332249
  stamp: 
    secs: 1561683370
    nsecs:  43774317
  frame_id: "ti_mmwave"
point_id: 3
x: 0.056640625
y: -0.154296875
z: 0.005859375
range: 0.174307882786
velocity: 0.0
doppler_bin: 8
bearing: -69.8423843384
intensity: 25.5144996643
---
header: 
  seq: 1332250
  stamp: 
    secs: 1561683370
    nsecs:  43787923
  frame_id: "ti_mmwave"
point_id: 4
x: 1.265625
y: -0.26171875
z: -0.513671875
range: 1.48161697388
velocity: 0.0
doppler_bin: 8
bearing: -11.6835212708
intensity: 21.9033164978
---
header: 
  seq: 1332251
  stamp: 
    secs: 1561683370
    nsecs:  43801856
  frame_id: "ti_mmwave"
point_id: 5
x: 1.408203125
y: -0.044921875
z: 0.25
range: 1.52519392967
velocity: 0.0
doppler_bin: 8
bearing: -1.82712364197
intensity: 25.1851387024
---
header: 
  seq: 1332252
  stamp: 
    secs: 1561683370
    nsecs:  43816391
  frame_id: "ti_mmwave"
point_id: 6
x: 1.388671875
y: -0.0
z: 0.4921875
range: 1.56877088547
velocity: 0.0
doppler_bin: 8
bearing: -0.0
intensity: 25.6584777832
---
header: 
  seq: 1332253
  stamp: 
    secs: 1561683370
    nsecs:  43831428
  frame_id: "ti_mmwave"
point_id: 7
x: 1.375
y: 0.046875
z: 0.630859375
range: 1.61234796047
velocity: 0.0
doppler_bin: 8
bearing: 1.9525090456
intensity: 25.2244415283
---
header: 
  seq: 1332254
  stamp: 
    secs: 1561683370
    nsecs:  43845150
  frame_id: "ti_mmwave"
point_id: 8
x: 2.544921875
y: -0.263671875
z: 1.19140625
range: 3.00681090355
velocity: 0.0
doppler_bin: 8
bearing: -5.91514253616
intensity: 29.5712814331
---
header: 
  seq: 1332255
  stamp: 
    secs: 1561683370
    nsecs:  43859920
  frame_id: "ti_mmwave"
point_id: 9
x: 2.60546875
y: -0.267578125
z: 1.15625
range: 3.05038785934
velocity: 0.0
doppler_bin: 8
bearing: -5.86364221573
intensity: 32.869052887
---
header: 
  seq: 1332256
  stamp: 
    secs: 1561683370
    nsecs:  43947184
  frame_id: "ti_mmwave"
point_id: 10
x: 2.666015625
y: -0.271484375
z: 1.12109375
range: 3.09396481514
velocity: 0.0
doppler_bin: 8
bearing: -5.81447267532
intensity: 32.0574569702
---
header: 
  seq: 1332257
  stamp: 
    secs: 1561683370
    nsecs:  43961968
  frame_id: "ti_mmwave"
point_id: 11
x: 4.40625
y: -0.287109375
z: 1.22265625
range: 4.88062095642
velocity: 0.0
doppler_bin: 8
bearing: -3.72809815407
intensity: 30.8314418793
---
header: 
  seq: 1332258
  stamp: 
    secs: 1561683370
    nsecs:  43975599
  frame_id: "ti_mmwave"
point_id: 12
x: 4.453125
y: -0.2890625
z: 1.205078125
range: 4.9241976738
velocity: 0.0
doppler_bin: 8
bearing: -3.71398925781
intensity: 30.484418869
---
header: 
  seq: 1332259
  stamp: 
    secs: 1561683370
    nsecs:  43990871
  frame_id: "ti_mmwave"
point_id: 13
x: 4.890625
y: -0.30859375
z: 0.703125
range: 5.27281332016
velocity: 0.0
doppler_bin: 8
bearing: -3.61052203178
intensity: 30.7261753082
---
header: 
  seq: 1332260
  stamp: 
    secs: 1561683370
    nsecs:  44005545
  frame_id: "ti_mmwave"
point_id: 14
x: 1.162109375
y: -0.115234375
z: -0.376953125
range: 1.3073091507
velocity: -0.614668667316
doppler_bin: 7
bearing: -5.66291856766
intensity: 21.205739975
---
header: 
  seq: 1332261
  stamp: 
    secs: 1561683370
    nsecs:  44021379
  frame_id: "ti_mmwave"
point_id: 15
x: 1.24609375
y: -0.158203125
z: -0.16796875
range: 1.35088610649
velocity: -0.614668667316
doppler_bin: 7
bearing: -7.23551893234
intensity: 28.5186958313
---
header: 
  seq: 1332262
  stamp: 
    secs: 1561683370
    nsecs:  44035468
  frame_id: "ti_mmwave"
point_id: 16
x: 1.296875
y: -0.1640625
z: -0.072265625
range: 1.39446306229
velocity: -0.614668667316
doppler_bin: 7
bearing: -7.20996236801
intensity: 31.3861846924
---
header: 
  seq: 1332263
  stamp: 
    secs: 1561683370
    nsecs:  44051349
  frame_id: "ti_mmwave"
point_id: 17
x: 1.33984375
y: -0.16796875
z: 0.0
range: 1.43804001808
velocity: -0.614668667316
doppler_bin: 7
bearing: -7.14557504654
intensity: 30.2407493591
---
header: 
  seq: 1332264
  stamp: 
    secs: 1561683370
    nsecs:  44068796
  frame_id: "ti_mmwave"
point_id: 19
x: 0.041015625
y: -0.033203125
z: 0.0625
range: 0.0871539413929
velocity: 0.0
doppler_bin: 8
bearing: -38.9909973145
intensity: 30.1452045441
---
header: 
  seq: 1332265
  stamp: 
    secs: 1561683370
    nsecs:  44099295
  frame_id: "ti_mmwave"
point_id: 20
x: 0.044921875
y: -0.046875
z: 0.103515625
range: 0.130730912089
velocity: 0.0
doppler_bin: 8
bearing: -46.218875885
intensity: 29.0308990479
---
header: 
  seq: 1332266
  stamp: 
    secs: 1561683370
    nsecs:  44125798
  frame_id: "ti_mmwave"
point_id: 22
x: 1.2109375
y: 0.26171875
z: 0.6328125
range: 1.48161697388
velocity: 0.0
doppler_bin: 8
bearing: 12.1956958771
intensity: 19.0848503113
---
header: 
  seq: 1332267
  stamp: 
    secs: 1561683370
    nsecs: 103661693
  frame_id: "ti_mmwave"
point_id: 0
x: 0.01171875
y: -0.0390625
z: -0.0078125
range: 0.0435769706964
velocity: 0.0
doppler_bin: 8
bearing: -73.3007583618
intensity: 30.7518177032
---
header: 
  seq: 1332268
  stamp: 
    secs: 1561683370
    nsecs: 103762617
  frame_id: "ti_mmwave"
point_id: 1
x: 0.017578125
y: -0.080078125
z: -0.0078125
range: 0.0871539413929
velocity: 0.0
doppler_bin: 8
bearing: -77.6192398071
intensity: 31.9810695648
---
header: 
  seq: 1332269
  stamp: 
    secs: 1561683370
    nsecs: 103780843
  frame_id: "ti_mmwave"
point_id: 2
x: 0.029296875
y: -0.119140625
z: -0.005859375
range: 0.130730912089
velocity: 0.0
doppler_bin: 8
bearing: -76.1849746704
intensity: 30.2284069061
---
header: 
  seq: 1332270
  stamp: 
    secs: 1561683370
    nsecs: 103800432
  frame_id: "ti_mmwave"
point_id: 3
x: 0.056640625
y: -0.154296875
z: 0.005859375
range: 0.174307882786
velocity: 0.0
doppler_bin: 8
bearing: -69.8423843384
intensity: 25.490032196
---
header: 
  seq: 1332271
  stamp: 
    secs: 1561683370
    nsecs: 103816338
  frame_id: "ti_mmwave"
point_id: 4
x: 0.521484375
y: -0.23046875
z: 1.087890625
range: 1.3073091507
velocity: 0.0
doppler_bin: 8
bearing: -23.8429164886
intensity: 20.7554702759
---
header: 
  seq: 1332272
  stamp: 
    secs: 1561683370
    nsecs: 103830630
  frame_id: "ti_mmwave"
point_id: 5
x: 1.3046875
y: 0.091796875
z: 0.67578125
range: 1.56877088547
velocity: 0.0
doppler_bin: 8
bearing: 4.02465724945
intensity: 27.0926990509
---
header: 
  seq: 1332273
  stamp: 
    secs: 1561683370
    nsecs: 103843907
  frame_id: "ti_mmwave"
point_id: 6
x: 1.42578125
y: 0.046875
z: 0.50390625
range: 1.61234796047
velocity: 0.0
doppler_bin: 8
bearing: 1.88301849365
intensity: 26.0745506287
---
header: 
  seq: 1332274
  stamp: 
    secs: 1561683370
    nsecs: 103858713
  frame_id: "ti_mmwave"
point_id: 7
x: 2.541015625
y: -0.263671875
z: 1.19921875
range: 3.00681090355
velocity: 0.0
doppler_bin: 8
bearing: -5.92417097092
intensity: 29.1169013977
---
header: 
  seq: 1332275
  stamp: 
    secs: 1561683370
    nsecs: 103873838
  frame_id: "ti_mmwave"
point_id: 8
x: 2.599609375
y: -0.267578125
z: 1.169921875
range: 3.05038785934
velocity: 0.0
doppler_bin: 8
bearing: -5.87676620483
intensity: 32.6292533875
---
header: 
  seq: 1332276
  stamp: 
    secs: 1561683370
    nsecs: 103888926
  frame_id: "ti_mmwave"
point_id: 9
x: 2.662109375
y: -0.271484375
z: 1.12890625
range: 3.09396481514
velocity: 0.0
doppler_bin: 8
bearing: -5.82294607162
intensity: 31.9506893158
---
header: 
  seq: 1332277
  stamp: 
    secs: 1561683370
    nsecs: 103973282
  frame_id: "ti_mmwave"
point_id: 10
x: 4.330078125
y: -0.142578125
z: 1.357421875
range: 4.83704376221
velocity: 0.0
doppler_bin: 8
bearing: -1.88591849804
intensity: 28.3442077637
---
header: 
  seq: 1332278
  stamp: 
    secs: 1561683370
    nsecs: 104020968
  frame_id: "ti_mmwave"
point_id: 11
x: 4.416015625
y: -0.287109375
z: 1.18359375
range: 4.88062095642
velocity: 0.0
doppler_bin: 8
bearing: -3.71987724304
intensity: 32.2167510986
---
header: 
  seq: 1332279
  stamp: 
    secs: 1561683370
    nsecs: 104034266
  frame_id: "ti_mmwave"
point_id: 12
x: 4.4765625
y: -0.2890625
z: 1.11328125
range: 4.9241976738
velocity: 0.0
doppler_bin: 8
bearing: -3.69459795952
intensity: 31.9865703583
---
header: 
  seq: 1332280
  stamp: 
    secs: 1561683370
    nsecs: 104048954
  frame_id: "ti_mmwave"
point_id: 13
x: 4.78515625
y: -0.4609375
z: 0.9921875
range: 5.22923660278
velocity: 0.0
doppler_bin: 8
bearing: -5.5021276474
intensity: 29.9387683868
---
header: 
  seq: 1332281
  stamp: 
    secs: 1561683370
    nsecs: 104063393
  frame_id: "ti_mmwave"
point_id: 14
x: 4.8671875
y: -0.30859375
z: 0.84375
range: 5.27281332016
velocity: 0.0
doppler_bin: 8
bearing: -3.62786221504
intensity: 31.455072403
---
header: 
  seq: 1332282
  stamp: 
    secs: 1561683370
    nsecs: 104080213
  frame_id: "ti_mmwave"
point_id: 15
x: 1.193359375
y: -0.119140625
z: 0.412109375
range: 1.35088610649
velocity: -0.614668667316
doppler_bin: 7
bearing: -5.70130825043
intensity: 26.4345264435
---
header: 
  seq: 1332283
  stamp: 
    secs: 1561683370
    nsecs: 104098335
  frame_id: "ti_mmwave"
point_id: 16
x: 1.302734375
y: -0.08203125
z: 0.109375
range: 1.39446306229
velocity: -0.614668667316
doppler_bin: 7
bearing: -3.6030728817
intensity: 29.670797348
---
header: 
  seq: 1332284
  stamp: 
    secs: 1561683370
    nsecs: 104113627
  frame_id: "ti_mmwave"
point_id: 17
x: 1.34375
y: -0.083984375
z: -0.107421875
range: 1.43804001808
velocity: -0.614668667316
doppler_bin: 7
bearing: -3.57633447647
intensity: 31.4426269531
---
header: 
  seq: 1332285
  stamp: 
    secs: 1561683370
    nsecs: 104128510
  frame_id: "ti_mmwave"
point_id: 18
x: 1.369140625
y: -0.04296875
z: -0.24609375
range: 1.48161697388
velocity: -0.614668667316
doppler_bin: 7
bearing: -1.79756581783
intensity: 31.1461105347
---
header: 
  seq: 1332286
  stamp: 
    secs: 1561683370
    nsecs: 104158053
  frame_id: "ti_mmwave"
point_id: 19
x: 1.294921875
y: -0.08984375
z: -0.603515625
range: 1.52519392967
velocity: -0.614668667316
doppler_bin: 7
bearing: -3.96891283989
intensity: 26.9196510315
---
header: 
  seq: 1332287
  stamp: 
    secs: 1561683370
    nsecs: 104187130
  frame_id: "ti_mmwave"
point_id: 21
x: 0.041015625
y: -0.033203125
z: 0.0625
range: 0.0871539413929
velocity: 0.0
doppler_bin: 8
bearing: -38.9909973145
intensity: 30.1494026184
---
header: 
  seq: 1332288
  stamp: 
    secs: 1561683370
    nsecs: 104213156
  frame_id: "ti_mmwave"
point_id: 22
x: 0.044921875
y: -0.046875
z: 0.103515625
range: 0.130730912089
velocity: 0.0
doppler_bin: 8
bearing: -46.218875885
intensity: 29.0308990479
---
header: 
  seq: 1332289
  stamp: 
    secs: 1561683370
    nsecs: 104312558
  frame_id: "ti_mmwave"
point_id: 24
x: 1.19921875
y: 0.23046875
z: 0.123046875
range: 1.3073091507
velocity: 0.0
doppler_bin: 8
bearing: 10.8786048889
intensity: 17.9239177704
---
header: 
  seq: 1332290
  stamp: 
    secs: 1561683370
    nsecs: 104331813
  frame_id: "ti_mmwave"
point_id: 25
x: 0.34765625
y: 0.615234375
z: -1.337890625
range: 1.61234796047
velocity: 0.0
doppler_bin: 8
bearing: 60.5301055908
intensity: 23.9967365265
---
header: 
  seq: 1332291
  stamp: 
    secs: 1561683370
    nsecs: 104346817
  frame_id: "ti_mmwave"
point_id: 26
x: 3.466796875
y: -1.84375
z: -2.28125
range: 4.83704376221
velocity: 0.0
doppler_bin: 8
bearing: -28.0054283142
intensity: 25.7518787384
---
header: 
  seq: 1332292
  stamp: 
    secs: 1561683370
    nsecs: 105310146
  frame_id: "ti_mmwave"
point_id: 0
x: 0.01171875
y: -0.0390625
z: -0.0078125
range: 0.0435769706964
velocity: 0.0
doppler_bin: 8
bearing: -73.3007583618
intensity: 30.7445068359
---
header: 
  seq: 1332293
  stamp: 
    secs: 1561683370
    nsecs: 105414088
  frame_id: "ti_mmwave"
point_id: 1
x: 0.017578125
y: -0.080078125
z: -0.0078125
range: 0.0871539413929
velocity: 0.0
doppler_bin: 8
bearing: -77.6192398071
intensity: 31.9783172607
---
header: 
  seq: 1332294
  stamp: 
    secs: 1561683370
    nsecs: 105474109
  frame_id: "ti_mmwave"
point_id: 2
x: 0.029296875
y: -0.119140625
z: -0.005859375
range: 0.130730912089
velocity: 0.0
doppler_bin: 8
bearing: -76.1849746704
intensity: 30.2284069061
---
header: 
  seq: 1332295
  stamp: 
    secs: 1561683370
    nsecs: 105487585
  frame_id: "ti_mmwave"
point_id: 3
x: 0.056640625
y: -0.154296875
z: 0.005859375
range: 0.174307882786
velocity: 0.0
doppler_bin: 8
bearing: -69.8423843384
intensity: 25.5022830963
---
header: 
  seq: 1332296
  stamp: 
    secs: 1561683370
    nsecs: 105518532
  frame_id: "ti_mmwave"
point_id: 4
x: 1.365234375
y: -0.0
z: -0.26953125
range: 1.48161697388
velocity: 0.0
doppler_bin: 8
bearing: -0.0
intensity: 23.9967365265
---
header: 
  seq: 1332297
  stamp: 
    secs: 1561683370
    nsecs: 105558651
  frame_id: "ti_mmwave"
point_id: 5
x: 1.41796875
y: 0.08984375
z: 0.18359375
range: 1.52519392967
velocity: 0.0
doppler_bin: 8
bearing: 3.62546491623
intensity: 26.3748970032
---
header: 
  seq: 1332298
  stamp: 
    secs: 1561683370
    nsecs: 105681948
  frame_id: "ti_mmwave"
point_id: 6
x: 1.4375
y: 0.046875
z: 0.3125
range: 1.56877088547
velocity: 0.0
doppler_bin: 8
bearing: 1.86767876148
intensity: 27.1850166321
---
header: 
  seq: 1332299
  stamp: 
    secs: 1561683370
    nsecs: 105708526
  frame_id: "ti_mmwave"
point_id: 7
x: 2.54296875
y: -0.263671875
z: 1.193359375
range: 3.00681090355
velocity: 0.0
doppler_bin: 8
bearing: -5.91965341568
intensity: 29.5904140472
---
header: 
  seq: 1332300
  stamp: 
    secs: 1561683370
    nsecs: 105720917
  frame_id: "ti_mmwave"
point_id: 8
x: 2.59765625
y: -0.267578125
z: 1.17578125
range: 3.05038785934
velocity: 0.0
doppler_bin: 8
bearing: -5.88115358353
intensity: 32.7966690063
---
header: 
  seq: 1332301
  stamp: 
    secs: 1561683370
    nsecs: 105735159
  frame_id: "ti_mmwave"
point_id: 9
x: 2.646484375
y: -0.271484375
z: 1.1640625
range: 3.09396481514
velocity: 0.0
doppler_bin: 8
bearing: -5.85708665848
intensity: 31.894903183
---
header: 
  seq: 1332302
  stamp: 
    secs: 1561683370
    nsecs: 105748095
  frame_id: "ti_mmwave"
point_id: 10
x: 4.427734375
y: -0.287109375
z: 1.138671875
range: 4.88062095642
velocity: 0.0
doppler_bin: 8
bearing: -3.71005964279
intensity: 30.081741333
---
header: 
  seq: 1332303
  stamp: 
    secs: 1561683370
    nsecs: 105762892
  frame_id: "ti_mmwave"
point_id: 11
x: 4.5
y: -0.2890625
z: 1.015625
range: 4.9241976738
velocity: 0.0
doppler_bin: 8
bearing: -3.67540836334
intensity: 29.5133743286
---
header: 
  seq: 1332304
  stamp: 
    secs: 1561683370
    nsecs: 105774953
  frame_id: "ti_mmwave"
point_id: 12
x: 4.87109375
y: -0.30859375
z: 0.82421875
range: 5.27281332016
velocity: 0.0
doppler_bin: 8
bearing: -3.62496066093
intensity: 30.4610481262
---
header: 
  seq: 1332305
  stamp: 
    secs: 1561683370
    nsecs: 105790078
  frame_id: "ti_mmwave"
point_id: 13
x: 1.220703125
y: -0.115234375
z: -0.068359375
range: 1.3073091507
velocity: -0.614668667316
doppler_bin: 7
bearing: -5.39274072647
intensity: 23.7291202545
---
header: 
  seq: 1332306
  stamp: 
    secs: 1561683370
    nsecs: 106019086
  frame_id: "ti_mmwave"
point_id: 14
x: 1.26171875
y: -0.119140625
z: 0.0078125
range: 1.35088610649
velocity: -0.614668667316
doppler_bin: 7
bearing: -5.39428806305
intensity: 29.8497714996
---
header: 
  seq: 1332307
  stamp: 
    secs: 1561683370
    nsecs: 106043906
  frame_id: "ti_mmwave"
point_id: 15
x: 1.306640625
y: -0.08203125
z: 0.0234375
range: 1.39446306229
velocity: -0.614668667316
doppler_bin: 7
bearing: -3.59232997894
intensity: 31.3672065735
---
header: 
  seq: 1332308
  stamp: 
    secs: 1561683370
    nsecs: 106060073
  frame_id: "ti_mmwave"
point_id: 16
x: 1.349609375
y: -0.04296875
z: 0.013671875
range: 1.43804001808
velocity: -0.614668667316
doppler_bin: 7
bearing: -1.82356238365
intensity: 28.8817958832
---
header: 
  seq: 1332309
  stamp: 
    secs: 1561683370
    nsecs: 106077514
  frame_id: "ti_mmwave"
point_id: 18
x: 0.041015625
y: -0.033203125
z: 0.0625
range: 0.0871539413929
velocity: 0.0
doppler_bin: 8
bearing: -38.9909973145
intensity: 30.1452045441
---
header: 
  seq: 1332310
  stamp: 
    secs: 1561683370
    nsecs: 106095157
  frame_id: "ti_mmwave"
point_id: 19
x: 0.044921875
y: -0.046875
z: 0.103515625
range: 0.130730912089
velocity: 0.0
doppler_bin: 8
bearing: -46.218875885
intensity: 29.0254669189
---
header: 
  seq: 1332311
  stamp: 
    secs: 1561683370
    nsecs: 106112615
  frame_id: "ti_mmwave"
point_id: 21
x: 2.669921875
y: -2.00390625
z: -3.138671875
range: 4.88062095642
velocity: 0.0
doppler_bin: 8
bearing: -36.890007019
intensity: 27.5511226654
---
header: 
  seq: 1332312
  stamp: 
    secs: 1561683370
    nsecs: 106138463
  frame_id: "ti_mmwave"
point_id: 22
x: 2.29296875
y: -2.021484375
z: -3.466796875
range: 4.9241976738
velocity: 0.0
doppler_bin: 8
bearing: -41.3994445801
intensity: 27.0243053436
---
header: 
  seq: 1332313
  stamp: 
    secs: 1561683370
    nsecs: 163633278
  frame_id: "ti_mmwave"
point_id: 0
x: 0.01171875
y: -0.0390625
z: -0.0078125
range: 0.0435769706964
velocity: 0.0
doppler_bin: 8
bearing: -73.3007583618
intensity: 30.7518177032
---
header: 
  seq: 1332314
  stamp: 
    secs: 1561683370
    nsecs: 163710902
  frame_id: "ti_mmwave"
point_id: 1
x: 0.017578125
y: -0.080078125
z: -0.0078125
range: 0.0871539413929
velocity: 0.0
doppler_bin: 8
bearing: -77.6192398071
intensity: 31.9783172607
---
header: 
  seq: 1332315
  stamp: 
    secs: 1561683370
    nsecs: 163722550
  frame_id: "ti_mmwave"
point_id: 2
x: 0.041015625
y: -0.115234375
z: -0.0078125
range: 0.130730912089
velocity: 0.0
doppler_bin: 8
bearing: -70.4077224731
intensity: 30.2242832184
---
header: 
  seq: 1332316
  stamp: 
    secs: 1561683370
    nsecs: 163735099
  frame_id: "ti_mmwave"
point_id: 3
x: 0.056640625
y: -0.154296875
z: 0.005859375
range: 0.174307882786
velocity: 0.0
doppler_bin: 8
bearing: -69.8423843384
intensity: 25.5022830963
---
header: 
  seq: 1332317
  stamp: 
    secs: 1561683370
    nsecs: 163744439
  frame_id: "ti_mmwave"
point_id: 4
x: 1.388671875
y: 0.134765625
z: 0.322265625
range: 1.52519392967
velocity: 0.0
doppler_bin: 8
bearing: 5.54299211502
intensity: 26.1489715576
---
header: 
  seq: 1332318
  stamp: 
    secs: 1561683370
    nsecs: 163756328
  frame_id: "ti_mmwave"
point_id: 5
x: 1.408203125
y: 0.091796875
z: 0.419921875
range: 1.56877088547
velocity: 0.0
doppler_bin: 8
bearing: 3.7296769619
intensity: 24.9415454865
---
header: 
  seq: 1332319
  stamp: 
    secs: 1561683370
    nsecs: 163771324
  frame_id: "ti_mmwave"
point_id: 6
x: 2.537109375
y: -0.263671875
z: 1.20703125
range: 3.00681090355
velocity: 0.0
doppler_bin: 8
bearing: -5.93322753906
intensity: 29.2116603851
---
header: 
  seq: 1332320
  stamp: 
    secs: 1561683370
    nsecs: 163780557
  frame_id: "ti_mmwave"
point_id: 7
x: 2.599609375
y: -0.267578125
z: 1.169921875
range: 3.05038785934
velocity: 0.0
doppler_bin: 8
bearing: -5.87676620483
intensity: 32.5959396362
---
header: 
  seq: 1332321
  stamp: 
    secs: 1561683370
    nsecs: 163788707
  frame_id: "ti_mmwave"
point_id: 8
x: 2.65625
y: -0.181640625
z: 1.162109375
range: 3.09396481514
velocity: 0.0
doppler_bin: 8
bearing: -3.91193032265
intensity: 31.7493152618
---
header: 
  seq: 1332322
  stamp: 
    secs: 1561683370
    nsecs: 163968331
  frame_id: "ti_mmwave"
point_id: 9
x: 4.390625
y: -0.287109375
z: 1.2734375
range: 4.88062095642
velocity: 0.0
doppler_bin: 8
bearing: -3.74132800102
intensity: 30.7809410095
---
header: 
  seq: 1332323
  stamp: 
    secs: 1561683370
    nsecs: 163990993
  frame_id: "ti_mmwave"
point_id: 10
x: 4.443359375
y: -0.2890625
z: 1.2421875
range: 4.9241976738
velocity: 0.0
doppler_bin: 8
bearing: -3.72212862968
intensity: 30.2694168091
---
header: 
  seq: 1332324
  stamp: 
    secs: 1561683370
    nsecs: 164001006
  frame_id: "ti_mmwave"
point_id: 11
x: 4.87109375
y: -0.30859375
z: 0.8203125
range: 5.27281332016
velocity: 0.0
doppler_bin: 8
bearing: -3.62496066093
intensity: 31.0037059784
---
header: 
  seq: 1332325
  stamp: 
    secs: 1561683370
    nsecs: 164009370
  frame_id: "ti_mmwave"
point_id: 12
x: 1.16796875
y: -0.07421875
z: -0.19921875
range: 1.2637321949
velocity: -0.614668667316
doppler_bin: 7
bearing: -3.63598036766
intensity: 21.6435279846
---
header: 
  seq: 1332326
  stamp: 
    secs: 1561683370
    nsecs: 164017498
  frame_id: "ti_mmwave"
point_id: 13
x: 1.20703125
y: -0.076171875
z: -0.208984375
range: 1.3073091507
velocity: -0.614668667316
doppler_bin: 7
bearing: -3.61096477509
intensity: 27.1432971954
---
header: 
  seq: 1332327
  stamp: 
    secs: 1561683370
    nsecs: 164028726
  frame_id: "ti_mmwave"
point_id: 14
x: 1.2421875
y: -0.119140625
z: -0.22265625
range: 1.35088610649
velocity: -0.614668667316
doppler_bin: 7
bearing: -5.47859144211
intensity: 28.8761730194
---
header: 
  seq: 1332328
  stamp: 
    secs: 1561683370
    nsecs: 164048167
  frame_id: "ti_mmwave"
point_id: 15
x: 1.27734375
y: -0.123046875
z: -0.26171875
range: 1.39446306229
velocity: -0.614668667316
doppler_bin: 7
bearing: -5.50234079361
intensity: 27.5050830841
---
header: 
  seq: 1332329
  stamp: 
    secs: 1561683370
    nsecs: 164115956
  frame_id: "ti_mmwave"
point_id: 16
x: 1.3359375
y: -0.083984375
z: -0.171875
range: 1.43804001808
velocity: -0.614668667316
doppler_bin: 7
bearing: -3.59719371796
intensity: 24.7421627045
---
header: 
  seq: 1332330
  stamp: 
    secs: 1561683370
    nsecs: 164128306
  frame_id: "ti_mmwave"
point_id: 17
x: 1.390625
y: 0.04296875
z: 0.03125
range: 1.48161697388
velocity: -0.614668667316
doppler_bin: 7
bearing: 1.76981210709
intensity: 25.0650501251
---
header: 
  seq: 1332331
  stamp: 
    secs: 1561683370
    nsecs: 164140328
  frame_id: "ti_mmwave"
point_id: 19
x: 0.041015625
y: -0.033203125
z: 0.0625
range: 0.0871539413929
velocity: 0.0
doppler_bin: 8
bearing: -38.9909973145
intensity: 30.1452045441
---
header: 
  seq: 1332332
  stamp: 
    secs: 1561683370
    nsecs: 164148333
  frame_id: "ti_mmwave"
point_id: 20
x: 0.044921875
y: -0.046875
z: 0.103515625
range: 0.130730912089
velocity: 0.0
doppler_bin: 8
bearing: -46.218875885
intensity: 29.0254669189
---
header: 
  seq: 1332333
  stamp: 
    secs: 1561683370
    nsecs: 165212491
  frame_id: "ti_mmwave"
point_id: 0
x: 0.01171875
y: -0.0390625
z: -0.0078125
range: 0.0435769706964
velocity: 0.0
doppler_bin: 8
bearing: -73.3007583618
intensity: 30.7518177032
---
header: 
  seq: 1332334
  stamp: 
    secs: 1561683370
    nsecs: 165279002
  frame_id: "ti_mmwave"
point_id: 1
x: 0.017578125
y: -0.080078125
z: -0.0078125
range: 0.0871539413929
velocity: 0.0
doppler_bin: 8
bearing: -77.6192398071
intensity: 31.9783172607
---
header: 
  seq: 1332335
  stamp: 
    secs: 1561683370
    nsecs: 165298436
  frame_id: "ti_mmwave"
point_id: 2
x: 0.029296875
y: -0.119140625
z: -0.005859375
range: 0.130730912089
velocity: 0.0
doppler_bin: 8
bearing: -76.1849746704
intensity: 30.2284069061
---
header: 
  seq: 1332336
  stamp: 
    secs: 1561683370
    nsecs: 165324033
  frame_id: "ti_mmwave"
point_id: 3
x: 0.056640625
y: -0.154296875
z: 0.005859375
range: 0.174307882786
velocity: 0.0
doppler_bin: 8
bearing: -69.8423843384
intensity: 25.5144996643
---
header: 
  seq: 1332337
  stamp: 
    secs: 1561683370
    nsecs: 165348486
  frame_id: "ti_mmwave"
point_id: 4
x: 1.00390625
y: -0.087890625
z: -0.95703125
range: 1.48161697388
velocity: 0.0
doppler_bin: 8
bearing: -5.00341033936
intensity: 22.2010803223
---
header: 
  seq: 1332338
  stamp: 
    secs: 1561683370
    nsecs: 165423335
  frame_id: "ti_mmwave"
point_id: 5
x: 0.892578125
y: -0.044921875
z: 1.1171875
range: 1.52519392967
velocity: 0.0
doppler_bin: 8
bearing: -2.88116407394
intensity: 22.5041999817
---
header: 
  seq: 1332339
  stamp: 
    secs: 1561683370
    nsecs: 165439368
  frame_id: "ti_mmwave"
point_id: 6
x: 1.630859375
y: 0.26171875
z: -0.291015625
range: 1.78665578365
velocity: 0.0
doppler_bin: 8
bearing: 9.11703681946
intensity: 28.3058872223
---
header: 
  seq: 1332340
  stamp: 
    secs: 1561683370
    nsecs: 165452932
  frame_id: "ti_mmwave"
point_id: 7
x: 1.66796875
y: 0.267578125
z: -0.3125
range: 1.83023273945
velocity: 0.0
doppler_bin: 8
bearing: 9.11382579803
intensity: 28.6093654633
---
header: 
  seq: 1332341
  stamp: 
    secs: 1561683370
    nsecs: 165466860
  frame_id: "ti_mmwave"
point_id: 8
x: 2.55078125
y: -0.263671875
z: 1.1796875
range: 3.00681090355
velocity: 0.0
doppler_bin: 8
bearing: -5.90165042877
intensity: 29.5904140472
---
header: 
  seq: 1332342
  stamp: 
    secs: 1561683370
    nsecs: 165509932
  frame_id: "ti_mmwave"
point_id: 9
x: 2.607421875
y: -0.267578125
z: 1.154296875
range: 3.05038785934
velocity: 0.0
doppler_bin: 8
bearing: -5.85928010941
intensity: 32.8465614319
---
header: 
  seq: 1332343
  stamp: 
    secs: 1561683370
    nsecs: 165527094
  frame_id: "ti_mmwave"
point_id: 10
x: 2.673828125
y: -0.271484375
z: 1.103515625
range: 3.09396481514
velocity: 0.0
doppler_bin: 8
bearing: -5.79759931564
intensity: 32.0411987305
---
header: 
  seq: 1332344
  stamp: 
    secs: 1561683370
    nsecs: 165540648
  frame_id: "ti_mmwave"
point_id: 11
x: 4.421875
y: -0.287109375
z: 1.162109375
range: 4.88062095642
velocity: 0.0
doppler_bin: 8
bearing: -3.7149617672
intensity: 31.4519634247
---
header: 
  seq: 1332345
  stamp: 
    secs: 1561683370
    nsecs: 165567323
  frame_id: "ti_mmwave"
point_id: 12
x: 4.48046875
y: -0.2890625
z: 1.095703125
range: 4.9241976738
velocity: 0.0
doppler_bin: 8
bearing: -3.69138598442
intensity: 30.9236965179
---
header: 
  seq: 1332346
  stamp: 
    secs: 1561683370
    nsecs: 165630250
  frame_id: "ti_mmwave"
point_id: 13
x: 4.84375
y: -0.46484375
z: 0.904296875
range: 5.27281332016
velocity: 0.0
doppler_bin: 8
bearing: -5.48175907135
intensity: 30.358297348
---
header: 
  seq: 1332347
  stamp: 
    secs: 1561683370
    nsecs: 165646131
  frame_id: "ti_mmwave"
point_id: 14
x: 1.181640625
y: -0.07421875
z: -0.083984375
range: 1.2637321949
velocity: -0.614668667316
doppler_bin: 7
bearing: -3.59402155876
intensity: 24.1664047241
---
header: 
  seq: 1332348
  stamp: 
    secs: 1561683370
    nsecs: 165659241
  frame_id: "ti_mmwave"
point_id: 15
x: 1.224609375
y: -0.0390625
z: 0.052734375
range: 1.3073091507
velocity: -0.614668667316
doppler_bin: 7
bearing: -1.8269970417
intensity: 29.4051647186
---
header: 
  seq: 1332349
  stamp: 
    secs: 1561683370
    nsecs: 165668348
  frame_id: "ti_mmwave"
point_id: 16
x: 1.267578125
y: -0.0390625
z: 0.0
range: 1.35088610649
velocity: -0.614668667316
doppler_bin: 7
bearing: -1.76510488987
intensity: 31.1660766602
---
header: 
  seq: 1332350
  stamp: 
    secs: 1561683370
    nsecs: 165728594
  frame_id: "ti_mmwave"
point_id: 17
x: 1.3046875
y: -0.041015625
z: -0.103515625
range: 1.39446306229
velocity: -0.614668667316
doppler_bin: 7
bearing: -1.80062162876
intensity: 29.7081165314
---
header: 
  seq: 1332351
  stamp: 
    secs: 1561683370
    nsecs: 165743052
  frame_id: "ti_mmwave"
point_id: 18
x: 1.32421875
y: -0.0
z: -0.267578125
range: 1.43804001808
velocity: -0.614668667316
doppler_bin: 7
bearing: -0.0
intensity: 25.5022830963
---
header: 
  seq: 1332352
  stamp: 
    secs: 1561683370
    nsecs: 165760496
  frame_id: "ti_mmwave"
point_id: 20
x: 0.041015625
y: -0.033203125
z: 0.0625
range: 0.0871539413929
velocity: 0.0
doppler_bin: 8
bearing: -38.9909973145
intensity: 30.1452045441
---
header: 
  seq: 1332353
  stamp: 
    secs: 1561683370
    nsecs: 165785743
  frame_id: "ti_mmwave"
point_id: 21
x: 0.044921875
y: -0.046875
z: 0.103515625
range: 0.130730912089
velocity: 0.0
doppler_bin: 8
bearing: -46.218875885
intensity: 29.0308990479
---
header: 
  seq: 1332354
  stamp: 
    secs: 1561683370
    nsecs: 165844331
  frame_id: "ti_mmwave"
point_id: 23
x: 1.302734375
y: 0.390625
z: 0.291015625
range: 1.48161697388
velocity: 0.0
doppler_bin: 8
bearing: 16.6913642883
intensity: 19.6848297119
---
header: 
  seq: 1332355
  stamp: 
    secs: 1561683370
    nsecs: 165858736
  frame_id: "ti_mmwave"
point_id: 24
x: 2.650390625
y: -2.021484375
z: -3.201171875
range: 4.9241976738
velocity: 0.0
doppler_bin: 8
bearing: -37.3331947327
intensity: 27.9865055084
---
header: 
  seq: 1332356
  stamp: 
    secs: 1561683370
    nsecs: 223723188
  frame_id: "ti_mmwave"
point_id: 0
x: 0.01171875
y: -0.0390625
z: -0.0078125
range: 0.0435769706964
velocity: 0.0
doppler_bin: 8
bearing: -73.3007583618
intensity: 30.7591171265
---
header: 
  seq: 1332357
  stamp: 
    secs: 1561683370
    nsecs: 223825876
  frame_id: "ti_mmwave"
point_id: 1
x: 0.017578125
y: -0.080078125
z: -0.0078125
range: 0.0871539413929
velocity: 0.0
doppler_bin: 8
bearing: -77.6192398071
intensity: 31.9783172607
---
header: 
  seq: 1332358
  stamp: 
    secs: 1561683370
    nsecs: 223843391
  frame_id: "ti_mmwave"
point_id: 2
x: 0.029296875
y: -0.119140625
z: -0.00390625
range: 0.130730912089
velocity: 0.0
doppler_bin: 8
bearing: -76.1849746704
intensity: 30.2242832184
---
header: 
  seq: 1332359
  stamp: 
    secs: 1561683370
    nsecs: 223857329
  frame_id: "ti_mmwave"
point_id: 3
x: 0.056640625
y: -0.154296875
z: 0.005859375
range: 0.174307882786
velocity: 0.0
doppler_bin: 8
bearing: -69.8423843384
intensity: 25.490032196
---
header: 
  seq: 1332360
  stamp: 
    secs: 1561683370
    nsecs: 223871335
  frame_id: "ti_mmwave"
point_id: 4
x: 1.607421875
y: 0.3671875
z: -0.306640625
range: 1.78665578365
velocity: 0.0
doppler_bin: 8
bearing: 12.8674402237
intensity: 27.1096305847
---
header: 
  seq: 1332361
  stamp: 
    secs: 1561683370
    nsecs: 223887680
  frame_id: "ti_mmwave"
point_id: 5
x: 1.66796875
y: 0.322265625
z: -0.26171875
range: 1.83023273945
velocity: 0.0
doppler_bin: 8
bearing: 10.9352865219
intensity: 27.3479976654
---
header: 
  seq: 1332362
  stamp: 
    secs: 1561683370
    nsecs: 223900895
  frame_id: "ti_mmwave"
point_id: 6
x: 2.5546875
y: -0.263671875
z: 1.171875
range: 3.00681090355
velocity: 0.0
doppler_bin: 8
bearing: -5.89269018173
intensity: 29.2941894531
---
header: 
  seq: 1332363
  stamp: 
    secs: 1561683370
    nsecs: 223916788
  frame_id: "ti_mmwave"
point_id: 7
x: 2.615234375
y: -0.267578125
z: 1.13671875
range: 3.05038785934
velocity: 0.0
doppler_bin: 8
bearing: -5.84189844131
intensity: 32.704460144
---
header: 
  seq: 1332364
  stamp: 
    secs: 1561683370
    nsecs: 223930622
  frame_id: "ti_mmwave"
point_id: 8
x: 2.67578125
y: -0.181640625
z: 1.1171875
range: 3.09396481514
velocity: 0.0
doppler_bin: 8
bearing: -3.88346338272
intensity: 32.0057678223
---
header: 
  seq: 1332365
  stamp: 
    secs: 1561683370
    nsecs: 223943907
  frame_id: "ti_mmwave"
point_id: 9
x: 4.40234375
y: -0.287109375
z: 1.23828125
range: 4.88062095642
velocity: 0.0
doppler_bin: 8
bearing: -3.73139691353
intensity: 30.934217453
---
header: 
  seq: 1332366
  stamp: 
    secs: 1561683370
    nsecs: 223958150
  frame_id: "ti_mmwave"
point_id: 10
x: 4.455078125
y: -0.2890625
z: 1.201171875
range: 4.9241976738
velocity: 0.0
doppler_bin: 8
bearing: -3.71236538887
intensity: 30.6032009125
---
header: 
  seq: 1332367
  stamp: 
    secs: 1561683370
    nsecs: 223971881
  frame_id: "ti_mmwave"
point_id: 11
x: 4.8515625
y: -0.46484375
z: 0.861328125
range: 5.27281332016
velocity: 0.0
doppler_bin: 8
bearing: -5.47298574448
intensity: 30.3422718048
---
header: 
  seq: 1332368
  stamp: 
    secs: 1561683370
    nsecs: 223985950
  frame_id: "ti_mmwave"
point_id: 12
x: 1.18359375
y: -0.037109375
z: -0.052734375
range: 1.2637321949
velocity: -0.614668667316
doppler_bin: 7
bearing: -1.79581403732
intensity: 27.9657440186
---
header: 
  seq: 1332369
  stamp: 
    secs: 1561683370
    nsecs: 224085641
  frame_id: "ti_mmwave"
point_id: 13
x: 1.2265625
y: -0.0
z: -0.0234375
range: 1.3073091507
velocity: -0.614668667316
doppler_bin: 7
bearing: -0.0
intensity: 32.0085067749
---
header: 
  seq: 1332370
  stamp: 
    secs: 1561683370
    nsecs: 224102321
  frame_id: "ti_mmwave"
point_id: 14
x: 1.267578125
y: -0.0390625
z: 0.033203125
range: 1.35088610649
velocity: -0.614668667316
doppler_bin: 7
bearing: -1.76510488987
intensity: 31.6435279846
---
header: 
  seq: 1332371
  stamp: 
    secs: 1561683370
    nsecs: 224115455
  frame_id: "ti_mmwave"
point_id: 15
x: 1.279296875
y: 0.1640625
z: -0.22265625
range: 1.39446306229
velocity: -0.614668667316
doppler_bin: 7
bearing: 7.30796670914
intensity: 22.4797325134
---
header: 
  seq: 1332372
  stamp: 
    secs: 1561683370
    nsecs: 224130243
  frame_id: "ti_mmwave"
point_id: 16
x: 1.318359375
y: 0.04296875
z: -0.287109375
range: 1.43804001808
velocity: -0.614668667316
doppler_bin: 7
bearing: 1.86675703526
intensity: 28.4198474884
---
header: 
  seq: 1332373
  stamp: 
    secs: 1561683370
    nsecs: 224144917
  frame_id: "ti_mmwave"
point_id: 17
x: 1.3828125
y: 0.087890625
z: -0.125
range: 1.48161697388
velocity: -0.614668667316
doppler_bin: 7
bearing: 3.63678884506
intensity: 27.7959651947
---
header: 
  seq: 1332374
  stamp: 
    secs: 1561683370
    nsecs: 224158747
  frame_id: "ti_mmwave"
point_id: 18
x: 1.41015625
y: 0.08984375
z: 0.23046875
range: 1.52519392967
velocity: -0.614668667316
doppler_bin: 7
bearing: 3.64549660683
intensity: 27.1516742706
---
header: 
  seq: 1332375
  stamp: 
    secs: 1561683370
    nsecs: 224177883
  frame_id: "ti_mmwave"
point_id: 20
x: 0.041015625
y: -0.033203125
z: 0.0625
range: 0.0871539413929
velocity: 0.0
doppler_bin: 8
bearing: -38.9909973145
intensity: 30.1494026184
---
header: 
  seq: 1332376
  stamp: 
    secs: 1561683370
    nsecs: 224192444
  frame_id: "ti_mmwave"
point_id: 21
x: 0.044921875
y: -0.046875
z: 0.103515625
range: 0.130730912089
velocity: 0.0
doppler_bin: 8
bearing: -46.218875885
intensity: 29.0308990479
---
header: 
  seq: 1332377
  stamp: 
    secs: 1561683370
    nsecs: 224212460
  frame_id: "ti_mmwave"
point_id: 23
x: 1.228515625
y: -0.1640625
z: 0.419921875
range: 1.39446306229
velocity: -0.614668667316
doppler_bin: 7
bearing: -7.60657596588
intensity: 21.5533599854
---
header: 
  seq: 1332378
  stamp: 
    secs: 1561683370
    nsecs: 225369312
  frame_id: "ti_mmwave"
point_id: 0
x: 0.01171875
y: -0.0390625
z: -0.0078125
range: 0.0435769706964
velocity: 0.0
doppler_bin: 8
bearing: -73.3007583618
intensity: 30.7408466339
---
header: 
  seq: 1332379
  stamp: 
    secs: 1561683370
    nsecs: 225422988
  frame_id: "ti_mmwave"
point_id: 1
x: 0.017578125
y: -0.080078125
z: -0.0078125
range: 0.0871539413929
velocity: 0.0
doppler_bin: 8
bearing: -77.6192398071
intensity: 31.9783172607
---
header: 
  seq: 1332380
  stamp: 
    secs: 1561683370
    nsecs: 225441063
  frame_id: "ti_mmwave"
point_id: 2
x: 0.029296875
y: -0.119140625
z: -0.005859375
range: 0.130730912089
velocity: 0.0
doppler_bin: 8
bearing: -76.1849746704
intensity: 30.2284069061
---
header: 
  seq: 1332381
  stamp: 
    secs: 1561683370
    nsecs: 225462855
  frame_id: "ti_mmwave"
point_id: 3
x: 0.056640625
y: -0.154296875
z: 0.005859375
range: 0.174307882786
velocity: 0.0
doppler_bin: 8
bearing: -69.8423843384
intensity: 25.5022830963
---
header: 
  seq: 1332382
  stamp: 
    secs: 1561683370
    nsecs: 225514975
  frame_id: "ti_mmwave"
point_id: 4
x: 2.560546875
y: -0.263671875
z: 1.16015625
range: 3.00681090355
velocity: 0.0
doppler_bin: 8
bearing: -5.87930107117
intensity: 29.5230808258
---
header: 
  seq: 1332383
  stamp: 
    secs: 1561683370
    nsecs: 225528033
  frame_id: "ti_mmwave"
point_id: 5
x: 2.611328125
y: -0.267578125
z: 1.146484375
range: 3.05038785934
velocity: 0.0
doppler_bin: 8
bearing: -5.85057687759
intensity: 32.8757781982
---
header: 
  seq: 1332384
  stamp: 
    secs: 1561683370
    nsecs: 225539521
  frame_id: "ti_mmwave"
point_id: 6
x: 2.669921875
y: -0.271484375
z: 1.111328125
range: 3.09396481514
velocity: 0.0
doppler_bin: 8
bearing: -5.80602359772
intensity: 32.1800994873
---
header: 
  seq: 1332385
  stamp: 
    secs: 1561683370
    nsecs: 225572980
  frame_id: "ti_mmwave"
point_id: 7
x: 4.41796875
y: -0.287109375
z: 1.177734375
range: 4.88062095642
velocity: 0.0
doppler_bin: 8
bearing: -3.71823716164
intensity: 30.3622951508
---
header: 
  seq: 1332386
  stamp: 
    secs: 1561683370
    nsecs: 225583291
  frame_id: "ti_mmwave"
point_id: 8
x: 4.4765625
y: -0.2890625
z: 1.11328125
range: 4.9241976738
velocity: 0.0
doppler_bin: 8
bearing: -3.69459795952
intensity: 29.637878418
---
header: 
  seq: 1332387
  stamp: 
    secs: 1561683370
    nsecs: 225636236
  frame_id: "ti_mmwave"
point_id: 9
x: 4.73828125
y: -0.44921875
z: -0.498046875
range: 5.09850549698
velocity: 0.0
doppler_bin: 8
bearing: -5.4158115387
intensity: 32.4378204346
---
header: 
  seq: 1332388
  stamp: 
    secs: 1561683370
    nsecs: 225650183
  frame_id: "ti_mmwave"
point_id: 10
x: 4.787109375
y: -0.453125
z: -0.42578125
range: 5.14208269119
velocity: 0.0
doppler_bin: 8
bearing: -5.40723514557
intensity: 33.0470581055
---
header: 
  seq: 1332389
  stamp: 
    secs: 1561683370
    nsecs: 225663908
  frame_id: "ti_mmwave"
point_id: 11
x: 4.841796875
y: -0.45703125
z: -0.197265625
range: 5.18565940857
velocity: 0.0
doppler_bin: 8
bearing: -5.39233732224
intensity: 29.6473083496
---
header: 
  seq: 1332390
  stamp: 
    secs: 1561683370
    nsecs: 225677699
  frame_id: "ti_mmwave"
point_id: 12
x: 4.83984375
y: -0.306640625
z: 0.765625
range: 5.22923660278
velocity: 0.0
doppler_bin: 8
bearing: -3.62527441978
intensity: 29.7818050385
---
header: 
  seq: 1332391
  stamp: 
    secs: 1561683370
    nsecs: 225695889
  frame_id: "ti_mmwave"
point_id: 13
x: 4.884765625
y: -0.30859375
z: 0.7421875
range: 5.27281332016
velocity: 0.0
doppler_bin: 8
bearing: -3.6148416996
intensity: 31.0037059784
---
header: 
  seq: 1332392
  stamp: 
    secs: 1561683370
    nsecs: 225748188
  frame_id: "ti_mmwave"
point_id: 14
x: 1.140625
y: -0.0
z: -0.09375
range: 1.22015523911
velocity: -0.614668667316
doppler_bin: 7
bearing: -0.0
intensity: 22.8330116272
---
header: 
  seq: 1332393
  stamp: 
    secs: 1561683370
    nsecs: 225762751
  frame_id: "ti_mmwave"
point_id: 15
x: 1.185546875
y: -0.0
z: -0.05078125
range: 1.2637321949
velocity: -0.614668667316
doppler_bin: 7
bearing: -0.0
intensity: 29.3348731995
---
header: 
  seq: 1332394
  stamp: 
    secs: 1561683370
    nsecs: 225777384
  frame_id: "ti_mmwave"
point_id: 16
x: 1.2265625
y: -0.0
z: -0.046875
range: 1.3073091507
velocity: -0.614668667316
doppler_bin: 7
bearing: -0.0
intensity: 31.5836257935
---
header: 
  seq: 1332395
  stamp: 
    secs: 1561683370
    nsecs: 225790630
  frame_id: "ti_mmwave"
point_id: 17
x: 1.265625
y: -0.0
z: -0.080078125
range: 1.35088610649
velocity: -0.614668667316
doppler_bin: 7
bearing: -0.0
intensity: 30.7554702759
---
header: 
  seq: 1332396
  stamp: 
    secs: 1561683370
    nsecs: 225804070
  frame_id: "ti_mmwave"
point_id: 18
x: 1.296875
y: 0.08203125
z: -0.16015625
range: 1.39446306229
velocity: -0.614668667316
doppler_bin: 7
bearing: 3.61930918694
intensity: 26.9983768463
---
header: 
  seq: 1332397
  stamp: 
    secs: 1561683370
    nsecs: 225813741
  frame_id: "ti_mmwave"
point_id: 19
x: 1.34375
y: 0.126953125
z: 0.0078125
range: 1.43804001808
velocity: -0.614668667316
doppler_bin: 7
bearing: 5.3970990181
intensity: 24.393327713
---
header: 
  seq: 1332398
  stamp: 
    secs: 1561683370
    nsecs: 225905194
  frame_id: "ti_mmwave"
point_id: 20
x: 1.361328125
y: 0.173828125
z: 0.228515625
range: 1.48161697388
velocity: -0.614668667316
doppler_bin: 7
bearing: 7.27672624588
intensity: 26.0422611237
---
header: 
  seq: 1332399
  stamp: 
    secs: 1561683370
    nsecs: 225916752
  frame_id: "ti_mmwave"
point_id: 21
x: 1.408203125
y: 0.134765625
z: 0.21875
range: 1.52519392967
velocity: -0.614668667316
doppler_bin: 7
bearing: 5.46658182144
intensity: 26.4147415161
---
header: 
  seq: 1332400
  stamp: 
    secs: 1561683370
    nsecs: 225961230
  frame_id: "ti_mmwave"
point_id: 23
x: 0.041015625
y: -0.033203125
z: 0.0625
range: 0.0871539413929
velocity: 0.0
doppler_bin: 8
bearing: -38.9909973145
intensity: 30.1452045441
---
header: 
  seq: 1332401
  stamp: 
    secs: 1561683370
    nsecs: 225978395
  frame_id: "ti_mmwave"
point_id: 24
x: 0.044921875
y: -0.046875
z: 0.103515625
range: 0.130730912089
velocity: 0.0
doppler_bin: 8
bearing: -46.218875885
intensity: 29.0308990479
---
header: 
  seq: 1332402
  stamp: 
    secs: 1561683370
    nsecs: 226003137
  frame_id: "ti_mmwave"
point_id: 26
x: 2.814453125
y: -2.00390625
z: -3.0078125
range: 4.88062095642
velocity: 0.0
doppler_bin: 8
bearing: -35.4510803223
intensity: 27.6863803864
---
header: 
  seq: 1332403
  stamp: 
    secs: 1561683370
    nsecs: 226042129
  frame_id: "ti_mmwave"
point_id: 27
x: 2.8203125
y: -2.021484375
z: -3.052734375
range: 4.9241976738
velocity: 0.0
doppler_bin: 8
bearing: -35.6314048767
intensity: 27.0243053436
---
header: 
  seq: 1332404
  stamp: 
    secs: 1561683370
    nsecs: 283819140
  frame_id: "ti_mmwave"
point_id: 0
x: 0.01171875
y: -0.0390625
z: -0.0078125
range: 0.0435769706964
velocity: 0.0
doppler_bin: 8
bearing: -73.3007583618
intensity: 30.7481651306
---
header: 
  seq: 1332405
  stamp: 
    secs: 1561683370
    nsecs: 283898779
  frame_id: "ti_mmwave"
point_id: 1
x: 0.017578125
y: -0.080078125
z: -0.0078125
range: 0.0871539413929
velocity: 0.0
doppler_bin: 8
bearing: -77.6192398071
intensity: 31.9783172607
---
header: 
  seq: 1332406
  stamp: 
    secs: 1561683370
    nsecs: 283916298
  frame_id: "ti_mmwave"
point_id: 2
x: 0.041015625
y: -0.115234375
z: -0.0078125
range: 0.130730912089
velocity: 0.0
doppler_bin: 8
bearing: -70.4077224731
intensity: 30.2242832184
---
header: 
  seq: 1332407
  stamp: 
    secs: 1561683370
    nsecs: 283932081
  frame_id: "ti_mmwave"
point_id: 3
x: 0.056640625
y: -0.154296875
z: 0.005859375
range: 0.174307882786
velocity: 0.0
doppler_bin: 8
bearing: -69.8423843384
intensity: 25.490032196
---
header: 
  seq: 1332408
  stamp: 
    secs: 1561683370
    nsecs: 283946272
  frame_id: "ti_mmwave"
point_id: 4
x: 1.392578125
y: 0.1796875
z: 0.275390625
range: 1.52519392967
velocity: 0.0
doppler_bin: 8
bearing: 7.35237932205
intensity: 27.7597427368
---
header: 
  seq: 1332409
  stamp: 
    secs: 1561683370
    nsecs: 283961222
  frame_id: "ti_mmwave"
point_id: 5
x: 2.55078125
y: -0.263671875
z: 1.177734375
range: 3.00681090355
velocity: 0.0
doppler_bin: 8
bearing: -5.90165042877
intensity: 29.5036487579
---
header: 
  seq: 1332410
  stamp: 
    secs: 1561683370
    nsecs: 283975134
  frame_id: "ti_mmwave"
point_id: 6
x: 2.60546875
y: -0.267578125
z: 1.15625
range: 3.05038785934
velocity: 0.0
doppler_bin: 8
bearing: -5.86364221573
intensity: 32.884727478
---
header: 
  seq: 1332411
  stamp: 
    secs: 1561683370
    nsecs: 284057193
  frame_id: "ti_mmwave"
point_id: 7
x: 2.669921875
y: -0.181640625
z: 1.12890625
range: 3.09396481514
velocity: 0.0
doppler_bin: 8
bearing: -3.89196038246
intensity: 32.1932258606
---
header: 
  seq: 1332412
  stamp: 
    secs: 1561683370
    nsecs: 284075634
  frame_id: "ti_mmwave"
point_id: 8
x: 4.416015625
y: -0.287109375
z: 1.185546875
range: 4.88062095642
velocity: 0.0
doppler_bin: 8
bearing: -3.71987724304
intensity: 31.2936763763
---
header: 
  seq: 1332413
  stamp: 
    secs: 1561683370
    nsecs: 284087610
  frame_id: "ti_mmwave"
point_id: 9
x: 4.490234375
y: -0.2890625
z: 1.060546875
range: 4.9241976738
velocity: 0.0
doppler_bin: 8
bearing: -3.68338012695
intensity: 31.1159858704
---
header: 
  seq: 1332414
  stamp: 
    secs: 1561683370
    nsecs: 284102723
  frame_id: "ti_mmwave"
point_id: 10
x: 4.73828125
y: -0.44921875
z: -0.505859375
range: 5.09850549698
velocity: 0.0
doppler_bin: 8
bearing: -5.4158115387
intensity: 33.390537262
---
header: 
  seq: 1332415
  stamp: 
    secs: 1561683370
    nsecs: 284113798
  frame_id: "ti_mmwave"
point_id: 11
x: 4.787109375
y: -0.453125
z: -0.412109375
range: 5.14208269119
velocity: 0.0
doppler_bin: 8
bearing: -5.40723514557
intensity: 33.9322395325
---
header: 
  seq: 1332416
  stamp: 
    secs: 1561683370
    nsecs: 284124632
  frame_id: "ti_mmwave"
point_id: 12
x: 4.85546875
y: -0.3046875
z: -0.14453125
range: 5.18565940857
velocity: 0.0
doppler_bin: 8
bearing: -3.59068250656
intensity: 31.0482845306
---
header: 
  seq: 1332417
  stamp: 
    secs: 1561683370
    nsecs: 284136359
  frame_id: "ti_mmwave"
point_id: 13
x: 4.876953125
y: -0.306640625
z: 0.466796875
range: 5.22923660278
velocity: 0.0
doppler_bin: 8
bearing: -3.59776210785
intensity: 30.5269393921
---
header: 
  seq: 1332418
  stamp: 
    secs: 1561683370
    nsecs: 284146730
  frame_id: "ti_mmwave"
point_id: 14
x: 4.89453125
y: -0.30859375
z: 0.673828125
range: 5.27281332016
velocity: 0.0
doppler_bin: 8
bearing: -3.60764837265
intensity: 30.8170719147
---
header: 
  seq: 1332419
  stamp: 
    secs: 1561683370
    nsecs: 284157586
  frame_id: "ti_mmwave"
point_id: 15
x: 1.123046875
y: -0.03515625
z: -0.224609375
range: 1.22015523911
velocity: -0.614668667316
doppler_bin: 7
bearing: -1.79302155972
intensity: 20.1703338623
---
header: 
  seq: 1332420
  stamp: 
    secs: 1561683370
    nsecs: 284169789
  frame_id: "ti_mmwave"
point_id: 16
x: 1.146484375
y: -0.037109375
z: -0.30078125
range: 1.2637321949
velocity: -0.614668667316
doppler_bin: 7
bearing: -1.85390114784
intensity: 24.683473587
---
header: 
  seq: 1332421
  stamp: 
    secs: 1561683370
    nsecs: 284182340
  frame_id: "ti_mmwave"
point_id: 17
x: 1.1953125
y: -0.0390625
z: -0.27734375
range: 1.3073091507
velocity: -0.614668667316
doppler_bin: 7
bearing: -1.87174499035
intensity: 25.7749176025
---
header: 
  seq: 1332422
  stamp: 
    secs: 1561683370
    nsecs: 284194257
  frame_id: "ti_mmwave"
point_id: 18
x: 1.265625
y: -0.0
z: -0.0859375
range: 1.35088610649
velocity: -0.614668667316
doppler_bin: 7
bearing: -0.0
intensity: 26.0422611237
---
header: 
  seq: 1332423
  stamp: 
    secs: 1561683370
    nsecs: 284208265
  frame_id: "ti_mmwave"
point_id: 19
x: 1.30078125
y: -0.0
z: -0.14453125
range: 1.39446306229
velocity: -0.614668667316
doppler_bin: 7
bearing: -0.0
intensity: 25.3019962311
---
header: 
  seq: 1332424
  stamp: 
    secs: 1561683370
    nsecs: 284221678
  frame_id: "ti_mmwave"
point_id: 20
x: 1.310546875
y: -0.04296875
z: -0.31640625
range: 1.43804001808
velocity: -0.614668667316
doppler_bin: 7
bearing: -1.87787723541
intensity: 22.7875366211
---
header: 
  seq: 1332425
  stamp: 
    secs: 1561683370
    nsecs: 284231859
  frame_id: "ti_mmwave"
point_id: 21
x: 1.373046875
y: 0.130859375
z: 0.1796875
range: 1.48161697388
velocity: -0.614668667316
doppler_bin: 7
bearing: 5.4441781044
intensity: 28.2477645874
---
header: 
  seq: 1332426
  stamp: 
    secs: 1561683370
    nsecs: 284255549
  frame_id: "ti_mmwave"
point_id: 22
x: 1.40234375
y: 0.1796875
z: 0.232421875
range: 1.52519392967
velocity: -0.614668667316
doppler_bin: 7
bearing: 7.3017334938
intensity: 27.8532981873
---
header: 
  seq: 1332427
  stamp: 
    secs: 1561683370
    nsecs: 284281252
  frame_id: "ti_mmwave"
point_id: 24
x: 0.041015625
y: -0.033203125
z: 0.0625
range: 0.0871539413929
velocity: 0.0
doppler_bin: 8
bearing: -38.9909973145
intensity: 30.141002655
---
header: 
  seq: 1332428
  stamp: 
    secs: 1561683370
    nsecs: 284355776
  frame_id: "ti_mmwave"
point_id: 25
x: 0.044921875
y: -0.046875
z: 0.103515625
range: 0.130730912089
velocity: 0.0
doppler_bin: 8
bearing: -46.218875885
intensity: 29.0308990479
---
header: 
  seq: 1332429
  stamp: 
    secs: 1561683370
    nsecs: 284381694
  frame_id: "ti_mmwave"
point_id: 27
x: 1.30078125
y: 0.2109375
z: 0.29296875
range: 1.43804001808
velocity: -0.614668667316
doppler_bin: 7
bearing: 9.21102619171
intensity: 22.4054927826
---
header: 
  seq: 1332430
  stamp: 
    secs: 1561683370
    nsecs: 285403252
  frame_id: "ti_mmwave"
point_id: 0
x: 0.01171875
y: -0.0390625
z: -0.0078125
range: 0.0435769706964
velocity: 0.0
doppler_bin: 8
bearing: -73.3007583618
intensity: 30.7518177032
---
header: 
  seq: 1332431
  stamp: 
    secs: 1561683370
    nsecs: 285439772
  frame_id: "ti_mmwave"
point_id: 1
x: 0.017578125
y: -0.080078125
z: -0.0078125
range: 0.0871539413929
velocity: 0.0
doppler_bin: 8
bearing: -77.6192398071
intensity: 31.9783172607
---
header: 
  seq: 1332432
  stamp: 
    secs: 1561683370
    nsecs: 285454123
  frame_id: "ti_mmwave"
point_id: 2
x: 0.029296875
y: -0.119140625
z: -0.005859375
range: 0.130730912089
velocity: 0.0
doppler_bin: 8
bearing: -76.1849746704
intensity: 30.2284069061
---
header: 
  seq: 1332433
  stamp: 
    secs: 1561683370
    nsecs: 285470351
  frame_id: "ti_mmwave"
point_id: 3
x: 0.056640625
y: -0.154296875
z: 0.005859375
range: 0.174307882786
velocity: 0.0
doppler_bin: 8
bearing: -69.8423843384
intensity: 25.5022830963
---
header: 
  seq: 1332434
  stamp: 
    secs: 1561683370
    nsecs: 285514473
  frame_id: "ti_mmwave"
point_id: 4
x: 1.267578125
y: 0.24609375
z: -0.2109375
range: 1.39446306229
velocity: 0.0
doppler_bin: 8
bearing: 10.9869995117
intensity: 21.7026176453
---
header: 
  seq: 1332435
  stamp: 
    secs: 1561683370
    nsecs: 285526736
  frame_id: "ti_mmwave"
point_id: 5
x: 1.3046875
y: 0.173828125
z: 0.451171875
range: 1.48161697388
velocity: 0.0
doppler_bin: 8
bearing: 7.5890250206
intensity: 27.1516742706
---
header: 
  seq: 1332436
  stamp: 
    secs: 1561683370
    nsecs: 285537789
  frame_id: "ti_mmwave"
point_id: 6
x: 2.556640625
y: -0.263671875
z: 1.16796875
range: 3.00681090355
velocity: 0.0
doppler_bin: 8
bearing: -5.88822031021
intensity: 29.4546852112
---
header: 
  seq: 1332437
  stamp: 
    secs: 1561683370
    nsecs: 285548981
  frame_id: "ti_mmwave"
point_id: 7
x: 2.607421875
y: -0.267578125
z: 1.154296875
range: 3.05038785934
velocity: 0.0
doppler_bin: 8
bearing: -5.85928010941
intensity: 32.7989501953
---
header: 
  seq: 1332438
  stamp: 
    secs: 1561683370
    nsecs: 285564326
  frame_id: "ti_mmwave"
point_id: 8
x: 2.6640625
y: -0.271484375
z: 1.125
range: 3.09396481514
velocity: 0.0
doppler_bin: 8
bearing: -5.81870603561
intensity: 32.0357666016
---
header: 
  seq: 1332439
  stamp: 
    secs: 1561683370
    nsecs: 285579210
  frame_id: "ti_mmwave"
point_id: 9
x: 4.40234375
y: -0.287109375
z: 1.236328125
range: 4.88062095642
velocity: 0.0
doppler_bin: 8
bearing: -3.73139691353
intensity: 30.9447116852
---
header: 
  seq: 1332440
  stamp: 
    secs: 1561683370
    nsecs: 285598711
  frame_id: "ti_mmwave"
point_id: 10
x: 4.474609375
y: -0.2890625
z: 1.12109375
range: 4.9241976738
velocity: 0.0
doppler_bin: 8
bearing: -3.69620633125
intensity: 30.8314418793
---
header: 
  seq: 1332441
  stamp: 
    secs: 1561683370
    nsecs: 285616951
  frame_id: "ti_mmwave"
point_id: 11
x: 4.740234375
y: -0.44921875
z: -0.4921875
range: 5.09850549698
velocity: 0.0
doppler_bin: 8
bearing: -5.41359329224
intensity: 33.3203430176
---
header: 
  seq: 1332442
  stamp: 
    secs: 1561683370
    nsecs: 285669492
  frame_id: "ti_mmwave"
point_id: 12
x: 4.791015625
y: -0.453125
z: -0.384765625
range: 5.14208269119
velocity: 0.0
doppler_bin: 8
bearing: -5.40285253525
intensity: 33.8129577637
---
header: 
  seq: 1332443
  stamp: 
    secs: 1561683370
    nsecs: 285685264
  frame_id: "ti_mmwave"
point_id: 13
x: 4.857421875
y: -0.3046875
z: -0.0703125
range: 5.18565940857
velocity: 0.0
