header: 
  seq: 1348116
  stamp: 
    secs: 1561683392
    nsecs: 723501232
  frame_id: "ti_mmwave"
point_id: 0
x: 0.01171875
y: -0.0390625
z: -0.0078125
range: 0.0435769706964
velocity: 0.0
doppler_bin: 8
bearing: -73.3007583618
intensity: 30.7518177032
---
header: 
  seq: 1348117
  stamp: 
    secs: 1561683392
    nsecs: 723580923
  frame_id: "ti_mmwave"
point_id: 1
x: 0.017578125
y: -0.080078125
z: -0.0078125
range: 0.0871539413929
velocity: 0.0
doppler_bin: 8
bearing: -77.6192398071
intensity: 31.9810695648
---
header: 
  seq: 1348118
  stamp: 
    secs: 1561683392
    nsecs: 723600129
  frame_id: "ti_mmwave"
point_id: 2
x: 0.041015625
y: -0.115234375
z: -0.0078125
range: 0.130730912089
velocity: 0.0
doppler_bin: 8
bearing: -70.4077224731
intensity: 30.2284069061
---
header: 
  seq: 1348119
  stamp: 
    secs: 1561683392
    nsecs: 723614797
  frame_id: "ti_mmwave"
point_id: 3
x: 0.056640625
y: -0.154296875
z: 0.005859375
range: 0.174307882786
velocity: 0.0
doppler_bin: 8
bearing: -69.8423843384
intensity: 25.5022830963
---
header: 
  seq: 1348120
  stamp: 
    secs: 1561683392
    nsecs: 723628168
  frame_id: "ti_mmwave"
point_id: 4
x: 0.369140625
y: -0.080078125
z: -1.2109375
range: 1.35088610649
velocity: 0.0
doppler_bin: 8
bearing: -12.2396001816
intensity: 21.9033164978
---
header: 
  seq: 1348121
  stamp: 
    secs: 1561683392
    nsecs: 723641676
  frame_id: "ti_mmwave"
point_id: 5
x: 0.3203125
y: -0.041015625
z: 1.267578125
range: 1.39446306229
velocity: 0.0
doppler_bin: 8
bearing: -7.29694652557
intensity: 23.2221927643
---
header: 
  seq: 1348122
  stamp: 
    secs: 1561683392
    nsecs: 723673695
  frame_id: "ti_mmwave"
point_id: 6
x: 0.5078125
y: -0.04296875
z: 1.25
range: 1.43804001808
velocity: 0.0
doppler_bin: 8
bearing: -4.83658361435
intensity: 21.875207901
---
header: 
  seq: 1348123
  stamp: 
    secs: 1561683392
    nsecs: 723731055
  frame_id: "ti_mmwave"
point_id: 7
x: 2.544921875
y: -0.263671875
z: 1.189453125
range: 3.00681090355
velocity: 0.0
doppler_bin: 8
bearing: -5.91514253616
intensity: 29.484128952
---
header: 
  seq: 1348124
  stamp: 
    secs: 1561683392
    nsecs: 723807385
  frame_id: "ti_mmwave"
point_id: 8
x: 2.603515625
y: -0.267578125
z: 1.1640625
range: 3.05038785934
velocity: 0.0
doppler_bin: 8
bearing: -5.8680100441
intensity: 32.7989501953
---
header: 
  seq: 1348125
  stamp: 
    secs: 1561683392
    nsecs: 723824217
  frame_id: "ti_mmwave"
point_id: 9
x: 2.658203125
y: -0.271484375
z: 1.13671875
range: 3.09396481514
velocity: 0.0
doppler_bin: 8
bearing: -5.83144378662
intensity: 32.0030326843
---
header: 
  seq: 1348126
  stamp: 
    secs: 1561683392
    nsecs: 723839225
  frame_id: "ti_mmwave"
point_id: 10
x: 4.423828125
y: -0.287109375
z: 1.154296875
range: 4.88062095642
velocity: 0.0
doppler_bin: 8
bearing: -3.71332621574
intensity: 30.8990516663
---
header: 
  seq: 1348127
  stamp: 
    secs: 1561683392
    nsecs: 723853933
  frame_id: "ti_mmwave"
point_id: 11
x: 4.45703125
y: -0.43359375
z: 1.1484375
range: 4.9241976738
velocity: 0.0
doppler_bin: 8
bearing: -5.55642557144
intensity: 30.6182937622
---
header: 
  seq: 1348128
  stamp: 
    secs: 1561683392
    nsecs: 723867737
  frame_id: "ti_mmwave"
point_id: 12
x: 4.7421875
y: -0.44921875
z: -0.45703125
range: 5.09850549698
velocity: 0.0
doppler_bin: 8
bearing: -5.41137647629
intensity: 33.1175384521
---
header: 
  seq: 1348129
  stamp: 
    secs: 1561683392
    nsecs: 723882135
  frame_id: "ti_mmwave"
point_id: 13
x: 4.791015625
y: -0.453125
z: -0.37109375
range: 5.14208269119
velocity: 0.0
doppler_bin: 8
bearing: -5.40285253525
intensity: 33.6342391968
---
header: 
  seq: 1348130
  stamp: 
    secs: 1561683392
    nsecs: 723896842
  frame_id: "ti_mmwave"
point_id: 14
x: 4.85546875
y: -0.3046875
z: -0.150390625
range: 5.18565940857
velocity: 0.0
doppler_bin: 8
bearing: -3.59068250656
intensity: 30.5956344604
---
header: 
  seq: 1348131
  stamp: 
    secs: 1561683392
    nsecs: 723910725
  frame_id: "ti_mmwave"
point_id: 15
x: 4.87109375
y: -0.306640625
z: 0.52734375
range: 5.22923660278
velocity: 0.0
doppler_bin: 8
bearing: -3.60207819939
intensity: 30.1661548615
---
header: 
  seq: 1348132
  stamp: 
    secs: 1561683392
    nsecs: 723924622
  frame_id: "ti_mmwave"
point_id: 16
x: 4.865234375
y: -0.46484375
z: 0.783203125
range: 5.27281332016
velocity: 0.0
doppler_bin: 8
bearing: -5.45769834518
intensity: 30.9482040405
---
header: 
  seq: 1348133
  stamp: 
    secs: 1561683392
    nsecs: 723938634
  frame_id: "ti_mmwave"
point_id: 17
x: 1.45703125
y: -0.37890625
z: -0.154296875
range: 1.61234796047
velocity: 0.614668667316
doppler_bin: 9
bearing: -14.5770921707
intensity: 28.9153747559
---
header: 
  seq: 1348134
  stamp: 
    secs: 1561683392
    nsecs: 723952668
  frame_id: "ti_mmwave"
point_id: 18
x: 1.509765625
y: -0.33984375
z: -0.14453125
range: 1.65592491627
velocity: 0.614668667316
doppler_bin: 9
bearing: -12.6856746674
intensity: 32.0139694214
---
header: 
  seq: 1348135
  stamp: 
    secs: 1561683392
    nsecs: 723967938
  frame_id: "ti_mmwave"
point_id: 19
x: 1.5546875
y: -0.349609375
z: -0.091796875
range: 1.69950187206
velocity: 0.614668667316
doppler_bin: 9
bearing: -12.673532486
intensity: 31.7289466858
---
header: 
  seq: 1348136
  stamp: 
    secs: 1561683392
    nsecs: 724022327
  frame_id: "ti_mmwave"
point_id: 20
x: 1.60546875
y: -0.306640625
z: 0.091796875
range: 1.74307882786
velocity: 0.614668667316
doppler_bin: 9
bearing: -10.8131217957
intensity: 28.182258606
---
header: 
  seq: 1348137
  stamp: 
    secs: 1561683392
    nsecs: 724039333
  frame_id: "ti_mmwave"
point_id: 21
x: 1.4921875
y: -0.681640625
z: -0.34765625
range: 1.78665578365
velocity: 0.614668667316
doppler_bin: 9
bearing: -24.5512180328
intensity: 26.4048137665
---
header: 
  seq: 1348138
  stamp: 
    secs: 1561683392
    nsecs: 724057054
  frame_id: "ti_mmwave"
point_id: 23
x: 0.041015625
y: -0.033203125
z: 0.0625
range: 0.0871539413929
velocity: 0.0
doppler_bin: 8
bearing: -38.9909973145
intensity: 30.1452045441
---
header: 
  seq: 1348139
  stamp: 
    secs: 1561683392
    nsecs: 724072274
  frame_id: "ti_mmwave"
point_id: 24
x: 0.044921875
y: -0.046875
z: 0.103515625
range: 0.130730912089
velocity: 0.0
doppler_bin: 8
bearing: -46.218875885
intensity: 29.0308990479
---
header: 
  seq: 1348140
  stamp: 
    secs: 1561683392
    nsecs: 724089933
  frame_id: "ti_mmwave"
point_id: 26
x: 1.2109375
y: 0.357421875
z: 0.123046875
range: 1.35088610649
velocity: 0.0
doppler_bin: 8
bearing: 16.4445590973
intensity: 19.0308990479
---
header: 
  seq: 1348141
  stamp: 
    secs: 1561683392
    nsecs: 724104617
  frame_id: "ti_mmwave"
point_id: 27
x: 2.75
y: -2.021484375
z: -3.1171875
range: 4.9241976738
velocity: 0.0
doppler_bin: 8
bearing: -36.3190612793
intensity: 27.6641292572
---
header: 
  seq: 1348142
  stamp: 
    secs: 1561683392
    nsecs: 724118539
  frame_id: "ti_mmwave"
point_id: 28
x: 1.279296875
y: -0.767578125
z: -0.673828125
range: 1.74307882786
velocity: 0.614668667316
doppler_bin: 9
bearing: -30.9637584686
intensity: 27.4115161896
---
header: 
  seq: 1348143
  stamp: 
    secs: 1561683392
    nsecs: 725915660
  frame_id: "ti_mmwave"
point_id: 0
x: 0.01171875
y: -0.0390625
z: -0.0078125
range: 0.0435769706964
velocity: 0.0
doppler_bin: 8
bearing: -73.3007583618
intensity: 30.7554702759
---
header: 
  seq: 1348144
  stamp: 
    secs: 1561683392
    nsecs: 725957583
  frame_id: "ti_mmwave"
point_id: 1
x: 0.017578125
y: -0.080078125
z: -0.0078125
range: 0.0871539413929
velocity: 0.0
doppler_bin: 8
bearing: -77.6192398071
intensity: 31.9810695648
---
header: 
  seq: 1348145
  stamp: 
    secs: 1561683392
    nsecs: 725967867
  frame_id: "ti_mmwave"
point_id: 2
x: 0.041015625
y: -0.115234375
z: -0.0078125
range: 0.130730912089
velocity: 0.0
doppler_bin: 8
bearing: -70.4077224731
intensity: 30.2284069061
---
header: 
  seq: 1348146
  stamp: 
    secs: 1561683392
    nsecs: 725976201
  frame_id: "ti_mmwave"
point_id: 3
x: 0.056640625
y: -0.154296875
z: 0.005859375
range: 0.174307882786
velocity: 0.0
doppler_bin: 8
bearing: -69.8423843384
intensity: 25.5144996643
---
header: 
  seq: 1348147
  stamp: 
    secs: 1561683392
    nsecs: 725984521
  frame_id: "ti_mmwave"
point_id: 4
x: 0.337890625
y: -0.080078125
z: -1.220703125
range: 1.35088610649
velocity: 0.0
doppler_bin: 8
bearing: -13.332783699
intensity: 21.9589958191
---
header: 
  seq: 1348148
  stamp: 
    secs: 1561683392
    nsecs: 725992754
  frame_id: "ti_mmwave"
point_id: 5
x: 0.326171875
y: -0.041015625
z: 1.267578125
range: 1.39446306229
velocity: 0.0
doppler_bin: 8
bearing: -7.16723871231
intensity: 23.2428245544
---
header: 
  seq: 1348149
  stamp: 
    secs: 1561683392
    nsecs: 726000905
  frame_id: "ti_mmwave"
point_id: 6
x: 0.484375
y: -0.04296875
z: 1.259765625
range: 1.43804001808
velocity: 0.0
doppler_bin: 8
bearing: -5.06942033768
intensity: 21.9033164978
---
header: 
  seq: 1348150
  stamp: 
    secs: 1561683392
    nsecs: 726008922
  frame_id: "ti_mmwave"
point_id: 7
x: 2.55078125
y: -0.263671875
z: 1.1796875
range: 3.00681090355
velocity: 0.0
doppler_bin: 8
bearing: -5.90165042877
intensity: 29.4596061707
---
header: 
  seq: 1348151
  stamp: 
    secs: 1561683392
    nsecs: 726018327
  frame_id: "ti_mmwave"
point_id: 8
x: 2.6015625
y: -0.267578125
z: 1.166015625
range: 3.05038785934
velocity: 0.0
doppler_bin: 8
bearing: -5.87238502502
intensity: 32.7966690063
---
header: 
  seq: 1348152
  stamp: 
    secs: 1561683392
    nsecs: 726029153
  frame_id: "ti_mmwave"
point_id: 9
x: 2.658203125
y: -0.271484375
z: 1.138671875
range: 3.09396481514
velocity: 0.0
doppler_bin: 8
bearing: -5.83144378662
intensity: 32.0085067749
---
header: 
  seq: 1348153
  stamp: 
    secs: 1561683392
    nsecs: 726036850
  frame_id: "ti_mmwave"
point_id: 10
x: 4.427734375
y: -0.287109375
z: 1.138671875
range: 4.88062095642
velocity: 0.0
doppler_bin: 8
bearing: -3.71005964279
intensity: 30.8778133392
---
header: 
  seq: 1348154
  stamp: 
    secs: 1561683392
    nsecs: 726044626
  frame_id: "ti_mmwave"
point_id: 11
x: 4.482421875
y: -0.2890625
z: 1.091796875
range: 4.9241976738
velocity: 0.0
doppler_bin: 8
bearing: -3.6897816658
intensity: 30.6182937622
---
header: 
  seq: 1348155
  stamp: 
    secs: 1561683392
    nsecs: 726052702
  frame_id: "ti_mmwave"
point_id: 12
x: 4.6953125
y: -0.4453125
z: -0.51953125
range: 5.0549287796
velocity: 0.0
doppler_bin: 8
bearing: -5.41783666611
intensity: 29.247959137
---
header: 
  seq: 1348156
  stamp: 
    secs: 1561683392
    nsecs: 726060586
  frame_id: "ti_mmwave"
point_id: 13
x: 4.744140625
y: -0.44921875
z: -0.447265625
range: 5.09850549698
velocity: 0.0
doppler_bin: 8
bearing: -5.40916252136
intensity: 33.1133003235
---
header: 
  seq: 1348157
  stamp: 
    secs: 1561683392
    nsecs: 726068460
  frame_id: "ti_mmwave"
point_id: 14
x: 4.791015625
y: -0.453125
z: -0.365234375
range: 5.14208269119
velocity: 0.0
doppler_bin: 8
bearing: -5.40285253525
intensity: 33.6455116272
---
header: 
  seq: 1348158
  stamp: 
    secs: 1561683392
    nsecs: 726076451
  frame_id: "ti_mmwave"
point_id: 15
x: 4.857421875
y: -0.3046875
z: -0.134765625
range: 5.18565940857
velocity: 0.0
doppler_bin: 8
bearing: -3.58924269676
intensity: 30.6595306396
---
header: 
  seq: 1348159
  stamp: 
    secs: 1561683392
    nsecs: 726084855
  frame_id: "ti_mmwave"
point_id: 16
x: 4.865234375
y: -0.306640625
z: 0.572265625
range: 5.22923660278
velocity: 0.0
doppler_bin: 8
bearing: -3.60640478134
intensity: 30.1325874329
---
header: 
  seq: 1348160
  stamp: 
    secs: 1561683392
    nsecs: 726094196
  frame_id: "ti_mmwave"
point_id: 17
x: 4.8828125
y: -0.30859375
z: 0.74609375
range: 5.27281332016
velocity: 0.0
doppler_bin: 8
bearing: -3.61628341675
intensity: 30.8813610077
---
header: 
  seq: 1348161
  stamp: 
    secs: 1561683392
    nsecs: 726210237
  frame_id: "ti_mmwave"
point_id: 18
x: 1.46484375
y: -0.37890625
z: 0.0
range: 1.61234796047
velocity: 0.614668667316
doppler_bin: 9
bearing: -14.5026359558
intensity: 28.9542255402
---
header: 
  seq: 1348162
  stamp: 
    secs: 1561683392
    nsecs: 726222100
  frame_id: "ti_mmwave"
point_id: 19
x: 1.50390625
y: -0.388671875
z: -0.044921875
range: 1.65592491627
velocity: 0.614668667316
doppler_bin: 9
bearing: -14.4905471802
intensity: 34.0551719666
---
header: 
  seq: 1348163
  stamp: 
    secs: 1561683392
    nsecs: 726229653
  frame_id: "ti_mmwave"
point_id: 20
x: 1.54296875
y: -0.3984375
z: -0.083984375
range: 1.69950187206
velocity: 0.614668667316
doppler_bin: 9
bearing: -14.4790687561
intensity: 35.228351593
---
header: 
  seq: 1348164
  stamp: 
    secs: 1561683392
    nsecs: 726237142
  frame_id: "ti_mmwave"
point_id: 21
x: 1.576171875
y: -0.408203125
z: -0.158203125
range: 1.74307882786
velocity: 0.614668667316
doppler_bin: 9
bearing: -14.5196695328
intensity: 32.926990509
---
header: 
  seq: 1348165
  stamp: 
    secs: 1561683392
    nsecs: 726246439
  frame_id: "ti_mmwave"
point_id: 22
x: 1.533203125
y: -0.681640625
z: -0.017578125
range: 1.78665578365
velocity: 0.614668667316
doppler_bin: 9
bearing: -23.9692592621
intensity: 28.2865982056
---
header: 
  seq: 1348166
  stamp: 
    secs: 1561683392
    nsecs: 726254809
  frame_id: "ti_mmwave"
point_id: 23
x: 1.591796875
y: -0.64453125
z: -0.025390625
range: 1.83023273945
velocity: 0.614668667316
doppler_bin: 9
bearing: -22.0434169769
intensity: 26.4246444702
---
header: 
  seq: 1348167
  stamp: 
    secs: 1561683392
    nsecs: 726264149
  frame_id: "ti_mmwave"
point_id: 25
x: 0.041015625
y: -0.033203125
z: 0.0625
range: 0.0871539413929
velocity: 0.0
doppler_bin: 8
bearing: -38.9909973145
intensity: 30.1452045441
---
header: 
  seq: 1348168
  stamp: 
    secs: 1561683392
    nsecs: 726271617
  frame_id: "ti_mmwave"
point_id: 26
x: 0.044921875
y: -0.046875
z: 0.103515625
range: 0.130730912089
velocity: 0.0
doppler_bin: 8
bearing: -46.218875885
intensity: 29.0308990479
---
header: 
  seq: 1348169
  stamp: 
    secs: 1561683392
    nsecs: 726280996
  frame_id: "ti_mmwave"
point_id: 28
x: 1.212890625
y: 0.357421875
z: 0.1015625
range: 1.35088610649
velocity: 0.0
doppler_bin: 8
bearing: 16.419506073
intensity: 19.0308990479
---
header: 
  seq: 1348170
  stamp: 
    secs: 1561683392
    nsecs: 726289607
  frame_id: "ti_mmwave"
point_id: 29
x: 2.62109375
y: -2.021484375
z: -3.2265625
range: 4.9241976738
velocity: 0.0
doppler_bin: 8
bearing: -37.6407356262
intensity: 27.6417617798
---
header: 
  seq: 1348171
  stamp: 
    secs: 1561683392
    nsecs: 783814378
  frame_id: "ti_mmwave"
point_id: 0
x: 0.01171875
y: -0.0390625
z: -0.0078125
range: 0.0435769706964
velocity: 0.0
doppler_bin: 8
bearing: -73.3007583618
intensity: 30.7481651306
---
header: 
  seq: 1348172
  stamp: 
    secs: 1561683392
    nsecs: 783965302
  frame_id: "ti_mmwave"
point_id: 1
x: 0.017578125
y: -0.080078125
z: -0.0078125
range: 0.0871539413929
velocity: 0.0
doppler_bin: 8
bearing: -77.6192398071
intensity: 31.9810695648
---
header: 
  seq: 1348173
  stamp: 
    secs: 1561683392
    nsecs: 783986795
  frame_id: "ti_mmwave"
point_id: 2
x: 0.029296875
y: -0.119140625
z: -0.00390625
range: 0.130730912089
velocity: 0.0
doppler_bin: 8
bearing: -76.1849746704
intensity: 30.2284069061
---
header: 
  seq: 1348174
  stamp: 
    secs: 1561683392
    nsecs: 784006111
  frame_id: "ti_mmwave"
point_id: 3
x: 0.056640625
y: -0.154296875
z: 0.005859375
range: 0.174307882786
velocity: 0.0
doppler_bin: 8
bearing: -69.8423843384
intensity: 25.5022830963
---
header: 
  seq: 1348175
  stamp: 
    secs: 1561683392
    nsecs: 784021455
  frame_id: "ti_mmwave"
point_id: 4
x: 0.349609375
y: -0.080078125
z: -1.216796875
range: 1.35088610649
velocity: 0.0
doppler_bin: 8
bearing: -12.9010734558
intensity: 21.9589958191
---
header: 
  seq: 1348176
  stamp: 
    secs: 1561683392
    nsecs: 784056681
  frame_id: "ti_mmwave"
point_id: 5
x: 0.302734375
y: -0.041015625
z: 1.2734375
range: 1.39446306229
velocity: 0.0
doppler_bin: 8
bearing: -7.71567344666
intensity: 23.3041381836
---
header: 
  seq: 1348177
  stamp: 
    secs: 1561683392
    nsecs: 784075278
  frame_id: "ti_mmwave"
point_id: 6
x: 0.478515625
y: -0.04296875
z: 1.26171875
range: 1.43804001808
velocity: 0.0
doppler_bin: 8
bearing: -5.13116502762
intensity: 21.9865703583
---
header: 
  seq: 1348178
  stamp: 
    secs: 1561683392
    nsecs: 784169972
  frame_id: "ti_mmwave"
point_id: 7
x: 2.546875
y: -0.263671875
z: 1.1875
range: 3.00681090355
velocity: 0.0
doppler_bin: 8
bearing: -5.91063833237
intensity: 29.4497585297
---
header: 
  seq: 1348179
  stamp: 
    secs: 1561683392
    nsecs: 784187398
  frame_id: "ti_mmwave"
point_id: 8
x: 2.603515625
y: -0.267578125
z: 1.16015625
range: 3.05038785934
velocity: 0.0
doppler_bin: 8
bearing: -5.8680100441
intensity: 32.7898216248
---
header: 
  seq: 1348180
  stamp: 
    secs: 1561683392
    nsecs: 784201330
  frame_id: "ti_mmwave"
point_id: 9
x: 2.66015625
y: -0.271484375
z: 1.134765625
range: 3.09396481514
velocity: 0.0
doppler_bin: 8
bearing: -5.82719182968
intensity: 31.994808197
---
header: 
  seq: 1348181
  stamp: 
    secs: 1561683392
    nsecs: 784214373
  frame_id: "ti_mmwave"
point_id: 10
x: 4.4296875
y: -0.287109375
z: 1.130859375
range: 4.88062095642
velocity: 0.0
doppler_bin: 8
bearing: -3.70842814445
intensity: 30.8350257874
---
header: 
  seq: 1348182
  stamp: 
    secs: 1561683392
    nsecs: 784284950
  frame_id: "ti_mmwave"
point_id: 11
x: 4.482421875
y: -0.2890625
z: 1.09375
range: 4.9241976738
velocity: 0.0
doppler_bin: 8
bearing: -3.6897816658
intensity: 30.5690479279
---
header: 
  seq: 1348183
  stamp: 
    secs: 1561683392
    nsecs: 784305015
  frame_id: "ti_mmwave"
point_id: 12
x: 4.693359375
y: -0.4453125
z: -0.541015625
range: 5.0549287796
velocity: 0.0
doppler_bin: 8
bearing: -5.42007780075
intensity: 29.2582759857
---
header: 
  seq: 1348184
  stamp: 
    secs: 1561683392
    nsecs: 784326528
  frame_id: "ti_mmwave"
point_id: 13
x: 4.744140625
y: -0.44921875
z: -0.4375
range: 5.09850549698
velocity: 0.0
doppler_bin: 8
bearing: -5.40916252136
intensity: 33.0319595337
---
header: 
  seq: 1348185
  stamp: 
    secs: 1561683392
    nsecs: 784392689
  frame_id: "ti_mmwave"
point_id: 14
x: 4.79296875
y: -0.453125
z: -0.3515625
range: 5.14208269119
velocity: 0.0
doppler_bin: 8
bearing: -5.40066432953
intensity: 33.5198936462
---
header: 
  seq: 1348186
  stamp: 
    secs: 1561683392
    nsecs: 784406409
  frame_id: "ti_mmwave"
point_id: 15
x: 4.857421875
y: -0.3046875
z: -0.126953125
range: 5.18565940857
velocity: 0.0
doppler_bin: 8
bearing: -3.58924269676
intensity: 30.5269393921
---
header: 
  seq: 1348187
  stamp: 
    secs: 1561683392
    nsecs: 784419652
  frame_id: "ti_mmwave"
point_id: 16
x: 4.8671875
y: -0.306640625
z: 0.564453125
range: 5.22923660278
velocity: 0.0
doppler_bin: 8
bearing: -3.60496139526
intensity: 30.0860023499
---
header: 
  seq: 1348188
  stamp: 
    secs: 1561683392
    nsecs: 784432093
  frame_id: "ti_mmwave"
point_id: 17
x: 4.85546875
y: -0.46484375
z: 0.845703125
range: 5.27281332016
velocity: 0.0
doppler_bin: 8
bearing: -5.46860933304
intensity: 30.8564720154
---
header: 
  seq: 1348189
  stamp: 
    secs: 1561683392
    nsecs: 784444477
  frame_id: "ti_mmwave"
point_id: 18
x: 1.4609375
y: -0.388671875
z: -0.365234375
range: 1.65592491627
velocity: 0.614668667316
doppler_bin: 9
bearing: -14.8980398178
intensity: 27.5358314514
---
header: 
  seq: 1348190
  stamp: 
    secs: 1561683392
    nsecs: 784459053
  frame_id: "ti_mmwave"
point_id: 19
x: 1.509765625
y: -0.44921875
z: -0.255859375
range: 1.69950187206
velocity: 0.614668667316
doppler_bin: 9
bearing: -16.5699539185
intensity: 30.2734966278
---
header: 
  seq: 1348191
  stamp: 
    secs: 1561683392
    nsecs: 784472294
  frame_id: "ti_mmwave"
point_id: 20
x: 1.5703125
y: -0.408203125
z: -0.21484375
range: 1.74307882786
velocity: 0.614668667316
doppler_bin: 9
bearing: -14.5715456009
intensity: 29.4645233154
---
header: 
  seq: 1348192
  stamp: 
    secs: 1561683392
    nsecs: 784485448
  frame_id: "ti_mmwave"
point_id: 21
x: 1.474609375
y: -0.787109375
z: 0.13671875
range: 1.78665578365
velocity: 0.614668667316
doppler_bin: 9
bearing: -28.0921783447
intensity: 27.3957233429
---
header: 
  seq: 1348193
  stamp: 
    secs: 1561683392
    nsecs: 784664446
  frame_id: "ti_mmwave"
point_id: 22
x: 1.5703125
y: -0.697265625
z: -0.01171875
range: 1.83023273945
velocity: 0.614668667316
doppler_bin: 9
bearing: -23.9426498413
intensity: 27.8746051788
---
header: 
  seq: 1348194
  stamp: 
    secs: 1561683392
    nsecs: 784747832
  frame_id: "ti_mmwave"
point_id: 24
x: 0.041015625
y: -0.033203125
z: 0.0625
range: 0.0871539413929
velocity: 0.0
doppler_bin: 8
bearing: -38.9909973145
intensity: 30.1452045441
---
header: 
  seq: 1348195
  stamp: 
    secs: 1561683392
    nsecs: 784758643
  frame_id: "ti_mmwave"
point_id: 25
x: 0.044921875
y: -0.046875
z: 0.103515625
range: 0.130730912089
velocity: 0.0
doppler_bin: 8
bearing: -46.218875885
intensity: 29.0308990479
---
header: 
  seq: 1348196
  stamp: 
    secs: 1561683392
    nsecs: 784772811
  frame_id: "ti_mmwave"
point_id: 27
x: 1.212890625
y: 0.357421875
z: 0.10546875
range: 1.35088610649
velocity: 0.0
doppler_bin: 8
bearing: 16.419506073
intensity: 19.0308990479
---
header: 
  seq: 1348197
  stamp: 
    secs: 1561683392
    nsecs: 784814306
  frame_id: "ti_mmwave"
point_id: 28
x: 2.62109375
y: -2.021484375
z: -3.224609375
range: 4.9241976738
velocity: 0.0
doppler_bin: 8
bearing: -37.6407356262
intensity: 27.6117572784
---
header: 
  seq: 1348198
  stamp: 
    secs: 1561683392
    nsecs: 784828836
  frame_id: "ti_mmwave"
point_id: 29
x: 1.630859375
y: -0.26171875
z: -0.291015625
range: 1.78665578365
velocity: 0.614668667316
doppler_bin: 9
bearing: -9.11703681946
intensity: 25.15873909
---
header: 
  seq: 1348199
  stamp: 
    secs: 1561683392
    nsecs: 785533280
  frame_id: "ti_mmwave"
point_id: 0
x: 0.01171875
y: -0.0390625
z: -0.0078125
range: 0.0435769706964
velocity: 0.0
doppler_bin: 8
bearing: -73.3007583618
intensity: 30.7518177032
---
header: 
  seq: 1348200
  stamp: 
    secs: 1561683392
    nsecs: 785582939
  frame_id: "ti_mmwave"
point_id: 1
x: 0.017578125
y: -0.080078125
z: -0.0078125
range: 0.0871539413929
velocity: 0.0
doppler_bin: 8
bearing: -77.6192398071
intensity: 31.9810695648
---
header: 
  seq: 1348201
  stamp: 
    secs: 1561683392
    nsecs: 785598560
  frame_id: "ti_mmwave"
point_id: 2
x: 0.029296875
y: -0.119140625
z: -0.005859375
range: 0.130730912089
velocity: 0.0
doppler_bin: 8
bearing: -76.1849746704
intensity: 30.2325248718
---
header: 
  seq: 1348202
  stamp: 
    secs: 1561683392
    nsecs: 785611648
  frame_id: "ti_mmwave"
point_id: 3
x: 0.056640625
y: -0.154296875
z: 0.005859375
range: 0.174307882786
velocity: 0.0
doppler_bin: 8
bearing: -69.8423843384
intensity: 25.5022830963
---
header: 
  seq: 1348203
  stamp: 
    secs: 1561683392
    nsecs: 785667652
  frame_id: "ti_mmwave"
point_id: 4
x: 0.361328125
y: -0.080078125
z: -1.212890625
range: 1.35088610649
velocity: 0.0
doppler_bin: 8
bearing: -12.4960107803
intensity: 21.8469142914
---
header: 
  seq: 1348204
  stamp: 
    secs: 1561683392
    nsecs: 785684508
  frame_id: "ti_mmwave"
point_id: 5
x: 0.26953125
y: -0.041015625
z: 1.28125
range: 1.39446306229
velocity: 0.0
doppler_bin: 8
bearing: -8.65254211426
intensity: 23.1806335449
---
header: 
  seq: 1348205
  stamp: 
    secs: 1561683392
    nsecs: 785697564
  frame_id: "ti_mmwave"
point_id: 6
x: 0.451171875
y: -0.04296875
z: 1.271484375
range: 1.43804001808
velocity: 0.0
doppler_bin: 8
bearing: -5.44033241272
intensity: 21.8469142914
---
header: 
  seq: 1348206
  stamp: 
    secs: 1561683392
    nsecs: 785708562
  frame_id: "ti_mmwave"
point_id: 7
x: 2.5546875
y: -0.263671875
z: 1.171875
range: 3.00681090355
velocity: 0.0
doppler_bin: 8
bearing: -5.89269018173
intensity: 29.4051647186
---
header: 
  seq: 1348207
  stamp: 
    secs: 1561683392
    nsecs: 785720735
  frame_id: "ti_mmwave"
point_id: 8
x: 2.60546875
y: -0.267578125
z: 1.15625
range: 3.05038785934
velocity: 0.0
doppler_bin: 8
bearing: -5.86364221573
intensity: 32.7921066284
---
header: 
  seq: 1348208
  stamp: 
    secs: 1561683392
    nsecs: 785726341
  frame_id: "ti_mmwave"
point_id: 9
x: 2.66015625
y: -0.271484375
z: 1.1328125
range: 3.09396481514
velocity: 0.0
doppler_bin: 8
bearing: -5.82719182968
intensity: 32.0276069641
---
header: 
  seq: 1348209
  stamp: 
    secs: 1561683392
    nsecs: 785742389
  frame_id: "ti_mmwave"
point_id: 10
x: 4.431640625
y: -0.287109375
z: 1.125
range: 4.88062095642
velocity: 0.0
doppler_bin: 8
bearing: -3.70679831505
intensity: 30.9201850891
---
header: 
  seq: 1348210
  stamp: 
    secs: 1561683392
    nsecs: 785756104
  frame_id: "ti_mmwave"
point_id: 11
x: 4.490234375
y: -0.2890625
z: 1.0625
range: 4.9241976738
velocity: 0.0
doppler_bin: 8
bearing: -3.68338012695
intensity: 30.6520614624
---
header: 
  seq: 1348211
  stamp: 
    secs: 1561683392
    nsecs: 785797962
  frame_id: "ti_mmwave"
point_id: 12
x: 4.6953125
y: -0.4453125
z: -0.515625
range: 5.0549287796
velocity: 0.0
doppler_bin: 8
bearing: -5.41783666611
intensity: 29.2427921295
---
header: 
  seq: 1348212
  stamp: 
    secs: 1561683392
    nsecs: 785807314
  frame_id: "ti_mmwave"
point_id: 13
x: 4.74609375
y: -0.44921875
z: -0.42578125
range: 5.09850549698
velocity: 0.0
doppler_bin: 8
bearing: -5.40694952011
intensity: 32.992893219
---
header: 
  seq: 1348213
  stamp: 
    secs: 1561683392
    nsecs: 785816611
  frame_id: "ti_mmwave"
point_id: 14
x: 4.79296875
y: -0.453125
z: -0.33984375
range: 5.14208269119
velocity: 0.0
doppler_bin: 8
bearing: -5.40066432953
intensity: 33.4635314941
---
header: 
  seq: 1348214
  stamp: 
    secs: 1561683392
    nsecs: 785824553
  frame_id: "ti_mmwave"
point_id: 15
x: 4.857421875
y: -0.3046875
z: -0.0703125
range: 5.18565940857
velocity: 0.0
doppler_bin: 8
bearing: -3.58924269676
intensity: 30.4414768219
---
header: 
  seq: 1348215
  stamp: 
    secs: 1561683392
    nsecs: 785834377
  frame_id: "ti_mmwave"
point_id: 16
x: 4.857421875
y: -0.306640625
z: 0.642578125
range: 5.22923660278
velocity: 0.0
doppler_bin: 8
bearing: -3.61219000816
intensity: 30.0987567902
---
header: 
  seq: 1348216
  stamp: 
    secs: 1561683392
    nsecs: 785842598
  frame_id: "ti_mmwave"
point_id: 17
x: 4.84765625
y: -0.46484375
z: 0.890625
range: 5.27281332016
velocity: 0.0
doppler_bin: 8
bearing: -5.47736883163
intensity: 30.8564720154
---
header: 
  seq: 1348217
  stamp: 
    secs: 1561683392
    nsecs: 785851823
  frame_id: "ti_mmwave"
point_id: 18
x: 1.501953125
y: -0.388671875
z: -0.107421875
range: 1.65592491627
velocity: 0.614668667316
doppler_bin: 9
bearing: -14.5085935593
intensity: 29.8721923828
---
header: 
  seq: 1348218
  stamp: 
    secs: 1561683392
    nsecs: 785860289
  frame_id: "ti_mmwave"
point_id: 19
x: 1.525390625
y: -0.44921875
z: -0.134765625
range: 1.69950187206
velocity: 0.614668667316
doppler_bin: 9
bearing: -16.4093971252
intensity: 34.1077728271
---
header: 
  seq: 1348219
  stamp: 
    secs: 1561683392
    nsecs: 785867873
  frame_id: "ti_mmwave"
point_id: 20
x: 1.5625
y: -0.4609375
z: -0.150390625
range: 1.74307882786
velocity: 0.614668667316
doppler_bin: 9
bearing: -16.4360580444
intensity: 35.0514984131
---
header: 
  seq: 1348220
  stamp: 
    secs: 1561683392
    nsecs: 785875910
  frame_id: "ti_mmwave"
point_id: 21
x: 1.6015625
y: -0.47265625
z: -0.162109375
range: 1.78665578365
velocity: 0.614668667316
doppler_bin: 9
bearing: -16.4424877167
intensity: 32.9468650818
---
header: 
  seq: 1348221
  stamp: 
    secs: 1561683392
    nsecs: 785884898
  frame_id: "ti_mmwave"
point_id: 22
x: 1.603515625
y: -0.58984375
z: -0.173828125
range: 1.83023273945
velocity: 0.614668667316
doppler_bin: 9
bearing: -20.1957473755
intensity: 26.2324924469
---
header: 
  seq: 1348222
  stamp: 
    secs: 1561683392
    nsecs: 785895641
  frame_id: "ti_mmwave"
point_id: 24
x: 0.041015625
y: -0.033203125
z: 0.0625
range: 0.0871539413929
velocity: 0.0
doppler_bin: 8
bearing: -38.9909973145
intensity: 30.1452045441
---
header: 
  seq: 1348223
  stamp: 
    secs: 1561683392
    nsecs: 785905034
  frame_id: "ti_mmwave"
point_id: 25
x: 0.044921875
y: -0.046875
z: 0.103515625
range: 0.130730912089
velocity: 0.0
doppler_bin: 8
bearing: -46.218875885
intensity: 29.0308990479
---
header: 
  seq: 1348224
  stamp: 
    secs: 1561683392
    nsecs: 785993683
  frame_id: "ti_mmwave"
point_id: 27
x: 1.20703125
y: 0.357421875
z: 0.150390625
range: 1.35088610649
velocity: 0.0
doppler_bin: 8
bearing: 16.4948921204
intensity: 19.1381378174
---
header: 
  seq: 1348225
  stamp: 
    secs: 1561683392
    nsecs: 786016122
  frame_id: "ti_mmwave"
point_id: 28
x: 2.525390625
y: -1.861328125
z: -3.33984375
range: 4.88062095642
velocity: 0.0
doppler_bin: 8
bearing: -36.391910553
intensity: 27.9379043579
---
header: 
  seq: 1348226
  stamp: 
    secs: 1561683392
    nsecs: 786030988
  frame_id: "ti_mmwave"
point_id: 29
x: 2.552734375
y: -2.021484375
z: -3.279296875
range: 4.9241976738
velocity: 0.0
doppler_bin: 8
bearing: -38.3753471375
intensity: 27.7959651947
---
header: 
  seq: 1348227
  stamp: 
    secs: 1561683392
    nsecs: 843880123
  frame_id: "ti_mmwave"
point_id: 0
x: 0.01171875
y: -0.0390625
z: -0.0078125
range: 0.0435769706964
velocity: 0.0
doppler_bin: 8
bearing: -73.3007583618
intensity: 30.7518177032
---
header: 
  seq: 1348228
  stamp: 
    secs: 1561683392
    nsecs: 843954476
  frame_id: "ti_mmwave"
point_id: 1
x: 0.017578125
y: -0.080078125
z: -0.0078125
range: 0.0871539413929
velocity: 0.0
doppler_bin: 8
bearing: -77.6192398071
intensity: 31.9810695648
---
header: 
  seq: 1348229
  stamp: 
    secs: 1561683392
    nsecs: 843966896
  frame_id: "ti_mmwave"
point_id: 2
x: 0.029296875
y: -0.119140625
z: -0.00390625
range: 0.130730912089
velocity: 0.0
doppler_bin: 8
bearing: -76.1849746704
intensity: 30.2284069061
---
header: 
  seq: 1348230
  stamp: 
    secs: 1561683392
    nsecs: 843975763
  frame_id: "ti_mmwave"
point_id: 3
x: 0.056640625
y: -0.154296875
z: 0.005859375
range: 0.174307882786
velocity: 0.0
doppler_bin: 8
bearing: -69.8423843384
intensity: 25.5144996643
---
header: 
  seq: 1348231
  stamp: 
    secs: 1561683392
    nsecs: 843983825
  frame_id: "ti_mmwave"
point_id: 4
x: 0.375
y: -0.080078125
z: -1.208984375
range: 1.35088610649
velocity: 0.0
doppler_bin: 8
bearing: -12.0539922714
intensity: 21.9033164978
---
header: 
  seq: 1348232
  stamp: 
    secs: 1561683392
    nsecs: 843992157
  frame_id: "ti_mmwave"
point_id: 5
x: 0.30859375
y: -0.041015625
z: 1.271484375
range: 1.39446306229
velocity: 0.0
doppler_bin: 8
bearing: -7.57088899612
intensity: 23.2428245544
---
header: 
  seq: 1348233
  stamp: 
    secs: 1561683392
    nsecs: 844000532
  frame_id: "ti_mmwave"
point_id: 6
x: 0.453125
y: -0.0
z: 1.271484375
range: 1.43804001808
velocity: 0.0
doppler_bin: 8
bearing: -0.0
intensity: 21.9033164978
---
header: 
  seq: 1348234
  stamp: 
    secs: 1561683392
    nsecs: 844012179
  frame_id: "ti_mmwave"
point_id: 7
x: 2.54296875
y: -0.263671875
z: 1.1953125
range: 3.00681090355
velocity: 0.0
doppler_bin: 8
bearing: -5.91965341568
intensity: 29.4151134491
---
header: 
  seq: 1348235
  stamp: 
    secs: 1561683392
    nsecs: 844020846
  frame_id: "ti_mmwave"
point_id: 8
x: 2.603515625
y: -0.267578125
z: 1.162109375
range: 3.05038785934
velocity: 0.0
doppler_bin: 8
bearing: -5.8680100441
intensity: 32.7737998962
---
header: 
  seq: 1348236
  stamp: 
    secs: 1561683392
    nsecs: 844028479
  frame_id: "ti_mmwave"
point_id: 9
x: 2.66015625
y: -0.271484375
z: 1.134765625
range: 3.09396481514
velocity: 0.0
doppler_bin: 8
bearing: -5.82719182968
intensity: 31.9893188477
---
header: 
  seq: 1348237
  stamp: 
    secs: 1561683392
    nsecs: 844036921
  frame_id: "ti_mmwave"
point_id: 10
x: 4.42578125
y: -0.287109375
z: 1.1484375
range: 4.88062095642
velocity: 0.0
doppler_bin: 8
bearing: -3.7116920948
intensity: 30.8919830322
---
header: 
  seq: 1348238
  stamp: 
    secs: 1561683392
    nsecs: 844046208
  frame_id: "ti_mmwave"
point_id: 11
x: 4.484375
y: -0.2890625
z: 1.08203125
range: 4.9241976738
velocity: 0.0
doppler_bin: 8
bearing: -3.68817925453
intensity: 30.6295776367
---
header: 
  seq: 1348239
  stamp: 
    secs: 1561683392
    nsecs: 844054896
  frame_id: "ti_mmwave"
point_id: 12
x: 4.6953125
y: -0.4453125
z: -0.52734375
range: 5.0549287796
velocity: 0.0
doppler_bin: 8
bearing: -5.41783666611
intensity: 29.2531204224
---
header: 
  seq: 1348240
  stamp: 
    secs: 1561683392
    nsecs: 844064349
  frame_id: "ti_mmwave"
point_id: 13
x: 4.744140625
y: -0.44921875
z: -0.4453125
range: 5.09850549698
velocity: 0.0
doppler_bin: 8
bearing: -5.40916252136
intensity: 33.0470581055
---
header: 
  seq: 1348241
  stamp: 
    secs: 1561683392
    nsecs: 844073216
  frame_id: "ti_mmwave"
point_id: 14
x: 4.791015625
y: -0.453125
z: -0.369140625
range: 5.14208269119
velocity: 0.0
doppler_bin: 8
bearing: -5.40285253525
intensity: 33.5410842896
---
header: 
  seq: 1348242
  stamp: 
    secs: 1561683392
    nsecs: 844084305
  frame_id: "ti_mmwave"
point_id: 15
x: 4.84375
y: -0.45703125
z: -0.138671875
range: 5.18565940857
velocity: 0.0
doppler_bin: 8
bearing: -5.3901758194
intensity: 30.4218158722
---
header: 
  seq: 1348243
  stamp: 
    secs: 1561683392
    nsecs: 844311503
  frame_id: "ti_mmwave"
point_id: 16
x: 4.849609375
y: -0.306640625
z: 0.6953125
range: 5.22923660278
velocity: 0.0
doppler_bin: 8
bearing: -3.6179933548
intensity: 29.9825935364
---
header: 
  seq: 1348244
  stamp: 
    secs: 1561683392
    nsecs: 844331399
  frame_id: "ti_mmwave"
point_id: 17
x: 4.873046875
y: -0.30859375
z: 0.814453125
range: 5.27281332016
velocity: 0.0
doppler_bin: 8
bearing: -3.62351131439
intensity: 30.8742637634
---
header: 
  seq: 1348245
  stamp: 
    secs: 1561683392
    nsecs: 844345153
  frame_id: "ti_mmwave"
point_id: 18
x: 1.4921875
y: -0.548828125
z: -0.13671875
range: 1.69950187206
velocity: 0.614668667316
doppler_bin: 9
bearing: -20.193572998
intensity: 25.4282550812
---
header: 
  seq: 1348246
  stamp: 
    secs: 1561683392
    nsecs: 844402805
  frame_id: "ti_mmwave"
point_id: 19
x: 1.52734375
y: -0.5625
z: -0.17578125
range: 1.74307882786
velocity: 0.614668667316
doppler_bin: 9
bearing: -20.2180671692
intensity: 30.9551811218
---
header: 
  seq: 1348247
  stamp: 
    secs: 1561683392
    nsecs: 844415658
  frame_id: "ti_mmwave"
point_id: 20
x: 1.583984375
y: -0.5234375
z: -0.177734375
range: 1.78665578365
velocity: 0.614668667316
doppler_bin: 9
bearing: -18.2864589691
intensity: 32.4846382141
---
header: 
  seq: 1348248
  stamp: 
    secs: 1561683392
    nsecs: 844426004
  frame_id: "ti_mmwave"
point_id: 21
x: 1.60546875
y: -0.58984375
z: -0.162109375
range: 1.83023273945
velocity: 0.614668667316
doppler_bin: 9
bearing: -20.173160553
intensity: 31.0822658539
---
header: 
  seq: 1348249
  stamp: 
    secs: 1561683392
    nsecs: 844439362
  frame_id: "ti_mmwave"
point_id: 22
x: 1.62890625
y: -0.66015625
z: -0.060546875
range: 1.87380969524
velocity: 0.614668667316
doppler_bin: 9
bearing: -22.0615215302
intensity: 28.1023254395
---
header: 
  seq: 1348250
  stamp: 
    secs: 1561683392
    nsecs: 844450903
  frame_id: "ti_mmwave"
point_id: 24
x: 0.041015625
y: -0.033203125
z: 0.0625
range: 0.0871539413929
velocity: 0.0
doppler_bin: 8
bearing: -38.9909973145
intensity: 30.1494026184
---
header: 
  seq: 1348251
  stamp: 
    secs: 1561683392
    nsecs: 844460638
  frame_id: "ti_mmwave"
point_id: 25
x: 0.044921875
y: -0.046875
z: 0.103515625
range: 0.130730912089
velocity: 0.0
doppler_bin: 8
bearing: -46.218875885
intensity: 29.0363254547
---
header: 
  seq: 1348252
  stamp: 
    secs: 1561683392
    nsecs: 844527919
  frame_id: "ti_mmwave"
point_id: 27
x: 1.107421875
y: -0.515625
z: 0.33984375
range: 1.35088610649
velocity: 0.0
doppler_bin: 8
bearing: -24.9670848846
intensity: 19.0308990479
---
header: 
  seq: 1348253
  stamp: 
    secs: 1561683392
    nsecs: 844544555
  frame_id: "ti_mmwave"
point_id: 28
x: 2.58203125
y: -1.861328125
z: -3.294921875
range: 4.88062095642
velocity: 0.0
doppler_bin: 8
bearing: -35.78698349
intensity: 28.1557769775
---
header: 
  seq: 1348254
  stamp: 
    secs: 1561683392
    nsecs: 844600629
  frame_id: "ti_mmwave"
point_id: 29
x: 2.57421875
y: -2.021484375
z: -3.263671875
range: 4.9241976738
velocity: 0.0
doppler_bin: 8
bearing: -38.1418647766
intensity: 27.9448795319
---
header: 
  seq: 1348255
  stamp: 
    secs: 1561683392
    nsecs: 903661760
  frame_id: "ti_mmwave"
point_id: 0
x: 0.01171875
y: -0.0390625
z: -0.0078125
range: 0.0435769706964
velocity: 0.0
doppler_bin: 8
bearing: -73.3007583618
intensity: 30.7481651306
---
header: 
  seq: 1348256
  stamp: 
    secs: 1561683392
    nsecs: 903737920
  frame_id: "ti_mmwave"
point_id: 1
x: 0.017578125
y: -0.080078125
z: -0.0078125
range: 0.0871539413929
velocity: 0.0
doppler_bin: 8
bearing: -77.6192398071
intensity: 31.9810695648
---
header: 
  seq: 1348257
  stamp: 
    secs: 1561683392
    nsecs: 903750545
  frame_id: "ti_mmwave"
point_id: 2
x: 0.029296875
y: -0.119140625
z: -0.00390625
range: 0.130730912089
velocity: 0.0
doppler_bin: 8
bearing: -76.1849746704
intensity: 30.2325248718
---
header: 
  seq: 1348258
  stamp: 
    secs: 1561683392
    nsecs: 903759300
  frame_id: "ti_mmwave"
point_id: 3
x: 0.056640625
y: -0.154296875
z: 0.005859375
range: 0.174307882786
velocity: 0.0
doppler_bin: 8
bearing: -69.8423843384
intensity: 25.5144996643
---
header: 
  seq: 1348259
  stamp: 
    secs: 1561683392
    nsecs: 903767524
  frame_id: "ti_mmwave"
point_id: 4
x: 0.318359375
y: -0.080078125
z: -1.224609375
range: 1.35088610649
velocity: 0.0
doppler_bin: 8
bearing: -14.1189212799
intensity: 21.9033164978
---
header: 
  seq: 1348260
  stamp: 
    secs: 1561683392
    nsecs: 903775249
  frame_id: "ti_mmwave"
point_id: 5
x: 0.322265625
y: -0.041015625
z: 1.267578125
range: 1.39446306229
velocity: 0.0
doppler_bin: 8
bearing: -7.25319480896
intensity: 23.1806335449
---
header: 
  seq: 1348261
  stamp: 
    secs: 1561683392
    nsecs: 903784247
  frame_id: "ti_mmwave"
point_id: 6
x: 0.48828125
y: -0.04296875
z: 1.2578125
range: 1.43804001808
velocity: 0.0
doppler_bin: 8
bearing: -5.02907323837
intensity: 21.875207901
---
header: 
  seq: 1348262
  stamp: 
    secs: 1561683392
    nsecs: 903794260
  frame_id: "ti_mmwave"
point_id: 7
x: 2.552734375
y: -0.263671875
z: 1.173828125
range: 3.00681090355
velocity: 0.0
doppler_bin: 8
bearing: -5.89716720581
intensity: 29.4497585297
---
header: 
  seq: 1348263
  stamp: 
    secs: 1561683392
    nsecs: 903802597
  frame_id: "ti_mmwave"
point_id: 8
x: 2.60546875
y: -0.267578125
z: 1.154296875
range: 3.05038785934
velocity: 0.0
doppler_bin: 8
bearing: -5.86364221573
intensity: 32.7875366211
---
header: 
  seq: 1348264
  stamp: 
    secs: 1561683392
    nsecs: 903810506
  frame_id: "ti_mmwave"
point_id: 9
x: 2.66015625
y: -0.271484375
z: 1.130859375
range: 3.09396481514
velocity: 0.0
doppler_bin: 8
bearing: -5.82719182968
intensity: 31.994808197
---
header: 
  seq: 1348265
  stamp: 
    secs: 1561683392
    nsecs: 903819885
  frame_id: "ti_mmwave"
point_id: 10
x: 4.42578125
y: -0.287109375
z: 1.15234375
range: 4.88062095642
velocity: 0.0
doppler_bin: 8
bearing: -3.7116920948
intensity: 30.8671569824
---
header: 
  seq: 1348266
  stamp: 
    secs: 1561683392
    nsecs: 903829526
  frame_id: "ti_mmwave"
point_id: 11
x: 4.484375
y: -0.2890625
z: 1.08203125
range: 4.9241976738
velocity: 0.0
doppler_bin: 8
bearing: -3.68817925453
intensity: 30.5918464661
---
header: 
  seq: 1348267
  stamp: 
    secs: 1561683392
    nsecs: 903839201
  frame_id: "ti_mmwave"
point_id: 12
x: 4.74609375
y: -0.44921875
z: -0.4296875
range: 5.09850549698
velocity: 0.0
doppler_bin: 8
bearing: -5.40694952011
intensity: 32.9994277954
---
header: 
  seq: 1348268
  stamp: 
    secs: 1561683392
    nsecs: 903847788
  frame_id: "ti_mmwave"
point_id: 13
x: 4.794921875
y: -0.453125
z: -0.328125
range: 5.14208269119
velocity: 0.0
doppler_bin: 8
bearing: -5.39847755432
intensity: 33.5121650696
---
header: 
  seq: 1348269
  stamp: 
    secs: 1561683392
    nsecs: 903855936
  frame_id: "ti_mmwave"
point_id: 14
x: 4.857421875
y: -0.3046875
z: -0.04296875
range: 5.18565940857
velocity: 0.0
doppler_bin: 8
bearing: -3.58924269676
intensity: 30.4296913147
---
header: 
  seq: 1348270
  stamp: 
    secs: 1561683392
    nsecs: 903879240
  frame_id: "ti_mmwave"
point_id: 15
x: 4.884765625
y: -0.30859375
z: 0.740234375
range: 5.27281332016
velocity: 0.0
doppler_bin: 8
bearing: -3.6148416996
intensity: 30.9061069489
---
header: 
  seq: 1348271
  stamp: 
    secs: 1561683392
    nsecs: 903895872
  frame_id: "ti_mmwave"
point_id: 16
x: 1.533203125
y: -0.349609375
z: -0.267578125
range: 1.69950187206
velocity: 0.614668667316
doppler_bin: 9
bearing: -12.8452701569
intensity: 27.1349048615
---
header: 
  seq: 1348272
  stamp: 
    secs: 1561683392
    nsecs: 904055543
  frame_id: "ti_mmwave"
point_id: 17
x: 1.568359375
y: -0.408203125
z: -0.228515625
range: 1.74307882786
velocity: 0.614668667316
doppler_bin: 9
bearing: -14.5889186859
intensity: 31.0551013947
---
header: 
  seq: 1348273
  stamp: 
    secs: 1561683392
    nsecs: 904078885
  frame_id: "ti_mmwave"
point_id: 18
x: 1.630859375
y: -0.3671875
z: -0.142578125
range: 1.78665578365
velocity: 0.614668667316
doppler_bin: 9
bearing: -12.6885471344
intensity: 30.788192749
---
header: 
  seq: 1348274
  stamp: 
    secs: 1561683392
    nsecs: 904087926
  frame_id: "ti_mmwave"
point_id: 19
x: 1.658203125
y: -0.375
z: 0.25
range: 1.83023273945
velocity: 0.614668667316
doppler_bin: 9
bearing: -12.7429971695
intensity: 26.8930892944
---
header: 
  seq: 1348275
  stamp: 
    secs: 1561683392
    nsecs: 904098201
  frame_id: "ti_mmwave"
point_id: 21
x: 0.041015625
y: -0.033203125
z: 0.0625
range: 0.0871539413929
velocity: 0.0
doppler_bin: 8
bearing: -38.9909973145
intensity: 30.1452045441
---
header: 
  seq: 1348276
  stamp: 
    secs: 1561683392
    nsecs: 904105992
  frame_id: "ti_mmwave"
point_id: 22
x: 0.052734375
y: -0.04296875
z: 0.1015625
range: 0.130730912089
velocity: 0.0
doppler_bin: 8
bearing: -39.1736602783
intensity: 29.0308990479
---
header: 
  seq: 1348277
  stamp: 
    secs: 1561683392
    nsecs: 904118886
  frame_id: "ti_mmwave"
point_id: 24
x: 1.11328125
y: -0.515625
z: 0.322265625
range: 1.35088610649
velocity: 0.0
doppler_bin: 8
bearing: -24.8515853882
intensity: 19.0308990479
---
header: 
  seq: 1348278
  stamp: 
    secs: 1561683392
    nsecs: 904130534
  frame_id: "ti_mmwave"
point_id: 25
x: 2.6328125
y: -2.00390625
z: -3.16796875
range: 4.88062095642
velocity: 0.0
doppler_bin: 8
bearing: -37.2757644653
intensity: 28.0208930969
---
header: 
  seq: 1348279
  stamp: 
    secs: 1561683392
    nsecs: 904168194
  frame_id: "ti_mmwave"
point_id: 26
x: 2.544921875
y: -2.021484375
z: -3.28515625
range: 4.9241976738
velocity: 0.0
doppler_bin: 8
bearing: -38.4608459473
intensity: 27.8390350342
---
header: 
  seq: 1348280
  stamp: 
    secs: 1561683392
    nsecs: 904177486
  frame_id: "ti_mmwave"
point_id: 27
x: 0.685546875
y: 0.322265625
z: 1.54296875
range: 1.83023273945
velocity: 0.614668667316
doppler_bin: 9
bearing: 25.1775360107
intensity: 24.3456897736
---
header: 
  seq: 1348281
  stamp: 
    secs: 1561683392
    nsecs: 905169097
  frame_id: "ti_mmwave"
point_id: 0
x: 0.01171875
y: -0.0390625
z: -0.0078125
range: 0.0435769706964
velocity: 0.0
doppler_bin: 8
bearing: -73.3007583618
intensity: 30.7518177032
---
header: 
  seq: 1348282
  stamp: 
    secs: 1561683392
    nsecs: 905208061
  frame_id: "ti_mmwave"
point_id: 1
x: 0.017578125
y: -0.080078125
z: -0.0078125
range: 0.0871539413929
velocity: 0.0
doppler_bin: 8
bearing: -77.6192398071
intensity: 31.9810695648
---
header: 
  seq: 1348283
  stamp: 
    secs: 1561683392
    nsecs: 905225477
  frame_id: "ti_mmwave"
point_id: 2
x: 0.041015625
y: -0.115234375
z: -0.0078125
range: 0.130730912089
velocity: 0.0
doppler_bin: 8
bearing: -70.4077224731
intensity: 30.2242832184
---
header: 
  seq: 1348284
  stamp: 
    secs: 1561683392
    nsecs: 905238589
  frame_id: "ti_mmwave"
point_id: 3
x: 0.056640625
y: -0.154296875
z: 0.005859375
range: 0.174307882786
velocity: 0.0
doppler_bin: 8
bearing: -69.8423843384
intensity: 25.490032196
---
header: 
  seq: 1348285
  stamp: 
    secs: 1561683392
    nsecs: 905263343
  frame_id: "ti_mmwave"
point_id: 4
x: 0.3515625
y: -0.080078125
z: -1.21484375
range: 1.35088610649
velocity: 0.0
doppler_bin: 8
bearing: -12.83177948
intensity: 21.9312458038
---
header: 
  seq: 1348286
  stamp: 
    secs: 1561683392
    nsecs: 905307712
  frame_id: "ti_mmwave"
point_id: 5
x: 0.31640625
y: -0.041015625
z: 1.26953125
range: 1.39446306229
velocity: 0.0
doppler_bin: 8
bearing: -7.38604259491
intensity: 23.2014636993
---
header: 
  seq: 1348287
  stamp: 
    secs: 1561683392
    nsecs: 905334985
  frame_id: "ti_mmwave"
point_id: 6
x: 0.49609375
y: -0.04296875
z: 1.25390625
range: 1.43804001808
velocity: 0.0
doppler_bin: 8
bearing: -4.95027208328
intensity: 21.8469142914
---
header: 
  seq: 1348288
  stamp: 
    secs: 1561683392
    nsecs: 905356663
  frame_id: "ti_mmwave"
point_id: 7
x: 2.544921875
y: -0.263671875
z: 1.193359375
range: 3.00681090355
velocity: 0.0
doppler_bin: 8
bearing: -5.91514253616
intensity: 29.4792366028
---
header: 
  seq: 1348289
  stamp: 
    secs: 1561683392
    nsecs: 905436069
  frame_id: "ti_mmwave"
point_id: 8
x: 2.599609375
y: -0.267578125
z: 1.16796875
range: 3.05038785934
velocity: 0.0
doppler_bin: 8
bearing: -5.87676620483
intensity: 32.7943878174
---
header: 
  seq: 1348290
  stamp: 
    secs: 1561683392
    nsecs: 905451259
  frame_id: "ti_mmwave"
point_id: 9
x: 2.658203125
y: -0.271484375
z: 1.138671875
range: 3.09396481514
velocity: 0.0
doppler_bin: 8
bearing: -5.83144378662
intensity: 31.9893188477
---
header: 
  seq: 1348291
  stamp: 
    secs: 1561683392
    nsecs: 905465072
  frame_id: "ti_mmwave"
point_id: 10
x: 4.421875
y: -0.287109375
z: 1.166015625
range: 4.88062095642
velocity: 0.0
doppler_bin: 8
bearing: -3.7149617672
intensity: 30.8813610077
---
header: 
  seq: 1348292
  stamp: 
    secs: 1561683392
    nsecs: 905478170
  frame_id: "ti_mmwave"
point_id: 11
x: 4.47265625
y: -0.2890625
z: 1.12890625
range: 4.9241976738
velocity: 0.0
doppler_bin: 8
bearing: -3.6978161335
intensity: 30.546131134
---
header: 
  seq: 1348293
  stamp: 
    secs: 1561683392
    nsecs: 905489597
  frame_id: "ti_mmwave"
point_id: 12
x: 4.6953125
y: -0.4453125
z: -0.517578125
range: 5.0549287796
velocity: 0.0
doppler_bin: 8
bearing: -5.41783666611
intensity: 29.2941894531
---
header: 
  seq: 1348294
  stamp: 
    secs: 1561683392
    nsecs: 905501020
  frame_id: "ti_mmwave"
point_id: 13
x: 4.744140625
y: -0.44921875
z: -0.453125
range: 5.09850549698
velocity: 0.0
doppler_bin: 8
bearing: -5.40916252136
intensity: 33.2633590698
---
header: 
  seq: 1348295
  stamp: 
    secs: 1561683392
    nsecs: 905514416
  frame_id: "ti_mmwave"
point_id: 14
x: 4.7890625
y: -0.453125
z: -0.388671875
range: 5.14208269119
velocity: 0.0
doppler_bin: 8
bearing: -5.40504264832
intensity: 33.787612915
---
header: 
  seq: 1348296
  stamp: 
    secs: 1561683392
    nsecs: 905526004
  frame_id: "ti_mmwave"
point_id: 15
x: 4.84375
y: -0.45703125
z: -0.1796875
range: 5.18565940857
velocity: 0.0
doppler_bin: 8
bearing: -5.3901758194
intensity: 30.6445808411
---
header: 
  seq: 1348297
  stamp: 
    secs: 1561683392
    nsecs: 905535431
  frame_id: "ti_mmwave"
point_id: 16
x: 4.853515625
y: -0.306640625
z: 0.673828125
range: 5.22923660278
velocity: 0.0
doppler_bin: 8
bearing: -3.6150894165
intensity: 30.013010025
---
header: 
  seq: 1348298
  stamp: 
    secs: 1561683392
    nsecs: 905543395
  frame_id: "ti_mmwave"
point_id: 17
x: 4.880859375
y: -0.30859375
z: 0.763671875
range: 5.27281332016
velocity: 0.0
doppler_bin: 8
bearing: -3.61772704124
intensity: 30.9691009521
---
header: 
  seq: 1348299
  stamp: 
    secs: 1561683392
    nsecs: 905553015
  frame_id: "ti_mmwave"
point_id: 18
x: 1.607421875
y: -0.47265625
z: -0.0703125
range: 1.78665578365
velocity: 0.614668667316
doppler_bin: 9
bearing: -16.3857707977
intensity: 30.484418869
---
header: 
  seq: 1348300
  stamp: 
    secs: 1561683392
    nsecs: 905561706
  frame_id: "ti_mmwave"
point_id: 19
x: 1.62890625
y: -0.537109375
z: -0.09375
range: 1.83023273945
velocity: 0.614668667316
doppler_bin: 9
bearing: -18.2492580414
intensity: 32.2063102722
---
header: 
  seq: 1348301
  stamp: 
    secs: 1561683392
    nsecs: 905569526
  frame_id: "ti_mmwave"
point_id: 20
x: 1.666015625
y: -0.548828125
z: -0.12890625
range: 1.87380969524
velocity: 0.614668667316
doppler_bin: 9
bearing: -18.2332038879
intensity: 30.4296913147
---
header: 
  seq: 1348302
  stamp: 
    secs: 1561683392
    nsecs: 905582337
  frame_id: "ti_mmwave"
point_id: 22
x: 0.041015625
y: -0.033203125
z: 0.0625
range: 0.0871539413929
velocity: 0.0
doppler_bin: 8
bearing: -38.9909973145
intensity: 30.1452045441
---
header: 
  seq: 1348303
  stamp: 
    secs: 1561683392
    nsecs: 905634663
  frame_id: "ti_mmwave"
point_id: 23
x: 0.044921875
y: -0.046875
z: 0.103515625
range: 0.130730912089
velocity: 0.0
doppler_bin: 8
bearing: -46.218875885
intensity: 29.0254669189
---
header: 
  seq: 1348304
  stamp: 
    secs: 1561683392
    nsecs: 905653247
  frame_id: "ti_mmwave"
point_id: 25
x: 1.212890625
y: 0.357421875
z: 0.095703125
range: 1.35088610649
velocity: 0.0
doppler_bin: 8
bearing: 16.419506073
intensity: 19.0308990479
---
header: 
  seq: 1348305
  stamp: 
    secs: 1561683392
    nsecs: 905667659
  frame_id: "ti_mmwave"
point_id: 26
x: 2.638671875
y: -2.00390625
z: -3.1640625
range: 4.88062095642
velocity: 0.0
doppler_bin: 8
bearing: -37.2143974304
intensity: 28.0888595581
---
header: 
  seq: 1348306
  stamp: 
    secs: 1561683392
    nsecs: 905678023
  frame_id: "ti_mmwave"
point_id: 27
x: 2.6484375
y: -2.021484375
z: -3.203125
range: 4.9241976738
velocity: 0.0
doppler_bin: 8
bearing: -37.3535652161
intensity: 27.8390350342
---
header: 
  seq: 1348307
  stamp: 
    secs: 1561683392
    nsecs: 963607089
  frame_id: "ti_mmwave"
point_id: 0
x: 0.01171875
y: -0.0390625
z: -0.0078125
range: 0.0435769706964
velocity: 0.0
doppler_bin: 8
bearing: -73.3007583618
intensity: 30.7481651306
---
header: 
  seq: 1348308
  stamp: 
    secs: 1561683392
    nsecs: 963687844
  frame_id: "ti_mmwave"
point_id: 1
x: 0.017578125
y: -0.080078125
z: -0.0078125
range: 0.0871539413929
velocity: 0.0
doppler_bin: 8
bearing: -77.6192398071
intensity: 31.9783172607
---
header: 
  seq: 1348309
  stamp: 
    secs: 1561683392
    nsecs: 963699623
  frame_id: "ti_mmwave"
point_id: 2
x: 0.041015625
y: -0.115234375
z: -0.0078125
range: 0.130730912089
velocity: 0.0
doppler_bin: 8
bearing: -70.4077224731
intensity: 30.2284069061
---
header: 
  seq: 1348310
  stamp: 
    secs: 1561683392
    nsecs: 963707902
  frame_id: "ti_mmwave"
point_id: 3
x: 0.056640625
y: -0.154296875
z: 0.005859375
range: 0.174307882786
velocity: 0.0
doppler_bin: 8
bearing: -69.8423843384
intensity: 25.5022830963
---
header: 
  seq: 1348311
  stamp: 
    secs: 1561683392
    nsecs: 963716307
  frame_id: "ti_mmwave"
point_id: 4
x: 0.375
y: -0.080078125
z: -1.208984375
range: 1.35088610649
velocity: 0.0
doppler_bin: 8
bearing: -12.0539922714
intensity: 21.9033164978
---
header: 
  seq: 1348312
  stamp: 
    secs: 1561683392
    nsecs: 963725187
  frame_id: "ti_mmwave"
point_id: 5
x: 0.271484375
y: -0.041015625
z: 1.279296875
range: 1.39446306229
velocity: 0.0
doppler_bin: 8
bearing: -8.59122562408
intensity: 23.2221927643
---
header: 
  seq: 1348313
  stamp: 
    secs: 1561683392
    nsecs: 963733926
  frame_id: "ti_mmwave"
point_id: 6
x: 0.470703125
y: -0.04296875
z: 1.263671875
range: 1.43804001808
velocity: 0.0
doppler_bin: 8
bearing: -5.21586418152
intensity: 21.8469142914
---
header: 
  seq: 1348314
  stamp: 
    secs: 1561683392
    nsecs: 963742859
  frame_id: "ti_mmwave"
point_id: 7
x: 2.55078125
y: -0.263671875
z: 1.177734375
range: 3.00681090355
velocity: 0.0
doppler_bin: 8
bearing: -5.90165042877
intensity: 29.4596061707
---
header: 
  seq: 1348315
  stamp: 
    secs: 1561683392
    nsecs: 963755878
  frame_id: "ti_mmwave"
point_id: 8
x: 2.603515625
y: -0.267578125
z: 1.1640625
range: 3.05038785934
velocity: 0.0
doppler_bin: 8
bearing: -5.8680100441
intensity: 32.7989501953
---
header: 
  seq: 1348316
  stamp: 
    secs: 1561683392
    nsecs: 963827479
  frame_id: "ti_mmwave"
point_id: 9
x: 2.654296875
y: -0.271484375
z: 1.14453125
range: 3.09396481514
velocity: 0.0
doppler_bin: 8
bearing: -5.83996629715
intensity: 31.994808197
---
header: 
  seq: 1348317
  stamp: 
    secs: 1561683392
    nsecs: 963836444
  frame_id: "ti_mmwave"
point_id: 10
x: 4.421875
y: -0.287109375
z: 1.1640625
range: 4.88062095642
velocity: 0.0
doppler_bin: 8
bearing: -3.7149617672
intensity: 30.8919830322
---
header: 
  seq: 1348318
  stamp: 
    secs: 1561683392
    nsecs: 963844369
  frame_id: "ti_mmwave"
point_id: 11
x: 4.466796875
y: -0.2890625
z: 1.15234375
range: 4.9241976738
velocity: 0.0
doppler_bin: 8
bearing: -3.70265316963
intensity: 30.5307846069
---
header: 
  seq: 1348319
  stamp: 
    secs: 1561683392
    nsecs: 963851787
  frame_id: "ti_mmwave"
point_id: 12
x: 4.69140625
y: -0.4453125
z: -0.560546875
range: 5.0549287796
velocity: 0.0
doppler_bin: 8
bearing: -5.42232084274
intensity: 29.4939002991
---
header: 
  seq: 1348320
  stamp: 
    secs: 1561683392
    nsecs: 963859203
  frame_id: "ti_mmwave"
point_id: 13
x: 4.740234375
y: -0.44921875
z: -0.484375
range: 5.09850549698
velocity: 0.0
doppler_bin: 8
bearing: -5.41359329224
intensity: 33.5869598389
---
header: 
  seq: 1348321
  stamp: 
    secs: 1561683392
    nsecs: 963866790
  frame_id: "ti_mmwave"
point_id: 14
x: 4.787109375
y: -0.453125
z: -0.416015625
range: 5.14208269119
velocity: 0.0
doppler_bin: 8
bearing: -5.40723514557
intensity: 34.15807724
---
header: 
  seq: 1348322
  stamp: 
    secs: 1561683392
    nsecs: 963875053
  frame_id: "ti_mmwave"
point_id: 15
x: 4.83984375
y: -0.45703125
z: -0.2421875
range: 5.18565940857
velocity: 0.0
doppler_bin: 8
bearing: -5.39450025558
intensity: 30.9691009521
---
header: 
  seq: 1348323
  stamp: 
    secs: 1561683392
    nsecs: 963882498
  frame_id: "ti_mmwave"
point_id: 16
x: 4.892578125
y: -0.30859375
z: 0.6875
range: 5.27281332016
velocity: 0.0
doppler_bin: 8
bearing: -3.60908436775
intensity: 30.8813610077
---
header: 
  seq: 1348324
  stamp: 
    secs: 1561683392
    nsecs: 963890865
  frame_id: "ti_mmwave"
point_id: 17
x: 1.646484375
y: -0.314453125
z: -0.029296875
range: 1.78665578365
velocity: 0.614668667316
doppler_bin: 9
bearing: -10.8124036789
intensity: 25.9879055023
---
header: 
  seq: 1348325
  stamp: 
    secs: 1561683392
    nsecs: 963898640
  frame_id: "ti_mmwave"
point_id: 18
x: 1.67578125
y: -0.375
z: -0.0234375
range: 1.83023273945
velocity: 0.614668667316
doppler_bin: 9
bearing: -12.6136274338
intensity: 26.9722938538
---
header: 
  seq: 1348326
  stamp: 
    secs: 1561683392
    nsecs: 963906154
  frame_id: "ti_mmwave"
point_id: 19
x: 1.703125
y: -0.439453125
z: -0.0078125
range: 1.87380969524
velocity: 0.614668667316
doppler_bin: 9
bearing: -14.4683074951
intensity: 26.1066017151
---
header: 
  seq: 1348327
  stamp: 
    secs: 1561683392
    nsecs: 963919248
  frame_id: "ti_mmwave"
point_id: 20
x: 1.662109375
y: -0.748046875
z: -0.255859375
range: 1.96096372604
velocity: 1.22933733463
doppler_bin: 10
bearing: -24.2305450439
intensity: 23.138671875
---
header: 
  seq: 1348328
  stamp: 
    secs: 1561683392
    nsecs: 963936478
  frame_id: "ti_mmwave"
point_id: 22
x: 0.041015625
y: -0.033203125
z: 0.0625
range: 0.0871539413929
velocity: 0.0
doppler_bin: 8
bearing: -38.9909973145
intensity: 30.1452045441
---
header: 
  seq: 1348329
  stamp: 
    secs: 1561683392
    nsecs: 963948748
  frame_id: "ti_mmwave"
point_id: 23
x: 0.044921875
y: -0.046875
z: 0.103515625
range: 0.130730912089
velocity: 0.0
doppler_bin: 8
bearing: -46.218875885
intensity: 29.0308990479
---
header: 
  seq: 1348330
  stamp: 
    secs: 1561683392
    nsecs: 963979691
  frame_id: "ti_mmwave"
point_id: 25
x: 1.208984375
y: 0.357421875
z: 0.134765625
range: 1.35088610649
velocity: 0.0
doppler_bin: 8
bearing: 16.4696884155
intensity: 19.0308990479
---
header: 
  seq: 1348331
  stamp: 
    secs: 1561683392
    nsecs: 963991241
  frame_id: "ti_mmwave"
point_id: 26
x: 2.6796875
y: -1.861328125
z: -3.216796875
range: 4.88062095642
velocity: 0.0
doppler_bin: 8
bearing: -34.7840919495
intensity: 28.1491317749
---
header: 
  seq: 1348332
  stamp: 
    secs: 1561683392
    nsecs: 964154711
  frame_id: "ti_mmwave"
point_id: 27
x: 2.755859375
y: -2.021484375
z: -3.111328125
range: 4.9241976738
velocity: 0.0
doppler_bin: 8
bearing: -36.2608757019
intensity: 27.8958072662
---
header: 
  seq: 1348333
  stamp: 
    secs: 1561683392
    nsecs: 965356045
  frame_id: "ti_mmwave"
point_id: 0
x: 0.01171875
y: -0.0390625
z: -0.0078125
range: 0.0435769706964
velocity: 0.0
doppler_bin: 8
bearing: -73.3007583618
intensity: 30.7518177032
---
header: 
  seq: 1348334
  stamp: 
    secs: 1561683392
    nsecs: 965407483
  frame_id: "ti_mmwave"
point_id: 1
x: 0.017578125
y: -0.080078125
z: -0.0078125
range: 0.0871539413929
velocity: 0.0
doppler_bin: 8
bearing: -77.6192398071
intensity: 31.9810695648
---
header: 
  seq: 1348335
  stamp: 
    secs: 1561683392
    nsecs: 965426275
  frame_id: "ti_mmwave"
point_id: 2
x: 0.029296875
y: -0.119140625
z: -0.00390625
range: 0.130730912089
velocity: 0.0
doppler_bin: 8
bearing: -76.1849746704
intensity: 30.2284069061
---
header: 
  seq: 1348336
  stamp: 
    secs: 1561683392
    nsecs: 965439002
  frame_id: "ti_mmwave"
point_id: 3
x: 0.056640625
y: -0.154296875
z: 0.005859375
range: 0.174307882786
velocity: 0.0
doppler_bin: 8
bearing: -69.8423843384
intensity: 25.5022830963
---
header: 
  seq: 1348337
  stamp: 
    secs: 1561683392
    nsecs: 965450432
  frame_id: "ti_mmwave"
point_id: 4
x: 0.375
y: -0.080078125
z: -1.208984375
range: 1.35088610649
velocity: 0.0
doppler_bin: 8
bearing: -12.0539922714
intensity: 21.9033164978
---
header: 
  seq: 1348338
  stamp: 
    secs: 1561683392
    nsecs: 965524759
  frame_id: "ti_mmwave"
point_id: 5
x: 0.267578125
y: -0.041015625
z: 1.28125
range: 1.39446306229
velocity: 0.0
doppler_bin: 8
bearing: -8.71473312378
intensity: 23.2633590698
---
header: 
  seq: 1348339
  stamp: 
    secs: 1561683392
    nsecs: 965538775
  frame_id: "ti_mmwave"
point_id: 6
x: 0.3984375
y: -0.0
z: 1.2890625
range: 1.43804001808
velocity: 0.0
doppler_bin: 8
bearing: -0.0
intensity: 21.9589958191
---
header: 
  seq: 1348340
  stamp: 
    secs: 1561683392
    nsecs: 965550116
  frame_id: "ti_mmwave"
point_id: 7
x: 2.54296875
y: -0.263671875
z: 1.1953125
range: 3.00681090355
velocity: 0.0
doppler_bin: 8
bearing: -5.91965341568
intensity: 29.4743366241
---
header: 
  seq: 1348341
  stamp: 
    secs: 1561683392
    nsecs: 965561074
  frame_id: "ti_mmwave"
point_id: 8
x: 2.603515625
y: -0.267578125
z: 1.162109375
range: 3.05038785934
velocity: 0.0
doppler_bin: 8
bearing: -5.8680100441
intensity: 32.8148803711
---
header: 
  seq: 1348342
  stamp: 
    secs: 1561683392
    nsecs: 965573157
  frame_id: "ti_mmwave"
point_id: 9
x: 2.65625
y: -0.271484375
z: 1.140625
range: 3.09396481514
velocity: 0.0
doppler_bin: 8
bearing: -5.83570146561
intensity: 32.0112380981
---
header: 
  seq: 1348343
  stamp: 
    secs: 1561683392
    nsecs: 965585468
  frame_id: "ti_mmwave"
point_id: 10
x: 4.416015625
y: -0.287109375
z: 1.18359375
range: 4.88062095642
velocity: 0.0
doppler_bin: 8
bearing: -3.71987724304
intensity: 30.8564720154
---
header: 
  seq: 1348344
  stamp: 
    secs: 1561683392
    nsecs: 965596545
  frame_id: "ti_mmwave"
point_id: 11
x: 4.4609375
y: -0.2890625
z: 1.173828125
range: 4.9241976738
velocity: 0.0
doppler_bin: 8
bearing: -3.70750308037
intensity: 30.4921798706
---
header: 
  seq: 1348345
  stamp: 
    secs: 1561683392
    nsecs: 965607928
  frame_id: "ti_mmwave"
point_id: 12
x: 4.693359375
y: -0.4453125
z: -0.54296875
range: 5.0549287796
velocity: 0.0
doppler_bin: 8
