header: 
  seq: 454835
  stamp: 
    secs: 1561681988
    nsecs: 574555063
  frame_id: "ti_mmwave"
point_id: 0
x: 0.01171875
y: -0.0390625
z: -0.0078125
range: 0.0435769706964
velocity: 0.0
doppler_bin: 8
bearing: -73.3007583618
intensity: 30.7518177032
---
header: 
  seq: 454836
  stamp: 
    secs: 1561681988
    nsecs: 574626309
  frame_id: "ti_mmwave"
point_id: 1
x: 0.017578125
y: -0.080078125
z: -0.0078125
range: 0.0871539413929
velocity: 0.0
doppler_bin: 8
bearing: -77.6192398071
intensity: 31.9783172607
---
header: 
  seq: 454837
  stamp: 
    secs: 1561681988
    nsecs: 574636987
  frame_id: "ti_mmwave"
point_id: 2
x: 0.029296875
y: -0.119140625
z: -0.005859375
range: 0.130730912089
velocity: 0.0
doppler_bin: 8
bearing: -76.1849746704
intensity: 30.2407493591
---
header: 
  seq: 454838
  stamp: 
    secs: 1561681988
    nsecs: 574646869
  frame_id: "ti_mmwave"
point_id: 3
x: 0.056640625
y: -0.154296875
z: 0.005859375
range: 0.174307882786
velocity: 0.0
doppler_bin: 8
bearing: -69.8423843384
intensity: 25.5022830963
---
header: 
  seq: 454839
  stamp: 
    secs: 1561681988
    nsecs: 574654955
  frame_id: "ti_mmwave"
point_id: 4
x: 0.30859375
y: -0.080078125
z: -1.2265625
range: 1.35088610649
velocity: 0.0
doppler_bin: 8
bearing: -14.547039032
intensity: 21.875207901
---
header: 
  seq: 454840
  stamp: 
    secs: 1561681988
    nsecs: 574663424
  frame_id: "ti_mmwave"
point_id: 5
x: 0.34375
y: -0.041015625
z: 1.26171875
range: 1.39446306229
velocity: 0.0
doppler_bin: 8
bearing: -6.80425977707
intensity: 23.2633590698
---
header: 
  seq: 454841
  stamp: 
    secs: 1561681988
    nsecs: 574672545
  frame_id: "ti_mmwave"
point_id: 6
x: 0.501953125
y: -0.04296875
z: 1.251953125
range: 1.43804001808
velocity: 0.0
doppler_bin: 8
bearing: -4.89276885986
intensity: 21.9865703583
---
header: 
  seq: 454842
  stamp: 
    secs: 1561681988
    nsecs: 574681093
  frame_id: "ti_mmwave"
point_id: 7
x: 2.546875
y: -0.263671875
z: 1.185546875
range: 3.00681090355
velocity: 0.0
doppler_bin: 8
bearing: -5.91063833237
intensity: 29.4448261261
---
header: 
  seq: 454843
  stamp: 
    secs: 1561681988
    nsecs: 574690714
  frame_id: "ti_mmwave"
point_id: 8
x: 2.60546875
y: -0.267578125
z: 1.15625
range: 3.05038785934
velocity: 0.0
doppler_bin: 8
bearing: -5.86364221573
intensity: 32.743888855
---
header: 
  seq: 454844
  stamp: 
    secs: 1561681988
    nsecs: 574700473
  frame_id: "ti_mmwave"
point_id: 9
x: 2.662109375
y: -0.181640625
z: 1.146484375
range: 3.09396481514
velocity: 0.0
doppler_bin: 8
bearing: -3.90334677696
intensity: 32.0276069641
---
header: 
  seq: 454845
  stamp: 
    secs: 1561681988
    nsecs: 574710014
  frame_id: "ti_mmwave"
point_id: 10
x: 4.4296875
y: -0.287109375
z: 1.130859375
range: 4.88062095642
velocity: 0.0
doppler_bin: 8
bearing: -3.70842814445
intensity: 30.7371826172
---
header: 
  seq: 454846
  stamp: 
    secs: 1561681988
    nsecs: 574719660
  frame_id: "ti_mmwave"
point_id: 11
x: 4.4609375
y: -0.2890625
z: 1.171875
range: 4.9241976738
velocity: 0.0
doppler_bin: 8
bearing: -3.70750308037
intensity: 30.358297348
---
header: 
  seq: 454847
  stamp: 
    secs: 1561681988
    nsecs: 574728820
  frame_id: "ti_mmwave"
point_id: 12
x: 4.740234375
y: -0.44921875
z: -0.48046875
range: 5.09850549698
velocity: 0.0
doppler_bin: 8
bearing: -5.41359329224
intensity: 33.1175384521
---
header: 
  seq: 454848
  stamp: 
    secs: 1561681988
    nsecs: 574740434
  frame_id: "ti_mmwave"
point_id: 13
x: 4.787109375
y: -0.453125
z: -0.419921875
range: 5.14208269119
velocity: 0.0
doppler_bin: 8
bearing: -5.40723514557
intensity: 33.6380004883
---
header: 
  seq: 454849
  stamp: 
    secs: 1561681988
    nsecs: 574854726
  frame_id: "ti_mmwave"
point_id: 14
x: 4.83984375
y: -0.45703125
z: -0.265625
range: 5.18565940857
velocity: 0.0
doppler_bin: 8
bearing: -5.39450025558
intensity: 30.0689373016
---
header: 
  seq: 454850
  stamp: 
    secs: 1561681988
    nsecs: 574872042
  frame_id: "ti_mmwave"
point_id: 15
x: 4.87890625
y: -0.30859375
z: 0.775390625
range: 5.27281332016
velocity: 0.0
doppler_bin: 8
bearing: -3.61917114258
intensity: 30.8350257874
---
header: 
  seq: 454851
  stamp: 
    secs: 1561681988
    nsecs: 574880434
  frame_id: "ti_mmwave"
point_id: 16
x: 1.333984375
y: -0.552734375
z: -0.2890625
range: 1.56877088547
velocity: 0.614668667316
doppler_bin: 9
bearing: -22.5065975189
intensity: 27.2997436523
---
header: 
  seq: 454852
  stamp: 
    secs: 1561681988
    nsecs: 574888589
  frame_id: "ti_mmwave"
point_id: 17
x: 1.365234375
y: -0.568359375
z: -0.326171875
range: 1.61234796047
velocity: 0.614668667316
doppler_bin: 9
bearing: -22.602399826
intensity: 29.9299507141
---
header: 
  seq: 454853
  stamp: 
    secs: 1561681988
    nsecs: 574896326
  frame_id: "ti_mmwave"
point_id: 18
x: 1.423828125
y: -0.486328125
z: -0.390625
range: 1.65592491627
velocity: 0.614668667316
doppler_bin: 9
bearing: -18.8583087921
intensity: 28.4571800232
---
header: 
  seq: 454854
  stamp: 
    secs: 1561681988
    nsecs: 574907438
  frame_id: "ti_mmwave"
point_id: 20
x: 0.041015625
y: -0.033203125
z: 0.0625
range: 0.0871539413929
velocity: 0.0
doppler_bin: 8
bearing: -38.9909973145
intensity: 30.1114730835
---
header: 
  seq: 454855
  stamp: 
    secs: 1561681988
    nsecs: 574915553
  frame_id: "ti_mmwave"
point_id: 21
x: 0.052734375
y: -0.04296875
z: 0.1015625
range: 0.130730912089
velocity: 0.0
doppler_bin: 8
bearing: -39.1736602783
intensity: 29.0036716461
---
header: 
  seq: 454856
  stamp: 
    secs: 1561681988
    nsecs: 574925864
  frame_id: "ti_mmwave"
point_id: 23
x: 1.119140625
y: -0.515625
z: 0.298828125
range: 1.35088610649
velocity: 0.0
doppler_bin: 8
bearing: -24.7370834351
intensity: 19.0308990479
---
header: 
  seq: 454857
  stamp: 
    secs: 1561681988
    nsecs: 574934330
  frame_id: "ti_mmwave"
point_id: 24
x: 2.34765625
y: -2.00390625
z: -3.384765625
range: 4.88062095642
velocity: 0.0
doppler_bin: 8
bearing: -40.4833221436
intensity: 27.7597427368
---
header: 
  seq: 454858
  stamp: 
    secs: 1561681988
    nsecs: 574942178
  frame_id: "ti_mmwave"
point_id: 25
x: 2.748046875
y: -2.021484375
z: -3.119140625
range: 4.9241976738
velocity: 0.0
doppler_bin: 8
bearing: -36.3384857178
intensity: 27.5127906799
---
header: 
  seq: 454859
  stamp: 
    secs: 1561681988
    nsecs: 634351327
  frame_id: "ti_mmwave"
point_id: 0
x: 0.01171875
y: -0.0390625
z: -0.0078125
range: 0.0435769706964
velocity: 0.0
doppler_bin: 8
bearing: -73.3007583618
intensity: 30.7518177032
---
header: 
  seq: 454860
  stamp: 
    secs: 1561681988
    nsecs: 634402419
  frame_id: "ti_mmwave"
point_id: 1
x: 0.017578125
y: -0.080078125
z: -0.0078125
range: 0.0871539413929
velocity: 0.0
doppler_bin: 8
bearing: -77.6192398071
intensity: 31.9783172607
---
header: 
  seq: 454861
  stamp: 
    secs: 1561681988
    nsecs: 634409837
  frame_id: "ti_mmwave"
point_id: 2
x: 0.041015625
y: -0.115234375
z: -0.0078125
range: 0.130730912089
velocity: 0.0
doppler_bin: 8
bearing: -70.4077224731
intensity: 30.2407493591
---
header: 
  seq: 454862
  stamp: 
    secs: 1561681988
    nsecs: 634415155
  frame_id: "ti_mmwave"
point_id: 3
x: 0.056640625
y: -0.154296875
z: 0.005859375
range: 0.174307882786
velocity: 0.0
doppler_bin: 8
bearing: -69.8423843384
intensity: 25.5022830963
---
header: 
  seq: 454863
  stamp: 
    secs: 1561681988
    nsecs: 634420353
  frame_id: "ti_mmwave"
point_id: 4
x: 0.33984375
y: -0.080078125
z: -1.21875
range: 1.35088610649
velocity: 0.0
doppler_bin: 8
bearing: -13.2588720322
intensity: 21.8184356689
---
header: 
  seq: 454864
  stamp: 
    secs: 1561681988
    nsecs: 634425670
  frame_id: "ti_mmwave"
point_id: 5
x: 0.328125
y: -0.041015625
z: 1.265625
range: 1.39446306229
velocity: 0.0
doppler_bin: 8
bearing: -7.12501621246
intensity: 23.1806335449
---
header: 
  seq: 454865
  stamp: 
    secs: 1561681988
    nsecs: 634430697
  frame_id: "ti_mmwave"
point_id: 6
x: 0.50390625
y: -0.04296875
z: 1.251953125
range: 1.43804001808
velocity: 0.0
doppler_bin: 8
bearing: -4.87389659882
intensity: 21.8469142914
---
header: 
  seq: 454866
  stamp: 
    secs: 1561681988
    nsecs: 634437519
  frame_id: "ti_mmwave"
point_id: 7
x: 2.537109375
y: -0.263671875
z: 1.20703125
range: 3.00681090355
velocity: 0.0
doppler_bin: 8
bearing: -5.93322753906
intensity: 29.3550720215
---
header: 
  seq: 454867
  stamp: 
    secs: 1561681988
    nsecs: 634446535
  frame_id: "ti_mmwave"
point_id: 8
x: 2.6015625
y: -0.267578125
z: 1.16796875
range: 3.05038785934
velocity: 0.0
doppler_bin: 8
bearing: -5.87238502502
intensity: 32.7184143066
---
header: 
  seq: 454868
  stamp: 
    secs: 1561681988
    nsecs: 634457694
  frame_id: "ti_mmwave"
point_id: 9
x: 2.658203125
y: -0.181640625
z: 1.158203125
range: 3.09396481514
velocity: 0.0
doppler_bin: 8
bearing: -3.90906453133
intensity: 32.0167007446
---
header: 
  seq: 454869
  stamp: 
    secs: 1561681988
    nsecs: 634464119
  frame_id: "ti_mmwave"
point_id: 10
x: 4.423828125
y: -0.287109375
z: 1.154296875
range: 4.88062095642
velocity: 0.0
doppler_bin: 8
bearing: -3.71332621574
intensity: 30.7518177032
---
header: 
  seq: 454870
  stamp: 
    secs: 1561681988
    nsecs: 634469465
  frame_id: "ti_mmwave"
point_id: 11
x: 4.455078125
y: -0.2890625
z: 1.1953125
range: 4.9241976738
velocity: 0.0
doppler_bin: 8
bearing: -3.71236538887
intensity: 30.4336223602
---
header: 
  seq: 454871
  stamp: 
    secs: 1561681988
    nsecs: 634474934
  frame_id: "ti_mmwave"
point_id: 12
x: 4.69140625
y: -0.4453125
z: -0.556640625
range: 5.0549287796
velocity: 0.0
doppler_bin: 8
bearing: -5.42232084274
intensity: 29.3701610565
---
header: 
  seq: 454872
  stamp: 
    secs: 1561681988
    nsecs: 634480472
  frame_id: "ti_mmwave"
point_id: 13
x: 4.740234375
y: -0.44921875
z: -0.484375
range: 5.09850549698
velocity: 0.0
doppler_bin: 8
bearing: -5.41359329224
intensity: 33.3081932068
---
header: 
  seq: 454873
  stamp: 
    secs: 1561681988
    nsecs: 634485723
  frame_id: "ti_mmwave"
point_id: 14
x: 4.787109375
y: -0.453125
z: -0.423828125
range: 5.14208269119
velocity: 0.0
doppler_bin: 8
bearing: -5.40723514557
intensity: 33.9741859436
---
header: 
  seq: 454874
  stamp: 
    secs: 1561681988
    nsecs: 634500333
  frame_id: "ti_mmwave"
point_id: 15
x: 4.83984375
y: -0.45703125
z: -0.26953125
range: 5.18565940857
velocity: 0.0
doppler_bin: 8
bearing: -5.39450025558
intensity: 30.6892757416
---
header: 
  seq: 454875
  stamp: 
    secs: 1561681988
    nsecs: 634507116
  frame_id: "ti_mmwave"
point_id: 16
x: 4.87109375
y: -0.30859375
z: 0.826171875
range: 5.27281332016
velocity: 0.0
doppler_bin: 8
bearing: -3.62496066093
intensity: 30.8062648773
---
header: 
  seq: 454876
  stamp: 
    secs: 1561681988
    nsecs: 634626898
  frame_id: "ti_mmwave"
point_id: 17
x: 1.380859375
y: -0.4609375
z: -0.220703125
range: 1.56877088547
velocity: 0.614668667316
doppler_bin: 9
bearing: -18.4592571259
intensity: 28.1557769775
---
header: 
  seq: 454877
  stamp: 
    secs: 1561681988
    nsecs: 634641182
  frame_id: "ti_mmwave"
point_id: 18
x: 1.4140625
y: -0.51953125
z: -0.14453125
range: 1.61234796047
velocity: 0.614668667316
doppler_bin: 9
bearing: -20.173500061
intensity: 32.5163803101
---
header: 
  seq: 454878
  stamp: 
    secs: 1561681988
    nsecs: 634646898
  frame_id: "ti_mmwave"
point_id: 19
x: 1.455078125
y: -0.53515625
z: -0.11328125
range: 1.65592491627
velocity: 0.614668667316
doppler_bin: 9
bearing: -20.1927776337
intensity: 33.0877761841
---
header: 
  seq: 454879
  stamp: 
    secs: 1561681988
    nsecs: 634653523
  frame_id: "ti_mmwave"
point_id: 20
x: 1.49609375
y: -0.548828125
z: -0.060546875
range: 1.69950187206
velocity: 0.614668667316
doppler_bin: 9
bearing: -20.1450939178
intensity: 29.4596061707
---
header: 
  seq: 454880
  stamp: 
    secs: 1561681988
    nsecs: 634660244
  frame_id: "ti_mmwave"
point_id: 22
x: 0.041015625
y: -0.033203125
z: 0.0625
range: 0.0871539413929
velocity: 0.0
doppler_bin: 8
bearing: -38.9909973145
intensity: 30.1072387695
---
header: 
  seq: 454881
  stamp: 
    secs: 1561681988
    nsecs: 634666686
  frame_id: "ti_mmwave"
point_id: 23
x: 0.052734375
y: -0.04296875
z: 0.1015625
range: 0.130730912089
velocity: 0.0
doppler_bin: 8
bearing: -39.1736602783
intensity: 28.9982051849
---
header: 
  seq: 454882
  stamp: 
    secs: 1561681988
    nsecs: 634673080
  frame_id: "ti_mmwave"
point_id: 25
x: 1.12109375
y: -0.515625
z: 0.291015625
range: 1.35088610649
velocity: 0.0
doppler_bin: 8
bearing: -24.6991329193
intensity: 18.9762706757
---
header: 
  seq: 454883
  stamp: 
    secs: 1561681988
    nsecs: 634678468
  frame_id: "ti_mmwave"
point_id: 26
x: 2.474609375
y: -2.00390625
z: -3.29296875
range: 4.88062095642
velocity: 0.0
doppler_bin: 8
bearing: -39.0000991821
intensity: 27.8103694916
---
header: 
  seq: 454884
  stamp: 
    secs: 1561681988
    nsecs: 634750927
  frame_id: "ti_mmwave"
point_id: 27
x: 2.771484375
y: -2.021484375
z: -3.09765625
range: 4.9241976738
velocity: 0.0
doppler_bin: 8
bearing: -36.1065177917
intensity: 27.5966777802
---
header: 
  seq: 454885
  stamp: 
    secs: 1561681988
    nsecs: 635270639
  frame_id: "ti_mmwave"
point_id: 0
x: 0.01171875
y: -0.0390625
z: -0.0078125
range: 0.0435769706964
velocity: 0.0
doppler_bin: 8
bearing: -73.3007583618
intensity: 30.7518177032
---
header: 
  seq: 454886
  stamp: 
    secs: 1561681988
    nsecs: 635300169
  frame_id: "ti_mmwave"
point_id: 1
x: 0.017578125
y: -0.080078125
z: -0.0078125
range: 0.0871539413929
velocity: 0.0
doppler_bin: 8
bearing: -77.6192398071
intensity: 31.9783172607
---
header: 
  seq: 454887
  stamp: 
    secs: 1561681988
    nsecs: 635310614
  frame_id: "ti_mmwave"
point_id: 2
x: 0.029296875
y: -0.119140625
z: -0.005859375
range: 0.130730912089
velocity: 0.0
doppler_bin: 8
bearing: -76.1849746704
intensity: 30.2366390228
---
header: 
  seq: 454888
  stamp: 
    secs: 1561681988
    nsecs: 635319327
  frame_id: "ti_mmwave"
point_id: 3
x: 0.056640625
y: -0.154296875
z: 0.00390625
range: 0.174307882786
velocity: 0.0
doppler_bin: 8
bearing: -69.8423843384
intensity: 25.490032196
---
header: 
  seq: 454889
  stamp: 
    secs: 1561681988
    nsecs: 635334466
  frame_id: "ti_mmwave"
point_id: 4
x: 0.326171875
y: -0.080078125
z: -1.22265625
range: 1.35088610649
velocity: 0.0
doppler_bin: 8
bearing: -13.7938089371
intensity: 21.8184356689
---
header: 
  seq: 454890
  stamp: 
    secs: 1561681988
    nsecs: 635347025
  frame_id: "ti_mmwave"
point_id: 5
x: 0.326171875
y: -0.041015625
z: 1.267578125
range: 1.39446306229
velocity: 0.0
doppler_bin: 8
bearing: -7.16723871231
intensity: 23.2014636993
---
header: 
  seq: 454891
  stamp: 
    secs: 1561681988
    nsecs: 635371837
  frame_id: "ti_mmwave"
point_id: 6
x: 0.5078125
y: -0.04296875
z: 1.25
range: 1.43804001808
velocity: 0.0
doppler_bin: 8
bearing: -4.83658361435
intensity: 21.875207901
---
header: 
  seq: 454892
  stamp: 
    secs: 1561681988
    nsecs: 635416251
  frame_id: "ti_mmwave"
point_id: 7
x: 2.546875
y: -0.263671875
z: 1.189453125
range: 3.00681090355
velocity: 0.0
doppler_bin: 8
bearing: -5.91063833237
intensity: 29.4101428986
---
header: 
  seq: 454893
  stamp: 
    secs: 1561681988
    nsecs: 635425765
  frame_id: "ti_mmwave"
point_id: 8
x: 2.60546875
y: -0.267578125
z: 1.16015625
range: 3.05038785934
velocity: 0.0
doppler_bin: 8
bearing: -5.86364221573
intensity: 32.7300109863
---
header: 
  seq: 454894
  stamp: 
    secs: 1561681988
    nsecs: 635434547
  frame_id: "ti_mmwave"
point_id: 9
x: 2.66015625
y: -0.181640625
z: 1.150390625
range: 3.09396481514
velocity: 0.0
doppler_bin: 8
bearing: -3.90620398521
intensity: 32.0221595764
---
header: 
  seq: 454895
  stamp: 
    secs: 1561681988
    nsecs: 635443742
  frame_id: "ti_mmwave"
point_id: 10
x: 4.427734375
y: -0.287109375
z: 1.14453125
range: 4.88062095642
velocity: 0.0
doppler_bin: 8
bearing: -3.71005964279
intensity: 30.7627620697
---
header: 
  seq: 454896
  stamp: 
    secs: 1561681988
    nsecs: 635451460
  frame_id: "ti_mmwave"
point_id: 11
x: 4.453125
y: -0.2890625
z: 1.203125
range: 4.9241976738
velocity: 0.0
doppler_bin: 8
bearing: -3.71398925781
intensity: 30.358297348
---
header: 
  seq: 454897
  stamp: 
    secs: 1561681988
    nsecs: 635458804
  frame_id: "ti_mmwave"
point_id: 12
x: 4.69140625
y: -0.4453125
z: -0.55859375
range: 5.0549287796
velocity: 0.0
doppler_bin: 8
bearing: -5.42232084274
intensity: 29.2737045288
---
header: 
  seq: 454898
  stamp: 
    secs: 1561681988
    nsecs: 635466342
  frame_id: "ti_mmwave"
point_id: 13
x: 4.740234375
y: -0.44921875
z: -0.490234375
range: 5.09850549698
velocity: 0.0
doppler_bin: 8
bearing: -5.41359329224
intensity: 33.2345848083
---
header: 
  seq: 454899
  stamp: 
    secs: 1561681988
    nsecs: 635474217
  frame_id: "ti_mmwave"
point_id: 14
x: 4.787109375
y: -0.453125
z: -0.423828125
range: 5.14208269119
velocity: 0.0
doppler_bin: 8
bearing: -5.40723514557
intensity: 33.9252090454
---
header: 
  seq: 454900
  stamp: 
    secs: 1561681988
    nsecs: 635479400
  frame_id: "ti_mmwave"
point_id: 15
x: 4.83984375
y: -0.45703125
z: -0.259765625
range: 5.18565940857
velocity: 0.0
doppler_bin: 8
bearing: -5.39450025558
intensity: 30.7518177032
---
header: 
  seq: 454901
  stamp: 
    secs: 1561681988
    nsecs: 635521752
  frame_id: "ti_mmwave"
point_id: 16
x: 4.8828125
y: -0.30859375
z: 0.755859375
range: 5.27281332016
velocity: 0.0
doppler_bin: 8
bearing: -3.61628341675
intensity: 30.8671569824
---
header: 
  seq: 454902
  stamp: 
    secs: 1561681988
    nsecs: 635530777
  frame_id: "ti_mmwave"
point_id: 17
x: 1.40625
y: -0.51953125
z: -0.203125
range: 1.61234796047
velocity: 0.614668667316
doppler_bin: 9
bearing: -20.2764701843
intensity: 27.3078231812
---
header: 
  seq: 454903
  stamp: 
    secs: 1561681988
    nsecs: 635539667
  frame_id: "ti_mmwave"
point_id: 18
x: 1.451171875
y: -0.53515625
z: -0.162109375
range: 1.65592491627
velocity: 0.614668667316
doppler_bin: 9
bearing: -20.2427253723
intensity: 29.5472488403
---
header: 
  seq: 454904
  stamp: 
    secs: 1561681988
    nsecs: 635547320
  frame_id: "ti_mmwave"
point_id: 19
x: 1.47265625
y: -0.59765625
z: -0.1328125
range: 1.69950187206
velocity: 0.614668667316
doppler_bin: 9
bearing: -22.0890617371
intensity: 27.7815132141
---
header: 
  seq: 454905
  stamp: 
    secs: 1561681988
    nsecs: 635555773
  frame_id: "ti_mmwave"
point_id: 20
x: 1.43359375
y: -0.716796875
z: -0.328125
range: 1.74307882786
velocity: 0.614668667316
doppler_bin: 9
bearing: -26.5650501251
intensity: 25.7170886993
---
header: 
  seq: 454906
  stamp: 
    secs: 1561681988
    nsecs: 635566200
  frame_id: "ti_mmwave"
point_id: 22
x: 0.041015625
y: -0.033203125
z: 0.0625
range: 0.0871539413929
velocity: 0.0
doppler_bin: 8
bearing: -38.9909973145
intensity: 30.1157035828
---
header: 
  seq: 454907
  stamp: 
    secs: 1561681988
    nsecs: 635574403
  frame_id: "ti_mmwave"
point_id: 23
x: 0.052734375
y: -0.04296875
z: 0.1015625
range: 0.130730912089
velocity: 0.0
doppler_bin: 8
bearing: -39.1736602783
intensity: 28.9982051849
---
header: 
  seq: 454908
  stamp: 
    secs: 1561681988
    nsecs: 635593661
  frame_id: "ti_mmwave"
point_id: 25
x: 1.1171875
y: -0.515625
z: 0.306640625
range: 1.35088610649
velocity: 0.0
doppler_bin: 8
bearing: -24.7751407623
intensity: 19.0308990479
---
header: 
  seq: 454909
  stamp: 
    secs: 1561681988
    nsecs: 635644667
  frame_id: "ti_mmwave"
point_id: 26
x: 2.916015625
y: -2.021484375
z: -2.9609375
range: 4.9241976738
velocity: 0.0
doppler_bin: 8
bearing: -34.7310562134
intensity: 27.4115161896
---
header: 
  seq: 454910
  stamp: 
    secs: 1561681988
    nsecs: 694471851
  frame_id: "ti_mmwave"
point_id: 0
x: 0.01171875
y: -0.0390625
z: -0.0078125
range: 0.0435769706964
velocity: 0.0
doppler_bin: 8
bearing: -73.3007583618
intensity: 30.7518177032
---
header: 
  seq: 454911
  stamp: 
    secs: 1561681988
    nsecs: 694543759
  frame_id: "ti_mmwave"
point_id: 1
x: 0.017578125
y: -0.080078125
z: -0.0078125
range: 0.0871539413929
velocity: 0.0
doppler_bin: 8
bearing: -77.6192398071
intensity: 31.9783172607
---
header: 
  seq: 454912
  stamp: 
    secs: 1561681988
    nsecs: 694554890
  frame_id: "ti_mmwave"
point_id: 2
x: 0.029296875
y: -0.119140625
z: -0.005859375
range: 0.130730912089
velocity: 0.0
doppler_bin: 8
bearing: -76.1849746704
intensity: 30.2448558807
---
header: 
  seq: 454913
  stamp: 
    secs: 1561681988
    nsecs: 694563279
  frame_id: "ti_mmwave"
point_id: 3
x: 0.056640625
y: -0.154296875
z: 0.005859375
range: 0.174307882786
velocity: 0.0
doppler_bin: 8
bearing: -69.8423843384
intensity: 25.5022830963
---
header: 
  seq: 454914
  stamp: 
    secs: 1561681988
    nsecs: 694574071
  frame_id: "ti_mmwave"
point_id: 4
x: 0.2890625
y: -0.080078125
z: -1.232421875
range: 1.35088610649
velocity: 0.0
doppler_bin: 8
bearing: -15.48416996
intensity: 21.8184356689
---
header: 
  seq: 454915
  stamp: 
    secs: 1561681988
    nsecs: 694582033
  frame_id: "ti_mmwave"
point_id: 5
x: 0.32421875
y: -0.041015625
z: 1.267578125
range: 1.39446306229
velocity: 0.0
doppler_bin: 8
bearing: -7.20996236801
intensity: 23.2014636993
---
header: 
  seq: 454916
  stamp: 
    secs: 1561681988
    nsecs: 694589705
  frame_id: "ti_mmwave"
point_id: 6
x: 0.482421875
y: -0.04296875
z: 1.259765625
range: 1.43804001808
velocity: 0.0
doppler_bin: 8
bearing: -5.08983659744
intensity: 21.875207901
---
header: 
  seq: 454917
  stamp: 
    secs: 1561681988
    nsecs: 694597747
  frame_id: "ti_mmwave"
point_id: 7
x: 2.5390625
y: -0.263671875
z: 1.203125
range: 3.00681090355
velocity: 0.0
doppler_bin: 8
bearing: -5.92869567871
intensity: 29.380191803
---
header: 
  seq: 454918
  stamp: 
    secs: 1561681988
    nsecs: 694607381
  frame_id: "ti_mmwave"
point_id: 8
x: 2.603515625
y: -0.267578125
z: 1.16015625
range: 3.05038785934
velocity: 0.0
doppler_bin: 8
bearing: -5.8680100441
intensity: 32.7253761292
---
header: 
  seq: 454919
  stamp: 
    secs: 1561681988
    nsecs: 694615512
  frame_id: "ti_mmwave"
point_id: 9
x: 2.658203125
y: -0.181640625
z: 1.154296875
range: 3.09396481514
velocity: 0.0
doppler_bin: 8
bearing: -3.90906453133
intensity: 32.0439147949
---
header: 
  seq: 454920
  stamp: 
    secs: 1561681988
    nsecs: 694623875
  frame_id: "ti_mmwave"
point_id: 10
x: 4.421875
y: -0.287109375
z: 1.16015625
range: 4.88062095642
velocity: 0.0
doppler_bin: 8
bearing: -3.7149617672
intensity: 30.7591171265
---
header: 
  seq: 454921
  stamp: 
    secs: 1561681988
    nsecs: 694633105
  frame_id: "ti_mmwave"
point_id: 11
x: 4.451171875
y: -0.2890625
z: 1.212890625
range: 4.9241976738
velocity: 0.0
doppler_bin: 8
bearing: -3.71561431885
intensity: 30.4099769592
---
header: 
  seq: 454922
  stamp: 
    secs: 1561681988
    nsecs: 694640601
  frame_id: "ti_mmwave"
point_id: 12
x: 4.689453125
y: -0.4453125
z: -0.578125
range: 5.0549287796
velocity: 0.0
doppler_bin: 8
bearing: -5.42456626892
intensity: 29.3043956757
---
header: 
  seq: 454923
  stamp: 
    secs: 1561681988
    nsecs: 694648743
  frame_id: "ti_mmwave"
point_id: 13
x: 4.740234375
y: -0.44921875
z: -0.486328125
range: 5.09850549698
velocity: 0.0
doppler_bin: 8
bearing: -5.41359329224
intensity: 33.1449928284
---
header: 
  seq: 454924
  stamp: 
    secs: 1561681988
    nsecs: 694657495
  frame_id: "ti_mmwave"
point_id: 14
x: 4.787109375
y: -0.453125
z: -0.41796875
range: 5.14208269119
velocity: 0.0
doppler_bin: 8
bearing: -5.40723514557
intensity: 33.8273735046
---
header: 
  seq: 454925
  stamp: 
    secs: 1561681988
    nsecs: 694666010
  frame_id: "ti_mmwave"
point_id: 15
x: 4.83984375
y: -0.45703125
z: -0.2421875
range: 5.18565940857
velocity: 0.0
doppler_bin: 8
bearing: -5.39450025558
intensity: 30.678144455
---
header: 
  seq: 454926
  stamp: 
    secs: 1561681988
    nsecs: 694674957
  frame_id: "ti_mmwave"
point_id: 16
x: 4.88671875
y: -0.30859375
z: 0.716796875
range: 5.27281332016
velocity: 0.0
doppler_bin: 8
bearing: -3.61340069771
intensity: 30.934217453
---
header: 
  seq: 454927
  stamp: 
    secs: 1561681988
    nsecs: 694683874
  frame_id: "ti_mmwave"
point_id: 17
x: 1.421875
y: -0.42578125
z: -0.296875
range: 1.61234796047
velocity: 0.614668667316
doppler_bin: 9
bearing: -16.6703567505
intensity: 26.6464195251
---
header: 
  seq: 454928
  stamp: 
    secs: 1561681988
    nsecs: 694693275
  frame_id: "ti_mmwave"
point_id: 18
x: 1.4453125
y: -0.486328125
z: -0.298828125
range: 1.65592491627
velocity: 0.614668667316
doppler_bin: 9
bearing: -18.5973911285
intensity: 30.5269393921
---
header: 
  seq: 454929
  stamp: 
    secs: 1561681988
    nsecs: 694702618
  frame_id: "ti_mmwave"
point_id: 19
x: 1.470703125
y: -0.548828125
z: -0.2890625
range: 1.69950187206
velocity: 0.614668667316
doppler_bin: 9
bearing: -20.4642658234
intensity: 31.209028244
---
header: 
  seq: 454930
  stamp: 
    secs: 1561681988
    nsecs: 694714790
  frame_id: "ti_mmwave"
point_id: 20
x: 1.513671875
y: -0.5625
z: -0.267578125
range: 1.74307882786
velocity: 0.614668667316
doppler_bin: 9
bearing: -20.3857154846
intensity: 28.6213130951
---
header: 
  seq: 454931
  stamp: 
    secs: 1561681988
    nsecs: 694886875
  frame_id: "ti_mmwave"
point_id: 22
x: 0.041015625
y: -0.033203125
z: 0.0625
range: 0.0871539413929
velocity: 0.0
doppler_bin: 8
bearing: -38.9909973145
intensity: 30.1157035828
---
header: 
  seq: 454932
  stamp: 
    secs: 1561681988
    nsecs: 694907457
  frame_id: "ti_mmwave"
point_id: 23
x: 0.052734375
y: -0.04296875
z: 0.1015625
range: 0.130730912089
velocity: 0.0
doppler_bin: 8
bearing: -39.1736602783
intensity: 29.0036716461
---
header: 
  seq: 454933
  stamp: 
    secs: 1561681988
    nsecs: 694919515
  frame_id: "ti_mmwave"
point_id: 25
x: 1.12109375
y: -0.515625
z: 0.294921875
range: 1.35088610649
velocity: 0.0
doppler_bin: 8
bearing: -24.6991329193
intensity: 18.9762706757
---
header: 
  seq: 454934
  stamp: 
    secs: 1561681988
    nsecs: 694929129
  frame_id: "ti_mmwave"
point_id: 26
x: 2.908203125
y: -2.021484375
z: -2.970703125
range: 4.9241976738
velocity: 0.0
doppler_bin: 8
bearing: -34.803062439
intensity: 27.4585514069
---
header: 
  seq: 454935
  stamp: 
    secs: 1561681988
    nsecs: 696019245
  frame_id: "ti_mmwave"
point_id: 0
x: 0.01171875
y: -0.0390625
z: -0.0078125
range: 0.0435769706964
velocity: 0.0
doppler_bin: 8
bearing: -73.3007583618
intensity: 30.7518177032
---
header: 
  seq: 454936
  stamp: 
    secs: 1561681988
    nsecs: 696112152
  frame_id: "ti_mmwave"
point_id: 1
x: 0.017578125
y: -0.080078125
z: -0.0078125
range: 0.0871539413929
velocity: 0.0
doppler_bin: 8
bearing: -77.6192398071
intensity: 31.9783172607
---
header: 
  seq: 454937
  stamp: 
    secs: 1561681988
    nsecs: 696132046
  frame_id: "ti_mmwave"
point_id: 2
x: 0.041015625
y: -0.115234375
z: -0.0078125
range: 0.130730912089
velocity: 0.0
doppler_bin: 8
bearing: -70.4077224731
intensity: 30.2407493591
---
header: 
  seq: 454938
  stamp: 
    secs: 1561681988
    nsecs: 696154214
  frame_id: "ti_mmwave"
point_id: 3
x: 0.056640625
y: -0.154296875
z: 0.005859375
range: 0.174307882786
velocity: 0.0
doppler_bin: 8
bearing: -69.8423843384
intensity: 25.5144996643
---
header: 
  seq: 454939
  stamp: 
    secs: 1561681988
    nsecs: 696215472
  frame_id: "ti_mmwave"
point_id: 4
x: 0.349609375
y: -0.080078125
z: -1.216796875
range: 1.35088610649
velocity: 0.0
doppler_bin: 8
bearing: -12.9010734558
intensity: 21.7897701263
---
header: 
  seq: 454940
  stamp: 
    secs: 1561681988
    nsecs: 696232472
  frame_id: "ti_mmwave"
point_id: 5
x: 0.3125
y: -0.041015625
z: 1.26953125
range: 1.39446306229
velocity: 0.0
doppler_bin: 8
bearing: -7.47732973099
intensity: 23.1806335449
---
header: 
  seq: 454941
  stamp: 
    secs: 1561681988
    nsecs: 696286571
  frame_id: "ti_mmwave"
point_id: 6
x: 0.486328125
y: -0.04296875
z: 1.259765625
range: 1.43804001808
velocity: 0.0
doppler_bin: 8
bearing: -5.04916620255
intensity: 21.875207901
---
header: 
  seq: 454942
  stamp: 
    secs: 1561681988
    nsecs: 696300784
  frame_id: "ti_mmwave"
point_id: 7
x: 1.388671875
y: -0.37890625
z: -0.470703125
range: 1.61234796047
velocity: 0.0
doppler_bin: 8
bearing: -15.2619361877
intensity: 24.6538276672
---
header: 
  seq: 454943
  stamp: 
    secs: 1561681988
    nsecs: 696314928
  frame_id: "ti_mmwave"
point_id: 8
x: 2.537109375
y: -0.263671875
z: 1.20703125
range: 3.00681090355
velocity: 0.0
doppler_bin: 8
bearing: -5.93322753906
intensity: 29.4299964905
---
header: 
  seq: 454944
  stamp: 
    secs: 1561681988
    nsecs: 696343896
  frame_id: "ti_mmwave"
point_id: 9
x: 2.599609375
y: -0.267578125
z: 1.169921875
range: 3.05038785934
velocity: 0.0
doppler_bin: 8
bearing: -5.87676620483
intensity: 32.7300109863
---
header: 
  seq: 454945
  stamp: 
    secs: 1561681988
    nsecs: 696393696
  frame_id: "ti_mmwave"
point_id: 10
x: 2.658203125
y: -0.181640625
z: 1.158203125
range: 3.09396481514
velocity: 0.0
doppler_bin: 8
bearing: -3.90906453133
intensity: 32.0221595764
---
header: 
  seq: 454946
  stamp: 
    secs: 1561681988
    nsecs: 696410129
  frame_id: "ti_mmwave"
point_id: 11
x: 4.42578125
y: -0.287109375
z: 1.1484375
range: 4.88062095642
velocity: 0.0
doppler_bin: 8
bearing: -3.7116920948
intensity: 30.7261753082
---
header: 
  seq: 454947
  stamp: 
    secs: 1561681988
    nsecs: 696424004
  frame_id: "ti_mmwave"
point_id: 12
x: 4.455078125
y: -0.2890625
z: 1.201171875
range: 4.9241976738
velocity: 0.0
doppler_bin: 8
bearing: -3.71236538887
intensity: 30.3382568359
---
header: 
  seq: 454948
  stamp: 
    secs: 1561681988
    nsecs: 696440441
  frame_id: "ti_mmwave"
point_id: 13
x: 4.73828125
y: -0.44921875
z: -0.5
range: 5.09850549698
velocity: 0.0
doppler_bin: 8
bearing: -5.4158115387
intensity: 33.064250946
---
header: 
  seq: 454949
  stamp: 
    secs: 1561681988
    nsecs: 696490200
  frame_id: "ti_mmwave"
point_id: 14
x: 4.78515625
y: -0.453125
z: -0.435546875
range: 5.14208269119
velocity: 0.0
doppler_bin: 8
bearing: -5.40942907333
intensity: 33.6417579651
---
header: 
  seq: 454950
  stamp: 
    secs: 1561681988
    nsecs: 696505779
  frame_id: "ti_mmwave"
point_id: 15
x: 4.83984375
y: -0.45703125
z: -0.25
range: 5.18565940857
velocity: 0.0
doppler_bin: 8
bearing: -5.39450025558
intensity: 30.2201576233
---
header: 
  seq: 454951
  stamp: 
    secs: 1561681988
    nsecs: 696522750
  frame_id: "ti_mmwave"
point_id: 16
x: 4.880859375
y: -0.30859375
z: 0.76171875
range: 5.27281332016
velocity: 0.0
doppler_bin: 8
bearing: -3.61772704124
intensity: 30.9236965179
---
header: 
  seq: 454952
  stamp: 
    secs: 1561681988
    nsecs: 696536821
  frame_id: "ti_mmwave"
point_id: 17
x: 1.490234375
y: -0.388671875
z: -0.212890625
range: 1.65592491627
velocity: 0.614668667316
doppler_bin: 9
bearing: -14.617816925
intensity: 27.8247261047
---
header: 
  seq: 454953
  stamp: 
    secs: 1561681988
    nsecs: 696547569
  frame_id: "ti_mmwave"
point_id: 18
x: 1.41796875
y: -0.59765625
z: -0.41796875
range: 1.69950187206
velocity: 0.614668667316
doppler_bin: 9
bearing: -22.8548202515
intensity: 27.8390350342
---
header: 
  seq: 454954
  stamp: 
    secs: 1561681988
    nsecs: 696580629
  frame_id: "ti_mmwave"
point_id: 19
x: 1.447265625
y: -0.6640625
z: -0.376953125
range: 1.74307882786
velocity: 0.614668667316
doppler_bin: 9
bearing: -24.64752388
intensity: 28.350561142
---
header: 
  seq: 454955
  stamp: 
    secs: 1561681988
    nsecs: 696681312
  frame_id: "ti_mmwave"
point_id: 20
x: 1.490234375
y: -0.681640625
z: -0.357421875
range: 1.78665578365
velocity: 0.614668667316
doppler_bin: 9
bearing: -24.5795917511
intensity: 26.7024593353
---
header: 
  seq: 454956
  stamp: 
    secs: 1561681988
    nsecs: 696726117
  frame_id: "ti_mmwave"
point_id: 22
x: 0.041015625
y: -0.033203125
z: 0.0625
range: 0.0871539413929
velocity: 0.0
doppler_bin: 8
bearing: -38.9909973145
intensity: 30.1157035828
---
header: 
  seq: 454957
  stamp: 
    secs: 1561681988
    nsecs: 696742892
  frame_id: "ti_mmwave"
point_id: 23
x: 0.052734375
y: -0.04296875
z: 0.1015625
range: 0.130730912089
velocity: 0.0
doppler_bin: 8
bearing: -39.1736602783
intensity: 28.9982051849
---
header: 
  seq: 454958
  stamp: 
    secs: 1561681988
    nsecs: 696779279
  frame_id: "ti_mmwave"
point_id: 25
x: 1.11328125
y: -0.515625
z: 0.318359375
range: 1.35088610649
velocity: 0.0
doppler_bin: 8
bearing: -24.8515853882
intensity: 18.9762706757
---
header: 
  seq: 454959
  stamp: 
    secs: 1561681988
    nsecs: 754530644
  frame_id: "ti_mmwave"
point_id: 0
x: 0.01171875
y: -0.0390625
z: -0.0078125
range: 0.0435769706964
velocity: 0.0
doppler_bin: 8
bearing: -73.3007583618
intensity: 30.7591171265
---
header: 
  seq: 454960
  stamp: 
    secs: 1561681988
    nsecs: 754607631
  frame_id: "ti_mmwave"
point_id: 1
x: 0.017578125
y: -0.080078125
z: -0.0078125
range: 0.0871539413929
velocity: 0.0
doppler_bin: 8
bearing: -77.6192398071
intensity: 31.9810695648
---
header: 
  seq: 454961
  stamp: 
    secs: 1561681988
    nsecs: 754619760
  frame_id: "ti_mmwave"
point_id: 2
x: 0.029296875
y: -0.119140625
z: -0.005859375
range: 0.130730912089
velocity: 0.0
doppler_bin: 8
bearing: -76.1849746704
intensity: 30.2448558807
---
header: 
  seq: 454962
  stamp: 
    secs: 1561681988
    nsecs: 754628780
  frame_id: "ti_mmwave"
point_id: 3
x: 0.056640625
y: -0.154296875
z: 0.005859375
range: 0.174307882786
velocity: 0.0
doppler_bin: 8
bearing: -69.8423843384
intensity: 25.5144996643
---
header: 
  seq: 454963
  stamp: 
    secs: 1561681988
    nsecs: 754637713
  frame_id: "ti_mmwave"
point_id: 4
x: 0.310546875
y: -0.080078125
z: -1.2265625
range: 1.35088610649
velocity: 0.0
doppler_bin: 8
bearing: -14.4593963623
intensity: 21.8469142914
---
header: 
  seq: 454964
  stamp: 
    secs: 1561681988
    nsecs: 754648094
  frame_id: "ti_mmwave"
point_id: 5
x: 0.333984375
y: -0.041015625
z: 1.265625
range: 1.39446306229
velocity: 0.0
doppler_bin: 8
bearing: -7.00126743317
intensity: 23.2014636993
---
header: 
  seq: 454965
  stamp: 
    secs: 1561681988
    nsecs: 754656676
  frame_id: "ti_mmwave"
point_id: 6
x: 0.515625
y: -0.04296875
z: 1.248046875
range: 1.43804001808
velocity: 0.0
doppler_bin: 8
bearing: -4.76364183426
intensity: 21.9033164978
---
header: 
  seq: 454966
  stamp: 
    secs: 1561681988
    nsecs: 754664851
  frame_id: "ti_mmwave"
point_id: 7
x: 1.45703125
y: -0.388671875
z: -0.376953125
range: 1.65592491627
velocity: 0.0
doppler_bin: 8
bearing: -14.9361982346
intensity: 26.7851829529
---
header: 
  seq: 454967
  stamp: 
    secs: 1561681988
    nsecs: 754673639
  frame_id: "ti_mmwave"
point_id: 8
x: 2.54296875
y: -0.263671875
z: 1.1953125
range: 3.00681090355
velocity: 0.0
doppler_bin: 8
bearing: -5.91965341568
intensity: 29.4101428986
---
header: 
  seq: 454968
  stamp: 
    secs: 1561681988
    nsecs: 754684514
  frame_id: "ti_mmwave"
point_id: 9
x: 2.60546875
y: -0.267578125
z: 1.158203125
range: 3.05038785934
velocity: 0.0
doppler_bin: 8
bearing: -5.86364221573
intensity: 32.7415771484
---
header: 
  seq: 454969
  stamp: 
    secs: 1561681988
    nsecs: 754692489
  frame_id: "ti_mmwave"
point_id: 10
x: 2.662109375
y: -0.181640625
z: 1.1484375
range: 3.09396481514
velocity: 0.0
doppler_bin: 8
bearing: -3.90334677696
intensity: 32.0167007446
---
header: 
  seq: 454970
  stamp: 
    secs: 1561681988
    nsecs: 754700736
  frame_id: "ti_mmwave"
point_id: 11
x: 4.419921875
y: -0.287109375
z: 1.169921875
range: 4.88062095642
velocity: 0.0
doppler_bin: 8
bearing: -3.71659874916
intensity: 30.7188205719
---
header: 
  seq: 454971
  stamp: 
    secs: 1561681988
    nsecs: 754710568
  frame_id: "ti_mmwave"
point_id: 12
x: 4.443359375
y: -0.2890625
z: 1.23828125
range: 4.9241976738
velocity: 0.0
doppler_bin: 8
bearing: -3.72212862968
intensity: 30.3422718048
---
header: 
  seq: 454972
  stamp: 
    secs: 1561681988
    nsecs: 754720243
  frame_id: "ti_mmwave"
point_id: 13
x: 4.689453125
y: -0.4453125
z: -0.56640625
range: 5.0549287796
velocity: 0.0
doppler_bin: 8
bearing: -5.42456626892
intensity: 29.3449840546
---
header: 
  seq: 454973
  stamp: 
    secs: 1561681988
    nsecs: 754728993
  frame_id: "ti_mmwave"
point_id: 14
x: 4.740234375
y: -0.44921875
z: -0.486328125
range: 5.09850549698
velocity: 0.0
doppler_bin: 8
bearing: -5.41359329224
intensity: 33.3041381836
---
header: 
  seq: 454974
  stamp: 
    secs: 1561681988
    nsecs: 754738027
  frame_id: "ti_mmwave"
point_id: 15
x: 4.787109375
y: -0.453125
z: -0.419921875
range: 5.14208269119
velocity: 0.0
doppler_bin: 8
bearing: -5.40723514557
intensity: 33.8934326172
---
header: 
  seq: 454975
  stamp: 
    secs: 1561681988
    nsecs: 754746098
  frame_id: "ti_mmwave"
point_id: 16
x: 4.83984375
y: -0.45703125
z: -0.236328125
range: 5.18565940857
velocity: 0.0
doppler_bin: 8
bearing: -5.39450025558
intensity: 30.4336223602
---
header: 
  seq: 454976
  stamp: 
    secs: 1561681988
    nsecs: 754763405
  frame_id: "ti_mmwave"
point_id: 17
x: 4.869140625
y: -0.30859375
z: 0.828125
range: 5.27281332016
velocity: 0.0
doppler_bin: 8
bearing: -3.62641048431
intensity: 30.9236965179
---
header: 
  seq: 454977
  stamp: 
    secs: 1561681988
    nsecs: 754781345
  frame_id: "ti_mmwave"
point_id: 18
x: 1.474609375
y: -0.6640625
z: -0.2421875
range: 1.74307882786
velocity: 0.614668667316
doppler_bin: 9
bearing: -24.2435207367
intensity: 26.5896492004
---
header: 
  seq: 454978
  stamp: 
    secs: 1561681988
    nsecs: 754797243
  frame_id: "ti_mmwave"
point_id: 19
x: 1.53125
y: -0.62890625
z: -0.271484375
range: 1.78665578365
velocity: 0.614668667316
doppler_bin: 9
bearing: -22.3286571503
intensity: 25.3147888184
---
header: 
  seq: 454979
  stamp: 
    secs: 1561681988
    nsecs: 754809077
  frame_id: "ti_mmwave"
point_id: 21
x: 0.041015625
y: -0.033203125
z: 0.0625
range: 0.0871539413929
velocity: 0.0
doppler_bin: 8
bearing: -38.9909973145
intensity: 30.1157035828
---
header: 
  seq: 454980
  stamp: 
    secs: 1561681988
    nsecs: 754991327
  frame_id: "ti_mmwave"
point_id: 22
x: 0.052734375
y: -0.04296875
z: 0.1015625
range: 0.130730912089
velocity: 0.0
doppler_bin: 8
bearing: -39.1736602783
intensity: 29.0036716461
---
header: 
  seq: 454981
  stamp: 
    secs: 1561681988
    nsecs: 755025177
  frame_id: "ti_mmwave"
point_id: 24
x: 1.119140625
y: -0.515625
z: 0.298828125
range: 1.35088610649
velocity: 0.0
doppler_bin: 8
bearing: -24.7370834351
intensity: 19.0308990479
---
header: 
  seq: 454982
  stamp: 
    secs: 1561681988
    nsecs: 755042582
  frame_id: "ti_mmwave"
point_id: 25
x: 0.693359375
y: 0.923828125
z: -1.041015625
range: 1.65592491627
velocity: 0.0
doppler_bin: 8
bearing: 53.1107254028
intensity: 24.871383667
---
header: 
  seq: 454983
  stamp: 
    secs: 1561681988
    nsecs: 756107812
  frame_id: "ti_mmwave"
point_id: 0
x: 0.01171875
y: -0.0390625
z: -0.0078125
range: 0.0435769706964
velocity: 0.0
doppler_bin: 8
bearing: -73.3007583618
intensity: 30.7554702759
---
header: 
  seq: 454984
  stamp: 
    secs: 1561681988
    nsecs: 756180311
  frame_id: "ti_mmwave"
point_id: 1
x: 0.017578125
y: -0.080078125
z: -0.0078125
range: 0.0871539413929
velocity: 0.0
doppler_bin: 8
bearing: -77.6192398071
intensity: 31.9810695648
---
header: 
  seq: 454985
  stamp: 
    secs: 1561681988
    nsecs: 756199327
  frame_id: "ti_mmwave"
point_id: 2
x: 0.029296875
y: -0.119140625
z: -0.005859375
range: 0.130730912089
velocity: 0.0
doppler_bin: 8
bearing: -76.1849746704
intensity: 30.2448558807
---
header: 
  seq: 454986
  stamp: 
    secs: 1561681988
    nsecs: 756214449
  frame_id: "ti_mmwave"
point_id: 3
x: 0.056640625
y: -0.154296875
z: 0.005859375
range: 0.174307882786
velocity: 0.0
doppler_bin: 8
bearing: -69.8423843384
intensity: 25.5266819
---
header: 
  seq: 454987
  stamp: 
    secs: 1561681988
    nsecs: 756314181
  frame_id: "ti_mmwave"
point_id: 4
x: 0.337890625
y: -0.080078125
z: -1.21875
range: 1.35088610649
velocity: 0.0
doppler_bin: 8
bearing: -13.332783699
intensity: 21.8184356689
---
header: 
  seq: 454988
  stamp: 
    secs: 1561681988
    nsecs: 756334594
  frame_id: "ti_mmwave"
point_id: 5
x: 0.3203125
y: -0.041015625
z: 1.267578125
range: 1.39446306229
velocity: 0.0
doppler_bin: 8
bearing: -7.29694652557
intensity: 23.1597042084
---
header: 
  seq: 454989
  stamp: 
    secs: 1561681988
    nsecs: 756342535
  frame_id: "ti_mmwave"
point_id: 6
x: 0.421875
y: -0.0
z: 1.28125
range: 1.43804001808
velocity: 0.0
doppler_bin: 8
bearing: -0.0
intensity: 21.8184356689
---
header: 
  seq: 454990
  stamp: 
    secs: 1561681988
    nsecs: 756351290
  frame_id: "ti_mmwave"
point_id: 7
x: 1.37890625
y: -0.388671875
z: -0.603515625
range: 1.65592491627
velocity: 0.0
doppler_bin: 8
bearing: -15.7415351868
intensity: 25.6702632904
---
header: 
  seq: 454991
  stamp: 
    secs: 1561681988
    nsecs: 756361077
  frame_id: "ti_mmwave"
point_id: 8
x: 2.546875
y: -0.263671875
z: 1.185546875
range: 3.00681090355
velocity: 0.0
doppler_bin: 8
bearing: -5.91063833237
intensity: 29.4743366241
---
header: 
  seq: 454992
  stamp: 
    secs: 1561681988
    nsecs: 756368790
  frame_id: "ti_mmwave"
point_id: 9
x: 2.603515625
y: -0.267578125
z: 1.16015625
range: 3.05038785934
velocity: 0.0
doppler_bin: 8
bearing: -5.8680100441
intensity: 32.7323265076
---
header: 
  seq: 454993
  stamp: 
    secs: 1561681988
    nsecs: 756376564
  frame_id: "ti_mmwave"
point_id: 10
x: 2.658203125
y: -0.181640625
z: 1.15625
range: 3.09396481514
velocity: 0.0
doppler_bin: 8
bearing: -3.90906453133
intensity: 31.9893188477
---
header: 
  seq: 454994
  stamp: 
    secs: 1561681988
    nsecs: 756386314
  frame_id: "ti_mmwave"
point_id: 11
x: 4.41015625
y: -0.287109375
z: 1.2109375
range: 4.88062095642
velocity: 0.0
doppler_bin: 8
bearing: -3.72480559349
intensity: 30.7077655792
---
header: 
  seq: 454995
  stamp: 
    secs: 1561681988
    nsecs: 756409439
  frame_id: "ti_mmwave"
point_id: 12
x: 4.4375
y: -0.2890625
z: 1.26171875
range: 4.9241976738
velocity: 0.0
doppler_bin: 8
bearing: -3.72702980042
intensity: 30.3462848663
---
header: 
  seq: 454996
  stamp: 
    secs: 1561681988
    nsecs: 756417561
  frame_id: "ti_mmwave"
point_id: 13
x: 4.69140625
y: -0.4453125
z: -0.564453125
range: 5.0549287796
velocity: 0.0
doppler_bin: 8
bearing: -5.42232084274
intensity: 29.350030899
---
header: 
  seq: 454997
  stamp: 
    secs: 1561681988
    nsecs: 756479968
  frame_id: "ti_mmwave"
point_id: 14
x: 4.740234375
y: -0.44921875
z: -0.48828125
range: 5.09850549698
velocity: 0.0
doppler_bin: 8
bearing: -5.41359329224
intensity: 33.1910591125
---
header: 
  seq: 454998
  stamp: 
    secs: 1561681988
    nsecs: 756493681
  frame_id: "ti_mmwave"
point_id: 15
x: 4.787109375
y: -0.453125
z: -0.421875
range: 5.14208269119
velocity: 0.0
doppler_bin: 8
bearing: -5.40723514557
intensity: 33.8649902344
---
header: 
  seq: 454999
  stamp: 
    secs: 1561681988
    nsecs: 756510125
  frame_id: "ti_mmwave"
point_id: 16
x: 4.83984375
y: -0.45703125
z: -0.263671875
range: 5.18565940857
velocity: 0.0
doppler_bin: 8
bearing: -5.39450025558
intensity: 30.6520614624
---
header: 
  seq: 455000
  stamp: 
    secs: 1561681988
    nsecs: 756524146
  frame_id: "ti_mmwave"
point_id: 17
x: 4.890625
y: -0.30859375
z: 0.689453125
range: 5.27281332016
velocity: 0.0
doppler_bin: 8
bearing: -3.61052203178
intensity: 30.9166698456
---
header: 
  seq: 455001
  stamp: 
    secs: 1561681988
    nsecs: 756539485
  frame_id: "ti_mmwave"
point_id: 18
x: 1.50390625
y: -0.44921875
z: -0.291015625
range: 1.69950187206
velocity: 0.614668667316
doppler_bin: 9
bearing: -16.6309528351
intensity: 27.2672729492
---
header: 
  seq: 455002
  stamp: 
    secs: 1561681988
    nsecs: 756547827
  frame_id: "ti_mmwave"
point_id: 19
x: 1.529296875
y: -0.51171875
z: -0.275390625
range: 1.74307882786
velocity: 0.614668667316
doppler_bin: 9
bearing: -18.5007801056
intensity: 27.5815467834
---
header: 
  seq: 455003
  stamp: 
    secs: 1561681988
    nsecs: 756555490
  frame_id: "ti_mmwave"
point_id: 20
x: 1.5390625
y: -0.576171875
z: -0.33203125
range: 1.78665578365
velocity: 0.614668667316
doppler_bin: 9
bearing: -20.5241661072
intensity: 26.3245735168
---
header: 
  seq: 455004
  stamp: 
    secs: 1561681988
    nsecs: 756565211
  frame_id: "ti_mmwave"
point_id: 22
x: 0.041015625
y: -0.033203125
z: 0.0625
range: 0.0871539413929
velocity: 0.0
doppler_bin: 8
bearing: -38.9909973145
intensity: 30.1114730835
---
header: 
  seq: 455005
  stamp: 
    secs: 1561681988
    nsecs: 756573152
  frame_id: "ti_mmwave"
point_id: 23
x: 0.052734375
y: -0.04296875
z: 0.1015625
range: 0.130730912089
velocity: 0.0
doppler_bin: 8
bearing: -39.1736602783
intensity: 28.9982051849
---
header: 
  seq: 455006
  stamp: 
    secs: 1561681988
    nsecs: 756582748
  frame_id: "ti_mmwave"
point_id: 25
x: 1.1171875
y: -0.515625
z: 0.306640625
range: 1.35088610649
velocity: 0.0
doppler_bin: 8
bearing: -24.7751407623
intensity: 18.9762706757
---
header: 
  seq: 455007
  stamp: 
    secs: 1561681988
    nsecs: 814531137
  frame_id: "ti_mmwave"
point_id: 0
x: 0.01171875
y: -0.0390625
z: -0.0078125
range: 0.0435769706964
velocity: 0.0
doppler_bin: 8
bearing: -73.3007583618
intensity: 30.7518177032
---
header: 
  seq: 455008
  stamp: 
    secs: 1561681988
    nsecs: 814631295
  frame_id: "ti_mmwave"
point_id: 1
x: 0.017578125
y: -0.080078125
z: -0.0078125
range: 0.0871539413929
velocity: 0.0
doppler_bin: 8
bearing: -77.6192398071
intensity: 31.9783172607
---
header: 
  seq: 455009
  stamp: 
    secs: 1561681988
    nsecs: 814644093
  frame_id: "ti_mmwave"
point_id: 2
x: 0.041015625
y: -0.115234375
z: -0.0078125
range: 0.130730912089
velocity: 0.0
doppler_bin: 8
bearing: -70.4077224731
intensity: 30.2407493591
---
header: 
  seq: 455010
  stamp: 
    secs: 1561681988
    nsecs: 814653020
  frame_id: "ti_mmwave"
point_id: 3
x: 0.056640625
y: -0.154296875
z: 0.005859375
range: 0.174307882786
velocity: 0.0
doppler_bin: 8
bearing: -69.8423843384
intensity: 25.5144996643
---
header: 
  seq: 455011
  stamp: 
    secs: 1561681988
    nsecs: 814664445
  frame_id: "ti_mmwave"
point_id: 4
x: 0.318359375
y: -0.080078125
z: -1.224609375
range: 1.35088610649
velocity: 0.0
doppler_bin: 8
bearing: -14.1189212799
intensity: 21.7897701263
---
header: 
  seq: 455012
  stamp: 
    secs: 1561681988
    nsecs: 814672957
  frame_id: "ti_mmwave"
point_id: 5
x: 0.3125
y: -0.041015625
z: 1.26953125
range: 1.39446306229
velocity: 0.0
doppler_bin: 8
bearing: -7.47732973099
intensity: 23.1806335449
---
header: 
  seq: 455013
  stamp: 
    secs: 1561681988
    nsecs: 814680803
  frame_id: "ti_mmwave"
point_id: 6
x: 0.4140625
y: -0.0
z: 1.28515625
range: 1.43804001808
velocity: 0.0
doppler_bin: 8
bearing: -0.0
intensity: 21.8469142914
---
header: 
  seq: 455014
  stamp: 
    secs: 1561681988
    nsecs: 814688896
  frame_id: "ti_mmwave"
point_id: 7
x: 1.43359375
y: -0.33984375
z: -0.498046875
range: 1.65592491627
velocity: 0.0
doppler_bin: 8
bearing: -13.3362016678
intensity: 26.0422611237
---
header: 
  seq: 455015
  stamp: 
    secs: 1561681988
    nsecs: 814696839
  frame_id: "ti_mmwave"
point_id: 8
x: 1.521484375
y: -0.349609375
z: -0.328125
range: 1.69950187206
velocity: 0.0
doppler_bin: 8
bearing: -12.9408884048
intensity: 27.7305469513
---
header: 
  seq: 455016
  stamp: 
    secs: 1561681988
    nsecs: 814705707
  frame_id: "ti_mmwave"
point_id: 9
x: 1.560546875
y: -0.408203125
z: -0.271484375
range: 1.74307882786
velocity: 0.0
doppler_bin: 8
bearing: -14.6588172913
intensity: 26.3648796082
---
header: 
  seq: 455017
  stamp: 
    secs: 1561681988
    nsecs: 814713420
  frame_id: "ti_mmwave"
point_id: 10
x: 2.560546875
y: -0.263671875
z: 1.158203125
range: 3.00681090355
velocity: 0.0
doppler_bin: 8
bearing: -5.87930107117
intensity: 29.4596061707
---
header: 
  seq: 455018
  stamp: 
    secs: 1561681988
    nsecs: 814828457
  frame_id: "ti_mmwave"
point_id: 11
x: 2.607421875
y: -0.267578125
z: 1.150390625
range: 3.05038785934
velocity: 0.0
doppler_bin: 8
bearing: -5.85928010941
intensity: 32.7646179199
---
header: 
  seq: 455019
  stamp: 
    secs: 1561681988
    nsecs: 814842381
  frame_id: "ti_mmwave"
point_id: 12
x: 2.666015625
y: -0.181640625
z: 1.140625
range: 3.09396481514
velocity: 0.0
doppler_bin: 8
bearing: -3.89764523506
intensity: 32.0682601929
---
header: 
  seq: 455020
  stamp: 
    secs: 1561681988
    nsecs: 814850379
  frame_id: "ti_mmwave"
point_id: 13
x: 4.416015625
y: -0.287109375
z: 1.189453125
range: 4.88062095642
velocity: 0.0
doppler_bin: 8
bearing: -3.71987724304
intensity: 30.7224998474
---
header: 
  seq: 455021
  stamp: 
    secs: 1561681988
    nsecs: 814857973
  frame_id: "ti_mmwave"
point_id: 14
x: 4.453125
y: -0.2890625
z: 1.203125
range: 4.9241976738
velocity: 0.0
doppler_bin: 8
bearing: -3.71398925781
intensity: 30.382226944
---
header: 
  seq: 455022
  stamp: 
    secs: 1561681988
    nsecs: 814865392
  frame_id: "ti_mmwave"
point_id: 15
x: 4.740234375
y: -0.44921875
z: -0.486328125
range: 5.09850549698
velocity: 0.0
doppler_bin: 8
bearing: -5.41359329224
intensity: 33.029800415
---
header: 
  seq: 455023
  stamp: 
    secs: 1561681988
    nsecs: 814872932
  frame_id: "ti_mmwave"
point_id: 16
x: 4.787109375
y: -0.453125
z: -0.416015625
range: 5.14208269119
velocity: 0.0
doppler_bin: 8
bearing: -5.40723514557
intensity: 33.6660957336
---
header: 
  seq: 455024
  stamp: 
    secs: 1561681988
    nsecs: 814880372
  frame_id: "ti_mmwave"
point_id: 17
x: 4.841796875
y: -0.45703125
z: -0.22265625
range: 5.18565940857
velocity: 0.0
doppler_bin: 8
bearing: -5.39233732224
intensity: 30.4296913147
---
header: 
  seq: 455025
  stamp: 
    secs: 1561681988
    nsecs: 814891012
  frame_id: "ti_mmwave"
point_id: 18
x: 4.87890625
y: -0.30859375
z: 0.78125
range: 5.27281332016
velocity: 0.0
doppler_bin: 8
bearing: -3.61917114258
intensity: 30.8350257874
---
header: 
  seq: 455026
  stamp: 
    secs: 1561681988
    nsecs: 814902635
  frame_id: "ti_mmwave"
point_id: 19
x: 1.53125
y: -0.62890625
z: -0.2734375
range: 1.78665578365
velocity: 0.614668667316
doppler_bin: 9
bearing: -22.3286571503
intensity: 27.4896278381
---
header: 
  seq: 455027
  stamp: 
    secs: 1561681988
    nsecs: 814914546
  frame_id: "ti_mmwave"
point_id: 20
x: 1.564453125
y: -0.64453125
z: -0.302734375
range: 1.83023273945
velocity: 0.614668667316
doppler_bin: 9
bearing: -22.3909282684
intensity: 25.9549617767
---
header: 
  seq: 455028
  stamp: 
    secs: 1561681988
    nsecs: 814929265
  frame_id: "ti_mmwave"
point_id: 22
x: 0.041015625
y: -0.033203125
z: 0.0625
range: 0.0871539413929
velocity: 0.0
doppler_bin: 8
bearing: -38.9909973145
intensity: 30.1072387695
---
header: 
  seq: 455029
  stamp: 
    secs: 1561681988
    nsecs: 814941641
  frame_id: "ti_mmwave"
point_id: 23
x: 0.052734375
y: -0.04296875
z: 0.103515625
range: 0.130730912089
velocity: 0.0
doppler_bin: 8
bearing: -39.1736602783
intensity: 28.9927310944
---
header: 
  seq: 455030
  stamp: 
    secs: 1561681988
    nsecs: 814959624
  frame_id: "ti_mmwave"
point_id: 25
x: 1.12109375
y: -0.515625
z: 0.294921875
range: 1.35088610649
velocity: 0.0
doppler_bin: 8
bearing: -24.6991329193
intensity: 19.0308990479
---
header: 
  seq: 455031
  stamp: 
    secs: 1561681988
    nsecs: 814971885
  frame_id: "ti_mmwave"
point_id: 26
x: 0.30859375
y: 0.630859375
z: 1.38671875
range: 1.65592491627
velocity: 0.0
doppler_bin: 8
bearing: 63.9337806702
intensity: 25.1982803345
---
header: 
  seq: 455032
  stamp: 
    secs: 1561681988
    nsecs: 816118420
  frame_id: "ti_mmwave"
point_id: 0
x: 0.01171875
y: -0.0390625
z: -0.0078125
range: 0.0435769706964
velocity: 0.0
doppler_bin: 8
bearing: -73.3007583618
intensity: 30.7481651306
---
header: 
  seq: 455033
  stamp: 
    secs: 1561681988
    nsecs: 816174725
  frame_id: "ti_mmwave"
point_id: 1
x: 0.017578125
y: -0.080078125
z: -0.0078125
range: 0.0871539413929
velocity: 0.0
doppler_bin: 8
bearing: -77.6192398071
intensity: 31.9755630493
---
header: 
  seq: 455034
  stamp: 
    secs: 1561681988
    nsecs: 816224249
  frame_id: "ti_mmwave"
point_id: 2
x: 0.041015625
y: -0.115234375
z: -0.0078125
range: 0.130730912089
velocity: 0.0
doppler_bin: 8
bearing: -70.4077224731
intensity: 30.2407493591
---
header: 
  seq: 455035
  stamp: 
    secs: 1561681988
    nsecs: 816238407
  frame_id: "ti_mmwave"
point_id: 3
x: 0.056640625
y: -0.154296875
z: 0.005859375
range: 0.174307882786
velocity: 0.0
doppler_bin: 8
bearing: -69.8423843384
intensity: 25.5022830963
---
header: 
  seq: 455036
  stamp: 
    secs: 1561681988
    nsecs: 816253083
  frame_id: "ti_mmwave"
point_id: 4
x: 0.33203125
y: -0.080078125
z: -1.220703125
range: 1.35088610649
velocity: 0.0
doppler_bin: 8
bearing: -13.5594520569
intensity: 21.8184356689
---
header: 
  seq: 455037
  stamp: 
    secs: 1561681988
    nsecs: 816335604
  frame_id: "ti_mmwave"
point_id: 5
x: 0.3359375
y: -0.041015625
z: 1.263671875
range: 1.39446306229
velocity: 0.0
doppler_bin: 8
bearing: -6.96096277237
intensity: 23.2014636993
---
header: 
  seq: 455038
  stamp: 
    secs: 1561681988
    nsecs: 816346146
  frame_id: "ti_mmwave"
point_id: 6
x: 0.49609375
y: -0.04296875
z: 1.25390625
range: 1.43804001808
velocity: 0.0
doppler_bin: 8
bearing: -4.95027208328
intensity: 21.875207901
---
header: 
  seq: 455039
  stamp: 
    secs: 1561681988
    nsecs: 816354249
  frame_id: "ti_mmwave"
point_id: 7
x: 1.53125
y: -0.44921875
z: -0.015625
range: 1.69950187206
velocity: 0.0
doppler_bin: 8
bearing: -16.3499660492
intensity: 27.4896278381
---
header: 
  seq: 455040
  stamp: 
    secs: 1561681988
    nsecs: 816362475
  frame_id: "ti_mmwave"
point_id: 8
x: 1.55859375
y: -0.4609375
z: -0.197265625
range: 1.74307882786
velocity: 0.0
doppler_bin: 8
bearing: -16.4750232697
intensity: 28.6746749878
---
header: 
  seq: 455041
  stamp: 
    secs: 1561681988
    nsecs: 816370595
  frame_id: "ti_mmwave"
point_id: 9
x: 2.552734375
y: -0.263671875
z: 1.17578125
range: 3.00681090355
velocity: 0.0
doppler_bin: 8
bearing: -5.89716720581
intensity: 29.5133743286
---
header: 
  seq: 455042
  stamp: 
    secs: 1561681988
    nsecs: 816379670
  frame_id: "ti_mmwave"
point_id: 10
x: 2.603515625
y: -0.267578125
z: 1.16015625
range: 3.05038785934
velocity: 0.0
doppler_bin: 8
bearing: -5.8680100441
intensity: 32.7600212097
---
header: 
  seq: 455043
  stamp: 
    secs: 1561681988
    nsecs: 816387374
  frame_id: "ti_mmwave"
point_id: 11
x: 2.658203125
y: -0.181640625
z: 1.158203125
range: 3.09396481514
velocity: 0.0
doppler_bin: 8
bearing: -3.90906453133
intensity: 32.030330658
---
header: 
  seq: 455044
  stamp: 
    secs: 1561681988
    nsecs: 816396057
  frame_id: "ti_mmwave"
point_id: 12
x: 4.408203125
y: -0.287109375
z: 1.212890625
range: 4.88062095642
velocity: 0.0
doppler_bin: 8
bearing: -3.72645139694
intensity: 30.6855697632
---
header: 
  seq: 455045
  stamp: 
    secs: 1561681988
    nsecs: 816403405
  frame_id: "ti_mmwave"
point_id: 13
x: 4.439453125
y: -0.2890625
z: 1.25390625
range: 4.9241976738
velocity: 0.0
doppler_bin: 8
bearing: -3.7253947258
intensity: 30.3302135468
---
header: 
  seq: 455046
  stamp: 
    secs: 1561681988
    nsecs: 816411150
  frame_id: "ti_mmwave"
point_id: 14
x: 4.740234375
y: -0.44921875
z: -0.494140625
range: 5.09850549698
velocity: 0.0
doppler_bin: 8
bearing: -5.41359329224
intensity: 33.197303772
---
header: 
  seq: 455047
  stamp: 
    secs: 1561681988
    nsecs: 816418624
  frame_id: "ti_mmwave"
point_id: 15
x: 4.787109375
y: -0.453125
z: -0.423828125
range: 5.14208269119
velocity: 0.0
doppler_bin: 8
bearing: -5.40723514557
intensity: 33.8596343994
---
header: 
  seq: 455048
  stamp: 
    secs: 1561681988
    nsecs: 816423368
  frame_id: "ti_mmwave"
point_id: 16
x: 4.83984375
y: -0.45703125
z: -0.265625
range: 5.18565940857
velocity: 0.0
doppler_bin: 8
bearing: -5.39450025558
intensity: 30.5652370453
---
header: 
  seq: 455049
  stamp: 
    secs: 1561681988
    nsecs: 816433553
  frame_id: "ti_mmwave"
point_id: 17
x: 4.880859375
y: -0.30859375
z: 0.7578125
range: 5.27281332016
velocity: 0.0
doppler_bin: 8
bearing: -3.61772704124
intensity: 30.8955192566
---
header: 
  seq: 455050
  stamp: 
    secs: 1561681988
    nsecs: 816507398
  frame_id: "ti_mmwave"
point_id: 18
x: 1.53125
y: -0.62890625
z: -0.26953125
range: 1.78665578365
velocity: 0.614668667316
doppler_bin: 9
bearing: -22.3286571503
intensity: 29.7081165314
---
header: 
  seq: 455051
  stamp: 
    secs: 1561681988
    nsecs: 816522712
  frame_id: "ti_mmwave"
point_id: 19
x: 1.57421875
y: -0.64453125
z: -0.240234375
range: 1.83023273945
velocity: 0.614668667316
doppler_bin: 9
bearing: -22.2656288147
intensity: 29.6047077179
---
header: 
  seq: 455052
  stamp: 
    secs: 1561681988
    nsecs: 816540791
  frame_id: "ti_mmwave"
point_id: 21
x: 0.041015625
y: -0.033203125
z: 0.0625
range: 0.0871539413929
velocity: 0.0
doppler_bin: 8
bearing: -38.9909973145
intensity: 30.1114730835
---
header: 
  seq: 455053
  stamp: 
    secs: 1561681988
    nsecs: 816552969
  frame_id: "ti_mmwave"
point_id: 22
x: 0.052734375
y: -0.04296875
z: 0.1015625
range: 0.130730912089
velocity: 0.0
doppler_bin: 8
bearing: -39.1736602783
intensity: 28.9982051849
---
header: 
  seq: 455054
  stamp: 
    secs: 1561681988
    nsecs: 816567826
  frame_id: "ti_mmwave"
point_id: 24
x: 1.119140625
y: -0.515625
z: 0.298828125
range: 1.35088610649
velocity: 0.0
doppler_bin: 8
bearing: -24.7370834351
intensity: 19.0848503113
---
header: 
  seq: 455055
  stamp: 
    secs: 1561681988
    nsecs: 874490564
  frame_id: "ti_mmwave"
point_id: 0
x: 0.01171875
y: -0.0390625
z: -0.0078125
range: 0.0435769706964
velocity: 0.0
doppler_bin: 8
bearing: -73.3007583618
intensity: 30.7518177032
---
header: 
  seq: 455056
  stamp: 
    secs: 1561681988
    nsecs: 874568220
  frame_id: "ti_mmwave"
point_id: 1
x: 0.017578125
y: -0.080078125
z: -0.0078125
range: 0.0871539413929
velocity: 0.0
doppler_bin: 8
bearing: -77.6192398071
intensity: 31.9810695648
---
header: 
  seq: 455057
  stamp: 
    secs: 1561681988
    nsecs: 874579396
  frame_id: "ti_mmwave"
point_id: 2
x: 0.041015625
y: -0.115234375
z: -0.0078125
range: 0.130730912089
velocity: 0.0
doppler_bin: 8
bearing: -70.4077224731
intensity: 30.2407493591
---
header: 
  seq: 455058
  stamp: 
    secs: 1561681988
    nsecs: 874590213
  frame_id: "ti_mmwave"
point_id: 3
x: 0.056640625
y: -0.154296875
z: 0.005859375
range: 0.174307882786
velocity: 0.0
doppler_bin: 8
bearing: -69.8423843384
intensity: 25.5022830963
---
header: 
  seq: 455059
  stamp: 
    secs: 1561681988
    nsecs: 874599842
  frame_id: "ti_mmwave"
point_id: 4
x: 0.314453125
y: -0.080078125
z: -1.2265625
range: 1.35088610649
velocity: 0.0
doppler_bin: 8
bearing: -14.2871713638
intensity: 21.875207901
---
header: 
  seq: 455060
  stamp: 
    secs: 1561681988
    nsecs: 874610406
  frame_id: "ti_mmwave"
point_id: 5
x: 0.32421875
y: -0.041015625
z: 1.267578125
range: 1.39446306229
velocity: 0.0
doppler_bin: 8
bearing: -7.20996236801
intensity: 23.2428245544
---
header: 
  seq: 455061
  stamp: 
    secs: 1561681988
    nsecs: 874619563
  frame_id: "ti_mmwave"
point_id: 6
x: 0.484375
y: -0.04296875
z: 1.259765625
range: 1.43804001808
velocity: 0.0
doppler_bin: 8
bearing: -5.06942033768
intensity: 21.9589958191
---
header: 
  seq: 455062
  stamp: 
    secs: 1561681988
    nsecs: 874627585
  frame_id: "ti_mmwave"
point_id: 7
x: 1.5390625
y: -0.3984375
z: -0.134765625
range: 1.69950187206
velocity: 0.0
doppler_bin: 8
bearing: -14.5142660141
intensity: 28.1424751282
---
header: 
  seq: 455063
  stamp: 
    secs: 1561681988
    nsecs: 874636088
  frame_id: "ti_mmwave"
point_id: 8
x: 1.591796875
y: -0.357421875
z: -0.126953125
range: 1.74307882786
velocity: 0.0
doppler_bin: 8
bearing: -12.6552877426
intensity: 28.0821094513
---
header: 
  seq: 455064
  stamp: 
    secs: 1561681988
    nsecs: 874643709
  frame_id: "ti_mmwave"
point_id: 9
x: 2.548828125
y: -0.263671875
z: 1.185546875
range: 3.00681090355
velocity: 0.0
doppler_bin: 8
bearing: -5.90614128113
intensity: 29.4596061707
---
header: 
  seq: 455065
  stamp: 
    secs: 1561681988
    nsecs: 874662099
  frame_id: "ti_mmwave"
point_id: 10
x: 2.599609375
y: -0.267578125
z: 1.16796875
range: 3.05038785934
velocity: 0.0
doppler_bin: 8
bearing: -5.87676620483
intensity: 32.7577171326
---
header: 
  seq: 455066
