header: 
  seq: 403650
  stamp: 
    secs: 1561681913
    nsecs: 455981274
  frame_id: "ti_mmwave"
point_id: 0
x: 0.01171875
y: -0.0390625
z: -0.0078125
range: 0.0435769706964
velocity: 0.0
doppler_bin: 8
bearing: -73.3007583618
intensity: 30.7371826172
---
header: 
  seq: 403651
  stamp: 
    secs: 1561681913
    nsecs: 456050461
  frame_id: "ti_mmwave"
point_id: 1
x: 0.017578125
y: -0.080078125
z: -0.0078125
range: 0.0871539413929
velocity: 0.0
doppler_bin: 8
bearing: -77.6192398071
intensity: 31.9617614746
---
header: 
  seq: 403652
  stamp: 
    secs: 1561681913
    nsecs: 456070183
  frame_id: "ti_mmwave"
point_id: 2
x: 0.041015625
y: -0.115234375
z: -0.0078125
range: 0.130730912089
velocity: 0.0
doppler_bin: 8
bearing: -70.4077224731
intensity: 30.2284069061
---
header: 
  seq: 403653
  stamp: 
    secs: 1561681913
    nsecs: 456085210
  frame_id: "ti_mmwave"
point_id: 3
x: 0.056640625
y: -0.154296875
z: 0.005859375
range: 0.174307882786
velocity: 0.0
doppler_bin: 8
bearing: -69.8423843384
intensity: 25.490032196
---
header: 
  seq: 403654
  stamp: 
    secs: 1561681913
    nsecs: 456100736
  frame_id: "ti_mmwave"
point_id: 4
x: 0.509765625
y: 0.45703125
z: -0.123046875
range: 0.740808486938
velocity: 0.0
doppler_bin: 8
bearing: 41.8778686523
intensity: 24.9968700409
---
header: 
  seq: 403655
  stamp: 
    secs: 1561681913
    nsecs: 456115220
  frame_id: "ti_mmwave"
point_id: 5
x: 0.54296875
y: 0.482421875
z: -0.1171875
range: 0.784385442734
velocity: 0.0
doppler_bin: 8
bearing: 41.6207427979
intensity: 27.1011734009
---
header: 
  seq: 403656
  stamp: 
    secs: 1561681913
    nsecs: 456129412
  frame_id: "ti_mmwave"
point_id: 6
x: 0.57421875
y: 0.509765625
z: -0.123046875
range: 0.827962458134
velocity: 0.0
doppler_bin: 8
bearing: 41.5972328186
intensity: 25.15873909
---
header: 
  seq: 403657
  stamp: 
    secs: 1561681913
    nsecs: 456206203
  frame_id: "ti_mmwave"
point_id: 7
x: 0.712890625
y: 0.53515625
z: 0.123046875
range: 0.958693385124
velocity: 0.0
doppler_bin: 8
bearing: 36.8950042725
intensity: 23.5410842896
---
header: 
  seq: 403658
  stamp: 
    secs: 1561681913
    nsecs: 456223127
  frame_id: "ti_mmwave"
point_id: 8
x: 0.73046875
y: 0.529296875
z: 0.267578125
range: 1.00227034092
velocity: 0.0
doppler_bin: 8
bearing: 35.9270477295
intensity: 26.6931686401
---
header: 
  seq: 403659
  stamp: 
    secs: 1561681913
    nsecs: 456238024
  frame_id: "ti_mmwave"
point_id: 9
x: 0.75
y: 0.552734375
z: 0.3125
range: 1.04584729671
velocity: 0.0
doppler_bin: 8
bearing: 36.3894424438
intensity: 26.0638141632
---
header: 
  seq: 403660
  stamp: 
    secs: 1561681913
    nsecs: 456251995
  frame_id: "ti_mmwave"
point_id: 10
x: 2.544921875
y: -0.263671875
z: 1.19140625
range: 3.00681090355
velocity: 0.0
doppler_bin: 8
bearing: -5.91514253616
intensity: 29.4250411987
---
header: 
  seq: 403661
  stamp: 
    secs: 1561681913
    nsecs: 456267300
  frame_id: "ti_mmwave"
point_id: 11
x: 2.6015625
y: -0.267578125
z: 1.166015625
range: 3.05038785934
velocity: 0.0
doppler_bin: 8
bearing: -5.87238502502
intensity: 32.7346420288
---
header: 
  seq: 403662
  stamp: 
    secs: 1561681913
    nsecs: 456281299
  frame_id: "ti_mmwave"
point_id: 12
x: 2.658203125
y: -0.181640625
z: 1.15625
range: 3.09396481514
velocity: 0.0
doppler_bin: 8
bearing: -3.90906453133
intensity: 32.0439147949
---
header: 
  seq: 403663
  stamp: 
    secs: 1561681913
    nsecs: 456295013
  frame_id: "ti_mmwave"
point_id: 13
x: 2.806640625
y: 3.037109375
z: 1.5546875
range: 4.7063126564
velocity: 0.0
doppler_bin: 8
bearing: 47.2584877014
intensity: 27.9795970917
---
header: 
  seq: 403664
  stamp: 
    secs: 1561681913
    nsecs: 456308934
  frame_id: "ti_mmwave"
point_id: 14
x: 4.419921875
y: -0.287109375
z: 1.171875
range: 4.88062095642
velocity: 0.0
doppler_bin: 8
bearing: -3.71659874916
intensity: 30.6855697632
---
header: 
  seq: 403665
  stamp: 
    secs: 1561681913
    nsecs: 456324041
  frame_id: "ti_mmwave"
point_id: 15
x: 4.458984375
y: -0.2890625
z: 1.181640625
range: 4.9241976738
velocity: 0.0
doppler_bin: 8
bearing: -3.70912218094
intensity: 30.3059978485
---
header: 
  seq: 403666
  stamp: 
    secs: 1561681913
    nsecs: 456354048
  frame_id: "ti_mmwave"
point_id: 16
x: 4.75390625
y: -0.298828125
z: -0.474609375
range: 5.09850549698
velocity: 0.0
doppler_bin: 8
bearing: -3.59685111046
intensity: 33.0856437683
---
header: 
  seq: 403667
  stamp: 
    secs: 1561681913
    nsecs: 456415503
  frame_id: "ti_mmwave"
point_id: 17
x: 4.7890625
y: -0.453125
z: -0.39453125
range: 5.14208269119
velocity: 0.0
doppler_bin: 8
bearing: -5.40504264832
intensity: 33.6958694458
---
header: 
  seq: 403668
  stamp: 
    secs: 1561681913
    nsecs: 456431173
  frame_id: "ti_mmwave"
point_id: 18
x: 4.841796875
y: -0.45703125
z: -0.21875
range: 5.18565940857
velocity: 0.0
doppler_bin: 8
bearing: -5.39233732224
intensity: 30.3941402435
---
header: 
  seq: 403669
  stamp: 
    secs: 1561681913
    nsecs: 456445815
  frame_id: "ti_mmwave"
point_id: 19
x: 4.833984375
y: -0.4609375
z: 0.720703125
range: 5.22923660278
velocity: 0.0
doppler_bin: 8
bearing: -5.44688653946
intensity: 29.4792366028
---
header: 
  seq: 403670
  stamp: 
    secs: 1561681913
    nsecs: 456462311
  frame_id: "ti_mmwave"
point_id: 20
x: 4.88671875
y: -0.30859375
z: 0.728515625
range: 5.27281332016
velocity: 0.0
doppler_bin: 8
bearing: -3.61340069771
intensity: 30.6107540131
---
header: 
  seq: 403671
  stamp: 
    secs: 1561681913
    nsecs: 456478929
  frame_id: "ti_mmwave"
point_id: 22
x: 0.041015625
y: -0.033203125
z: 0.0625
range: 0.0871539413929
velocity: 0.0
doppler_bin: 8
bearing: -38.9909973145
intensity: 30.1029987335
---
header: 
  seq: 403672
  stamp: 
    secs: 1561681913
    nsecs: 456492221
  frame_id: "ti_mmwave"
point_id: 23
x: 0.052734375
y: -0.04296875
z: 0.1015625
range: 0.130730912089
velocity: 0.0
doppler_bin: 8
bearing: -39.1736602783
intensity: 28.9817657471
---
header: 
  seq: 403673
  stamp: 
    secs: 1561681913
    nsecs: 456524196
  frame_id: "ti_mmwave"
point_id: 25
x: 2.701171875
y: -2.00390625
z: -3.111328125
range: 4.88062095642
velocity: 0.0
doppler_bin: 8
bearing: -36.5704460144
intensity: 27.7670116425
---
header: 
  seq: 403674
  stamp: 
    secs: 1561681913
    nsecs: 514555382
  frame_id: "ti_mmwave"
point_id: 0
x: 0.01171875
y: -0.0390625
z: -0.0078125
range: 0.0435769706964
velocity: 0.0
doppler_bin: 8
bearing: -73.3007583618
intensity: 30.7335166931
---
header: 
  seq: 403675
  stamp: 
    secs: 1561681913
    nsecs: 514649128
  frame_id: "ti_mmwave"
point_id: 1
x: 0.017578125
y: -0.080078125
z: -0.0078125
range: 0.0871539413929
velocity: 0.0
doppler_bin: 8
bearing: -77.6192398071
intensity: 31.9617614746
---
header: 
  seq: 403676
  stamp: 
    secs: 1561681913
    nsecs: 514666001
  frame_id: "ti_mmwave"
point_id: 2
x: 0.029296875
y: -0.119140625
z: -0.005859375
range: 0.130730912089
velocity: 0.0
doppler_bin: 8
bearing: -76.1849746704
intensity: 30.2325248718
---
header: 
  seq: 403677
  stamp: 
    secs: 1561681913
    nsecs: 514680619
  frame_id: "ti_mmwave"
point_id: 3
x: 0.056640625
y: -0.154296875
z: 0.00390625
range: 0.174307882786
velocity: 0.0
doppler_bin: 8
bearing: -69.8423843384
intensity: 25.490032196
---
header: 
  seq: 403678
  stamp: 
    secs: 1561681913
    nsecs: 514697893
  frame_id: "ti_mmwave"
point_id: 4
x: 0.54296875
y: 0.482421875
z: -0.12109375
range: 0.784385442734
velocity: 0.0
doppler_bin: 8
bearing: 41.6207427979
intensity: 24.4870624542
---
header: 
  seq: 403679
  stamp: 
    secs: 1561681913
    nsecs: 514711246
  frame_id: "ti_mmwave"
point_id: 5
x: 0.599609375
y: 0.486328125
z: -0.08984375
range: 0.827962458134
velocity: 0.0
doppler_bin: 8
bearing: 39.0446434021
intensity: 25.9106464386
---
header: 
  seq: 403680
  stamp: 
    secs: 1561681913
    nsecs: 514725698
  frame_id: "ti_mmwave"
point_id: 6
x: 0.65234375
y: 0.486328125
z: -0.08203125
range: 0.871539413929
velocity: 0.0
doppler_bin: 8
bearing: 36.7048606873
intensity: 25.1719589233
---
header: 
  seq: 403681
  stamp: 
    secs: 1561681913
    nsecs: 514739138
  frame_id: "ti_mmwave"
point_id: 7
x: 0.66796875
y: 0.509765625
z: -0.177734375
range: 0.915116369724
velocity: 0.0
doppler_bin: 8
bearing: 37.3493499756
intensity: 23.4044418335
---
header: 
  seq: 403682
  stamp: 
    secs: 1561681913
    nsecs: 514822413
  frame_id: "ti_mmwave"
point_id: 8
x: 0.73828125
y: 0.505859375
z: -0.099609375
range: 0.958693385124
velocity: 0.0
doppler_bin: 8
bearing: 34.4183654785
intensity: 20.8990516663
---
header: 
  seq: 403683
  stamp: 
    secs: 1561681913
    nsecs: 514838465
  frame_id: "ti_mmwave"
point_id: 9
x: 0.74609375
y: 0.529296875
z: 0.22265625
range: 1.00227034092
velocity: 0.0
doppler_bin: 8
bearing: 35.3528060913
intensity: 25.7978363037
---
header: 
  seq: 403684
  stamp: 
    secs: 1561681913
    nsecs: 514853208
  frame_id: "ti_mmwave"
point_id: 10
x: 0.74609375
y: 0.58203125
z: 0.26171875
range: 1.04584729671
velocity: 0.0
doppler_bin: 8
bearing: 37.9579582214
intensity: 26.8033542633
---
header: 
  seq: 403685
  stamp: 
    secs: 1561681913
    nsecs: 514867043
  frame_id: "ti_mmwave"
point_id: 11
x: 2.541015625
y: -0.263671875
z: 1.201171875
range: 3.00681090355
velocity: 0.0
doppler_bin: 8
bearing: -5.92417097092
intensity: 29.4349460602
---
header: 
  seq: 403686
  stamp: 
    secs: 1561681913
    nsecs: 514880229
  frame_id: "ti_mmwave"
point_id: 12
x: 2.603515625
y: -0.267578125
z: 1.1640625
range: 3.05038785934
velocity: 0.0
doppler_bin: 8
bearing: -5.8680100441
intensity: 32.73695755
---
header: 
  seq: 403687
  stamp: 
    secs: 1561681913
    nsecs: 514894505
  frame_id: "ti_mmwave"
point_id: 13
x: 2.662109375
y: -0.181640625
z: 1.146484375
range: 3.09396481514
velocity: 0.0
doppler_bin: 8
bearing: -3.90334677696
intensity: 31.9920654297
---
header: 
  seq: 403688
  stamp: 
    secs: 1561681913
    nsecs: 514911674
  frame_id: "ti_mmwave"
point_id: 14
x: 4.416015625
y: -0.287109375
z: 1.1875
range: 4.88062095642
velocity: 0.0
doppler_bin: 8
bearing: -3.71987724304
intensity: 30.7040729523
---
header: 
  seq: 403689
  stamp: 
    secs: 1561681913
    nsecs: 514941246
  frame_id: "ti_mmwave"
point_id: 15
x: 4.451171875
y: -0.2890625
z: 1.208984375
range: 4.9241976738
velocity: 0.0
doppler_bin: 8
bearing: -3.71561431885
intensity: 30.3502922058
---
header: 
  seq: 403690
  stamp: 
    secs: 1561681913
    nsecs: 514960851
  frame_id: "ti_mmwave"
point_id: 16
x: 4.73828125
y: -0.44921875
z: -0.5
range: 5.09850549698
velocity: 0.0
doppler_bin: 8
bearing: -5.4158115387
intensity: 33.0556640625
---
header: 
  seq: 403691
  stamp: 
    secs: 1561681913
    nsecs: 514976079
  frame_id: "ti_mmwave"
point_id: 17
x: 4.787109375
y: -0.453125
z: -0.421875
range: 5.14208269119
velocity: 0.0
doppler_bin: 8
bearing: -5.40723514557
intensity: 33.651134491
---
header: 
  seq: 403692
  stamp: 
    secs: 1561681913
    nsecs: 515049222
  frame_id: "ti_mmwave"
point_id: 18
x: 4.83984375
y: -0.45703125
z: -0.25
range: 5.18565940857
velocity: 0.0
doppler_bin: 8
bearing: -5.39450025558
intensity: 30.293838501
---
header: 
  seq: 403693
  stamp: 
    secs: 1561681913
    nsecs: 515065897
  frame_id: "ti_mmwave"
point_id: 19
x: 4.814453125
y: -0.4609375
z: 0.8359375
range: 5.22923660278
velocity: 0.0
doppler_bin: 8
bearing: -5.46884965897
intensity: 29.4497585297
---
header: 
  seq: 403694
  stamp: 
    secs: 1561681913
    nsecs: 515082472
  frame_id: "ti_mmwave"
point_id: 20
x: 4.845703125
y: -0.46484375
z: 0.89453125
range: 5.27281332016
velocity: 0.0
doppler_bin: 8
bearing: -5.47956323624
intensity: 30.561422348
---
header: 
  seq: 403695
  stamp: 
    secs: 1561681913
    nsecs: 515100069
  frame_id: "ti_mmwave"
point_id: 22
x: 0.041015625
y: -0.033203125
z: 0.0625
range: 0.0871539413929
velocity: 0.0
doppler_bin: 8
bearing: -38.9909973145
intensity: 30.0987567902
---
header: 
  seq: 403696
  stamp: 
    secs: 1561681913
    nsecs: 515114551
  frame_id: "ti_mmwave"
point_id: 23
x: 0.052734375
y: -0.04296875
z: 0.1015625
range: 0.130730912089
velocity: 0.0
doppler_bin: 8
bearing: -39.1736602783
intensity: 28.9817657471
---
header: 
  seq: 403697
  stamp: 
    secs: 1561681913
    nsecs: 515133493
  frame_id: "ti_mmwave"
point_id: 25
x: 0.3359375
y: 0.197265625
z: 0.810546875
range: 0.958693385124
velocity: 0.0
doppler_bin: 8
bearing: 30.4218502045
intensity: 18.0618000031
---
header: 
  seq: 403698
  stamp: 
    secs: 1561681913
    nsecs: 515146971
  frame_id: "ti_mmwave"
point_id: 26
x: 2.720703125
y: -2.00390625
z: -3.09375
range: 4.88062095642
velocity: 0.0
doppler_bin: 8
bearing: -36.3731269836
intensity: 27.7815132141
---
header: 
  seq: 403699
  stamp: 
    secs: 1561681913
    nsecs: 515163179
  frame_id: "ti_mmwave"
point_id: 27
x: 2.72265625
y: -2.021484375
z: -3.140625
range: 4.9241976738
velocity: 0.0
doppler_bin: 8
bearing: -36.5926933289
intensity: 27.3719272614
---
header: 
  seq: 403700
  stamp: 
    secs: 1561681913
    nsecs: 516377567
  frame_id: "ti_mmwave"
point_id: 0
x: 0.01171875
y: -0.0390625
z: -0.0078125
range: 0.0435769706964
velocity: 0.0
doppler_bin: 8
bearing: -73.3007583618
intensity: 30.7371826172
---
header: 
  seq: 403701
  stamp: 
    secs: 1561681913
    nsecs: 516440205
  frame_id: "ti_mmwave"
point_id: 1
x: 0.017578125
y: -0.080078125
z: -0.0078125
range: 0.0871539413929
velocity: 0.0
doppler_bin: 8
bearing: -77.6192398071
intensity: 31.9589958191
---
header: 
  seq: 403702
  stamp: 
    secs: 1561681913
    nsecs: 516457447
  frame_id: "ti_mmwave"
point_id: 2
x: 0.029296875
y: -0.119140625
z: -0.005859375
range: 0.130730912089
velocity: 0.0
doppler_bin: 8
bearing: -76.1849746704
intensity: 30.2242832184
---
header: 
  seq: 403703
  stamp: 
    secs: 1561681913
    nsecs: 516471304
  frame_id: "ti_mmwave"
point_id: 3
x: 0.056640625
y: -0.154296875
z: 0.005859375
range: 0.174307882786
velocity: 0.0
doppler_bin: 8
bearing: -69.8423843384
intensity: 25.4654273987
---
header: 
  seq: 403704
  stamp: 
    secs: 1561681913
    nsecs: 516487834
  frame_id: "ti_mmwave"
point_id: 4
x: 0.666015625
y: 0.509765625
z: -0.1875
range: 0.915116369724
velocity: 0.0
doppler_bin: 8
bearing: 37.4302940369
intensity: 23.7657699585
---
header: 
  seq: 403705
  stamp: 
    secs: 1561681913
    nsecs: 516501892
  frame_id: "ti_mmwave"
point_id: 5
x: 0.671875
y: 0.53515625
z: -0.26953125
range: 0.958693385124
velocity: 0.0
doppler_bin: 8
bearing: 38.5377311707
intensity: 26.3245735168
---
header: 
  seq: 403706
  stamp: 
    secs: 1561681913
    nsecs: 516517142
  frame_id: "ti_mmwave"
point_id: 6
x: 0.75
y: 0.55859375
z: -0.09765625
range: 1.00227034092
velocity: 0.0
doppler_bin: 8
bearing: 36.6784362793
intensity: 26.5513839722
---
header: 
  seq: 403707
  stamp: 
    secs: 1561681913
    nsecs: 516531630
  frame_id: "ti_mmwave"
point_id: 7
x: 0.7734375
y: 0.552734375
z: 0.24609375
range: 1.04584729671
velocity: 0.0
doppler_bin: 8
bearing: 35.5513648987
intensity: 25.3655853271
---
header: 
  seq: 403708
  stamp: 
    secs: 1561681913
    nsecs: 516545507
  frame_id: "ti_mmwave"
point_id: 8
x: 2.5625
y: -0.263671875
z: 1.154296875
range: 3.00681090355
velocity: 0.0
doppler_bin: 8
bearing: -5.87485074997
intensity: 29.4398880005
---
header: 
  seq: 403709
  stamp: 
    secs: 1561681913
    nsecs: 516617319
  frame_id: "ti_mmwave"
point_id: 9
x: 2.607421875
y: -0.267578125
z: 1.15234375
range: 3.05038785934
velocity: 0.0
doppler_bin: 8
bearing: -5.85928010941
intensity: 32.7230567932
---
header: 
  seq: 403710
  stamp: 
    secs: 1561681913
    nsecs: 516633080
  frame_id: "ti_mmwave"
point_id: 10
x: 2.662109375
y: -0.181640625
z: 1.1484375
range: 3.09396481514
velocity: 0.0
doppler_bin: 8
bearing: -3.90334677696
intensity: 31.9975509644
---
header: 
  seq: 403711
  stamp: 
    secs: 1561681913
    nsecs: 516647569
  frame_id: "ti_mmwave"
point_id: 11
x: 4.416015625
y: -0.287109375
z: 1.185546875
range: 4.88062095642
velocity: 0.0
doppler_bin: 8
bearing: -3.71987724304
intensity: 30.6929798126
---
header: 
  seq: 403712
  stamp: 
    secs: 1561681913
    nsecs: 516661012
  frame_id: "ti_mmwave"
point_id: 12
x: 4.4453125
y: -0.2890625
z: 1.234375
range: 4.9241976738
velocity: 0.0
doppler_bin: 8
bearing: -3.72049832344
intensity: 30.2775726318
---
header: 
  seq: 403713
  stamp: 
    secs: 1561681913
    nsecs: 516674444
  frame_id: "ti_mmwave"
point_id: 13
x: 4.73828125
y: -0.44921875
z: -0.49609375
range: 5.09850549698
velocity: 0.0
doppler_bin: 8
bearing: -5.4158115387
intensity: 33.0427513123
---
header: 
  seq: 403714
  stamp: 
    secs: 1561681913
    nsecs: 516690189
  frame_id: "ti_mmwave"
point_id: 14
x: 4.787109375
y: -0.453125
z: -0.431640625
range: 5.14208269119
velocity: 0.0
doppler_bin: 8
bearing: -5.40723514557
intensity: 33.7106781006
---
header: 
  seq: 403715
  stamp: 
    secs: 1561681913
    nsecs: 516706732
  frame_id: "ti_mmwave"
point_id: 15
x: 4.841796875
y: -0.45703125
z: -0.21875
range: 5.18565940857
velocity: 0.0
doppler_bin: 8
bearing: -5.39233732224
intensity: 30.3862018585
---
header: 
  seq: 403716
  stamp: 
    secs: 1561681913
    nsecs: 516754035
  frame_id: "ti_mmwave"
point_id: 16
x: 4.814453125
y: -0.4609375
z: 0.841796875
range: 5.22923660278
velocity: 0.0
doppler_bin: 8
bearing: -5.46884965897
intensity: 29.6189556122
---
header: 
  seq: 403717
  stamp: 
    secs: 1561681913
    nsecs: 516768439
  frame_id: "ti_mmwave"
point_id: 17
x: 4.841796875
y: -0.46484375
z: 0.921875
range: 5.27281332016
velocity: 0.0
doppler_bin: 8
bearing: -5.48395681381
intensity: 30.7077655792
---
header: 
  seq: 403718
  stamp: 
    secs: 1561681913
    nsecs: 516781680
  frame_id: "ti_mmwave"
point_id: 18
x: 0.49609375
y: 0.478515625
z: -0.09765625
range: 0.740808486938
velocity: 0.614668667316
doppler_bin: 9
bearing: 43.9667205811
intensity: 23.6921577454
---
header: 
  seq: 403719
  stamp: 
    secs: 1561681913
    nsecs: 516798246
  frame_id: "ti_mmwave"
point_id: 19
x: 0.50390625
y: 0.529296875
z: -0.09375
range: 0.784385442734
velocity: 0.614668667316
doppler_bin: 9
bearing: 46.4077415466
intensity: 27.8958072662
---
header: 
  seq: 403720
  stamp: 
    secs: 1561681913
    nsecs: 516808410
  frame_id: "ti_mmwave"
point_id: 20
x: 0.552734375
y: 0.53515625
z: -0.1171875
range: 0.827962458134
velocity: 0.614668667316
doppler_bin: 9
bearing: 44.0742950439
intensity: 28.0482063293
---
header: 
  seq: 403721
  stamp: 
    secs: 1561681913
    nsecs: 516856905
  frame_id: "ti_mmwave"
point_id: 21
x: 0.55078125
y: 0.587890625
z: -0.14453125
range: 0.871539413929
velocity: 0.614668667316
doppler_bin: 9
bearing: 46.8666152954
intensity: 23.9619941711
---
header: 
  seq: 403722
  stamp: 
    secs: 1561681913
    nsecs: 516875943
  frame_id: "ti_mmwave"
point_id: 23
x: 0.041015625
y: -0.033203125
z: 0.0625
range: 0.0871539413929
velocity: 0.0
doppler_bin: 8
bearing: -38.9909973145
intensity: 30.0945091248
---
header: 
  seq: 403723
  stamp: 
    secs: 1561681913
    nsecs: 516889535
  frame_id: "ti_mmwave"
point_id: 24
x: 0.052734375
y: -0.04296875
z: 0.1015625
range: 0.130730912089
velocity: 0.0
doppler_bin: 8
bearing: -39.1736602783
intensity: 28.9707698822
---
header: 
  seq: 403724
  stamp: 
    secs: 1561681913
    nsecs: 516909955
  frame_id: "ti_mmwave"
point_id: 26
x: 2.72265625
y: -2.00390625
z: -3.091796875
range: 4.88062095642
velocity: 0.0
doppler_bin: 8
bearing: -36.3534965515
intensity: 27.8390350342
---
header: 
  seq: 403725
  stamp: 
    secs: 1561681913
    nsecs: 516950250
  frame_id: "ti_mmwave"
point_id: 27
x: 2.6640625
y: -2.021484375
z: -3.189453125
range: 4.9241976738
velocity: 0.0
doppler_bin: 8
bearing: -37.1911430359
intensity: 27.3639640808
---
header: 
  seq: 403726
  stamp: 
    secs: 1561681913
    nsecs: 574633399
  frame_id: "ti_mmwave"
point_id: 0
x: 0.01171875
y: -0.0390625
z: -0.0078125
range: 0.0435769706964
velocity: 0.0
doppler_bin: 8
bearing: -73.3007583618
intensity: 30.7298469543
---
header: 
  seq: 403727
  stamp: 
    secs: 1561681913
    nsecs: 574707596
  frame_id: "ti_mmwave"
point_id: 1
x: 0.017578125
y: -0.080078125
z: -0.0078125
range: 0.0871539413929
velocity: 0.0
doppler_bin: 8
bearing: -77.6192398071
intensity: 31.9617614746
---
header: 
  seq: 403728
  stamp: 
    secs: 1561681913
    nsecs: 574725477
  frame_id: "ti_mmwave"
point_id: 2
x: 0.029296875
y: -0.119140625
z: -0.005859375
range: 0.130730912089
velocity: 0.0
doppler_bin: 8
bearing: -76.1849746704
intensity: 30.2284069061
---
header: 
  seq: 403729
  stamp: 
    secs: 1561681913
    nsecs: 574738570
  frame_id: "ti_mmwave"
point_id: 3
x: 0.056640625
y: -0.154296875
z: 0.005859375
range: 0.174307882786
velocity: 0.0
doppler_bin: 8
bearing: -69.8423843384
intensity: 25.490032196
---
header: 
  seq: 403730
  stamp: 
    secs: 1561681913
    nsecs: 574750833
  frame_id: "ti_mmwave"
point_id: 4
x: 0.658203125
y: 0.537109375
z: -0.12890625
range: 0.915116369724
velocity: 0.0
doppler_bin: 8
bearing: 39.215259552
intensity: 24.9968700409
---
header: 
  seq: 403731
  stamp: 
    secs: 1561681913
    nsecs: 574774361
  frame_id: "ti_mmwave"
point_id: 5
x: 0.65234375
y: 0.53515625
z: -0.3125
range: 0.958693385124
velocity: 0.0
doppler_bin: 8
bearing: 39.3640594482
intensity: 24.8287353516
---
header: 
  seq: 403732
  stamp: 
    secs: 1561681913
    nsecs: 574792835
  frame_id: "ti_mmwave"
point_id: 6
x: 0.72265625
y: 0.58203125
z: 0.318359375
range: 1.04584729671
velocity: 0.0
doppler_bin: 8
bearing: 38.8481559753
intensity: 27.9379043579
---
header: 
  seq: 403733
  stamp: 
    secs: 1561681913
    nsecs: 574869333
  frame_id: "ti_mmwave"
point_id: 7
x: 0.7734375
y: 0.607421875
z: 0.28125
range: 1.08942425251
velocity: 0.0
doppler_bin: 8
bearing: 38.144443512
intensity: 26.503074646
---
header: 
  seq: 403734
  stamp: 
    secs: 1561681913
    nsecs: 574884031
  frame_id: "ti_mmwave"
point_id: 8
x: 2.556640625
y: -0.263671875
z: 1.166015625
range: 3.00681090355
velocity: 0.0
doppler_bin: 8
bearing: -5.88822031021
intensity: 29.3601074219
---
header: 
  seq: 403735
  stamp: 
    secs: 1561681913
    nsecs: 574897098
  frame_id: "ti_mmwave"
point_id: 9
x: 2.603515625
y: -0.267578125
z: 1.162109375
range: 3.05038785934
velocity: 0.0
doppler_bin: 8
bearing: -5.8680100441
intensity: 32.7184143066
---
header: 
  seq: 403736
  stamp: 
    secs: 1561681913
    nsecs: 574907529
  frame_id: "ti_mmwave"
point_id: 10
x: 2.65625
y: -0.181640625
z: 1.162109375
range: 3.09396481514
velocity: 0.0
doppler_bin: 8
bearing: -3.91193032265
intensity: 32.0221595764
---
header: 
  seq: 403737
  stamp: 
    secs: 1561681913
    nsecs: 574917759
  frame_id: "ti_mmwave"
point_id: 11
x: 4.41015625
y: -0.287109375
z: 1.205078125
range: 4.88062095642
velocity: 0.0
doppler_bin: 8
bearing: -3.72480559349
intensity: 30.6707077026
---
header: 
  seq: 403738
  stamp: 
    secs: 1561681913
    nsecs: 574928289
  frame_id: "ti_mmwave"
point_id: 12
x: 4.44140625
y: -0.2890625
z: 1.248046875
range: 4.9241976738
velocity: 0.0
doppler_bin: 8
bearing: -3.7237610817
intensity: 30.3422718048
---
header: 
  seq: 403739
  stamp: 
    secs: 1561681913
    nsecs: 574939106
  frame_id: "ti_mmwave"
point_id: 13
x: 4.740234375
y: -0.44921875
z: -0.486328125
range: 5.09850549698
velocity: 0.0
doppler_bin: 8
bearing: -5.41359329224
intensity: 32.9841651917
---
header: 
  seq: 403740
  stamp: 
    secs: 1561681913
    nsecs: 574950473
  frame_id: "ti_mmwave"
point_id: 14
x: 4.787109375
y: -0.453125
z: -0.416015625
range: 5.14208269119
velocity: 0.0
doppler_bin: 8
bearing: -5.40723514557
intensity: 33.6604919434
---
header: 
  seq: 403741
  stamp: 
    secs: 1561681913
    nsecs: 574963454
  frame_id: "ti_mmwave"
point_id: 15
x: 4.841796875
y: -0.45703125
z: -0.22265625
range: 5.18565940857
velocity: 0.0
doppler_bin: 8
bearing: -5.39233732224
intensity: 30.4296913147
---
header: 
  seq: 403742
  stamp: 
    secs: 1561681913
    nsecs: 574977495
  frame_id: "ti_mmwave"
point_id: 16
x: 4.83203125
y: -0.4609375
z: 0.736328125
range: 5.22923660278
velocity: 0.0
doppler_bin: 8
bearing: -5.44907474518
intensity: 29.4987773895
---
header: 
  seq: 403743
  stamp: 
    secs: 1561681913
    nsecs: 574991065
  frame_id: "ti_mmwave"
point_id: 17
x: 4.8828125
y: -0.30859375
z: 0.75
range: 5.27281332016
velocity: 0.0
doppler_bin: 8
bearing: -3.61628341675
intensity: 30.5766601562
---
header: 
  seq: 403744
  stamp: 
    secs: 1561681913
    nsecs: 575000602
  frame_id: "ti_mmwave"
point_id: 18
x: 0.435546875
y: 0.552734375
z: -0.216796875
range: 0.784385442734
velocity: 0.614668667316
doppler_bin: 9
bearing: 51.7623901367
intensity: 21.8184356689
---
header: 
  seq: 403745
  stamp: 
    secs: 1561681913
    nsecs: 575019696
  frame_id: "ti_mmwave"
point_id: 19
x: 0.490234375
y: 0.58203125
z: -0.158203125
range: 0.827962458134
velocity: 0.614668667316
doppler_bin: 9
bearing: 49.8931732178
intensity: 24.5178642273
---
header: 
  seq: 403746
  stamp: 
    secs: 1561681913
    nsecs: 575038431
  frame_id: "ti_mmwave"
point_id: 20
x: 0.5859375
y: 0.5625
z: -0.099609375
range: 0.871539413929
velocity: 0.614668667316
doppler_bin: 9
bearing: 43.8308601379
intensity: 24.8144264221
---
header: 
  seq: 403747
  stamp: 
    secs: 1561681913
    nsecs: 575108578
  frame_id: "ti_mmwave"
point_id: 21
x: 0.595703125
y: 0.55859375
z: 0.46875
range: 1.00227034092
velocity: 0.614668667316
doppler_bin: 9
bearing: 43.1586380005
intensity: 26.0422611237
---
header: 
  seq: 403748
  stamp: 
    secs: 1561681913
    nsecs: 575130991
  frame_id: "ti_mmwave"
point_id: 23
x: 0.041015625
y: -0.033203125
z: 0.0625
range: 0.0871539413929
velocity: 0.0
doppler_bin: 8
bearing: -38.9909973145
intensity: 30.0987567902
---
header: 
  seq: 403749
  stamp: 
    secs: 1561681913
    nsecs: 575143661
  frame_id: "ti_mmwave"
point_id: 24
x: 0.052734375
y: -0.04296875
z: 0.103515625
range: 0.130730912089
velocity: 0.0
doppler_bin: 8
bearing: -39.1736602783
intensity: 28.9762706757
---
header: 
  seq: 403750
  stamp: 
    secs: 1561681913
    nsecs: 575159627
  frame_id: "ti_mmwave"
point_id: 26
x: 2.791015625
y: -2.00390625
z: -3.029296875
range: 4.88062095642
velocity: 0.0
doppler_bin: 8
bearing: -35.6777648926
intensity: 27.8247261047
---
header: 
  seq: 403751
  stamp: 
    secs: 1561681913
    nsecs: 575174575
  frame_id: "ti_mmwave"
point_id: 27
x: 2.7578125
y: -2.021484375
z: -3.111328125
range: 4.9241976738
velocity: 0.0
doppler_bin: 8
bearing: -36.2415237427
intensity: 27.3719272614
---
header: 
  seq: 403752
  stamp: 
    secs: 1561681913
    nsecs: 634413833
  frame_id: "ti_mmwave"
point_id: 0
x: 0.01171875
y: -0.0390625
z: -0.0078125
range: 0.0435769706964
velocity: 0.0
doppler_bin: 8
bearing: -73.3007583618
intensity: 30.7371826172
---
header: 
  seq: 403753
  stamp: 
    secs: 1561681913
    nsecs: 634517933
  frame_id: "ti_mmwave"
point_id: 1
x: 0.017578125
y: -0.080078125
z: -0.0078125
range: 0.0871539413929
velocity: 0.0
doppler_bin: 8
bearing: -77.6192398071
intensity: 31.9617614746
---
header: 
  seq: 403754
  stamp: 
    secs: 1561681913
    nsecs: 634535580
  frame_id: "ti_mmwave"
point_id: 2
x: 0.029296875
y: -0.119140625
z: -0.005859375
range: 0.130730912089
velocity: 0.0
doppler_bin: 8
bearing: -76.1849746704
intensity: 30.2284069061
---
header: 
  seq: 403755
  stamp: 
    secs: 1561681913
    nsecs: 634551858
  frame_id: "ti_mmwave"
point_id: 3
x: 0.056640625
y: -0.154296875
z: 0.005859375
range: 0.174307882786
velocity: 0.0
doppler_bin: 8
bearing: -69.8423843384
intensity: 25.490032196
---
header: 
  seq: 403756
  stamp: 
    secs: 1561681913
    nsecs: 634567609
  frame_id: "ti_mmwave"
point_id: 4
x: 0.62890625
y: 0.5625
z: -0.314453125
range: 0.958693385124
velocity: 0.0
doppler_bin: 8
bearing: 41.8097648621
intensity: 22.2530937195
---
header: 
  seq: 403757
  stamp: 
    secs: 1561681913
    nsecs: 634647428
  frame_id: "ti_mmwave"
point_id: 5
x: 0.734375
y: 0.5
z: 0.30859375
range: 1.00227034092
velocity: 0.0
doppler_bin: 8
bearing: 34.2490348816
intensity: 22.1484394073
---
header: 
  seq: 403758
  stamp: 
    secs: 1561681913
    nsecs: 634663471
  frame_id: "ti_mmwave"
point_id: 6
x: 0.75
y: 0.58203125
z: 0.24609375
range: 1.04584729671
velocity: 0.0
doppler_bin: 8
bearing: 37.8129501343
intensity: 27.1600341797
---
header: 
  seq: 403759
  stamp: 
    secs: 1561681913
    nsecs: 634676821
  frame_id: "ti_mmwave"
point_id: 7
x: 2.548828125
y: -0.263671875
z: 1.18359375
range: 3.00681090355
velocity: 0.0
doppler_bin: 8
bearing: -5.90614128113
intensity: 29.4694328308
---
header: 
  seq: 403760
  stamp: 
    secs: 1561681913
    nsecs: 634692678
  frame_id: "ti_mmwave"
point_id: 8
x: 2.60546875
y: -0.267578125
z: 1.15625
range: 3.05038785934
velocity: 0.0
doppler_bin: 8
bearing: -5.86364221573
intensity: 32.7485046387
---
header: 
  seq: 403761
  stamp: 
    secs: 1561681913
    nsecs: 634705789
  frame_id: "ti_mmwave"
point_id: 9
x: 2.662109375
y: -0.181640625
z: 1.1484375
range: 3.09396481514
velocity: 0.0
doppler_bin: 8
bearing: -3.90334677696
intensity: 32.0167007446
---
header: 
  seq: 403762
  stamp: 
    secs: 1561681913
    nsecs: 634718655
  frame_id: "ti_mmwave"
point_id: 10
x: 4.419921875
y: -0.287109375
z: 1.173828125
range: 4.88062095642
velocity: 0.0
doppler_bin: 8
bearing: -3.71659874916
intensity: 30.6557979584
---
header: 
  seq: 403763
  stamp: 
    secs: 1561681913
    nsecs: 634734021
  frame_id: "ti_mmwave"
point_id: 11
x: 4.4453125
y: -0.2890625
z: 1.234375
range: 4.9241976738
velocity: 0.0
doppler_bin: 8
bearing: -3.72049832344
intensity: 30.2734966278
---
header: 
  seq: 403764
  stamp: 
    secs: 1561681913
    nsecs: 634747358
  frame_id: "ti_mmwave"
point_id: 12
x: 4.693359375
y: -0.4453125
z: -0.537109375
range: 5.0549287796
velocity: 0.0
doppler_bin: 8
bearing: -5.42007780075
intensity: 29.1328392029
---
header: 
  seq: 403765
  stamp: 
    secs: 1561681913
    nsecs: 634761284
  frame_id: "ti_mmwave"
point_id: 13
x: 4.73828125
y: -0.44921875
z: -0.50390625
range: 5.09850549698
velocity: 0.0
doppler_bin: 8
bearing: -5.4158115387
intensity: 32.9819793701
---
header: 
  seq: 403766
  stamp: 
    secs: 1561681913
    nsecs: 634828520
  frame_id: "ti_mmwave"
point_id: 14
x: 4.78515625
y: -0.453125
z: -0.439453125
range: 5.14208269119
velocity: 0.0
doppler_bin: 8
bearing: -5.40942907333
intensity: 33.6772842407
---
header: 
  seq: 403767
  stamp: 
    secs: 1561681913
    nsecs: 634845466
  frame_id: "ti_mmwave"
point_id: 15
x: 4.83984375
y: -0.45703125
z: -0.248046875
range: 5.18565940857
velocity: 0.0
doppler_bin: 8
bearing: -5.39450025558
intensity: 30.4453983307
---
header: 
  seq: 403768
  stamp: 
    secs: 1561681913
    nsecs: 634859056
  frame_id: "ti_mmwave"
point_id: 16
x: 4.82421875
y: -0.4609375
z: 0.779296875
range: 5.22923660278
velocity: 0.0
doppler_bin: 8
bearing: -5.4578461647
intensity: 29.5568771362
---
header: 
  seq: 403769
  stamp: 
    secs: 1561681913
    nsecs: 634873030
  frame_id: "ti_mmwave"
point_id: 17
x: 4.87109375
y: -0.30859375
z: 0.818359375
range: 5.27281332016
velocity: 0.0
doppler_bin: 8
bearing: -3.62496066093
intensity: 30.6929798126
---
header: 
  seq: 403770
  stamp: 
    secs: 1561681913
    nsecs: 634887276
  frame_id: "ti_mmwave"
point_id: 18
x: 0.48046875
y: 0.552734375
z: -0.080078125
range: 0.784385442734
velocity: 0.614668667316
doppler_bin: 9
bearing: 49.0009384155
intensity: 25.3275432587
---
header: 
  seq: 403771
  stamp: 
    secs: 1561681913
    nsecs: 634902150
  frame_id: "ti_mmwave"
point_id: 19
x: 0.501953125
y: 0.58203125
z: -0.111328125
range: 0.827962458134
velocity: 0.614668667316
doppler_bin: 9
bearing: 49.22498703
intensity: 28.2282161713
---
header: 
  seq: 403772
  stamp: 
    secs: 1561681913
    nsecs: 634915512
  frame_id: "ti_mmwave"
point_id: 20
x: 0.5234375
y: 0.61328125
z: -0.13671875
range: 0.871539413929
velocity: 0.614668667316
doppler_bin: 9
bearing: 49.5191383362
intensity: 27.7158756256
---
header: 
  seq: 403773
  stamp: 
    secs: 1561681913
    nsecs: 634924678
  frame_id: "ti_mmwave"
point_id: 21
x: 0.58203125
y: 0.6171875
z: -0.12890625
range: 0.915116369724
velocity: 0.614668667316
doppler_bin: 9
bearing: 46.6791992188
intensity: 23.2014636993
---
header: 
  seq: 403774
  stamp: 
    secs: 1561681913
    nsecs: 634981924
  frame_id: "ti_mmwave"
point_id: 22
x: 0.76171875
y: 0.607421875
z: 0.3125
range: 1.08942425251
velocity: 0.614668667316
doppler_bin: 9
bearing: 38.5701141357
intensity: 26.0530509949
---
header: 
  seq: 403775
  stamp: 
    secs: 1561681913
    nsecs: 634999996
  frame_id: "ti_mmwave"
point_id: 24
x: 0.041015625
y: -0.033203125
z: 0.0625
range: 0.0871539413929
velocity: 0.0
doppler_bin: 8
bearing: -38.9909973145
intensity: 30.0987567902
---
header: 
  seq: 403776
  stamp: 
    secs: 1561681913
    nsecs: 635016102
  frame_id: "ti_mmwave"
point_id: 25
x: 0.052734375
y: -0.04296875
z: 0.103515625
range: 0.130730912089
velocity: 0.0
doppler_bin: 8
bearing: -39.1736602783
intensity: 28.9762706757
---
header: 
  seq: 403777
  stamp: 
    secs: 1561681913
    nsecs: 635034038
  frame_id: "ti_mmwave"
point_id: 27
x: 2.66015625
y: -2.00390625
z: -3.146484375
range: 4.88062095642
velocity: 0.0
doppler_bin: 8
bearing: -36.9908599854
intensity: 27.7451705933
---
header: 
  seq: 403778
  stamp: 
    secs: 1561681913
    nsecs: 636175624
  frame_id: "ti_mmwave"
point_id: 0
x: 0.01171875
y: -0.0390625
z: -0.0078125
range: 0.0435769706964
velocity: 0.0
doppler_bin: 8
bearing: -73.3007583618
intensity: 30.7298469543
---
header: 
  seq: 403779
  stamp: 
    secs: 1561681913
    nsecs: 636235835
  frame_id: "ti_mmwave"
point_id: 1
x: 0.017578125
y: -0.080078125
z: -0.0078125
range: 0.0871539413929
velocity: 0.0
doppler_bin: 8
bearing: -77.6192398071
intensity: 31.9589958191
---
header: 
  seq: 403780
  stamp: 
    secs: 1561681913
    nsecs: 636255285
  frame_id: "ti_mmwave"
point_id: 2
x: 0.029296875
y: -0.119140625
z: -0.005859375
range: 0.130730912089
velocity: 0.0
doppler_bin: 8
bearing: -76.1849746704
intensity: 30.2284069061
---
header: 
  seq: 403781
  stamp: 
    secs: 1561681913
    nsecs: 636269367
  frame_id: "ti_mmwave"
point_id: 3
x: 0.056640625
y: -0.154296875
z: 0.005859375
range: 0.174307882786
velocity: 0.0
doppler_bin: 8
bearing: -69.8423843384
intensity: 25.4777469635
---
header: 
  seq: 403782
  stamp: 
    secs: 1561681913
    nsecs: 636294280
  frame_id: "ti_mmwave"
point_id: 4
x: 2.546875
y: -0.263671875
z: 1.1875
range: 3.00681090355
velocity: 0.0
doppler_bin: 8
bearing: -5.91063833237
intensity: 29.4448261261
---
header: 
  seq: 403783
  stamp: 
    secs: 1561681913
    nsecs: 636359103
  frame_id: "ti_mmwave"
point_id: 5
x: 2.607421875
y: -0.267578125
z: 1.154296875
range: 3.05038785934
velocity: 0.0
doppler_bin: 8
bearing: -5.85928010941
intensity: 32.7392692566
---
header: 
  seq: 403784
  stamp: 
    secs: 1561681913
    nsecs: 636373917
  frame_id: "ti_mmwave"
point_id: 6
x: 2.666015625
y: -0.181640625
z: 1.138671875
range: 3.09396481514
velocity: 0.0
doppler_bin: 8
bearing: -3.89764523506
intensity: 31.994808197
---
header: 
  seq: 403785
  stamp: 
    secs: 1561681913
    nsecs: 636387883
  frame_id: "ti_mmwave"
point_id: 7
x: 4.421875
y: -0.287109375
z: 1.1640625
range: 4.88062095642
velocity: 0.0
doppler_bin: 8
bearing: -3.7149617672
intensity: 30.6892757416
---
header: 
  seq: 403786
  stamp: 
    secs: 1561681913
    nsecs: 636401238
  frame_id: "ti_mmwave"
point_id: 8
x: 4.462890625
y: -0.2890625
z: 1.16796875
range: 4.9241976738
velocity: 0.0
doppler_bin: 8
bearing: -3.70588517189
intensity: 30.3221569061
---
header: 
  seq: 403787
  stamp: 
    secs: 1561681913
    nsecs: 636419400
  frame_id: "ti_mmwave"
point_id: 9
x: 4.6640625
y: -0.4453125
z: -0.75
range: 5.0549287796
velocity: 0.0
doppler_bin: 8
bearing: -5.45391893387
intensity: 29.3951931
---
header: 
  seq: 403788
  stamp: 
    secs: 1561681913
    nsecs: 636432995
  frame_id: "ti_mmwave"
point_id: 10
x: 4.734375
y: -0.44921875
z: -0.53515625
range: 5.09850549698
velocity: 0.0
doppler_bin: 8
bearing: -5.42025327682
intensity: 33.0877761841
---
header: 
  seq: 403789
  stamp: 
    secs: 1561681913
    nsecs: 636445942
  frame_id: "ti_mmwave"
point_id: 11
x: 4.78515625
y: -0.453125
z: -0.4453125
range: 5.14208269119
velocity: 0.0
doppler_bin: 8
bearing: -5.40942907333
intensity: 33.6772842407
---
header: 
  seq: 403790
  stamp: 
    secs: 1561681913
    nsecs: 636474863
  frame_id: "ti_mmwave"
point_id: 12
x: 4.837890625
y: -0.45703125
z: -0.28125
range: 5.18565940857
velocity: 0.0
doppler_bin: 8
bearing: -5.39666557312
intensity: 30.3382568359
---
header: 
  seq: 403791
  stamp: 
    secs: 1561681913
    nsecs: 636532102
  frame_id: "ti_mmwave"
point_id: 13
x: 4.822265625
y: -0.4609375
z: 0.798828125
range: 5.22923660278
velocity: 0.0
doppler_bin: 8
bearing: -5.46004343033
intensity: 29.3701610565
---
header: 
  seq: 403792
  stamp: 
    secs: 1561681913
    nsecs: 636547846
  frame_id: "ti_mmwave"
point_id: 14
x: 4.83984375
y: -0.46484375
z: 0.923828125
range: 5.27281332016
velocity: 0.0
doppler_bin: 8
bearing: -5.48615646362
intensity: 30.5576038361
---
header: 
  seq: 403793
  stamp: 
    secs: 1561681913
    nsecs: 636561696
  frame_id: "ti_mmwave"
point_id: 15
x: 0.486328125
y: 0.552734375
z: -0.03125
range: 0.784385442734
velocity: 0.614668667316
doppler_bin: 9
bearing: 48.6567840576
intensity: 21.7318630219
---
header: 
  seq: 403794
  stamp: 
    secs: 1561681913
    nsecs: 636577562
  frame_id: "ti_mmwave"
point_id: 16
x: 0.478515625
y: 0.607421875
z: -0.076171875
range: 0.827962458134
velocity: 0.614668667316
doppler_bin: 9
bearing: 51.7696151733
intensity: 26.1278381348
---
header: 
  seq: 403795
  stamp: 
    secs: 1561681913
    nsecs: 636591728
  frame_id: "ti_mmwave"
point_id: 17
x: 0.46484375
y: 0.6640625
z: -0.103515625
range: 0.871539413929
velocity: 0.614668667316
doppler_bin: 9
bearing: 55.0079803467
intensity: 26.812412262
---
header: 
  seq: 403796
  stamp: 
    secs: 1561681913
    nsecs: 636605708
  frame_id: "ti_mmwave"
point_id: 18
x: 0.482421875
y: 0.697265625
z: -0.1328125
range: 0.915116369724
velocity: 0.614668667316
doppler_bin: 9
bearing: 55.3215408325
intensity: 23.9445171356
---
header: 
  seq: 403797
  stamp: 
    secs: 1561681913
    nsecs: 636618057
  frame_id: "ti_mmwave"
point_id: 19
x: 0.70703125
y: 0.61328125
z: 0.294921875
range: 1.04584729671
velocity: 0.614668667316
doppler_bin: 9
bearing: 40.9384765625
intensity: 23.9794006348
---
header: 
  seq: 403798
  stamp: 
    secs: 1561681913
    nsecs: 636631059
  frame_id: "ti_mmwave"
point_id: 20
x: 0.69921875
y: 0.671875
z: 0.32421875
range: 1.08942425251
velocity: 0.614668667316
doppler_bin: 9
bearing: 43.8575019836
intensity: 24.3136367798
---
header: 
  seq: 403799
  stamp: 
    secs: 1561681913
    nsecs: 636647305
  frame_id: "ti_mmwave"
point_id: 22
x: 0.041015625
y: -0.033203125
z: 0.0625
range: 0.0871539413929
velocity: 0.0
doppler_bin: 8
bearing: -38.9909973145
intensity: 30.0987567902
---
header: 
  seq: 403800
  stamp: 
    secs: 1561681913
    nsecs: 636660955
  frame_id: "ti_mmwave"
point_id: 23
x: 0.052734375
y: -0.04296875
z: 0.103515625
range: 0.130730912089
velocity: 0.0
doppler_bin: 8
bearing: -39.1736602783
intensity: 28.9762706757
---
header: 
  seq: 403801
  stamp: 
    secs: 1561681913
    nsecs: 636675549
  frame_id: "ti_mmwave"
point_id: 25
x: 2.73046875
y: -2.00390625
z: -3.0859375
range: 4.88062095642
velocity: 0.0
doppler_bin: 8
bearing: -36.2751502991
intensity: 27.8175544739
---
header: 
  seq: 403802
  stamp: 
    secs: 1561681913
    nsecs: 636732322
  frame_id: "ti_mmwave"
point_id: 26
x: 2.623046875
y: -2.021484375
z: -3.224609375
range: 4.9241976738
velocity: 0.0
doppler_bin: 8
bearing: -37.6201019287
intensity: 27.3479976654
---
header: 
  seq: 403803
  stamp: 
    secs: 1561681913
    nsecs: 636746733
  frame_id: "ti_mmwave"
point_id: 27
x: 0.32421875
y: 0.357421875
z: 0.66015625
range: 0.871539413929
velocity: 0.614668667316
doppler_bin: 9
bearing: 47.7887077332
intensity: 23.8560619354
---
header: 
  seq: 403804
  stamp: 
    secs: 1561681913
    nsecs: 636760115
  frame_id: "ti_mmwave"
point_id: 28
x: 0.4921875
y: 0.40234375
z: 0.578125
range: 0.915116369724
velocity: 0.614668667316
doppler_bin: 9
bearing: 39.2646331787
intensity: 21.2385158539
---
header: 
  seq: 403805
  stamp: 
    secs: 1561681913
    nsecs: 694558755
  frame_id: "ti_mmwave"
point_id: 0
x: 0.01171875
y: -0.0390625
z: -0.0078125
range: 0.0435769706964
velocity: 0.0
doppler_bin: 8
bearing: -73.3007583618
intensity: 30.7298469543
---
header: 
  seq: 403806
  stamp: 
    secs: 1561681913
    nsecs: 694650113
  frame_id: "ti_mmwave"
point_id: 1
x: 0.017578125
y: -0.080078125
z: -0.0078125
range: 0.0871539413929
velocity: 0.0
doppler_bin: 8
bearing: -77.6192398071
intensity: 31.9645252228
---
header: 
  seq: 403807
  stamp: 
    secs: 1561681913
    nsecs: 694669856
  frame_id: "ti_mmwave"
point_id: 2
x: 0.041015625
y: -0.115234375
z: -0.0078125
range: 0.130730912089
velocity: 0.0
doppler_bin: 8
bearing: -70.4077224731
intensity: 30.2325248718
---
header: 
  seq: 403808
  stamp: 
    secs: 1561681913
    nsecs: 694684043
  frame_id: "ti_mmwave"
point_id: 3
x: 0.056640625
y: -0.154296875
z: 0.005859375
range: 0.174307882786
velocity: 0.0
doppler_bin: 8
bearing: -69.8423843384
intensity: 25.490032196
---
header: 
  seq: 403809
  stamp: 
    secs: 1561681913
    nsecs: 694699920
  frame_id: "ti_mmwave"
point_id: 4
x: 0.736328125
y: 0.55859375
z: -0.1796875
range: 1.00227034092
velocity: 0.0
doppler_bin: 8
bearing: 37.1847038269
intensity: 20.6818580627
---
header: 
  seq: 403810
  stamp: 
    secs: 1561681913
    nsecs: 694723222
  frame_id: "ti_mmwave"
point_id: 5
x: 2.560546875
y: -0.263671875
z: 1.15625
range: 3.00681090355
velocity: 0.0
doppler_bin: 8
bearing: -5.87930107117
intensity: 29.4151134491
---
header: 
  seq: 403811
  stamp: 
    secs: 1561681913
    nsecs: 694744805
  frame_id: "ti_mmwave"
point_id: 6
x: 2.60546875
y: -0.267578125
z: 1.15625
range: 3.05038785934
velocity: 0.0
doppler_bin: 8
bearing: -5.86364221573
intensity: 32.7346420288
---
header: 
  seq: 403812
  stamp: 
    secs: 1561681913
    nsecs: 694762071
  frame_id: "ti_mmwave"
point_id: 7
x: 2.65625
y: -0.181640625
z: 1.162109375
range: 3.09396481514
velocity: 0.0
doppler_bin: 8
bearing: -3.91193032265
intensity: 32.0357666016
---
header: 
  seq: 403813
  stamp: 
    secs: 1561681913
    nsecs: 694851727
  frame_id: "ti_mmwave"
point_id: 8
x: 4.4140625
y: -0.287109375
z: 1.193359375
range: 4.88062095642
velocity: 0.0
doppler_bin: 8
bearing: -3.72151875496
intensity: 30.6855697632
---
header: 
  seq: 403814
  stamp: 
    secs: 1561681913
    nsecs: 694870318
  frame_id: "ti_mmwave"
point_id: 9
x: 4.451171875
y: -0.2890625
z: 1.212890625
range: 4.9241976738
velocity: 0.0
doppler_bin: 8
bearing: -3.71561431885
intensity: 30.3059978485
---
header: 
  seq: 403815
  stamp: 
    secs: 1561681913
    nsecs: 694883233
  frame_id: "ti_mmwave"
point_id: 10
x: 4.66796875
y: -0.4453125
z: -0.73046875
range: 5.0549287796
velocity: 0.0
doppler_bin: 8
bearing: -5.44938230515
intensity: 29.4792366028
---
header: 
  seq: 403816
  stamp: 
    secs: 1561681913
    nsecs: 694896776
  frame_id: "ti_mmwave"
point_id: 11
x: 4.736328125
y: -0.44921875
z: -0.52734375
range: 5.09850549698
velocity: 0.0
doppler_bin: 8
bearing: -5.41803121567
intensity: 33.1069335938
---
header: 
  seq: 403817
  stamp: 
    secs: 1561681913
    nsecs: 694910326
  frame_id: "ti_mmwave"
point_id: 12
x: 4.78515625
y: -0.453125
z: -0.435546875
range: 5.14208269119
velocity: 0.0
doppler_bin: 8
bearing: -5.40942907333
intensity: 33.6977233887
---
header: 
  seq: 403818
  stamp: 
    secs: 1561681913
    nsecs: 694924647
  frame_id: "ti_mmwave"
point_id: 13
x: 4.83984375
y: -0.45703125
z: -0.255859375
range: 5.18565940857
velocity: 0.0
doppler_bin: 8
bearing: -5.39450025558
intensity: 30.3782482147
---
header: 
  seq: 403819
  stamp: 
    secs: 1561681913
    nsecs: 694937740
  frame_id: "ti_mmwave"
point_id: 14
x: 4.814453125
y: -0.4609375
z: 0.83984375
range: 5.22923660278
velocity: 0.0
doppler_bin: 8
bearing: -5.46884965897
intensity: 29.4546852112
---
header: 
  seq: 403820
  stamp: 
    secs: 1561681913
    nsecs: 694950972
  frame_id: "ti_mmwave"
point_id: 15
x: 4.84375
y: -0.46484375
z: 0.904296875
range: 5.27281332016
velocity: 0.0
doppler_bin: 8
bearing: -5.48175907135
intensity: 30.5652370453
---
header: 
  seq: 403821
  stamp: 
    secs: 1561681913
    nsecs: 694965937
  frame_id: "ti_mmwave"
point_id: 16
x: 0.486328125
y: 0.552734375
z: 0.01953125
range: 0.784385442734
velocity: 0.614668667316
doppler_bin: 9
bearing: 48.6567840576
intensity: 20.0432128906
---
header: 
  seq: 403822
  stamp: 
    secs: 1561681913
    nsecs: 694979483
  frame_id: "ti_mmwave"
point_id: 17
x: 0.484375
y: 0.607421875
z: -0.0078125
range: 0.827962458134
velocity: 0.614668667316
doppler_bin: 9
bearing: 51.4301719666
intensity: 26.8930892944
---
header: 
  seq: 403823
  stamp: 
    secs: 1561681913
    nsecs: 694993131
  frame_id: "ti_mmwave"
point_id: 18
x: 0.509765625
y: 0.638671875
z: -0.021484375
range: 0.871539413929
velocity: 0.614668667316
doppler_bin: 9
bearing: 51.4043502808
intensity: 29.2531204224
---
header: 
  seq: 403824
  stamp: 
    secs: 1561681913
    nsecs: 695064226
  frame_id: "ti_mmwave"
point_id: 19
x: 0.53515625
y: 0.671875
z: -0.03125
range: 0.915116369724
velocity: 0.614668667316
doppler_bin: 9
bearing: 51.462272644
intensity: 27.8675136566
---
header: 
  seq: 403825
  stamp: 
    secs: 1561681913
    nsecs: 695078727
  frame_id: "ti_mmwave"
point_id: 20
x: 0.58984375
y: 0.67578125
z: -0.080078125
range: 0.958693385124
velocity: 0.614668667316
doppler_bin: 9
bearing: 48.8844909668
intensity: 22.9885311127
---
header: 
  seq: 403826
  stamp: 
    secs: 1561681913
    nsecs: 695096827
  frame_id: "ti_mmwave"
point_id: 22
x: 0.041015625
y: -0.033203125
z: 0.0625
range: 0.0871539413929
velocity: 0.0
doppler_bin: 8
bearing: -38.9909973145
intensity: 30.0987567902
---
header: 
  seq: 403827
  stamp: 
    secs: 1561681913
    nsecs: 695110161
  frame_id: "ti_mmwave"
point_id: 23
x: 0.052734375
y: -0.04296875
z: 0.1015625
range: 0.130730912089
velocity: 0.0
doppler_bin: 8
bearing: -39.1736602783
intensity: 28.9762706757
---
header: 
  seq: 403828
  stamp: 
    secs: 1561681913
    nsecs: 695127066
  frame_id: "ti_mmwave"
point_id: 25
x: 2.775390625
y: -2.00390625
z: -3.044921875
range: 4.88062095642
velocity: 0.0
doppler_bin: 8
bearing: -35.830291748
intensity: 27.8532981873
---
header: 
  seq: 403829
  stamp: 
    secs: 1561681913
    nsecs: 695140452
  frame_id: "ti_mmwave"
point_id: 26
x: 2.732421875
y: -2.021484375
z: -3.1328125
range: 4.9241976738
velocity: 0.0
doppler_bin: 8
bearing: -36.4945602417
intensity: 27.3239383698
---
header: 
  seq: 403830
  stamp: 
    secs: 1561681913
    nsecs: 696269416
  frame_id: "ti_mmwave"
point_id: 0
x: 0.01171875
y: -0.0390625
z: -0.0078125
range: 0.0435769706964
velocity: 0.0
doppler_bin: 8
bearing: -73.3007583618
intensity: 30.7261753082
---
header: 
  seq: 403831
  stamp: 
    secs: 1561681913
    nsecs: 696320097
  frame_id: "ti_mmwave"
point_id: 1
x: 0.017578125
y: -0.080078125
z: -0.0078125
range: 0.0871539413929
velocity: 0.0
doppler_bin: 8
bearing: -77.6192398071
intensity: 31.9589958191
---
header: 
  seq: 403832
  stamp: 
    secs: 1561681913
    nsecs: 696330560
  frame_id: "ti_mmwave"
point_id: 2
x: 0.029296875
y: -0.119140625
z: -0.005859375
range: 0.130730912089
velocity: 0.0
doppler_bin: 8
bearing: -76.1849746704
intensity: 30.2284069061
---
header: 
  seq: 403833
  stamp: 
    secs: 1561681913
    nsecs: 696339156
  frame_id: "ti_mmwave"
point_id: 3
x: 0.056640625
y: -0.154296875
z: 0.005859375
range: 0.174307882786
velocity: 0.0
doppler_bin: 8
bearing: -69.8423843384
intensity: 25.4777469635
---
header: 
  seq: 403834
  stamp: 
    secs: 1561681913
    nsecs: 696348472
  frame_id: "ti_mmwave"
point_id: 4
x: 0.708984375
y: 0.55859375
z: -0.263671875
range: 1.00227034092
velocity: 0.0
doppler_bin: 8
bearing: 38.2338256836
intensity: 23.7839794159
---
header: 
  seq: 403835
  stamp: 
    secs: 1561681913
    nsecs: 696357454
  frame_id: "ti_mmwave"
point_id: 5
x: 0.783203125
y: 0.490234375
z: -0.33203125
range: 1.04584729671
velocity: 0.0
doppler_bin: 8
bearing: 32.0438957214
intensity: 23.3645973206
---
header: 
  seq: 403836
  stamp: 
    secs: 1561681913
    nsecs: 696374239
  frame_id: "ti_mmwave"
point_id: 6
x: 2.55078125
y: -0.263671875
z: 1.181640625
range: 3.00681090355
velocity: 0.0
doppler_bin: 8
bearing: -5.90165042877
intensity: 29.4200801849
---
header: 
  seq: 403837
  stamp: 
    secs: 1561681913
    nsecs: 696389302
  frame_id: "ti_mmwave"
point_id: 7
x: 2.607421875
y: -0.267578125
z: 1.15234375
range: 3.05038785934
velocity: 0.0
doppler_bin: 8
bearing: -5.85928010941
intensity: 32.7207374573
---
header: 
  seq: 403838
  stamp: 
    secs: 1561681913
    nsecs: 696403239
  frame_id: "ti_mmwave"
point_id: 8
x: 2.6640625
y: -0.181640625
z: 1.140625
range: 3.09396481514
velocity: 0.0
doppler_bin: 8
bearing: -3.90049386024
intensity: 31.9975509644
---
header: 
  seq: 403839
  stamp: 
    secs: 1561681913
    nsecs: 696417442
  frame_id: "ti_mmwave"
point_id: 9
x: 4.416015625
y: -0.287109375
z: 1.185546875
range: 4.88062095642
velocity: 0.0
doppler_bin: 8
bearing: -3.71987724304
intensity: 30.6892757416
---
header: 
  seq: 403840
  stamp: 
    secs: 1561681913
    nsecs: 696431869
  frame_id: "ti_mmwave"
point_id: 10
x: 4.453125
y: -0.2890625
z: 1.205078125
range: 4.9241976738
velocity: 0.0
doppler_bin: 8
bearing: -3.71398925781
intensity: 30.3181228638
---
header: 
  seq: 403841
  stamp: 
    secs: 1561681913
    nsecs: 696447067
  frame_id: "ti_mmwave"
point_id: 11
x: 4.693359375
y: -0.4453125
z: -0.533203125
range: 5.0549287796
velocity: 0.0
doppler_bin: 8
bearing: -5.42007780075
intensity: 29.0955600739
---
header: 
  seq: 403842
  stamp: 
    secs: 1561681913
    nsecs: 696460643
  frame_id: "ti_mmwave"
point_id: 12
x: 4.740234375
y: -0.44921875
z: -0.4765625
range: 5.09850549698
velocity: 0.0
doppler_bin: 8
bearing: -5.41359329224
intensity: 33.0102996826
---
header: 
  seq: 403843
  stamp: 
    secs: 1561681913
    nsecs: 696474197
  frame_id: "ti_mmwave"
point_id: 13
x: 4.7890625
y: -0.453125
z: -0.40234375
range: 5.14208269119
velocity: 0.0
doppler_bin: 8
bearing: -5.40504264832
intensity: 33.6921577454
---
header: 
  seq: 403844
  stamp: 
    secs: 1561681913
    nsecs: 696489041
  frame_id: "ti_mmwave"
point_id: 14
x: 4.841796875
y: -0.45703125
z: -0.1953125
range: 5.18565940857
velocity: 0.0
doppler_bin: 8
bearing: -5.39233732224
intensity: 30.4099769592
---
header: 
  seq: 403845
  stamp: 
    secs: 1561681913
    nsecs: 696502452
  frame_id: "ti_mmwave"
point_id: 15
x: 4.810546875
y: -0.4609375
z: 0.857421875
range: 5.22923660278
velocity: 0.0
doppler_bin: 8
bearing: -5.47326421738
intensity: 29.5904140472
---
header: 
  seq: 403846
  stamp: 
    secs: 1561681913
    nsecs: 696516062
  frame_id: "ti_mmwave"
point_id: 16
x: 4.837890625
y: -0.46484375
z: 0.939453125
range: 5.27281332016
velocity: 0.0
doppler_bin: 8
bearing: -5.48835754395
intensity: 30.700378418
---
header: 
  seq: 403847
  stamp: 
    secs: 1561681913
    nsecs: 696530343
  frame_id: "ti_mmwave"
point_id: 17
x: 0.5390625
y: 0.55859375
z: 0.044921875
range: 0.827962458134
velocity: 0.614668667316
doppler_bin: 9
bearing: 46.0193901062
intensity: 26.7486114502
---
header: 
  seq: 403848
  stamp: 
    secs: 1561681913
    nsecs: 696546014
  frame_id: "ti_mmwave"
point_id: 18
x: 0.59375
y: 0.5625
z: 0.005859375
range: 0.871539413929
velocity: 0.614668667316
doppler_bin: 9
bearing: 43.4518432617
intensity: 31.3385810852
---
header: 
  seq: 403849
  stamp: 
    secs: 1561681913
    nsecs: 696561051
  frame_id: "ti_mmwave"
point_id: 19
x: 0.59765625
y: 0.6171875
z: -0.005859375
range: 0.915116369724
velocity: 0.614668667316
doppler_bin: 9
bearing: 45.9210777283
intensity: 31.8920955658
---
header: 
  seq: 403850
  stamp: 
    secs: 1561681913
    nsecs: 696575066
  frame_id: "ti_mmwave"
point_id: 20
x: 0.625
y: 0.646484375
z: -0.0390625
range: 0.958693385124
velocity: 0.614668667316
doppler_bin: 9
bearing: 45.9680366516
intensity: 28.4818916321
---
header: 
  seq: 403851
  stamp: 
    secs: 1561681913
    nsecs: 696589023
  frame_id: "ti_mmwave"
point_id: 21
x: 0.619140625
y: 0.671875
z: 0.4609375
range: 1.08942425251
velocity: 0.614668667316
doppler_bin: 9
bearing: 47.3390693665
intensity: 25.7287158966
---
header: 
  seq: 403852
  stamp: 
    secs: 1561681913
    nsecs: 696606954
  frame_id: "ti_mmwave"
point_id: 23
x: 0.041015625
y: -0.033203125
z: 0.0625
range: 0.0871539413929
velocity: 0.0
doppler_bin: 8
bearing: -38.9909973145
intensity: 30.0987567902
---
header: 
  seq: 403853
  stamp: 
    secs: 1561681913
    nsecs: 696620494
  frame_id: "ti_mmwave"
point_id: 24
x: 0.052734375
y: -0.04296875
z: 0.1015625
range: 0.130730912089
velocity: 0.0
doppler_bin: 8
bearing: -39.1736602783
intensity: 28.9762706757
---
header: 
  seq: 403854
  stamp: 
    secs: 1561681913
    nsecs: 696637651
  frame_id: "ti_mmwave"
point_id: 26
x: 2.75
y: -2.00390625
z: -3.068359375
range: 4.88062095642
velocity: 0.0
doppler_bin: 8
bearing: -36.0805702209
intensity: 27.8247261047
---
header: 
  seq: 403855
  stamp: 
    secs: 1561681913
    nsecs: 696799418
  frame_id: "ti_mmwave"
point_id: 27
x: 2.71875
y: -2.021484375
z: -3.14453125
range: 4.9241976738
velocity: 0.0
doppler_bin: 8
bearing: -36.6320762634
intensity: 27.3559894562
---
header: 
  seq: 403856
  stamp: 
    secs: 1561681913
    nsecs: 754541193
  frame_id: "ti_mmwave"
point_id: 0
x: 0.01171875
y: -0.0390625
z: -0.0078125
range: 0.0435769706964
velocity: 0.0
doppler_bin: 8
bearing: -73.3007583618
intensity: 30.7371826172
---
header: 
  seq: 403857
  stamp: 
    secs: 1561681913
    nsecs: 754618011
  frame_id: "ti_mmwave"
point_id: 1
x: 0.017578125
y: -0.080078125
z: -0.0078125
range: 0.0871539413929
velocity: 0.0
doppler_bin: 8
bearing: -77.6192398071
intensity: 31.9645252228
---
header: 
  seq: 403858
  stamp: 
    secs: 1561681913
    nsecs: 754629177
  frame_id: "ti_mmwave"
point_id: 2
x: 0.029296875
y: -0.119140625
z: -0.005859375
range: 0.130730912089
velocity: 0.0
doppler_bin: 8
bearing: -76.1849746704
intensity: 30.2366390228
---
header: 
  seq: 403859
  stamp: 
    secs: 1561681913
    nsecs: 754637311
  frame_id: "ti_mmwave"
point_id: 3
x: 0.056640625
y: -0.154296875
z: 0.005859375
range: 0.174307882786
velocity: 0.0
doppler_bin: 8
bearing: -69.8423843384
intensity: 25.5022830963
---
header: 
  seq: 403860
  stamp: 
    secs: 1561681913
    nsecs: 754645681
  frame_id: "ti_mmwave"
point_id: 4
x: 0.83203125
y: 0.521484375
z: 0.029296875
range: 1.04584729671
velocity: 0.0
doppler_bin: 8
bearing: 32.0778656006
intensity: 23.3845653534
---
header: 
  seq: 403861
  stamp: 
    secs: 1561681913
    nsecs: 754656371
  frame_id: "ti_mmwave"
point_id: 5
x: 2.556640625
y: -0.263671875
z: 1.166015625
range: 3.00681090355
velocity: 0.0
doppler_bin: 8
bearing: -5.88822031021
intensity: 29.4596061707
---
header: 
  seq: 403862
  stamp: 
    secs: 1561681913
    nsecs: 754668495
  frame_id: "ti_mmwave"
point_id: 6
x: 2.60546875
y: -0.267578125
z: 1.15625
range: 3.05038785934
velocity: 0.0
doppler_bin: 8
bearing: -5.86364221573
intensity: 32.7323265076
---
header: 
  seq: 403863
  stamp: 
    secs: 1561681913
    nsecs: 754680665
  frame_id: "ti_mmwave"
point_id: 7
x: 2.6640625
y: -0.181640625
z: 1.142578125
range: 3.09396481514
velocity: 0.0
doppler_bin: 8
bearing: -3.90049386024
intensity: 31.9838218689
---
header: 
  seq: 403864
  stamp: 
    secs: 1561681913
    nsecs: 754691644
  frame_id: "ti_mmwave"
point_id: 8
x: 4.421875
y: -0.287109375
z: 1.166015625
range: 4.88062095642
velocity: 0.0
doppler_bin: 8
bearing: -3.7149617672
intensity: 30.6707077026
---
header: 
  seq: 403865
  stamp: 
    secs: 1561681913
    nsecs: 754701220
  frame_id: "ti_mmwave"
point_id: 9
x: 4.458984375
y: -0.2890625
z: 1.185546875
range: 4.9241976738
velocity: 0.0
doppler_bin: 8
bearing: -3.70912218094
intensity: 30.2897777557
---
header: 
  seq: 403866
  stamp: 
    secs: 1561681913
    nsecs: 754709661
  frame_id: "ti_mmwave"
point_id: 10
x: 4.701171875
y: -0.4453125
z: -0.470703125
range: 5.0549287796
velocity: 0.0
doppler_bin: 8
bearing: -5.41112422943
intensity: 29.4448261261
---
header: 
  seq: 403867
  stamp: 
    secs: 1561681913
    nsecs: 754717795
  frame_id: "ti_mmwave"
point_id: 11
x: 4.755859375
y: -0.298828125
z: -0.453125
range: 5.09850549698
velocity: 0.0
doppler_bin: 8
bearing: -3.59537792206
intensity: 33.1005592346
---
header: 
  seq: 403868
  stamp: 
    secs: 1561681913
    nsecs: 754729049
  frame_id: "ti_mmwave"
point_id: 12
x: 4.787109375
y: -0.453125
z: -0.421875
range: 5.14208269119
velocity: 0.0
doppler_bin: 8
bearing: -5.40723514557
intensity: 33.7125244141
---
header: 
  seq: 403869
  stamp: 
    secs: 1561681913
    nsecs: 754886149
  frame_id: "ti_mmwave"
point_id: 13
x: 4.841796875
y: -0.45703125
z: -0.23046875
range: 5.18565940857
velocity: 0.0
doppler_bin: 8
bearing: -5.39233732224
intensity: 30.4532299042
---
header: 
  seq: 403870
  stamp: 
    secs: 1561681913
    nsecs: 754911999
  frame_id: "ti_mmwave"
point_id: 14
x: 4.8203125
y: -0.4609375
z: 0.80859375
range: 5.22923660278
velocity: 0.0
doppler_bin: 8
bearing: -5.46224212646
intensity: 29.637878418
---
header: 
  seq: 403871
  stamp: 
    secs: 1561681913
    nsecs: 754928065
  frame_id: "ti_mmwave"
point_id: 15
x: 4.865234375
y: -0.30859375
z: 0.859375
range: 5.27281332016
velocity: 0.0
doppler_bin: 8
bearing: -3.62931442261
intensity: 30.7845687866
---
header: 
  seq: 403872
  stamp: 
    secs: 1561681913
    nsecs: 754937017
  frame_id: "ti_mmwave"
point_id: 16
x: 0.43359375
y: 0.689453125
z: -0.07421875
range: 0.871539413929
velocity: 0.614668667316
doppler_bin: 9
bearing: 57.8344078064
intensity: 22.8330116272
---
header: 
  seq: 403873
  stamp: 
    secs: 1561681913
    nsecs: 754987443
  frame_id: "ti_mmwave"
point_id: 17
x: 0.498046875
y: 0.697265625
z: -0.0546875
range: 0.915116369724
velocity: 0.614668667316
doppler_bin: 9
bearing: 54.4623222351
intensity: 25.15873909
---
header: 
  seq: 403874
  stamp: 
    secs: 1561681913
    nsecs: 755003073
  frame_id: "ti_mmwave"
point_id: 18
x: 0.478515625
y: 0.759765625
z: -0.068359375
range: 0.958693385124
velocity: 0.614668667316
doppler_bin: 9
bearing: 57.7964515686
intensity: 23.4044418335
---
header: 
  seq: 403875
  stamp: 
    secs: 1561681913
    nsecs: 755014936
  frame_id: "ti_mmwave"
point_id: 19
x: 0.783203125
y: 0.607421875
z: 0.255859375
range: 1.08942425251
velocity: 0.614668667316
doppler_bin: 9
bearing: 37.7957649231
intensity: 26.9196510315
---
header: 
  seq: 403876
  stamp: 
    secs: 1561681913
    nsecs: 755024649
  frame_id: "ti_mmwave"
point_id: 20
x: 0.80078125
y: 0.630859375
z: 0.30078125
range: 1.13300120831
velocity: 0.614668667316
doppler_bin: 9
bearing: 38.231212616
intensity: 27.201593399
---
header: 
  seq: 403877
  stamp: 
    secs: 1561681913
    nsecs: 755065202
  frame_id: "ti_mmwave"
point_id: 21
x: 0.833984375
y: 0.65625
z: 0.306640625
range: 1.1765781641
velocity: 0.614668667316
doppler_bin: 9
bearing: 38.1986885071
intensity: 24.5331840515
---
header: 
  seq: 403878
  stamp: 
    secs: 1561681913
    nsecs: 755085832
  frame_id: "ti_mmwave"
point_id: 23
x: 0.041015625
y: -0.033203125
z: 0.0625
range: 0.0871539413929
velocity: 0.0
doppler_bin: 8
bearing: -38.9909973145
intensity: 30.0987567902
---
header: 
  seq: 403879
  stamp: 
    secs: 1561681913
    nsecs: 755137094
  frame_id: "ti_mmwave"
point_id: 24
x: 0.052734375
y: -0.04296875
z: 0.103515625
range: 0.130730912089
velocity: 0.0
doppler_bin: 8
bearing: -39.1736602783
intensity: 28.9817657471
---
header: 
  seq: 403880
  stamp: 
    secs: 1561681913
    nsecs: 755156822
  frame_id: "ti_mmwave"
point_id: 26
x: 2.703125
y: -2.00390625
z: -3.107421875
range: 4.88062095642
velocity: 0.0
doppler_bin: 8
bearing: -36.5506286621
intensity: 27.7670116425
---
header: 
  seq: 403881
  stamp: 
