header: 
  seq: 423905
  stamp: 
    secs: 1561681943
    nsecs: 154439096
  frame_id: "ti_mmwave"
point_id: 0
x: 0.01171875
y: -0.0390625
z: -0.0078125
range: 0.0435769706964
velocity: 0.0
doppler_bin: 8
bearing: -73.3007583618
intensity: 30.7335166931
---
header: 
  seq: 423906
  stamp: 
    secs: 1561681943
    nsecs: 154525355
  frame_id: "ti_mmwave"
point_id: 1
x: 0.017578125
y: -0.080078125
z: -0.0078125
range: 0.0871539413929
velocity: 0.0
doppler_bin: 8
bearing: -77.6192398071
intensity: 31.9589958191
---
header: 
  seq: 423907
  stamp: 
    secs: 1561681943
    nsecs: 154545110
  frame_id: "ti_mmwave"
point_id: 2
x: 0.029296875
y: -0.119140625
z: -0.005859375
range: 0.130730912089
velocity: 0.0
doppler_bin: 8
bearing: -76.1849746704
intensity: 30.2242832184
---
header: 
  seq: 423908
  stamp: 
    secs: 1561681943
    nsecs: 154560570
  frame_id: "ti_mmwave"
point_id: 3
x: 0.056640625
y: -0.154296875
z: 0.005859375
range: 0.174307882786
velocity: 0.0
doppler_bin: 8
bearing: -69.8423843384
intensity: 25.4777469635
---
header: 
  seq: 423909
  stamp: 
    secs: 1561681943
    nsecs: 154579473
  frame_id: "ti_mmwave"
point_id: 4
x: 0.294921875
y: -0.080078125
z: -1.23046875
range: 1.35088610649
velocity: 0.0
doppler_bin: 8
bearing: -15.1908855438
intensity: 21.8184356689
---
header: 
  seq: 423910
  stamp: 
    secs: 1561681943
    nsecs: 154650845
  frame_id: "ti_mmwave"
point_id: 5
x: 0.33203125
y: -0.041015625
z: 1.265625
range: 1.39446306229
velocity: 0.0
doppler_bin: 8
bearing: -7.04203891754
intensity: 23.2014636993
---
header: 
  seq: 423911
  stamp: 
    secs: 1561681943
    nsecs: 154667570
  frame_id: "ti_mmwave"
point_id: 6
x: 0.423828125
y: -0.0
z: 1.28125
range: 1.43804001808
velocity: 0.0
doppler_bin: 8
bearing: -0.0
intensity: 21.8469142914
---
header: 
  seq: 423912
  stamp: 
    secs: 1561681943
    nsecs: 154681513
  frame_id: "ti_mmwave"
point_id: 7
x: 2.55078125
y: -0.263671875
z: 1.177734375
range: 3.00681090355
velocity: 0.0
doppler_bin: 8
bearing: -5.90165042877
intensity: 29.4398880005
---
header: 
  seq: 423913
  stamp: 
    secs: 1561681943
    nsecs: 154697105
  frame_id: "ti_mmwave"
point_id: 8
x: 2.607421875
y: -0.267578125
z: 1.15234375
range: 3.05038785934
velocity: 0.0
doppler_bin: 8
bearing: -5.85928010941
intensity: 32.7485046387
---
header: 
  seq: 423914
  stamp: 
    secs: 1561681943
    nsecs: 154711081
  frame_id: "ti_mmwave"
point_id: 9
x: 2.666015625
y: -0.181640625
z: 1.13671875
range: 3.09396481514
velocity: 0.0
doppler_bin: 8
bearing: -3.89764523506
intensity: 32.0194320679
---
header: 
  seq: 423915
  stamp: 
    secs: 1561681943
    nsecs: 154724706
  frame_id: "ti_mmwave"
point_id: 10
x: 4.416015625
y: -0.287109375
z: 1.189453125
range: 4.88062095642
velocity: 0.0
doppler_bin: 8
bearing: -3.71987724304
intensity: 30.6929798126
---
header: 
  seq: 423916
  stamp: 
    secs: 1561681943
    nsecs: 154738230
  frame_id: "ti_mmwave"
point_id: 11
x: 4.455078125
y: -0.2890625
z: 1.19921875
range: 4.9241976738
velocity: 0.0
doppler_bin: 8
bearing: -3.71236538887
intensity: 30.3019485474
---
header: 
  seq: 423917
  stamp: 
    secs: 1561681943
    nsecs: 154747045
  frame_id: "ti_mmwave"
point_id: 12
x: 4.75
y: -0.298828125
z: -0.498046875
range: 5.09850549698
velocity: 0.0
doppler_bin: 8
bearing: -3.59980130196
intensity: 33.0556640625
---
header: 
  seq: 423918
  stamp: 
    secs: 1561681943
    nsecs: 154808206
  frame_id: "ti_mmwave"
point_id: 13
x: 4.787109375
y: -0.453125
z: -0.423828125
range: 5.14208269119
velocity: 0.0
doppler_bin: 8
bearing: -5.40723514557
intensity: 33.7106781006
---
header: 
  seq: 423919
  stamp: 
    secs: 1561681943
    nsecs: 154826355
  frame_id: "ti_mmwave"
point_id: 14
x: 4.841796875
y: -0.45703125
z: -0.197265625
range: 5.18565940857
velocity: 0.0
doppler_bin: 8
bearing: -5.39233732224
intensity: 30.4453983307
---
header: 
  seq: 423920
  stamp: 
    secs: 1561681943
    nsecs: 154841540
  frame_id: "ti_mmwave"
point_id: 15
x: 4.849609375
y: -0.46484375
z: 0.873046875
range: 5.27281332016
velocity: 0.0
doppler_bin: 8
bearing: -5.47517633438
intensity: 30.7077655792
---
header: 
  seq: 423921
  stamp: 
    secs: 1561681943
    nsecs: 154859773
  frame_id: "ti_mmwave"
point_id: 17
x: 0.041015625
y: -0.033203125
z: 0.0625
range: 0.0871539413929
velocity: 0.0
doppler_bin: 8
bearing: -38.9909973145
intensity: 30.0945091248
---
header: 
  seq: 423922
  stamp: 
    secs: 1561681943
    nsecs: 154888643
  frame_id: "ti_mmwave"
point_id: 18
x: 0.052734375
y: -0.04296875
z: 0.1015625
range: 0.130730912089
velocity: 0.0
doppler_bin: 8
bearing: -39.1736602783
intensity: 28.9762706757
---
header: 
  seq: 423923
  stamp: 
    secs: 1561681943
    nsecs: 154920780
  frame_id: "ti_mmwave"
point_id: 20
x: 1.12109375
y: -0.515625
z: 0.2890625
range: 1.35088610649
velocity: 0.0
doppler_bin: 8
bearing: -24.6991329193
intensity: 18.864906311
---
header: 
  seq: 423924
  stamp: 
    secs: 1561681943
    nsecs: 154949184
  frame_id: "ti_mmwave"
point_id: 21
x: 2.791015625
y: -2.00390625
z: -3.029296875
range: 4.88062095642
velocity: 0.0
doppler_bin: 8
bearing: -35.6777648926
intensity: 27.8103694916
---
header: 
  seq: 423925
  stamp: 
    secs: 1561681943
    nsecs: 154962747
  frame_id: "ti_mmwave"
point_id: 22
x: 2.716796875
y: -2.021484375
z: -3.146484375
range: 4.9241976738
velocity: 0.0
doppler_bin: 8
bearing: -36.6517906189
intensity: 27.3158874512
---
header: 
  seq: 423926
  stamp: 
    secs: 1561681943
    nsecs: 156383285
  frame_id: "ti_mmwave"
point_id: 0
x: 0.01171875
y: -0.0390625
z: -0.0078125
range: 0.0435769706964
velocity: 0.0
doppler_bin: 8
bearing: -73.3007583618
intensity: 30.7335166931
---
header: 
  seq: 423927
  stamp: 
    secs: 1561681943
    nsecs: 156431748
  frame_id: "ti_mmwave"
point_id: 1
x: 0.017578125
y: -0.080078125
z: -0.0078125
range: 0.0871539413929
velocity: 0.0
doppler_bin: 8
bearing: -77.6192398071
intensity: 31.9589958191
---
header: 
  seq: 423928
  stamp: 
    secs: 1561681943
    nsecs: 156447452
  frame_id: "ti_mmwave"
point_id: 2
x: 0.029296875
y: -0.119140625
z: -0.005859375
range: 0.130730912089
velocity: 0.0
doppler_bin: 8
bearing: -76.1849746704
intensity: 30.2242832184
---
header: 
  seq: 423929
  stamp: 
    secs: 1561681943
    nsecs: 156460994
  frame_id: "ti_mmwave"
point_id: 3
x: 0.056640625
y: -0.154296875
z: 0.005859375
range: 0.174307882786
velocity: 0.0
doppler_bin: 8
bearing: -69.8423843384
intensity: 25.490032196
---
header: 
  seq: 423930
  stamp: 
    secs: 1561681943
    nsecs: 156487994
  frame_id: "ti_mmwave"
point_id: 4
x: 0.345703125
y: -0.080078125
z: -1.216796875
range: 1.35088610649
velocity: 0.0
doppler_bin: 8
bearing: -13.0418901443
intensity: 21.8469142914
---
header: 
  seq: 423931
  stamp: 
    secs: 1561681943
    nsecs: 156508230
  frame_id: "ti_mmwave"
point_id: 5
x: 0.33203125
y: -0.041015625
z: 1.265625
range: 1.39446306229
velocity: 0.0
doppler_bin: 8
bearing: -7.04203891754
intensity: 23.2014636993
---
header: 
  seq: 423932
  stamp: 
    secs: 1561681943
    nsecs: 156528867
  frame_id: "ti_mmwave"
point_id: 6
x: 0.49609375
y: -0.04296875
z: 1.25390625
range: 1.43804001808
velocity: 0.0
doppler_bin: 8
bearing: -4.95027208328
intensity: 21.9033164978
---
header: 
  seq: 423933
  stamp: 
    secs: 1561681943
    nsecs: 156549351
  frame_id: "ti_mmwave"
point_id: 7
x: 2.556640625
y: -0.263671875
z: 1.166015625
range: 3.00681090355
velocity: 0.0
doppler_bin: 8
bearing: -5.88822031021
intensity: 29.3701610565
---
header: 
  seq: 423934
  stamp: 
    secs: 1561681943
    nsecs: 156628015
  frame_id: "ti_mmwave"
point_id: 8
x: 2.60546875
y: -0.267578125
z: 1.154296875
range: 3.05038785934
velocity: 0.0
doppler_bin: 8
bearing: -5.86364221573
intensity: 32.704460144
---
header: 
  seq: 423935
  stamp: 
    secs: 1561681943
    nsecs: 156644094
  frame_id: "ti_mmwave"
point_id: 9
x: 2.66015625
y: -0.181640625
z: 1.15234375
range: 3.09396481514
velocity: 0.0
doppler_bin: 8
bearing: -3.90620398521
intensity: 32.0030326843
---
header: 
  seq: 423936
  stamp: 
    secs: 1561681943
    nsecs: 156658457
  frame_id: "ti_mmwave"
point_id: 10
x: 4.416015625
y: -0.287109375
z: 1.189453125
range: 4.88062095642
velocity: 0.0
doppler_bin: 8
bearing: -3.71987724304
intensity: 30.696680069
---
header: 
  seq: 423937
  stamp: 
    secs: 1561681943
    nsecs: 156673253
  frame_id: "ti_mmwave"
point_id: 11
x: 4.455078125
y: -0.2890625
z: 1.197265625
range: 4.9241976738
velocity: 0.0
doppler_bin: 8
bearing: -3.71236538887
intensity: 30.3181228638
---
header: 
  seq: 423938
  stamp: 
    secs: 1561681943
    nsecs: 156686685
  frame_id: "ti_mmwave"
point_id: 12
x: 4.73828125
y: -0.44921875
z: -0.509765625
range: 5.09850549698
velocity: 0.0
doppler_bin: 8
bearing: -5.4158115387
intensity: 33.0728187561
---
header: 
  seq: 423939
  stamp: 
    secs: 1561681943
    nsecs: 156700368
  frame_id: "ti_mmwave"
point_id: 13
x: 4.78515625
y: -0.453125
z: -0.447265625
range: 5.14208269119
velocity: 0.0
doppler_bin: 8
bearing: -5.40942907333
intensity: 33.7272796631
---
header: 
  seq: 423940
  stamp: 
    secs: 1561681943
    nsecs: 156713832
  frame_id: "ti_mmwave"
point_id: 14
x: 4.837890625
y: -0.45703125
z: -0.283203125
range: 5.18565940857
velocity: 0.0
doppler_bin: 8
bearing: -5.39666557312
intensity: 30.3542976379
---
header: 
  seq: 423941
  stamp: 
    secs: 1561681943
    nsecs: 156728586
  frame_id: "ti_mmwave"
point_id: 15
x: 4.818359375
y: -0.46484375
z: 1.03125
range: 5.27281332016
velocity: 0.0
doppler_bin: 8
bearing: -5.51046800613
intensity: 30.6370849609
---
header: 
  seq: 423942
  stamp: 
    secs: 1561681943
    nsecs: 156746334
  frame_id: "ti_mmwave"
point_id: 17
x: 0.041015625
y: -0.033203125
z: 0.0625
range: 0.0871539413929
velocity: 0.0
doppler_bin: 8
bearing: -38.9909973145
intensity: 30.0945091248
---
header: 
  seq: 423943
  stamp: 
    secs: 1561681943
    nsecs: 156771462
  frame_id: "ti_mmwave"
point_id: 18
x: 0.052734375
y: -0.04296875
z: 0.1015625
range: 0.130730912089
velocity: 0.0
doppler_bin: 8
bearing: -39.1736602783
intensity: 28.9762706757
---
header: 
  seq: 423944
  stamp: 
    secs: 1561681943
    nsecs: 156795042
  frame_id: "ti_mmwave"
point_id: 20
x: 2.7734375
y: -2.00390625
z: -3.046875
range: 4.88062095642
velocity: 0.0
doppler_bin: 8
bearing: -35.8494377136
intensity: 27.7887439728
---
header: 
  seq: 423945
  stamp: 
    secs: 1561681943
    nsecs: 156863015
  frame_id: "ti_mmwave"
point_id: 21
x: 2.71875
y: -2.021484375
z: -3.14453125
range: 4.9241976738
velocity: 0.0
doppler_bin: 8
bearing: -36.6320762634
intensity: 27.3239383698
---
header: 
  seq: 423946
  stamp: 
    secs: 1561681943
    nsecs: 214433051
  frame_id: "ti_mmwave"
point_id: 0
x: 0.01171875
y: -0.0390625
z: -0.0078125
range: 0.0435769706964
velocity: 0.0
doppler_bin: 8
bearing: -73.3007583618
intensity: 30.7298469543
---
header: 
  seq: 423947
  stamp: 
    secs: 1561681943
    nsecs: 214522417
  frame_id: "ti_mmwave"
point_id: 1
x: 0.017578125
y: -0.080078125
z: -0.0078125
range: 0.0871539413929
velocity: 0.0
doppler_bin: 8
bearing: -77.6192398071
intensity: 31.9562301636
---
header: 
  seq: 423948
  stamp: 
    secs: 1561681943
    nsecs: 214539712
  frame_id: "ti_mmwave"
point_id: 2
x: 0.041015625
y: -0.115234375
z: -0.0078125
range: 0.130730912089
velocity: 0.0
doppler_bin: 8
bearing: -70.4077224731
intensity: 30.2242832184
---
header: 
  seq: 423949
  stamp: 
    secs: 1561681943
    nsecs: 214553620
  frame_id: "ti_mmwave"
point_id: 3
x: 0.056640625
y: -0.154296875
z: 0.005859375
range: 0.174307882786
velocity: 0.0
doppler_bin: 8
bearing: -69.8423843384
intensity: 25.490032196
---
header: 
  seq: 423950
  stamp: 
    secs: 1561681943
    nsecs: 214567862
  frame_id: "ti_mmwave"
point_id: 4
x: 0.337890625
y: -0.080078125
z: -1.21875
range: 1.35088610649
velocity: 0.0
doppler_bin: 8
bearing: -13.332783699
intensity: 21.8469142914
---
header: 
  seq: 423951
  stamp: 
    secs: 1561681943
    nsecs: 214580587
  frame_id: "ti_mmwave"
point_id: 5
x: 0.30859375
y: -0.041015625
z: 1.271484375
range: 1.39446306229
velocity: 0.0
doppler_bin: 8
bearing: -7.57088899612
intensity: 23.2014636993
---
header: 
  seq: 423952
  stamp: 
    secs: 1561681943
    nsecs: 214594624
  frame_id: "ti_mmwave"
point_id: 6
x: 0.4140625
y: -0.0
z: 1.28515625
range: 1.43804001808
velocity: 0.0
doppler_bin: 8
bearing: -0.0
intensity: 21.8469142914
---
header: 
  seq: 423953
  stamp: 
    secs: 1561681943
    nsecs: 214610761
  frame_id: "ti_mmwave"
point_id: 7
x: 2.544921875
y: -0.263671875
z: 1.19140625
range: 3.00681090355
velocity: 0.0
doppler_bin: 8
bearing: -5.91514253616
intensity: 29.4890174866
---
header: 
  seq: 423954
  stamp: 
    secs: 1561681943
    nsecs: 214629309
  frame_id: "ti_mmwave"
point_id: 8
x: 2.6015625
y: -0.267578125
z: 1.166015625
range: 3.05038785934
velocity: 0.0
doppler_bin: 8
bearing: -5.87238502502
intensity: 32.753112793
---
header: 
  seq: 423955
  stamp: 
    secs: 1561681943
    nsecs: 214701561
  frame_id: "ti_mmwave"
point_id: 9
x: 2.66015625
y: -0.181640625
z: 1.15234375
range: 3.09396481514
velocity: 0.0
doppler_bin: 8
bearing: -3.90620398521
intensity: 32.0357666016
---
header: 
  seq: 423956
  stamp: 
    secs: 1561681943
    nsecs: 214716921
  frame_id: "ti_mmwave"
point_id: 10
x: 4.41796875
y: -0.287109375
z: 1.1796875
range: 4.88062095642
velocity: 0.0
doppler_bin: 8
bearing: -3.71823716164
intensity: 30.696680069
---
header: 
  seq: 423957
  stamp: 
    secs: 1561681943
    nsecs: 214729707
  frame_id: "ti_mmwave"
point_id: 11
x: 4.45703125
y: -0.2890625
z: 1.19140625
range: 4.9241976738
velocity: 0.0
doppler_bin: 8
bearing: -3.71074318886
intensity: 30.3140850067
---
header: 
  seq: 423958
  stamp: 
    secs: 1561681943
    nsecs: 214740379
  frame_id: "ti_mmwave"
point_id: 12
x: 4.740234375
y: -0.44921875
z: -0.4921875
range: 5.09850549698
velocity: 0.0
doppler_bin: 8
bearing: -5.41359329224
intensity: 33.0492134094
---
header: 
  seq: 423959
  stamp: 
    secs: 1561681943
    nsecs: 214752061
  frame_id: "ti_mmwave"
point_id: 13
x: 4.7890625
y: -0.453125
z: -0.40625
range: 5.14208269119
velocity: 0.0
doppler_bin: 8
bearing: -5.40504264832
intensity: 33.6921577454
---
header: 
  seq: 423960
  stamp: 
    secs: 1561681943
    nsecs: 214765989
  frame_id: "ti_mmwave"
point_id: 14
x: 4.83984375
y: -0.45703125
z: -0.2578125
range: 5.18565940857
velocity: 0.0
doppler_bin: 8
bearing: -5.39450025558
intensity: 30.5192394257
---
header: 
  seq: 423961
  stamp: 
    secs: 1561681943
    nsecs: 214780666
  frame_id: "ti_mmwave"
point_id: 15
x: 4.888671875
y: -0.30859375
z: 0.705078125
range: 5.27281332016
velocity: 0.0
doppler_bin: 8
bearing: -3.61196112633
intensity: 30.5037975311
---
header: 
  seq: 423962
  stamp: 
    secs: 1561681943
    nsecs: 214811879
  frame_id: "ti_mmwave"
point_id: 16
x: 1.802734375
y: 1.04296875
z: -0.109375
range: 2.22242546082
velocity: 0.614668667316
doppler_bin: 9
bearing: 30.051448822
intensity: 25.1188335419
---
header: 
  seq: 423963
  stamp: 
    secs: 1561681943
    nsecs: 214837469
  frame_id: "ti_mmwave"
point_id: 18
x: 0.041015625
y: -0.033203125
z: 0.0625
range: 0.0871539413929
velocity: 0.0
doppler_bin: 8
bearing: -38.9909973145
intensity: 30.0987567902
---
header: 
  seq: 423964
  stamp: 
    secs: 1561681943
    nsecs: 214850379
  frame_id: "ti_mmwave"
point_id: 19
x: 0.052734375
y: -0.04296875
z: 0.1015625
range: 0.130730912089
velocity: 0.0
doppler_bin: 8
bearing: -39.1736602783
intensity: 28.9762706757
---
header: 
  seq: 423965
  stamp: 
    secs: 1561681943
    nsecs: 214923403
  frame_id: "ti_mmwave"
point_id: 21
x: 1.1171875
y: -0.515625
z: 0.30859375
range: 1.35088610649
velocity: 0.0
doppler_bin: 8
bearing: -24.7751407623
intensity: 18.9209461212
---
header: 
  seq: 423966
  stamp: 
    secs: 1561681943
    nsecs: 214940086
  frame_id: "ti_mmwave"
point_id: 22
x: 2.7734375
y: -2.00390625
z: -3.046875
range: 4.88062095642
velocity: 0.0
doppler_bin: 8
bearing: -35.8494377136
intensity: 27.774269104
---
header: 
  seq: 423967
  stamp: 
    secs: 1561681943
    nsecs: 216159716
  frame_id: "ti_mmwave"
point_id: 0
x: 0.01171875
y: -0.0390625
z: -0.0078125
range: 0.0435769706964
velocity: 0.0
doppler_bin: 8
bearing: -73.3007583618
intensity: 30.7261753082
---
header: 
  seq: 423968
  stamp: 
    secs: 1561681943
    nsecs: 216213050
  frame_id: "ti_mmwave"
point_id: 1
x: 0.017578125
y: -0.080078125
z: -0.0078125
range: 0.0871539413929
velocity: 0.0
doppler_bin: 8
bearing: -77.6192398071
intensity: 31.9562301636
---
header: 
  seq: 423969
  stamp: 
    secs: 1561681943
    nsecs: 216223428
  frame_id: "ti_mmwave"
point_id: 2
x: 0.029296875
y: -0.119140625
z: -0.005859375
range: 0.130730912089
velocity: 0.0
doppler_bin: 8
bearing: -76.1849746704
intensity: 30.2242832184
---
header: 
  seq: 423970
  stamp: 
    secs: 1561681943
    nsecs: 216231633
  frame_id: "ti_mmwave"
point_id: 3
x: 0.056640625
y: -0.154296875
z: 0.005859375
range: 0.174307882786
velocity: 0.0
doppler_bin: 8
bearing: -69.8423843384
intensity: 25.490032196
---
header: 
  seq: 423971
  stamp: 
    secs: 1561681943
    nsecs: 216239529
  frame_id: "ti_mmwave"
point_id: 4
x: 0.318359375
y: -0.080078125
z: -1.224609375
range: 1.35088610649
velocity: 0.0
doppler_bin: 8
bearing: -14.1189212799
intensity: 21.8184356689
---
header: 
  seq: 423972
  stamp: 
    secs: 1561681943
    nsecs: 216247207
  frame_id: "ti_mmwave"
point_id: 5
x: 0.33203125
y: -0.041015625
z: 1.265625
range: 1.39446306229
velocity: 0.0
doppler_bin: 8
bearing: -7.04203891754
intensity: 23.2221927643
---
header: 
  seq: 423973
  stamp: 
    secs: 1561681943
    nsecs: 216254785
  frame_id: "ti_mmwave"
point_id: 6
x: 0.470703125
y: -0.04296875
z: 1.265625
range: 1.43804001808
velocity: 0.0
doppler_bin: 8
bearing: -5.21586418152
intensity: 21.9312458038
---
header: 
  seq: 423974
  stamp: 
    secs: 1561681943
    nsecs: 216262529
  frame_id: "ti_mmwave"
point_id: 7
x: 2.548828125
y: -0.263671875
z: 1.18359375
range: 3.00681090355
velocity: 0.0
doppler_bin: 8
bearing: -5.90614128113
intensity: 29.4645233154
---
header: 
  seq: 423975
  stamp: 
    secs: 1561681943
    nsecs: 216271563
  frame_id: "ti_mmwave"
point_id: 8
x: 2.603515625
y: -0.267578125
z: 1.162109375
range: 3.05038785934
velocity: 0.0
doppler_bin: 8
bearing: -5.8680100441
intensity: 32.7577171326
---
header: 
  seq: 423976
  stamp: 
    secs: 1561681943
    nsecs: 216279962
  frame_id: "ti_mmwave"
point_id: 9
x: 2.658203125
y: -0.181640625
z: 1.158203125
range: 3.09396481514
velocity: 0.0
doppler_bin: 8
bearing: -3.90906453133
intensity: 32.0357666016
---
header: 
  seq: 423977
  stamp: 
    secs: 1561681943
    nsecs: 216287749
  frame_id: "ti_mmwave"
point_id: 10
x: 4.416015625
y: -0.287109375
z: 1.189453125
range: 4.88062095642
velocity: 0.0
doppler_bin: 8
bearing: -3.71987724304
intensity: 30.6818580627
---
header: 
  seq: 423978
  stamp: 
    secs: 1561681943
    nsecs: 216295498
  frame_id: "ti_mmwave"
point_id: 11
x: 4.451171875
y: -0.2890625
z: 1.212890625
range: 4.9241976738
velocity: 0.0
doppler_bin: 8
bearing: -3.71561431885
intensity: 30.293838501
---
header: 
  seq: 423979
  stamp: 
    secs: 1561681943
    nsecs: 216303421
  frame_id: "ti_mmwave"
point_id: 12
x: 4.748046875
y: -0.298828125
z: -0.5234375
range: 5.09850549698
velocity: 0.0
doppler_bin: 8
bearing: -3.60127830505
intensity: 33.0685386658
---
header: 
  seq: 423980
  stamp: 
    secs: 1561681943
    nsecs: 216311723
  frame_id: "ti_mmwave"
point_id: 13
x: 4.783203125
y: -0.453125
z: -0.462890625
range: 5.14208269119
velocity: 0.0
doppler_bin: 8
bearing: -5.41162490845
intensity: 33.7217521667
---
header: 
  seq: 423981
  stamp: 
    secs: 1561681943
    nsecs: 216331241
  frame_id: "ti_mmwave"
point_id: 14
x: 4.837890625
y: -0.45703125
z: -0.2890625
range: 5.18565940857
velocity: 0.0
doppler_bin: 8
bearing: -5.39666557312
intensity: 30.4178733826
---
header: 
  seq: 423982
  stamp: 
    secs: 1561681943
    nsecs: 216348320
  frame_id: "ti_mmwave"
point_id: 15
x: 4.8515625
y: -0.46484375
z: 0.8671875
range: 5.27281332016
velocity: 0.0
doppler_bin: 8
bearing: -5.47298574448
intensity: 30.5690479279
---
header: 
  seq: 423983
  stamp: 
    secs: 1561681943
    nsecs: 216363644
  frame_id: "ti_mmwave"
point_id: 17
x: 0.041015625
y: -0.033203125
z: 0.0625
range: 0.0871539413929
velocity: 0.0
doppler_bin: 8
bearing: -38.9909973145
intensity: 30.0902576447
---
header: 
  seq: 423984
  stamp: 
    secs: 1561681943
    nsecs: 216374832
  frame_id: "ti_mmwave"
point_id: 18
x: 0.052734375
y: -0.04296875
z: 0.1015625
range: 0.130730912089
velocity: 0.0
doppler_bin: 8
bearing: -39.1736602783
intensity: 28.9762706757
---
header: 
  seq: 423985
  stamp: 
    secs: 1561681943
    nsecs: 216528107
  frame_id: "ti_mmwave"
point_id: 20
x: 1.119140625
y: -0.515625
z: 0.302734375
range: 1.35088610649
velocity: 0.0
doppler_bin: 8
bearing: -24.7370834351
intensity: 18.9209461212
---
header: 
  seq: 423986
  stamp: 
    secs: 1561681943
    nsecs: 216549673
  frame_id: "ti_mmwave"
point_id: 21
x: 2.75390625
y: -2.00390625
z: -3.064453125
range: 4.88062095642
velocity: 0.0
doppler_bin: 8
bearing: -36.0418663025
intensity: 27.7815132141
---
header: 
  seq: 423987
  stamp: 
    secs: 1561681943
    nsecs: 216558239
  frame_id: "ti_mmwave"
point_id: 22
x: 2.689453125
y: -2.021484375
z: -3.16796875
range: 4.9241976738
velocity: 0.0
doppler_bin: 8
bearing: -36.9297676086
intensity: 27.3239383698
---
header: 
  seq: 423988
  stamp: 
    secs: 1561681943
    nsecs: 216566290
  frame_id: "ti_mmwave"
point_id: 23
x: 4.71875
y: -0.59765625
z: -0.53125
range: 5.09850549698
velocity: 0.0
doppler_bin: 8
bearing: -7.21839857101
intensity: 33.0663948059
---
header: 
  seq: 423989
  stamp: 
    secs: 1561681943
    nsecs: 274430851
  frame_id: "ti_mmwave"
point_id: 0
x: 0.01171875
y: -0.0390625
z: -0.0078125
range: 0.0435769706964
velocity: 0.0
doppler_bin: 8
bearing: -73.3007583618
intensity: 30.7335166931
---
header: 
  seq: 423990
  stamp: 
    secs: 1561681943
    nsecs: 274483103
  frame_id: "ti_mmwave"
point_id: 1
x: 0.017578125
y: -0.080078125
z: -0.0078125
range: 0.0871539413929
velocity: 0.0
doppler_bin: 8
bearing: -77.6192398071
intensity: 31.9562301636
---
header: 
  seq: 423991
  stamp: 
    secs: 1561681943
    nsecs: 274490321
  frame_id: "ti_mmwave"
point_id: 2
x: 0.041015625
y: -0.115234375
z: -0.0078125
range: 0.130730912089
velocity: 0.0
doppler_bin: 8
bearing: -70.4077224731
intensity: 30.2242832184
---
header: 
  seq: 423992
  stamp: 
    secs: 1561681943
    nsecs: 274497738
  frame_id: "ti_mmwave"
point_id: 3
x: 0.056640625
y: -0.154296875
z: 0.005859375
range: 0.174307882786
velocity: 0.0
doppler_bin: 8
bearing: -69.8423843384
intensity: 25.490032196
---
header: 
  seq: 423993
  stamp: 
    secs: 1561681943
    nsecs: 274503020
  frame_id: "ti_mmwave"
point_id: 4
x: 0.296875
y: -0.080078125
z: -1.23046875
range: 1.35088610649
velocity: 0.0
doppler_bin: 8
bearing: -15.0955219269
intensity: 21.8184356689
---
header: 
  seq: 423994
  stamp: 
    secs: 1561681943
    nsecs: 274509059
  frame_id: "ti_mmwave"
point_id: 5
x: 0.33203125
y: -0.041015625
z: 1.265625
range: 1.39446306229
velocity: 0.0
doppler_bin: 8
bearing: -7.04203891754
intensity: 23.2014636993
---
header: 
  seq: 423995
  stamp: 
    secs: 1561681943
    nsecs: 274514576
  frame_id: "ti_mmwave"
point_id: 6
x: 0.40625
y: -0.0
z: 1.287109375
range: 1.43804001808
velocity: 0.0
doppler_bin: 8
bearing: -0.0
intensity: 21.9033164978
---
header: 
  seq: 423996
  stamp: 
    secs: 1561681943
    nsecs: 274519750
  frame_id: "ti_mmwave"
point_id: 7
x: 2.552734375
y: -0.263671875
z: 1.17578125
range: 3.00681090355
velocity: 0.0
doppler_bin: 8
bearing: -5.89716720581
intensity: 29.4250411987
---
header: 
  seq: 423997
  stamp: 
    secs: 1561681943
    nsecs: 274525154
  frame_id: "ti_mmwave"
point_id: 8
x: 2.60546875
y: -0.267578125
z: 1.158203125
range: 3.05038785934
velocity: 0.0
doppler_bin: 8
bearing: -5.86364221573
intensity: 32.7485046387
---
header: 
  seq: 423998
  stamp: 
    secs: 1561681943
    nsecs: 274530446
  frame_id: "ti_mmwave"
point_id: 9
x: 2.66015625
y: -0.181640625
z: 1.150390625
range: 3.09396481514
velocity: 0.0
doppler_bin: 8
bearing: -3.90620398521
intensity: 32.0276069641
---
header: 
  seq: 423999
  stamp: 
    secs: 1561681943
    nsecs: 274536474
  frame_id: "ti_mmwave"
point_id: 10
x: 4.412109375
y: -0.287109375
z: 1.197265625
range: 4.88062095642
velocity: 0.0
doppler_bin: 8
bearing: -3.72316122055
intensity: 30.6557979584
---
header: 
  seq: 424000
  stamp: 
    secs: 1561681943
    nsecs: 274541484
  frame_id: "ti_mmwave"
point_id: 11
x: 4.453125
y: -0.2890625
z: 1.203125
range: 4.9241976738
velocity: 0.0
doppler_bin: 8
bearing: -3.71398925781
intensity: 30.2816448212
---
header: 
  seq: 424001
  stamp: 
    secs: 1561681943
    nsecs: 274546691
  frame_id: "ti_mmwave"
point_id: 12
x: 4.748046875
y: -0.298828125
z: -0.515625
range: 5.09850549698
velocity: 0.0
doppler_bin: 8
bearing: -3.60127830505
intensity: 33.0449066162
---
header: 
  seq: 424002
  stamp: 
    secs: 1561681943
    nsecs: 274552520
  frame_id: "ti_mmwave"
point_id: 13
x: 4.78515625
y: -0.453125
z: -0.447265625
range: 5.14208269119
velocity: 0.0
doppler_bin: 8
bearing: -5.40942907333
intensity: 33.6865882874
---
header: 
  seq: 424003
  stamp: 
    secs: 1561681943
    nsecs: 274557786
  frame_id: "ti_mmwave"
point_id: 14
x: 4.841796875
y: -0.45703125
z: -0.22265625
range: 5.18565940857
velocity: 0.0
doppler_bin: 8
bearing: -5.39233732224
intensity: 30.2857131958
---
header: 
  seq: 424004
  stamp: 
    secs: 1561681943
    nsecs: 274563020
  frame_id: "ti_mmwave"
point_id: 15
x: 4.84375
y: -0.46484375
z: 0.91015625
range: 5.27281332016
velocity: 0.0
doppler_bin: 8
bearing: -5.48175907135
intensity: 30.678144455
---
header: 
  seq: 424005
  stamp: 
    secs: 1561681943
    nsecs: 274570228
  frame_id: "ti_mmwave"
point_id: 17
x: 0.041015625
y: -0.033203125
z: 0.0625
range: 0.0871539413929
velocity: 0.0
doppler_bin: 8
bearing: -38.9909973145
intensity: 30.0945091248
---
header: 
  seq: 424006
  stamp: 
    secs: 1561681943
    nsecs: 274576076
  frame_id: "ti_mmwave"
point_id: 18
x: 0.052734375
y: -0.04296875
z: 0.1015625
range: 0.130730912089
velocity: 0.0
doppler_bin: 8
bearing: -39.1736602783
intensity: 28.9762706757
---
header: 
  seq: 424007
  stamp: 
    secs: 1561681943
    nsecs: 274583580
  frame_id: "ti_mmwave"
point_id: 20
x: 1.123046875
y: -0.515625
z: 0.2890625
range: 1.35088610649
velocity: 0.0
doppler_bin: 8
bearing: -24.6612968445
intensity: 18.9209461212
---
header: 
  seq: 424008
  stamp: 
    secs: 1561681943
    nsecs: 274702992
  frame_id: "ti_mmwave"
point_id: 21
x: 2.78125
y: -2.00390625
z: -3.0390625
range: 4.88062095642
velocity: 0.0
doppler_bin: 8
bearing: -35.7729568481
intensity: 27.7815132141
---
header: 
  seq: 424009
  stamp: 
    secs: 1561681943
    nsecs: 274716341
  frame_id: "ti_mmwave"
point_id: 22
x: 2.728515625
y: -2.021484375
z: -3.13671875
range: 4.9241976738
velocity: 0.0
doppler_bin: 8
bearing: -36.5337600708
intensity: 27.3319721222
---
header: 
  seq: 424010
  stamp: 
    secs: 1561681943
    nsecs: 334554577
  frame_id: "ti_mmwave"
point_id: 0
x: 0.01171875
y: -0.0390625
z: -0.0078125
range: 0.0435769706964
velocity: 0.0
doppler_bin: 8
bearing: -73.3007583618
intensity: 30.7298469543
---
header: 
  seq: 424011
  stamp: 
    secs: 1561681943
    nsecs: 334619248
  frame_id: "ti_mmwave"
point_id: 1
x: 0.017578125
y: -0.080078125
z: -0.0078125
range: 0.0871539413929
velocity: 0.0
doppler_bin: 8
bearing: -77.6192398071
intensity: 31.9562301636
---
header: 
  seq: 424012
  stamp: 
    secs: 1561681943
    nsecs: 334629706
  frame_id: "ti_mmwave"
point_id: 2
x: 0.029296875
y: -0.119140625
z: -0.005859375
range: 0.130730912089
velocity: 0.0
doppler_bin: 8
bearing: -76.1849746704
intensity: 30.2201576233
---
header: 
  seq: 424013
  stamp: 
    secs: 1561681943
    nsecs: 334638519
  frame_id: "ti_mmwave"
point_id: 3
x: 0.056640625
y: -0.154296875
z: 0.005859375
range: 0.174307882786
velocity: 0.0
doppler_bin: 8
bearing: -69.8423843384
intensity: 25.4654273987
---
header: 
  seq: 424014
  stamp: 
    secs: 1561681943
    nsecs: 334646760
  frame_id: "ti_mmwave"
point_id: 4
x: 0.328125
y: -0.080078125
z: -1.22265625
range: 1.35088610649
velocity: 0.0
doppler_bin: 8
bearing: -13.7148113251
intensity: 21.8469142914
---
header: 
  seq: 424015
  stamp: 
    secs: 1561681943
    nsecs: 334657394
  frame_id: "ti_mmwave"
point_id: 5
x: 0.322265625
y: -0.041015625
z: 1.267578125
range: 1.39446306229
velocity: 0.0
doppler_bin: 8
bearing: -7.25319480896
intensity: 23.2428245544
---
header: 
  seq: 424016
  stamp: 
    secs: 1561681943
    nsecs: 334665811
  frame_id: "ti_mmwave"
point_id: 6
x: 0.42578125
y: -0.0
z: 1.28125
range: 1.43804001808
velocity: 0.0
doppler_bin: 8
bearing: -0.0
intensity: 21.9033164978
---
header: 
  seq: 424017
  stamp: 
    secs: 1561681943
    nsecs: 334816660
  frame_id: "ti_mmwave"
point_id: 7
x: 2.5546875
y: -0.263671875
z: 1.169921875
range: 3.00681090355
velocity: 0.0
doppler_bin: 8
bearing: -5.89269018173
intensity: 29.4200801849
---
header: 
  seq: 424018
  stamp: 
    secs: 1561681943
    nsecs: 334845577
  frame_id: "ti_mmwave"
point_id: 8
x: 2.607421875
y: -0.267578125
z: 1.154296875
range: 3.05038785934
velocity: 0.0
doppler_bin: 8
bearing: -5.85928010941
intensity: 32.7253761292
---
header: 
  seq: 424019
  stamp: 
    secs: 1561681943
    nsecs: 334859051
  frame_id: "ti_mmwave"
point_id: 9
x: 2.662109375
y: -0.181640625
z: 1.14453125
range: 3.09396481514
velocity: 0.0
doppler_bin: 8
bearing: -3.90334677696
intensity: 32.0139694214
---
header: 
  seq: 424020
  stamp: 
    secs: 1561681943
    nsecs: 334871197
  frame_id: "ti_mmwave"
point_id: 10
x: 4.4140625
y: -0.287109375
z: 1.19140625
range: 4.88062095642
velocity: 0.0
doppler_bin: 8
bearing: -3.72151875496
intensity: 30.6892757416
---
header: 
  seq: 424021
  stamp: 
    secs: 1561681943
    nsecs: 334901306
  frame_id: "ti_mmwave"
point_id: 11
x: 4.451171875
y: -0.2890625
z: 1.2109375
range: 4.9241976738
velocity: 0.0
doppler_bin: 8
bearing: -3.71561431885
intensity: 30.3181228638
---
header: 
  seq: 424022
  stamp: 
    secs: 1561681943
    nsecs: 334956525
  frame_id: "ti_mmwave"
point_id: 12
x: 4.740234375
y: -0.44921875
z: -0.482421875
range: 5.09850549698
velocity: 0.0
doppler_bin: 8
bearing: -5.41359329224
intensity: 33.029800415
---
header: 
  seq: 424023
  stamp: 
    secs: 1561681943
    nsecs: 334971169
  frame_id: "ti_mmwave"
point_id: 13
x: 4.791015625
y: -0.453125
z: -0.37890625
range: 5.14208269119
velocity: 0.0
doppler_bin: 8
bearing: -5.40285253525
intensity: 33.6492614746
---
header: 
  seq: 424024
  stamp: 
    secs: 1561681943
    nsecs: 334984771
  frame_id: "ti_mmwave"
point_id: 14
x: 4.845703125
y: -0.45703125
z: -0.03125
range: 5.18565940857
velocity: 0.0
doppler_bin: 8
bearing: -5.38801622391
intensity: 30.2201576233
---
header: 
  seq: 424025
  stamp: 
    secs: 1561681943
    nsecs: 335038243
  frame_id: "ti_mmwave"
point_id: 15
x: 4.81640625
y: -0.46484375
z: 1.04296875
range: 5.27281332016
velocity: 0.0
doppler_bin: 8
bearing: -5.51268863678
intensity: 30.8314418793
---
header: 
  seq: 424026
  stamp: 
    secs: 1561681943
    nsecs: 335055718
  frame_id: "ti_mmwave"
point_id: 17
x: 0.041015625
y: -0.033203125
z: 0.0625
range: 0.0871539413929
velocity: 0.0
doppler_bin: 8
bearing: -38.9909973145
intensity: 30.0945091248
---
header: 
  seq: 424027
  stamp: 
    secs: 1561681943
    nsecs: 335298618
  frame_id: "ti_mmwave"
point_id: 18
x: 0.052734375
y: -0.04296875
z: 0.1015625
range: 0.130730912089
velocity: 0.0
doppler_bin: 8
bearing: -39.1736602783
intensity: 28.9652614594
---
header: 
  seq: 424028
  stamp: 
    secs: 1561681943
    nsecs: 335332754
  frame_id: "ti_mmwave"
point_id: 20
x: 1.1171875
y: -0.515625
z: 0.310546875
range: 1.35088610649
velocity: 0.0
doppler_bin: 8
bearing: -24.7751407623
intensity: 18.9209461212
---
header: 
  seq: 424029
  stamp: 
    secs: 1561681943
    nsecs: 335397768
  frame_id: "ti_mmwave"
point_id: 21
x: 2.802734375
y: -2.00390625
z: -3.01953125
range: 4.88062095642
velocity: 0.0
doppler_bin: 8
bearing: -35.5641059875
intensity: 27.8031730652
---
header: 
  seq: 424030
  stamp: 
    secs: 1561681943
    nsecs: 335989511
  frame_id: "ti_mmwave"
point_id: 0
x: 0.01171875
y: -0.0390625
z: -0.0078125
range: 0.0435769706964
velocity: 0.0
doppler_bin: 8
bearing: -73.3007583618
intensity: 30.7261753082
---
header: 
  seq: 424031
  stamp: 
    secs: 1561681943
    nsecs: 336023636
  frame_id: "ti_mmwave"
point_id: 1
x: 0.017578125
y: -0.080078125
z: -0.0078125
range: 0.0871539413929
velocity: 0.0
doppler_bin: 8
bearing: -77.6192398071
intensity: 31.9562301636
---
header: 
  seq: 424032
  stamp: 
    secs: 1561681943
    nsecs: 336035516
  frame_id: "ti_mmwave"
point_id: 2
x: 0.029296875
y: -0.119140625
z: -0.005859375
range: 0.130730912089
velocity: 0.0
doppler_bin: 8
bearing: -76.1849746704
intensity: 30.2242832184
---
header: 
  seq: 424033
  stamp: 
    secs: 1561681943
    nsecs: 336043540
  frame_id: "ti_mmwave"
point_id: 3
x: 0.056640625
y: -0.154296875
z: 0.005859375
range: 0.174307882786
velocity: 0.0
doppler_bin: 8
bearing: -69.8423843384
intensity: 25.4777469635
---
header: 
  seq: 424034
  stamp: 
    secs: 1561681943
    nsecs: 336061906
  frame_id: "ti_mmwave"
point_id: 4
x: 0.31640625
y: -0.080078125
z: -1.224609375
range: 1.35088610649
velocity: 0.0
doppler_bin: 8
bearing: -14.2025585175
intensity: 21.8469142914
---
header: 
  seq: 424035
  stamp: 
    secs: 1561681943
    nsecs: 336076801
  frame_id: "ti_mmwave"
point_id: 5
x: 0.333984375
y: -0.041015625
z: 1.265625
range: 1.39446306229
velocity: 0.0
doppler_bin: 8
bearing: -7.00126743317
intensity: 23.2014636993
---
header: 
  seq: 424036
  stamp: 
    secs: 1561681943
    nsecs: 336089702
  frame_id: "ti_mmwave"
point_id: 6
x: 0.470703125
y: -0.04296875
z: 1.263671875
range: 1.43804001808
velocity: 0.0
doppler_bin: 8
bearing: -5.21586418152
intensity: 21.9312458038
---
header: 
  seq: 424037
  stamp: 
    secs: 1561681943
    nsecs: 336102353
  frame_id: "ti_mmwave"
point_id: 7
x: 2.552734375
y: -0.263671875
z: 1.17578125
range: 3.00681090355
velocity: 0.0
doppler_bin: 8
bearing: -5.89716720581
intensity: 29.4448261261
---
header: 
  seq: 424038
  stamp: 
    secs: 1561681943
    nsecs: 336115437
  frame_id: "ti_mmwave"
point_id: 8
x: 2.60546875
y: -0.267578125
z: 1.15625
range: 3.05038785934
velocity: 0.0
doppler_bin: 8
bearing: -5.86364221573
intensity: 32.7300109863
---
header: 
  seq: 424039
  stamp: 
    secs: 1561681943
    nsecs: 336127944
  frame_id: "ti_mmwave"
point_id: 9
x: 2.6640625
y: -0.181640625
z: 1.142578125
range: 3.09396481514
velocity: 0.0
doppler_bin: 8
bearing: -3.90049386024
intensity: 32.0030326843
---
header: 
  seq: 424040
  stamp: 
    secs: 1561681943
    nsecs: 336140594
  frame_id: "ti_mmwave"
point_id: 10
x: 4.4140625
y: -0.287109375
z: 1.1953125
range: 4.88062095642
velocity: 0.0
doppler_bin: 8
bearing: -3.72151875496
intensity: 30.7077655792
---
header: 
  seq: 424041
  stamp: 
    secs: 1561681943
    nsecs: 336153277
  frame_id: "ti_mmwave"
point_id: 11
x: 4.44921875
y: -0.2890625
z: 1.220703125
range: 4.9241976738
velocity: 0.0
doppler_bin: 8
bearing: -3.71724081039
intensity: 30.310043335
---
header: 
  seq: 424042
  stamp: 
    secs: 1561681943
    nsecs: 336167921
  frame_id: "ti_mmwave"
point_id: 12
x: 4.740234375
y: -0.44921875
z: -0.484375
range: 5.09850549698
velocity: 0.0
doppler_bin: 8
bearing: -5.41359329224
intensity: 33.0254745483
---
header: 
  seq: 424043
  stamp: 
    secs: 1561681943
    nsecs: 336180439
  frame_id: "ti_mmwave"
point_id: 13
x: 4.791015625
y: -0.453125
z: -0.369140625
range: 5.14208269119
velocity: 0.0
doppler_bin: 8
bearing: -5.40285253525
intensity: 33.6548805237
---
header: 
  seq: 424044
  stamp: 
    secs: 1561681943
    nsecs: 336194503
  frame_id: "ti_mmwave"
point_id: 14
x: 4.845703125
y: -0.45703125
z: 0.0078125
range: 5.18565940857
velocity: 0.0
doppler_bin: 8
bearing: -5.38801622391
intensity: 30.3622951508
---
header: 
  seq: 424045
  stamp: 
    secs: 1561681943
    nsecs: 336206952
  frame_id: "ti_mmwave"
point_id: 15
x: 4.79296875
y: -0.4609375
z: 0.955078125
range: 5.22923660278
velocity: 0.0
doppler_bin: 8
bearing: -5.4932141304
intensity: 30.0216598511
---
header: 
  seq: 424046
  stamp: 
    secs: 1561681943
    nsecs: 336219440
  frame_id: "ti_mmwave"
point_id: 16
x: 4.841796875
y: -0.46484375
z: 0.919921875
range: 5.27281332016
velocity: 0.0
doppler_bin: 8
bearing: -5.48395681381
intensity: 30.8026561737
---
header: 
  seq: 424047
  stamp: 
    secs: 1561681943
    nsecs: 336234278
  frame_id: "ti_mmwave"
point_id: 18
x: 0.041015625
y: -0.033203125
z: 0.0625
range: 0.0871539413929
velocity: 0.0
doppler_bin: 8
bearing: -38.9909973145
intensity: 30.0902576447
---
header: 
  seq: 424048
  stamp: 
    secs: 1561681943
    nsecs: 336246552
  frame_id: "ti_mmwave"
point_id: 19
x: 0.052734375
y: -0.04296875
z: 0.1015625
range: 0.130730912089
velocity: 0.0
doppler_bin: 8
bearing: -39.1736602783
intensity: 28.9707698822
---
header: 
  seq: 424049
  stamp: 
    secs: 1561681943
    nsecs: 336262381
  frame_id: "ti_mmwave"
point_id: 21
x: 2.802734375
y: -2.00390625
z: -3.01953125
range: 4.88062095642
velocity: 0.0
doppler_bin: 8
bearing: -35.5641059875
intensity: 27.7959651947
---
header: 
  seq: 424050
  stamp: 
    secs: 1561681943
    nsecs: 336320141
  frame_id: "ti_mmwave"
point_id: 22
x: 2.751953125
y: -2.021484375
z: -3.115234375
range: 4.9241976738
velocity: 0.0
doppler_bin: 8
bearing: -36.2996482849
intensity: 27.3239383698
---
header: 
  seq: 424051
  stamp: 
    secs: 1561681943
    nsecs: 394484975
  frame_id: "ti_mmwave"
point_id: 0
x: 0.01171875
y: -0.0390625
z: -0.0078125
range: 0.0435769706964
velocity: 0.0
doppler_bin: 8
bearing: -73.3007583618
intensity: 30.7261753082
---
header: 
  seq: 424052
  stamp: 
    secs: 1561681943
    nsecs: 394575124
  frame_id: "ti_mmwave"
point_id: 1
x: 0.017578125
y: -0.080078125
z: -0.0078125
range: 0.0871539413929
velocity: 0.0
doppler_bin: 8
bearing: -77.6192398071
intensity: 31.9562301636
---
header: 
  seq: 424053
  stamp: 
    secs: 1561681943
    nsecs: 394592261
  frame_id: "ti_mmwave"
point_id: 2
x: 0.041015625
y: -0.115234375
z: -0.0078125
range: 0.130730912089
velocity: 0.0
doppler_bin: 8
bearing: -70.4077224731
intensity: 30.2242832184
---
header: 
  seq: 424054
  stamp: 
    secs: 1561681943
    nsecs: 394605666
  frame_id: "ti_mmwave"
point_id: 3
x: 0.056640625
y: -0.154296875
z: 0.005859375
range: 0.174307882786
velocity: 0.0
doppler_bin: 8
bearing: -69.8423843384
intensity: 25.490032196
---
header: 
  seq: 424055
  stamp: 
    secs: 1561681943
    nsecs: 394618970
  frame_id: "ti_mmwave"
point_id: 4
x: 0.341796875
y: -0.080078125
z: -1.21875
range: 1.35088610649
velocity: 0.0
doppler_bin: 8
bearing: -13.1857614517
intensity: 21.7897701263
---
header: 
  seq: 424056
  stamp: 
    secs: 1561681943
    nsecs: 394632046
  frame_id: "ti_mmwave"
point_id: 5
x: 0.3203125
y: -0.041015625
z: 1.267578125
range: 1.39446306229
velocity: 0.0
doppler_bin: 8
bearing: -7.29694652557
intensity: 23.1597042084
---
header: 
  seq: 424057
  stamp: 
    secs: 1561681943
    nsecs: 394645145
  frame_id: "ti_mmwave"
point_id: 6
x: 0.408203125
y: -0.0
z: 1.287109375
range: 1.43804001808
velocity: 0.0
doppler_bin: 8
bearing: -0.0
intensity: 21.8184356689
---
header: 
  seq: 424058
  stamp: 
    secs: 1561681943
    nsecs: 394658541
  frame_id: "ti_mmwave"
point_id: 7
x: 2.544921875
y: -0.263671875
z: 1.19140625
range: 3.00681090355
velocity: 0.0
doppler_bin: 8
bearing: -5.91514253616
intensity: 29.4792366028
---
header: 
  seq: 424059
  stamp: 
    secs: 1561681943
    nsecs: 394741812
  frame_id: "ti_mmwave"
point_id: 8
x: 2.603515625
y: -0.267578125
z: 1.162109375
range: 3.05038785934
velocity: 0.0
doppler_bin: 8
bearing: -5.8680100441
intensity: 32.7669143677
---
header: 
  seq: 424060
  stamp: 
    secs: 1561681943
    nsecs: 394759046
  frame_id: "ti_mmwave"
point_id: 9
x: 2.662109375
y: -0.181640625
z: 1.1484375
range: 3.09396481514
velocity: 0.0
doppler_bin: 8
bearing: -3.90334677696
intensity: 32.0411987305
---
header: 
  seq: 424061
  stamp: 
    secs: 1561681943
    nsecs: 394772374
  frame_id: "ti_mmwave"
point_id: 10
x: 4.4140625
y: -0.287109375
z: 1.19140625
range: 4.88062095642
velocity: 0.0
doppler_bin: 8
bearing: -3.72151875496
intensity: 30.678144455
---
header: 
  seq: 424062
  stamp: 
    secs: 1561681943
    nsecs: 394785832
  frame_id: "ti_mmwave"
point_id: 11
x: 4.453125
y: -0.2890625
z: 1.201171875
range: 4.9241976738
velocity: 0.0
doppler_bin: 8
bearing: -3.71398925781
intensity: 30.2734966278
---
header: 
  seq: 424063
  stamp: 
    secs: 1561681943
    nsecs: 394799308
  frame_id: "ti_mmwave"
point_id: 12
x: 4.751953125
y: -0.298828125
z: -0.490234375
range: 5.09850549698
velocity: 0.0
doppler_bin: 8
bearing: -3.59832549095
intensity: 33.0189781189
---
header: 
  seq: 424064
  stamp: 
    secs: 1561681943
    nsecs: 394812374
  frame_id: "ti_mmwave"
point_id: 13
x: 4.7890625
y: -0.453125
z: -0.40234375
range: 5.14208269119
velocity: 0.0
doppler_bin: 8
bearing: -5.40504264832
intensity: 33.6884460449
---
header: 
  seq: 424065
  stamp: 
    secs: 1561681943
    nsecs: 394826404
  frame_id: "ti_mmwave"
point_id: 14
x: 4.84375
y: -0.45703125
z: -0.162109375
range: 5.18565940857
velocity: 0.0
doppler_bin: 8
bearing: -5.3901758194
intensity: 30.5842609406
---
header: 
  seq: 424066
  stamp: 
    secs: 1561681943
    nsecs: 394843249
  frame_id: "ti_mmwave"
point_id: 15
x: 4.89453125
y: -0.30859375
z: 0.66796875
range: 5.27281332016
velocity: 0.0
doppler_bin: 8
bearing: -3.60764837265
intensity: 30.7371826172
---
header: 
  seq: 424067
  stamp: 
    secs: 1561681943
    nsecs: 394880575
  frame_id: "ti_mmwave"
point_id: 17
x: 0.041015625
y: -0.033203125
z: 0.0625
range: 0.0871539413929
velocity: 0.0
doppler_bin: 8
bearing: -38.9909973145
intensity: 30.0902576447
---
header: 
  seq: 424068
  stamp: 
    secs: 1561681943
    nsecs: 394951996
  frame_id: "ti_mmwave"
point_id: 18
x: 0.052734375
y: -0.04296875
z: 0.103515625
range: 0.130730912089
velocity: 0.0
doppler_bin: 8
bearing: -39.1736602783
intensity: 28.9707698822
---
header: 
  seq: 424069
  stamp: 
    secs: 1561681943
    nsecs: 394971201
  frame_id: "ti_mmwave"
point_id: 20
x: 1.11328125
y: -0.515625
z: 0.318359375
range: 1.35088610649
velocity: 0.0
doppler_bin: 8
bearing: -24.8515853882
intensity: 18.864906311
---
header: 
  seq: 424070
  stamp: 
    secs: 1561681943
    nsecs: 394986508
  frame_id: "ti_mmwave"
point_id: 21
x: 2.7890625
y: -2.00390625
z: -3.03125
range: 4.88062095642
velocity: 0.0
doppler_bin: 8
bearing: -35.6967697144
intensity: 27.7670116425
---
header: 
  seq: 424071
  stamp: 
    secs: 1561681943
    nsecs: 395000173
  frame_id: "ti_mmwave"
point_id: 22
x: 2.759765625
y: -2.021484375
z: -3.107421875
range: 4.9241976738
velocity: 0.0
doppler_bin: 8
bearing: -36.2221832275
intensity: 27.3078231812
---
header: 
  seq: 424072
  stamp: 
    secs: 1561681943
    nsecs: 395014004
  frame_id: "ti_mmwave"
point_id: 23
x: 4.720703125
y: -0.59765625
z: -0.50390625
range: 5.09850549698
velocity: 0.0
doppler_bin: 8
bearing: -7.21544361115
intensity: 33.0168113708
---
header: 
  seq: 424073
  stamp: 
    secs: 1561681943
    nsecs: 396095947
  frame_id: "ti_mmwave"
point_id: 0
x: 0.01171875
y: -0.0390625
z: -0.0078125
range: 0.0435769706964
velocity: 0.0
doppler_bin: 8
bearing: -73.3007583618
intensity: 30.7261753082
---
header: 
  seq: 424074
  stamp: 
    secs: 1561681943
    nsecs: 396151595
  frame_id: "ti_mmwave"
point_id: 1
x: 0.017578125
y: -0.080078125
z: -0.0078125
range: 0.0871539413929
velocity: 0.0
doppler_bin: 8
bearing: -77.6192398071
intensity: 31.9534606934
---
header: 
  seq: 424075
  stamp: 
    secs: 1561681943
    nsecs: 396170729
  frame_id: "ti_mmwave"
point_id: 2
x: 0.029296875
y: -0.119140625
z: -0.005859375
range: 0.130730912089
velocity: 0.0
doppler_bin: 8
bearing: -76.1849746704
intensity: 30.2242832184
---
header: 
  seq: 424076
  stamp: 
    secs: 1561681943
    nsecs: 396185825
  frame_id: "ti_mmwave"
point_id: 3
x: 0.056640625
y: -0.154296875
z: 0.005859375
range: 0.174307882786
velocity: 0.0
doppler_bin: 8
bearing: -69.8423843384
intensity: 25.490032196
---
header: 
  seq: 424077
  stamp: 
    secs: 1561681943
    nsecs: 396202583
  frame_id: "ti_mmwave"
point_id: 4
x: 0.2890625
y: -0.080078125
z: -1.232421875
range: 1.35088610649
velocity: 0.0
doppler_bin: 8
bearing: -15.48416996
intensity: 21.8184356689
---
header: 
  seq: 424078
  stamp: 
    secs: 1561681943
    nsecs: 396216552
  frame_id: "ti_mmwave"
point_id: 5
x: 0.333984375
y: -0.041015625
z: 1.265625
range: 1.39446306229
velocity: 0.0
doppler_bin: 8
bearing: -7.00126743317
intensity: 23.2221927643
---
header: 
  seq: 424079
  stamp: 
    secs: 1561681943
    nsecs: 396230284
  frame_id: "ti_mmwave"
point_id: 6
x: 0.431640625
y: -0.0
z: 1.279296875
range: 1.43804001808
velocity: 0.0
doppler_bin: 8
bearing: -0.0
intensity: 21.9033164978
---
header: 
  seq: 424080
  stamp: 
    secs: 1561681943
    nsecs: 396313219
  frame_id: "ti_mmwave"
point_id: 7
x: 2.556640625
y: -0.263671875
z: 1.16796875
range: 3.00681090355
velocity: 0.0
doppler_bin: 8
bearing: -5.88822031021
intensity: 29.4001808167
---
header: 
  seq: 424081
  stamp: 
    secs: 1561681943
    nsecs: 396329479
  frame_id: "ti_mmwave"
point_id: 8
x: 2.60546875
y: -0.267578125
z: 1.15625
range: 3.05038785934
velocity: 0.0
doppler_bin: 8
bearing: -5.86364221573
intensity: 32.7346420288
---
header: 
  seq: 424082
  stamp: 
    secs: 1561681943
    nsecs: 396344135
  frame_id: "ti_mmwave"
point_id: 9
x: 2.662109375
y: -0.181640625
z: 1.146484375
range: 3.09396481514
velocity: 0.0
doppler_bin: 8
bearing: -3.90334677696
intensity: 32.0112380981
---
header: 
  seq: 424083
  stamp: 
    secs: 1561681943
    nsecs: 396357583
  frame_id: "ti_mmwave"
point_id: 10
x: 4.41015625
y: -0.287109375
z: 1.205078125
range: 4.88062095642
velocity: 0.0
doppler_bin: 8
bearing: -3.72480559349
intensity: 30.6818580627
---
header: 
  seq: 424084
  stamp: 
    secs: 1561681943
    nsecs: 396371537
  frame_id: "ti_mmwave"
point_id: 11
x: 4.447265625
y: -0.2890625
z: 1.22265625
range: 4.9241976738
velocity: 0.0
doppler_bin: 8
bearing: -3.71886897087
intensity: 30.293838501
---
header: 
  seq: 424085
  stamp: 
    secs: 1561681943
    nsecs: 396383713
  frame_id: "ti_mmwave"
point_id: 12
x: 4.734375
y: -0.44921875
z: -0.53125
range: 5.09850549698
velocity: 0.0
doppler_bin: 8
bearing: -5.42025327682
intensity: 33.0535125732
---
header: 
  seq: 424086
  stamp: 
    secs: 1561681943
    nsecs: 396400135
  frame_id: "ti_mmwave"
point_id: 13
x: 4.78125
y: -0.453125
z: -0.48828125
range: 5.14208269119
velocity: 0.0
doppler_bin: 8
bearing: -5.41382265091
intensity: 33.7254371643
---
header: 
  seq: 424087
  stamp: 
    secs: 1561681943
    nsecs: 396413271
  frame_id: "ti_mmwave"
point_id: 14
x: 4.828125
y: -0.45703125
z: -0.416015625
range: 5.18565940857
velocity: 0.0
doppler_bin: 8
bearing: -5.40751647949
intensity: 30.4999294281
---
header: 
  seq: 424088
  stamp: 
    secs: 1561681943
    nsecs: 396424754
  frame_id: "ti_mmwave"
point_id: 15
x: 4.8515625
y: -0.46484375
z: 0.861328125
range: 5.27281332016
velocity: 0.0
doppler_bin: 8
bearing: -5.47298574448
intensity: 30.4414768219
---
header: 
  seq: 424089
  stamp: 
    secs: 1561681943
    nsecs: 396436575
  frame_id: "ti_mmwave"
point_id: 17
x: 0.041015625
y: -0.033203125
z: 0.0625
range: 0.0871539413929
velocity: 0.0
doppler_bin: 8
bearing: -38.9909973145
intensity: 30.0902576447
---
header: 
  seq: 424090
  stamp: 
    secs: 1561681943
    nsecs: 396498442
  frame_id: "ti_mmwave"
point_id: 18
x: 0.052734375
y: -0.04296875
z: 0.1015625
range: 0.130730912089
velocity: 0.0
doppler_bin: 8
bearing: -39.1736602783
intensity: 28.9707698822
---
header: 
  seq: 424091
  stamp: 
    secs: 1561681943
    nsecs: 396519937
  frame_id: "ti_mmwave"
point_id: 20
x: 1.119140625
y: -0.515625
z: 0.298828125
range: 1.35088610649
velocity: 0.0
doppler_bin: 8
bearing: -24.7370834351
intensity: 19.0308990479
---
header: 
  seq: 424092
  stamp: 
    secs: 1561681943
    nsecs: 396533391
  frame_id: "ti_mmwave"
point_id: 21
x: 2.779296875
y: -2.00390625
z: -3.041015625
range: 4.88062095642
velocity: 0.0
doppler_bin: 8
bearing: -35.7920532227
intensity: 27.7815132141
---
header: 
  seq: 424093
  stamp: 
    secs: 1561681943
    nsecs: 396547818
  frame_id: "ti_mmwave"
point_id: 22
x: 2.728515625
y: -2.021484375
z: -3.134765625
range: 4.9241976738
velocity: 0.0
doppler_bin: 8
bearing: -36.5337600708
intensity: 27.3078231812
---
header: 
  seq: 424094
  stamp: 
    secs: 1561681943
    nsecs: 454467338
  frame_id: "ti_mmwave"
point_id: 0
x: 0.01171875
y: -0.0390625
z: -0.0078125
range: 0.0435769706964
velocity: 0.0
doppler_bin: 8
bearing: -73.3007583618
intensity: 30.7261753082
---
header: 
  seq: 424095
  stamp: 
    secs: 1561681943
    nsecs: 454542130
  frame_id: "ti_mmwave"
point_id: 1
x: 0.017578125
y: -0.080078125
z: -0.0078125
range: 0.0871539413929
velocity: 0.0
doppler_bin: 8
bearing: -77.6192398071
intensity: 31.9589958191
---
header: 
  seq: 424096
  stamp: 
    secs: 1561681943
    nsecs: 454557939
  frame_id: "ti_mmwave"
point_id: 2
x: 0.041015625
y: -0.115234375
z: -0.0078125
range: 0.130730912089
velocity: 0.0
doppler_bin: 8
bearing: -70.4077224731
intensity: 30.2242832184
---
header: 
  seq: 424097
  stamp: 
    secs: 1561681943
    nsecs: 454570518
  frame_id: "ti_mmwave"
point_id: 3
x: 0.056640625
y: -0.154296875
z: 0.005859375
range: 0.174307882786
velocity: 0.0
doppler_bin: 8
bearing: -69.8423843384
intensity: 25.4777469635
---
header: 
  seq: 424098
  stamp: 
    secs: 1561681943
    nsecs: 454582564
  frame_id: "ti_mmwave"
point_id: 4
x: 0.2890625
y: -0.080078125
z: -1.232421875
range: 1.35088610649
velocity: 0.0
doppler_bin: 8
bearing: -15.48416996
intensity: 21.7897701263
---
header: 
  seq: 424099
  stamp: 
    secs: 1561681943
    nsecs: 454594979
  frame_id: "ti_mmwave"
point_id: 5
x: 0.345703125
y: -0.041015625
z: 1.26171875
range: 1.39446306229
velocity: 0.0
doppler_bin: 8
bearing: -6.76617479324
intensity: 23.1806335449
---
header: 
  seq: 424100
  stamp: 
    secs: 1561681943
    nsecs: 454607354
  frame_id: "ti_mmwave"
point_id: 6
x: 0.408203125
y: -0.0
z: 1.287109375
range: 1.43804001808
velocity: 0.0
doppler_bin: 8
bearing: -0.0
intensity: 21.8184356689
---
header: 
  seq: 424101
  stamp: 
    secs: 1561681943
    nsecs: 454619092
  frame_id: "ti_mmwave"
point_id: 7
x: 2.546875
y: -0.263671875
z: 1.1875
range: 3.00681090355
velocity: 0.0
doppler_bin: 8
bearing: -5.91063833237
intensity: 29.4546852112
---
header: 
  seq: 424102
  stamp: 
    secs: 1561681943
    nsecs: 454630184
  frame_id: "ti_mmwave"
point_id: 8
x: 2.603515625
y: -0.267578125
z: 1.162109375
range: 3.05038785934
velocity: 0.0
doppler_bin: 8
bearing: -5.8680100441
intensity: 32.73695755
---
header: 
  seq: 424103
  stamp: 
    secs: 1561681943
    nsecs: 454805350
  frame_id: "ti_mmwave"
point_id: 9
x: 2.66015625
y: -0.181640625
z: 1.15234375
range: 3.09396481514
velocity: 0.0
doppler_bin: 8
bearing: -3.90620398521
intensity: 32.0139694214
---
header: 
  seq: 424104
  stamp: 
    secs: 1561681943
    nsecs: 454823332
  frame_id: "ti_mmwave"
point_id: 10
x: 4.41796875
y: -0.287109375
z: 1.177734375
range: 4.88062095642
velocity: 0.0
doppler_bin: 8
bearing: -3.71823716164
intensity: 30.7077655792
---
header: 
  seq: 424105
  stamp: 
    secs: 1561681943
    nsecs: 454831957
  frame_id: "ti_mmwave"
point_id: 11
x: 4.455078125
y: -0.2890625
z: 1.19921875
range: 4.9241976738
velocity: 0.0
doppler_bin: 8
bearing: -3.71236538887
intensity: 30.3140850067
---
header: 
  seq: 424106
  stamp: 
    secs: 1561681943
    nsecs: 454841939
  frame_id: "ti_mmwave"
point_id: 12
x: 4.7421875
y: -0.44921875
z: -0.47265625
range: 5.09850549698
velocity: 0.0
doppler_bin: 8
bearing: -5.41137647629
intensity: 33.0621032715
---
header: 
  seq: 424107
  stamp: 
    secs: 1561681943
    nsecs: 454850117
  frame_id: "ti_mmwave"
point_id: 13
x: 4.79296875
y: -0.453125
z: -0.359375
range: 5.14208269119
velocity: 0.0
doppler_bin: 8
bearing: -5.40066432953
intensity: 33.6865882874
---
header: 
  seq: 424108
  stamp: 
    secs: 1561681943
    nsecs: 454859152
  frame_id: "ti_mmwave"
point_id: 14
x: 4.845703125
y: -0.45703125
z: -0.083984375
range: 5.18565940857
velocity: 0.0
doppler_bin: 8
bearing: -5.38801622391
intensity: 30.3622951508
---
header: 
  seq: 424109
  stamp: 
    secs: 1561681943
    nsecs: 454866860
  frame_id: "ti_mmwave"
point_id: 15
x: 4.87109375
y: -0.30859375
z: 0.82421875
range: 5.27281332016
velocity: 0.0
doppler_bin: 8
bearing: -3.62496066093
intensity: 30.6145248413
---
header: 
  seq: 424110
  stamp: 
    secs: 1561681943
    nsecs: 454874558
  frame_id: "ti_mmwave"
point_id: 16
x: 1.82421875
y: 1.15234375
z: -0.2109375
range: 2.30957937241
velocity: 0.614668667316
doppler_bin: 9
bearing: 32.2802581787
intensity: 24.5484485626
---
header: 
  seq: 424111
  stamp: 
    secs: 1561681943
    nsecs: 454884134
  frame_id: "ti_mmwave"
point_id: 18
x: 0.041015625
y: -0.033203125
z: 0.0625
range: 0.0871539413929
velocity: 0.0
doppler_bin: 8
bearing: -38.9909973145
intensity: 30.0987567902
---
header: 
  seq: 424112
  stamp: 
    secs: 1561681943
    nsecs: 454891785
  frame_id: "ti_mmwave"
point_id: 19
x: 0.052734375
y: -0.04296875
z: 0.103515625
range: 0.130730912089
velocity: 0.0
doppler_bin: 8
bearing: -39.1736602783
intensity: 28.9762706757
---
header: 
  seq: 424113
  stamp: 
    secs: 1561681943
    nsecs: 454903076
  frame_id: "ti_mmwave"
point_id: 21
x: 1.12109375
y: -0.515625
z: 0.29296875
range: 1.35088610649
velocity: 0.0
doppler_bin: 8
bearing: -24.6991329193
intensity: 18.9762706757
---
header: 
  seq: 424114
  stamp: 
    secs: 1561681943
    nsecs: 454910784
  frame_id: "ti_mmwave"
point_id: 22
x: 2.787109375
y: -2.00390625
z: -3.033203125
range: 4.88062095642
velocity: 0.0
doppler_bin: 8
bearing: -35.7157897949
intensity: 27.7524623871
---
header: 
  seq: 424115
  stamp: 
    secs: 1561681943
    nsecs: 456009391
  frame_id: "ti_mmwave"
point_id: 0
x: 0.01171875
y: -0.0390625
z: -0.0078125
range: 0.0435769706964
velocity: 0.0
doppler_bin: 8
bearing: -73.3007583618
intensity: 30.7408466339
---
header: 
  seq: 424116
  stamp: 
    secs: 1561681943
    nsecs: 456057948
  frame_id: "ti_mmwave"
point_id: 1
x: 0.017578125
y: -0.080078125
z: -0.0078125
range: 0.0871539413929
velocity: 0.0
doppler_bin: 8
bearing: -77.6192398071
intensity: 31.9589958191
---
header: 
  seq: 424117
  stamp: 
    secs: 1561681943
    nsecs: 456074185
  frame_id: "ti_mmwave"
point_id: 2
x: 0.029296875
y: -0.119140625
z: -0.005859375
range: 0.130730912089
velocity: 0.0
doppler_bin: 8
bearing: -76.1849746704
intensity: 30.2284069061
---
header: 
  seq: 424118
  stamp: 
    secs: 1561681943
    nsecs: 456093831
  frame_id: "ti_mmwave"
point_id: 3
x: 0.056640625
y: -0.154296875
z: 0.005859375
range: 0.174307882786
velocity: 0.0
doppler_bin: 8
bearing: -69.8423843384
intensity: 25.490032196
---
header: 
  seq: 424119
  stamp: 
    secs: 1561681943
    nsecs: 456152884
  frame_id: "ti_mmwave"
point_id: 4
x: 0.296875
y: -0.080078125
z: -1.23046875
range: 1.35088610649
velocity: 0.0
doppler_bin: 8
bearing: -15.0955219269
intensity: 21.8469142914
---
header: 
  seq: 424120
  stamp: 
    secs: 1561681943
    nsecs: 456168058
  frame_id: "ti_mmwave"
point_id: 5
x: 0.33203125
y: -0.041015625
z: 1.265625
range: 1.39446306229
velocity: 0.0
doppler_bin: 8
bearing: -7.04203891754
intensity: 23.2221927643
---
header: 
  seq: 424121
  stamp: 
    secs: 1561681943
    nsecs: 456182163
  frame_id: "ti_mmwave"
point_id: 6
x: 0.50390625
y: -0.04296875
z: 1.251953125
range: 1.43804001808
velocity: 0.0
doppler_bin: 8
bearing: -4.87389659882
intensity: 21.9312458038
---
header: 
  seq: 424122
  stamp: 
    secs: 1561681943
    nsecs: 456196056
  frame_id: "ti_mmwave"
point_id: 7
x: 2.55078125
y: -0.263671875
z: 1.177734375
range: 3.00681090355
velocity: 0.0
doppler_bin: 8
bearing: -5.90165042877
intensity: 29.3951931
---
header: 
  seq: 424123
  stamp: 
    secs: 1561681943
    nsecs: 456208522
  frame_id: "ti_mmwave"
point_id: 8
x: 2.603515625
y: -0.267578125
z: 1.16015625
range: 3.05038785934
velocity: 0.0
doppler_bin: 8
bearing: -5.8680100441
intensity: 32.7276954651
---
header: 
  seq: 424124
  stamp: 
    secs: 1561681943
    nsecs: 456224738
  frame_id: "ti_mmwave"
point_id: 9
x: 2.66015625
y: -0.181640625
z: 1.154296875
range: 3.09396481514
velocity: 0.0
doppler_bin: 8
bearing: -3.90620398521
intensity: 32.0167007446
---
header: 
  seq: 424125
  stamp: 
    secs: 1561681943
    nsecs: 456268922
  frame_id: "ti_mmwave"
point_id: 10
x: 4.421875
y: -0.287109375
z: 1.166015625
range: 4.88062095642
velocity: 0.0
doppler_bin: 8
bearing: -3.7149617672
intensity: 30.6855697632
---
header: 
  seq: 424126
  stamp: 
    secs: 1561681943
    nsecs: 456284229
  frame_id: "ti_mmwave"
point_id: 11
x: 4.455078125
y: -0.2890625
z: 1.1953125
range: 4.9241976738
velocity: 0.0
doppler_bin: 8
bearing: -3.71236538887
intensity: 30.293838501
---
header: 
  seq: 424127
  stamp: 
    secs: 1561681943
    nsecs: 456296327
  frame_id: "ti_mmwave"
point_id: 12
x: 4.736328125
y: -0.44921875
z: -0.52734375
range: 5.09850549698
velocity: 0.0
doppler_bin: 8
bearing: -5.41803121567
intensity: 33.034122467
---
header: 
  seq: 424128
  stamp: 
    secs: 1561681943
    nsecs: 456307493
  frame_id: "ti_mmwave"
point_id: 13
x: 4.783203125
y: -0.453125
z: -0.46875
range: 5.14208269119
velocity: 0.0
doppler_bin: 8
bearing: -5.41162490845
intensity: 33.6417579651
---
header: 
  seq: 424129
  stamp: 
    secs: 1561681943
    nsecs: 456320707
  frame_id: "ti_mmwave"
point_id: 14
x: 4.837890625
y: -0.45703125
z: -0.27734375
range: 5.18565940857
velocity: 0.0
doppler_bin: 8
bearing: -5.39666557312
intensity: 30.2857131958
---
header: 
  seq: 424130
  stamp: 
    secs: 1561681943
    nsecs: 456332207
  frame_id: "ti_mmwave"
point_id: 15
x: 4.873046875
y: -0.30859375
z: 0.81640625
range: 5.27281332016
velocity: 0.0
doppler_bin: 8
bearing: -3.62351131439
intensity: 30.6333332062
---
header: 
  seq: 424131
  stamp: 
    secs: 1561681943
    nsecs: 456343834
  frame_id: "ti_mmwave"
point_id: 16
x: 1.861328125
y: 1.083984375
z: -0.24609375
range: 2.30957937241
velocity: 0.614668667316
doppler_bin: 9
bearing: 30.2153015137
intensity: 25.0920257568
---
header: 
  seq: 424132
  stamp: 
    secs: 1561681943
    nsecs: 456356509
  frame_id: "ti_mmwave"
point_id: 17
x: 1.89453125
y: 1.103515625
z: -0.26171875
range: 2.3531563282
velocity: 0.614668667316
doppler_bin: 9
bearing: 30.2196979523
intensity: 25.3402614594
---
header: 
  seq: 424133
  stamp: 
    secs: 1561681943
    nsecs: 456371866
  frame_id: "ti_mmwave"
point_id: 19
x: 0.041015625
y: -0.033203125
z: 0.0625
range: 0.0871539413929
velocity: 0.0
doppler_bin: 8
bearing: -38.9909973145
intensity: 30.0945091248
---
header: 
  seq: 424134
  stamp: 
    secs: 1561681943
    nsecs: 456386838
  frame_id: "ti_mmwave"
point_id: 20
x: 0.052734375
y: -0.04296875
z: 0.103515625
range: 0.130730912089
velocity: 0.0
doppler_bin: 8
bearing: -39.1736602783
intensity: 28.9762706757
---
header: 
  seq: 424135
  stamp: 
    secs: 1561681943
    nsecs: 456468005
  frame_id: "ti_mmwave"
point_id: 22
x: 2.73828125
y: -2.00390625
z: -3.078125
range: 4.88062095642
velocity: 0.0
doppler_bin: 8
bearing: -36.197101593
intensity: 27.7597427368
---
header: 
  seq: 424136
  stamp: 
    secs: 1561681943
    nsecs: 514415454
  frame_id: "ti_mmwave"
point_id: 0
x: 0.01171875
y: -0.0390625
z: -0.0078125
range: 0.0435769706964
velocity: 0.0
doppler_bin: 8
bearing: -73.3007583618
intensity: 30.7298469543
---
header: 
  seq: 424137
  stamp: 
    secs: 1561681943
    nsecs: 514462216
  frame_id: "ti_mmwave"
point_id: 1
x: 0.017578125
