header: 
  seq: 439894
  stamp: 
    secs: 1561681966
    nsecs: 614443471
  frame_id: "ti_mmwave"
point_id: 0
x: 0.01171875
y: -0.0390625
z: -0.0078125
range: 0.0435769706964
velocity: 0.0
doppler_bin: 8
bearing: -73.3007583618
intensity: 30.7445068359
---
header: 
  seq: 439895
  stamp: 
    secs: 1561681966
    nsecs: 614517852
  frame_id: "ti_mmwave"
point_id: 1
x: 0.017578125
y: -0.080078125
z: -0.0078125
range: 0.0871539413929
velocity: 0.0
doppler_bin: 8
bearing: -77.6192398071
intensity: 31.9728050232
---
header: 
  seq: 439896
  stamp: 
    secs: 1561681966
    nsecs: 614529578
  frame_id: "ti_mmwave"
point_id: 2
x: 0.041015625
y: -0.115234375
z: -0.0078125
range: 0.130730912089
velocity: 0.0
doppler_bin: 8
bearing: -70.4077224731
intensity: 30.2407493591
---
header: 
  seq: 439897
  stamp: 
    secs: 1561681966
    nsecs: 614538731
  frame_id: "ti_mmwave"
point_id: 3
x: 0.056640625
y: -0.154296875
z: 0.005859375
range: 0.174307882786
velocity: 0.0
doppler_bin: 8
bearing: -69.8423843384
intensity: 25.5144996643
---
header: 
  seq: 439898
  stamp: 
    secs: 1561681966
    nsecs: 614548294
  frame_id: "ti_mmwave"
point_id: 4
x: 0.296875
y: -0.080078125
z: -1.23046875
range: 1.35088610649
velocity: 0.0
doppler_bin: 8
bearing: -15.0955219269
intensity: 21.8184356689
---
header: 
  seq: 439899
  stamp: 
    secs: 1561681966
    nsecs: 614558174
  frame_id: "ti_mmwave"
point_id: 5
x: 0.349609375
y: -0.041015625
z: 1.259765625
range: 1.39446306229
velocity: 0.0
doppler_bin: 8
bearing: -6.69126462936
intensity: 23.2014636993
---
header: 
  seq: 439900
  stamp: 
    secs: 1561681966
    nsecs: 614566926
  frame_id: "ti_mmwave"
point_id: 6
x: 0.431640625
y: -0.0
z: 1.279296875
range: 1.43804001808
velocity: 0.0
doppler_bin: 8
bearing: -0.0
intensity: 21.9033164978
---
header: 
  seq: 439901
  stamp: 
    secs: 1561681966
    nsecs: 614589582
  frame_id: "ti_mmwave"
point_id: 7
x: 2.55078125
y: -0.263671875
z: 1.177734375
range: 3.00681090355
velocity: 0.0
doppler_bin: 8
bearing: -5.90165042877
intensity: 29.4596061707
---
header: 
  seq: 439902
  stamp: 
    secs: 1561681966
    nsecs: 614600728
  frame_id: "ti_mmwave"
point_id: 8
x: 2.607421875
y: -0.267578125
z: 1.154296875
range: 3.05038785934
velocity: 0.0
doppler_bin: 8
bearing: -5.85928010941
intensity: 32.7300109863
---
header: 
  seq: 439903
  stamp: 
    secs: 1561681966
    nsecs: 614771330
  frame_id: "ti_mmwave"
point_id: 9
x: 2.66796875
y: -0.181640625
z: 1.1328125
range: 3.09396481514
velocity: 0.0
doppler_bin: 8
bearing: -3.89480042458
intensity: 31.9865703583
---
header: 
  seq: 439904
  stamp: 
    secs: 1561681966
    nsecs: 614799752
  frame_id: "ti_mmwave"
point_id: 10
x: 4.41796875
y: -0.287109375
z: 1.181640625
range: 4.88062095642
velocity: 0.0
doppler_bin: 8
bearing: -3.71823716164
intensity: 30.7114524841
---
header: 
  seq: 439905
  stamp: 
    secs: 1561681966
    nsecs: 614813081
  frame_id: "ti_mmwave"
point_id: 11
x: 4.474609375
y: -0.2890625
z: 1.125
range: 4.9241976738
velocity: 0.0
doppler_bin: 8
bearing: -3.69620633125
intensity: 30.3382568359
---
header: 
  seq: 439906
  stamp: 
    secs: 1561681966
    nsecs: 614825271
  frame_id: "ti_mmwave"
point_id: 12
x: 4.73828125
y: -0.44921875
z: -0.501953125
range: 5.09850549698
velocity: 0.0
doppler_bin: 8
bearing: -5.4158115387
intensity: 33.0813751221
---
header: 
  seq: 439907
  stamp: 
    secs: 1561681966
    nsecs: 614838558
  frame_id: "ti_mmwave"
point_id: 13
x: 4.787109375
y: -0.453125
z: -0.431640625
range: 5.14208269119
velocity: 0.0
doppler_bin: 8
bearing: -5.40723514557
intensity: 33.7106781006
---
header: 
  seq: 439908
  stamp: 
    secs: 1561681966
    nsecs: 614850111
  frame_id: "ti_mmwave"
point_id: 14
x: 4.83984375
y: -0.45703125
z: -0.255859375
range: 5.18565940857
velocity: 0.0
doppler_bin: 8
bearing: -5.39450025558
intensity: 30.3542976379
---
header: 
  seq: 439909
  stamp: 
    secs: 1561681966
    nsecs: 614861512
  frame_id: "ti_mmwave"
point_id: 15
x: 4.833984375
y: -0.46484375
z: 0.953125
range: 5.27281332016
velocity: 0.0
doppler_bin: 8
bearing: -5.49276590347
intensity: 30.4453983307
---
header: 
  seq: 439910
  stamp: 
    secs: 1561681966
    nsecs: 614873961
  frame_id: "ti_mmwave"
point_id: 16
x: 1.779296875
y: 1.21875
z: -0.220703125
range: 2.30957937241
velocity: 0.614668667316
doppler_bin: 9
bearing: 34.4096450806
intensity: 28.0208930969
---
header: 
  seq: 439911
  stamp: 
    secs: 1561681966
    nsecs: 614885938
  frame_id: "ti_mmwave"
point_id: 17
x: 1.869140625
y: 1.173828125
z: -0.099609375
range: 2.3531563282
velocity: 0.614668667316
doppler_bin: 9
bearing: 32.128993988
intensity: 29.7405090332
---
header: 
  seq: 439912
  stamp: 
    secs: 1561681966
    nsecs: 614900054
  frame_id: "ti_mmwave"
point_id: 18
x: 1.904296875
y: 1.1953125
z: -0.07421875
range: 2.396733284
velocity: 0.614668667316
doppler_bin: 9
bearing: 32.1161727905
intensity: 27.7085208893
---
header: 
  seq: 439913
  stamp: 
    secs: 1561681966
    nsecs: 614966628
  frame_id: "ti_mmwave"
point_id: 20
x: 0.041015625
y: -0.033203125
z: 0.0625
range: 0.0871539413929
velocity: 0.0
doppler_bin: 8
bearing: -38.9909973145
intensity: 30.1072387695
---
header: 
  seq: 439914
  stamp: 
    secs: 1561681966
    nsecs: 614987831
  frame_id: "ti_mmwave"
point_id: 21
x: 0.052734375
y: -0.04296875
z: 0.103515625
range: 0.130730912089
velocity: 0.0
doppler_bin: 8
bearing: -39.1736602783
intensity: 28.9872512817
---
header: 
  seq: 439915
  stamp: 
    secs: 1561681966
    nsecs: 615006215
  frame_id: "ti_mmwave"
point_id: 23
x: 1.123046875
y: -0.515625
z: 0.28515625
range: 1.35088610649
velocity: 0.0
doppler_bin: 8
bearing: -24.6612968445
intensity: 18.9209461212
---
header: 
  seq: 439916
  stamp: 
    secs: 1561681966
    nsecs: 615019784
  frame_id: "ti_mmwave"
point_id: 24
x: 2.765625
y: -2.00390625
z: -3.052734375
range: 4.88062095642
velocity: 0.0
doppler_bin: 8
bearing: -35.9261932373
intensity: 27.8031730652
---
header: 
  seq: 439917
  stamp: 
    secs: 1561681966
    nsecs: 616076240
  frame_id: "ti_mmwave"
point_id: 0
x: 0.01171875
y: -0.0390625
z: -0.0078125
range: 0.0435769706964
velocity: 0.0
doppler_bin: 8
bearing: -73.3007583618
intensity: 30.7445068359
---
header: 
  seq: 439918
  stamp: 
    secs: 1561681966
    nsecs: 616138914
  frame_id: "ti_mmwave"
point_id: 1
x: 0.017578125
y: -0.080078125
z: -0.0078125
range: 0.0871539413929
velocity: 0.0
doppler_bin: 8
bearing: -77.6192398071
intensity: 31.9728050232
---
header: 
  seq: 439919
  stamp: 
    secs: 1561681966
    nsecs: 616149882
  frame_id: "ti_mmwave"
point_id: 2
x: 0.029296875
y: -0.119140625
z: -0.005859375
range: 0.130730912089
velocity: 0.0
doppler_bin: 8
bearing: -76.1849746704
intensity: 30.2366390228
---
header: 
  seq: 439920
  stamp: 
    secs: 1561681966
    nsecs: 616160138
  frame_id: "ti_mmwave"
point_id: 3
x: 0.056640625
y: -0.154296875
z: 0.005859375
range: 0.174307882786
velocity: 0.0
doppler_bin: 8
bearing: -69.8423843384
intensity: 25.5022830963
---
header: 
  seq: 439921
  stamp: 
    secs: 1561681966
    nsecs: 616168532
  frame_id: "ti_mmwave"
point_id: 4
x: 0.318359375
y: -0.080078125
z: -1.224609375
range: 1.35088610649
velocity: 0.0
doppler_bin: 8
bearing: -14.1189212799
intensity: 21.875207901
---
header: 
  seq: 439922
  stamp: 
    secs: 1561681966
    nsecs: 616217451
  frame_id: "ti_mmwave"
point_id: 5
x: 0.3203125
y: -0.041015625
z: 1.26953125
range: 1.39446306229
velocity: 0.0
doppler_bin: 8
bearing: -7.29694652557
intensity: 23.2428245544
---
header: 
  seq: 439923
  stamp: 
    secs: 1561681966
    nsecs: 616228983
  frame_id: "ti_mmwave"
point_id: 6
x: 0.482421875
y: -0.04296875
z: 1.259765625
range: 1.43804001808
velocity: 0.0
doppler_bin: 8
bearing: -5.08983659744
intensity: 21.9312458038
---
header: 
  seq: 439924
  stamp: 
    secs: 1561681966
    nsecs: 616242528
  frame_id: "ti_mmwave"
point_id: 7
x: 2.54296875
y: -0.263671875
z: 1.197265625
range: 3.00681090355
velocity: 0.0
doppler_bin: 8
bearing: -5.91965341568
intensity: 29.4546852112
---
header: 
  seq: 439925
  stamp: 
    secs: 1561681966
    nsecs: 616253853
  frame_id: "ti_mmwave"
point_id: 8
x: 2.6015625
y: -0.267578125
z: 1.166015625
range: 3.05038785934
velocity: 0.0
doppler_bin: 8
bearing: -5.87238502502
intensity: 32.753112793
---
header: 
  seq: 439926
  stamp: 
    secs: 1561681966
    nsecs: 616266741
  frame_id: "ti_mmwave"
point_id: 9
x: 2.658203125
y: -0.181640625
z: 1.15625
range: 3.09396481514
velocity: 0.0
doppler_bin: 8
bearing: -3.90906453133
intensity: 32.0167007446
---
header: 
  seq: 439927
  stamp: 
    secs: 1561681966
    nsecs: 616278211
  frame_id: "ti_mmwave"
point_id: 10
x: 4.4140625
y: -0.287109375
z: 1.19140625
range: 4.88062095642
velocity: 0.0
doppler_bin: 8
bearing: -3.72151875496
intensity: 30.7151374817
---
header: 
  seq: 439928
  stamp: 
    secs: 1561681966
    nsecs: 616297971
  frame_id: "ti_mmwave"
point_id: 11
x: 4.466796875
y: -0.2890625
z: 1.154296875
range: 4.9241976738
velocity: 0.0
doppler_bin: 8
bearing: -3.70265316963
intensity: 30.358297348
---
header: 
  seq: 439929
  stamp: 
    secs: 1561681966
    nsecs: 616347233
  frame_id: "ti_mmwave"
point_id: 12
x: 4.751953125
y: -0.298828125
z: -0.490234375
range: 5.09850549698
velocity: 0.0
doppler_bin: 8
bearing: -3.59832549095
intensity: 33.0124702454
---
header: 
  seq: 439930
  stamp: 
    secs: 1561681966
    nsecs: 616363502
  frame_id: "ti_mmwave"
point_id: 13
x: 4.787109375
y: -0.453125
z: -0.427734375
range: 5.14208269119
velocity: 0.0
doppler_bin: 8
bearing: -5.40723514557
intensity: 33.6530075073
---
header: 
  seq: 439931
  stamp: 
    secs: 1561681966
    nsecs: 616376657
  frame_id: "ti_mmwave"
point_id: 14
x: 4.83984375
y: -0.45703125
z: -0.255859375
range: 5.18565940857
velocity: 0.0
doppler_bin: 8
bearing: -5.39450025558
intensity: 30.3742656708
---
header: 
  seq: 439932
  stamp: 
    secs: 1561681966
    nsecs: 616389774
  frame_id: "ti_mmwave"
point_id: 15
x: 4.8515625
y: -0.46484375
z: 0.86328125
range: 5.27281332016
velocity: 0.0
doppler_bin: 8
bearing: -5.47298574448
intensity: 30.6032009125
---
header: 
  seq: 439933
  stamp: 
    secs: 1561681966
    nsecs: 616399611
  frame_id: "ti_mmwave"
point_id: 16
x: 1.76953125
y: 1.21875
z: -0.2890625
range: 2.30957937241
velocity: 0.614668667316
doppler_bin: 9
bearing: 34.556804657
intensity: 25.2504482269
---
header: 
  seq: 439934
  stamp: 
    secs: 1561681966
    nsecs: 616485002
  frame_id: "ti_mmwave"
point_id: 17
x: 1.861328125
y: 1.173828125
z: -0.19140625
range: 2.3531563282
velocity: 0.614668667316
doppler_bin: 9
bearing: 32.2371749878
intensity: 27.7232170105
---
header: 
  seq: 439935
  stamp: 
    secs: 1561681966
    nsecs: 616514455
  frame_id: "ti_mmwave"
point_id: 18
x: 1.900390625
y: 1.1953125
z: -0.140625
range: 2.396733284
velocity: 0.614668667316
doppler_bin: 9
bearing: 32.169178009
intensity: 25.8092498779
---
header: 
  seq: 439936
  stamp: 
    secs: 1561681966
    nsecs: 616536465
  frame_id: "ti_mmwave"
point_id: 20
x: 0.041015625
y: -0.033203125
z: 0.0625
range: 0.0871539413929
velocity: 0.0
doppler_bin: 8
bearing: -38.9909973145
intensity: 30.1157035828
---
header: 
  seq: 439937
  stamp: 
    secs: 1561681966
    nsecs: 616575858
  frame_id: "ti_mmwave"
point_id: 21
x: 0.052734375
y: -0.04296875
z: 0.1015625
range: 0.130730912089
velocity: 0.0
doppler_bin: 8
bearing: -39.1736602783
intensity: 28.9982051849
---
header: 
  seq: 439938
  stamp: 
    secs: 1561681966
    nsecs: 616593267
  frame_id: "ti_mmwave"
point_id: 23
x: 1.119140625
y: -0.515625
z: 0.296875
range: 1.35088610649
velocity: 0.0
doppler_bin: 8
bearing: -24.7370834351
intensity: 19.0308990479
---
header: 
  seq: 439939
  stamp: 
    secs: 1561681966
    nsecs: 616609328
  frame_id: "ti_mmwave"
point_id: 24
x: 2.7734375
y: -2.00390625
z: -3.046875
range: 4.88062095642
velocity: 0.0
doppler_bin: 8
bearing: -35.8494377136
intensity: 27.8175544739
---
header: 
  seq: 439940
  stamp: 
    secs: 1561681966
    nsecs: 616653895
  frame_id: "ti_mmwave"
point_id: 25
x: 2.603515625
y: -2.021484375
z: -3.240234375
range: 4.9241976738
velocity: 0.0
doppler_bin: 8
bearing: -37.8273429871
intensity: 27.3719272614
---
header: 
  seq: 439941
  stamp: 
    secs: 1561681966
    nsecs: 674469049
  frame_id: "ti_mmwave"
point_id: 0
x: 0.01171875
y: -0.0390625
z: -0.0078125
range: 0.0435769706964
velocity: 0.0
doppler_bin: 8
bearing: -73.3007583618
intensity: 30.7518177032
---
header: 
  seq: 439942
  stamp: 
    secs: 1561681966
    nsecs: 674570233
  frame_id: "ti_mmwave"
point_id: 1
x: 0.017578125
y: -0.080078125
z: -0.0078125
range: 0.0871539413929
velocity: 0.0
doppler_bin: 8
bearing: -77.6192398071
intensity: 31.9783172607
---
header: 
  seq: 439943
  stamp: 
    secs: 1561681966
    nsecs: 674582935
  frame_id: "ti_mmwave"
point_id: 2
x: 0.041015625
y: -0.115234375
z: -0.0078125
range: 0.130730912089
velocity: 0.0
doppler_bin: 8
bearing: -70.4077224731
intensity: 30.2407493591
---
header: 
  seq: 439944
  stamp: 
    secs: 1561681966
    nsecs: 674593037
  frame_id: "ti_mmwave"
point_id: 3
x: 0.056640625
y: -0.154296875
z: 0.005859375
range: 0.174307882786
velocity: 0.0
doppler_bin: 8
bearing: -69.8423843384
intensity: 25.5022830963
---
header: 
  seq: 439945
  stamp: 
    secs: 1561681966
    nsecs: 674604420
  frame_id: "ti_mmwave"
point_id: 4
x: 0.306640625
y: -0.080078125
z: -1.228515625
range: 1.35088610649
velocity: 0.0
doppler_bin: 8
bearing: -14.6357278824
intensity: 21.875207901
---
header: 
  seq: 439946
  stamp: 
    secs: 1561681966
    nsecs: 674613325
  frame_id: "ti_mmwave"
point_id: 5
x: 0.33203125
y: -0.041015625
z: 1.265625
range: 1.39446306229
velocity: 0.0
doppler_bin: 8
bearing: -7.04203891754
intensity: 23.2221927643
---
header: 
  seq: 439947
  stamp: 
    secs: 1561681966
    nsecs: 674622389
  frame_id: "ti_mmwave"
point_id: 6
x: 0.421875
y: -0.0
z: 1.28125
range: 1.43804001808
velocity: 0.0
doppler_bin: 8
bearing: -0.0
intensity: 21.9033164978
---
header: 
  seq: 439948
  stamp: 
    secs: 1561681966
    nsecs: 674631091
  frame_id: "ti_mmwave"
point_id: 7
x: 2.552734375
y: -0.263671875
z: 1.173828125
range: 3.00681090355
velocity: 0.0
doppler_bin: 8
bearing: -5.89716720581
intensity: 29.4250411987
---
header: 
  seq: 439949
  stamp: 
    secs: 1561681966
    nsecs: 674641200
  frame_id: "ti_mmwave"
point_id: 8
x: 2.603515625
y: -0.267578125
z: 1.16015625
range: 3.05038785934
velocity: 0.0
doppler_bin: 8
bearing: -5.8680100441
intensity: 32.7508087158
---
header: 
  seq: 439950
  stamp: 
    secs: 1561681966
    nsecs: 674650586
  frame_id: "ti_mmwave"
point_id: 9
x: 2.65625
y: -0.181640625
z: 1.16015625
range: 3.09396481514
velocity: 0.0
doppler_bin: 8
bearing: -3.91193032265
intensity: 32.0384864807
---
header: 
  seq: 439951
  stamp: 
    secs: 1561681966
    nsecs: 674658983
  frame_id: "ti_mmwave"
point_id: 10
x: 4.412109375
y: -0.287109375
z: 1.19921875
range: 4.88062095642
velocity: 0.0
doppler_bin: 8
bearing: -3.72316122055
intensity: 30.7188205719
---
header: 
  seq: 439952
  stamp: 
    secs: 1561681966
    nsecs: 674667336
  frame_id: "ti_mmwave"
point_id: 11
x: 4.46484375
y: -0.2890625
z: 1.16015625
range: 4.9241976738
velocity: 0.0
doppler_bin: 8
bearing: -3.70426845551
intensity: 30.3742656708
---
header: 
  seq: 439953
  stamp: 
    secs: 1561681966
    nsecs: 674871235
  frame_id: "ti_mmwave"
point_id: 12
x: 4.736328125
y: -0.44921875
z: -0.5234375
range: 5.09850549698
velocity: 0.0
doppler_bin: 8
bearing: -5.41803121567
intensity: 33.0621032715
---
header: 
  seq: 439954
  stamp: 
    secs: 1561681966
    nsecs: 674889957
  frame_id: "ti_mmwave"
point_id: 13
x: 4.783203125
y: -0.453125
z: -0.458984375
range: 5.14208269119
velocity: 0.0
doppler_bin: 8
bearing: -5.41162490845
intensity: 33.7162208557
---
header: 
  seq: 439955
  stamp: 
    secs: 1561681966
    nsecs: 674898258
  frame_id: "ti_mmwave"
point_id: 14
x: 4.83984375
y: -0.45703125
z: -0.267578125
range: 5.18565940857
velocity: 0.0
doppler_bin: 8
bearing: -5.39450025558
intensity: 30.4649524689
---
header: 
  seq: 439956
  stamp: 
    secs: 1561681966
    nsecs: 674909156
  frame_id: "ti_mmwave"
point_id: 15
x: 4.875
y: -0.30859375
z: 0.80078125
range: 5.27281332016
velocity: 0.0
doppler_bin: 8
bearing: -3.62206339836
intensity: 30.5956344604
---
header: 
  seq: 439957
  stamp: 
    secs: 1561681966
    nsecs: 674918389
  frame_id: "ti_mmwave"
point_id: 16
x: 1.818359375
y: 1.2421875
z: -0.169921875
range: 2.3531563282
velocity: 0.614668667316
doppler_bin: 9
bearing: 34.3384056091
intensity: 27.4272518158
---
header: 
  seq: 439958
  stamp: 
    secs: 1561681966
    nsecs: 674927059
  frame_id: "ti_mmwave"
point_id: 17
x: 1.904296875
y: 1.1953125
z: -0.0859375
range: 2.396733284
velocity: 0.614668667316
doppler_bin: 9
bearing: 32.1161727905
intensity: 27.4507484436
---
header: 
  seq: 439959
  stamp: 
    secs: 1561681966
    nsecs: 674937609
  frame_id: "ti_mmwave"
point_id: 19
x: 0.041015625
y: -0.033203125
z: 0.0625
range: 0.0871539413929
velocity: 0.0
doppler_bin: 8
bearing: -38.9909973145
intensity: 30.1114730835
---
header: 
  seq: 439960
  stamp: 
    secs: 1561681966
    nsecs: 674946981
  frame_id: "ti_mmwave"
point_id: 20
x: 0.052734375
y: -0.04296875
z: 0.103515625
range: 0.130730912089
velocity: 0.0
doppler_bin: 8
bearing: -39.1736602783
intensity: 28.9982051849
---
header: 
  seq: 439961
  stamp: 
    secs: 1561681966
    nsecs: 674956912
  frame_id: "ti_mmwave"
point_id: 22
x: 1.119140625
y: -0.515625
z: 0.298828125
range: 1.35088610649
velocity: 0.0
doppler_bin: 8
bearing: -24.7370834351
intensity: 18.9209461212
---
header: 
  seq: 439962
  stamp: 
    secs: 1561681966
    nsecs: 674966963
  frame_id: "ti_mmwave"
point_id: 23
x: 2.755859375
y: -2.00390625
z: -3.0625
range: 4.88062095642
velocity: 0.0
doppler_bin: 8
bearing: -36.0225448608
intensity: 27.8247261047
---
header: 
  seq: 439963
  stamp: 
    secs: 1561681966
    nsecs: 674974912
  frame_id: "ti_mmwave"
point_id: 24
x: 2.59375
y: -2.021484375
z: -3.248046875
range: 4.9241976738
velocity: 0.0
doppler_bin: 8
bearing: -37.9316902161
intensity: 27.3798732758
---
header: 
  seq: 439964
  stamp: 
    secs: 1561681966
    nsecs: 734421706
  frame_id: "ti_mmwave"
point_id: 0
x: 0.01171875
y: -0.0390625
z: -0.0078125
range: 0.0435769706964
velocity: 0.0
doppler_bin: 8
bearing: -73.3007583618
intensity: 30.7445068359
---
header: 
  seq: 439965
  stamp: 
    secs: 1561681966
    nsecs: 734493548
  frame_id: "ti_mmwave"
point_id: 1
x: 0.017578125
y: -0.080078125
z: -0.0078125
range: 0.0871539413929
velocity: 0.0
doppler_bin: 8
bearing: -77.6192398071
intensity: 31.9755630493
---
header: 
  seq: 439966
  stamp: 
    secs: 1561681966
    nsecs: 734505369
  frame_id: "ti_mmwave"
point_id: 2
x: 0.029296875
y: -0.119140625
z: -0.005859375
range: 0.130730912089
velocity: 0.0
doppler_bin: 8
bearing: -76.1849746704
intensity: 30.2366390228
---
header: 
  seq: 439967
  stamp: 
    secs: 1561681966
    nsecs: 734513622
  frame_id: "ti_mmwave"
point_id: 3
x: 0.056640625
y: -0.154296875
z: 0.005859375
range: 0.174307882786
velocity: 0.0
doppler_bin: 8
bearing: -69.8423843384
intensity: 25.490032196
---
header: 
  seq: 439968
  stamp: 
    secs: 1561681966
    nsecs: 734521774
  frame_id: "ti_mmwave"
point_id: 4
x: 0.306640625
y: -0.080078125
z: -1.228515625
range: 1.35088610649
velocity: 0.0
doppler_bin: 8
bearing: -14.6357278824
intensity: 21.8469142914
---
header: 
  seq: 439969
  stamp: 
    secs: 1561681966
    nsecs: 734530698
  frame_id: "ti_mmwave"
point_id: 5
x: 0.3359375
y: -0.041015625
z: 1.263671875
range: 1.39446306229
velocity: 0.0
doppler_bin: 8
bearing: -6.96096277237
intensity: 23.2014636993
---
header: 
  seq: 439970
  stamp: 
    secs: 1561681966
    nsecs: 734539605
  frame_id: "ti_mmwave"
point_id: 6
x: 0.494140625
y: -0.04296875
z: 1.255859375
range: 1.43804001808
velocity: 0.0
doppler_bin: 8
bearing: -4.96974086761
intensity: 21.8469142914
---
header: 
  seq: 439971
  stamp: 
    secs: 1561681966
    nsecs: 734549323
  frame_id: "ti_mmwave"
point_id: 7
x: 1.90625
y: 1.015625
z: -0.19140625
range: 2.30957937241
velocity: 0.0
doppler_bin: 8
bearing: 28.0481071472
intensity: 27.1432971954
---
header: 
  seq: 439972
  stamp: 
    secs: 1561681966
    nsecs: 734557168
  frame_id: "ti_mmwave"
point_id: 8
x: 1.90234375
y: 1.103515625
z: -0.1953125
range: 2.3531563282
velocity: 0.0
doppler_bin: 8
bearing: 30.1172542572
intensity: 26.570558548
---
header: 
  seq: 439973
  stamp: 
    secs: 1561681966
    nsecs: 734713956
  frame_id: "ti_mmwave"
point_id: 9
x: 2.54296875
y: -0.263671875
z: 1.1953125
range: 3.00681090355
velocity: 0.0
doppler_bin: 8
bearing: -5.91965341568
intensity: 29.4743366241
---
header: 
  seq: 439974
  stamp: 
    secs: 1561681966
    nsecs: 734731918
  frame_id: "ti_mmwave"
point_id: 10
x: 2.603515625
y: -0.267578125
z: 1.162109375
range: 3.05038785934
velocity: 0.0
doppler_bin: 8
bearing: -5.8680100441
intensity: 32.7392692566
---
header: 
  seq: 439975
  stamp: 
    secs: 1561681966
    nsecs: 734740161
  frame_id: "ti_mmwave"
point_id: 11
x: 2.658203125
y: -0.181640625
z: 1.154296875
range: 3.09396481514
velocity: 0.0
doppler_bin: 8
bearing: -3.90906453133
intensity: 32.0384864807
---
header: 
  seq: 439976
  stamp: 
    secs: 1561681966
    nsecs: 734748389
  frame_id: "ti_mmwave"
point_id: 12
x: 4.4140625
y: -0.287109375
z: 1.1953125
range: 4.88062095642
velocity: 0.0
doppler_bin: 8
bearing: -3.72151875496
intensity: 30.7151374817
---
header: 
  seq: 439977
  stamp: 
    secs: 1561681966
    nsecs: 734756122
  frame_id: "ti_mmwave"
point_id: 13
x: 4.466796875
y: -0.2890625
z: 1.150390625
range: 4.9241976738
velocity: 0.0
doppler_bin: 8
bearing: -3.70265316963
intensity: 30.3542976379
---
header: 
  seq: 439978
  stamp: 
    secs: 1561681966
    nsecs: 734764092
  frame_id: "ti_mmwave"
point_id: 14
x: 4.73828125
y: -0.44921875
z: -0.498046875
range: 5.09850549698
velocity: 0.0
doppler_bin: 8
bearing: -5.4158115387
intensity: 33.0920410156
---
header: 
  seq: 439979
  stamp: 
    secs: 1561681966
    nsecs: 734773103
  frame_id: "ti_mmwave"
point_id: 15
x: 4.787109375
y: -0.453125
z: -0.431640625
range: 5.14208269119
velocity: 0.0
doppler_bin: 8
bearing: -5.40723514557
intensity: 33.7383117676
---
header: 
  seq: 439980
  stamp: 
    secs: 1561681966
    nsecs: 734782519
  frame_id: "ti_mmwave"
point_id: 16
x: 4.83984375
y: -0.45703125
z: -0.26171875
range: 5.18565940857
velocity: 0.0
doppler_bin: 8
bearing: -5.39450025558
intensity: 30.4727478027
---
header: 
  seq: 439981
  stamp: 
    secs: 1561681966
    nsecs: 734789977
  frame_id: "ti_mmwave"
point_id: 17
x: 4.865234375
y: -0.30859375
z: 0.853515625
range: 5.27281332016
velocity: 0.0
doppler_bin: 8
bearing: -3.62931442261
intensity: 30.6107540131
---
header: 
  seq: 439982
  stamp: 
    secs: 1561681966
    nsecs: 734798061
  frame_id: "ti_mmwave"
point_id: 18
x: 1.90625
y: 1.1953125
z: -0.00390625
range: 2.396733284
velocity: 0.614668667316
doppler_bin: 9
bearing: 32.0897331238
intensity: 25.2244415283
---
header: 
  seq: 439983
  stamp: 
    secs: 1561681966
    nsecs: 734806543
  frame_id: "ti_mmwave"
point_id: 20
x: 0.041015625
y: -0.033203125
z: 0.0625
range: 0.0871539413929
velocity: 0.0
doppler_bin: 8
bearing: -38.9909973145
intensity: 30.1072387695
---
header: 
  seq: 439984
  stamp: 
    secs: 1561681966
    nsecs: 734873973
  frame_id: "ti_mmwave"
point_id: 21
x: 0.052734375
y: -0.04296875
z: 0.1015625
range: 0.130730912089
velocity: 0.0
doppler_bin: 8
bearing: -39.1736602783
intensity: 28.9872512817
---
header: 
  seq: 439985
  stamp: 
    secs: 1561681966
    nsecs: 734885298
  frame_id: "ti_mmwave"
point_id: 23
x: 1.12109375
y: -0.515625
z: 0.294921875
range: 1.35088610649
velocity: 0.0
doppler_bin: 8
bearing: -24.6991329193
intensity: 18.9762706757
---
header: 
  seq: 439986
  stamp: 
    secs: 1561681966
    nsecs: 734893899
  frame_id: "ti_mmwave"
point_id: 24
x: 2.7734375
y: -2.00390625
z: -3.046875
range: 4.88062095642
velocity: 0.0
doppler_bin: 8
bearing: -35.8494377136
intensity: 27.7959651947
---
header: 
  seq: 439987
  stamp: 
    secs: 1561681966
    nsecs: 735862956
  frame_id: "ti_mmwave"
point_id: 0
x: 0.01171875
y: -0.0390625
z: -0.0078125
range: 0.0435769706964
velocity: 0.0
doppler_bin: 8
bearing: -73.3007583618
intensity: 30.7481651306
---
header: 
  seq: 439988
  stamp: 
    secs: 1561681966
    nsecs: 735914872
  frame_id: "ti_mmwave"
point_id: 1
x: 0.017578125
y: -0.080078125
z: -0.0078125
range: 0.0871539413929
velocity: 0.0
doppler_bin: 8
bearing: -77.6192398071
intensity: 31.9783172607
---
header: 
  seq: 439989
  stamp: 
    secs: 1561681966
    nsecs: 735926097
  frame_id: "ti_mmwave"
point_id: 2
x: 0.029296875
y: -0.119140625
z: -0.005859375
range: 0.130730912089
velocity: 0.0
doppler_bin: 8
bearing: -76.1849746704
intensity: 30.2448558807
---
header: 
  seq: 439990
  stamp: 
    secs: 1561681966
    nsecs: 735936706
  frame_id: "ti_mmwave"
point_id: 3
x: 0.056640625
y: -0.154296875
z: 0.00390625
range: 0.174307882786
velocity: 0.0
doppler_bin: 8
bearing: -69.8423843384
intensity: 25.5144996643
---
header: 
  seq: 439991
  stamp: 
    secs: 1561681966
    nsecs: 735947414
  frame_id: "ti_mmwave"
point_id: 4
x: 0.349609375
y: -0.080078125
z: -1.216796875
range: 1.35088610649
velocity: 0.0
doppler_bin: 8
bearing: -12.9010734558
intensity: 21.9033164978
---
header: 
  seq: 439992
  stamp: 
    secs: 1561681966
    nsecs: 735956227
  frame_id: "ti_mmwave"
point_id: 5
x: 0.29296875
y: -0.041015625
z: 1.275390625
range: 1.39446306229
velocity: 0.0
doppler_bin: 8
bearing: -7.96961069107
intensity: 23.2633590698
---
header: 
  seq: 439993
  stamp: 
    secs: 1561681966
    nsecs: 735973368
  frame_id: "ti_mmwave"
point_id: 6
x: 0.45703125
y: -0.04296875
z: 1.26953125
range: 1.43804001808
velocity: 0.0
doppler_bin: 8
bearing: -5.37099504471
intensity: 21.9033164978
---
header: 
  seq: 439994
  stamp: 
    secs: 1561681966
    nsecs: 735981668
  frame_id: "ti_mmwave"
point_id: 7
x: 1.89453125
y: 1.103515625
z: -0.267578125
range: 2.3531563282
velocity: 0.0
doppler_bin: 8
bearing: 30.2196979523
intensity: 26.3848934174
---
header: 
  seq: 439995
  stamp: 
    secs: 1561681966
    nsecs: 736180633
  frame_id: "ti_mmwave"
point_id: 8
x: 2.55078125
y: -0.263671875
z: 1.177734375
range: 3.00681090355
velocity: 0.0
doppler_bin: 8
bearing: -5.90165042877
intensity: 29.4694328308
---
header: 
  seq: 439996
  stamp: 
    secs: 1561681966
    nsecs: 736249149
  frame_id: "ti_mmwave"
point_id: 9
x: 2.60546875
y: -0.267578125
z: 1.158203125
range: 3.05038785934
velocity: 0.0
doppler_bin: 8
bearing: -5.86364221573
intensity: 32.73695755
---
header: 
  seq: 439997
  stamp: 
    secs: 1561681966
    nsecs: 736268531
  frame_id: "ti_mmwave"
point_id: 10
x: 2.662109375
y: -0.181640625
z: 1.14453125
range: 3.09396481514
velocity: 0.0
doppler_bin: 8
bearing: -3.90334677696
intensity: 32.0248832703
---
header: 
  seq: 439998
  stamp: 
    secs: 1561681966
    nsecs: 736278460
  frame_id: "ti_mmwave"
point_id: 11
x: 4.4140625
y: -0.287109375
z: 1.1953125
range: 4.88062095642
velocity: 0.0
doppler_bin: 8
bearing: -3.72151875496
intensity: 30.7040729523
---
header: 
  seq: 439999
  stamp: 
    secs: 1561681966
    nsecs: 736339448
  frame_id: "ti_mmwave"
point_id: 12
x: 4.46484375
y: -0.2890625
z: 1.16015625
range: 4.9241976738
velocity: 0.0
doppler_bin: 8
bearing: -3.70426845551
intensity: 30.3382568359
---
header: 
  seq: 440000
  stamp: 
    secs: 1561681966
    nsecs: 736357925
  frame_id: "ti_mmwave"
point_id: 13
x: 4.73828125
y: -0.44921875
z: -0.505859375
range: 5.09850549698
velocity: 0.0
doppler_bin: 8
bearing: -5.4158115387
intensity: 33.0813751221
---
header: 
  seq: 440001
  stamp: 
    secs: 1561681966
    nsecs: 736414779
  frame_id: "ti_mmwave"
point_id: 14
x: 4.78515625
y: -0.453125
z: -0.43359375
range: 5.14208269119
velocity: 0.0
doppler_bin: 8
bearing: -5.40942907333
intensity: 33.7291183472
---
header: 
  seq: 440002
  stamp: 
    secs: 1561681966
    nsecs: 736445951
  frame_id: "ti_mmwave"
point_id: 15
x: 4.83984375
y: -0.45703125
z: -0.26953125
range: 5.18565940857
velocity: 0.0
doppler_bin: 8
bearing: -5.39450025558
intensity: 30.4999294281
---
header: 
  seq: 440003
  stamp: 
    secs: 1561681966
    nsecs: 736508435
  frame_id: "ti_mmwave"
point_id: 16
x: 4.869140625
y: -0.30859375
z: 0.830078125
range: 5.27281332016
velocity: 0.0
doppler_bin: 8
bearing: -3.62641048431
intensity: 30.5346260071
---
header: 
  seq: 440004
  stamp: 
    secs: 1561681966
    nsecs: 736531419
  frame_id: "ti_mmwave"
point_id: 18
x: 0.041015625
y: -0.033203125
z: 0.0625
range: 0.0871539413929
velocity: 0.0
doppler_bin: 8
bearing: -38.9909973145
intensity: 30.1072387695
---
header: 
  seq: 440005
  stamp: 
    secs: 1561681966
    nsecs: 736546305
  frame_id: "ti_mmwave"
point_id: 19
x: 0.052734375
y: -0.04296875
z: 0.1015625
range: 0.130730912089
velocity: 0.0
doppler_bin: 8
bearing: -39.1736602783
intensity: 28.9927310944
---
header: 
  seq: 440006
  stamp: 
    secs: 1561681966
    nsecs: 736638565
  frame_id: "ti_mmwave"
point_id: 21
x: 2.791015625
y: -2.00390625
z: -3.029296875
range: 4.88062095642
velocity: 0.0
doppler_bin: 8
bearing: -35.6777648926
intensity: 27.7959651947
---
header: 
  seq: 440007
  stamp: 
    secs: 1561681966
    nsecs: 794647054
  frame_id: "ti_mmwave"
point_id: 0
x: 0.01171875
y: -0.0390625
z: -0.0078125
range: 0.0435769706964
velocity: 0.0
doppler_bin: 8
bearing: -73.3007583618
intensity: 30.7371826172
---
header: 
  seq: 440008
  stamp: 
    secs: 1561681966
    nsecs: 794723483
  frame_id: "ti_mmwave"
point_id: 1
x: 0.017578125
y: -0.080078125
z: -0.0078125
range: 0.0871539413929
velocity: 0.0
doppler_bin: 8
bearing: -77.6192398071
intensity: 31.9728050232
---
header: 
  seq: 440009
  stamp: 
    secs: 1561681966
    nsecs: 794734931
  frame_id: "ti_mmwave"
point_id: 2
x: 0.041015625
y: -0.115234375
z: -0.0078125
range: 0.130730912089
velocity: 0.0
doppler_bin: 8
bearing: -70.4077224731
intensity: 30.2366390228
---
header: 
  seq: 440010
  stamp: 
    secs: 1561681966
    nsecs: 794743762
  frame_id: "ti_mmwave"
point_id: 3
x: 0.056640625
y: -0.154296875
z: 0.005859375
range: 0.174307882786
velocity: 0.0
doppler_bin: 8
bearing: -69.8423843384
intensity: 25.5022830963
---
header: 
  seq: 440011
  stamp: 
    secs: 1561681966
    nsecs: 794751607
  frame_id: "ti_mmwave"
point_id: 4
x: 0.32421875
y: -0.080078125
z: -1.22265625
range: 1.35088610649
velocity: 0.0
doppler_bin: 8
bearing: -13.8737030029
intensity: 21.8184356689
---
header: 
  seq: 440012
  stamp: 
    secs: 1561681966
    nsecs: 794763050
  frame_id: "ti_mmwave"
point_id: 5
x: 0.32421875
y: -0.041015625
z: 1.267578125
range: 1.39446306229
velocity: 0.0
doppler_bin: 8
bearing: -7.20996236801
intensity: 23.2014636993
---
header: 
  seq: 440013
  stamp: 
    secs: 1561681966
    nsecs: 794771302
  frame_id: "ti_mmwave"
point_id: 6
x: 0.47265625
y: -0.04296875
z: 1.263671875
range: 1.43804001808
velocity: 0.0
doppler_bin: 8
bearing: -5.19442892075
intensity: 21.9033164978
---
header: 
  seq: 440014
  stamp: 
    secs: 1561681966
    nsecs: 794779300
  frame_id: "ti_mmwave"
point_id: 7
x: 2.546875
y: -0.263671875
z: 1.1875
range: 3.00681090355
velocity: 0.0
doppler_bin: 8
bearing: -5.91063833237
intensity: 29.4645233154
---
header: 
  seq: 440015
  stamp: 
    secs: 1561681966
    nsecs: 794788723
  frame_id: "ti_mmwave"
point_id: 8
x: 2.603515625
y: -0.267578125
z: 1.162109375
range: 3.05038785934
velocity: 0.0
doppler_bin: 8
bearing: -5.8680100441
intensity: 32.7600212097
---
header: 
  seq: 440016
  stamp: 
    secs: 1561681966
    nsecs: 794796883
  frame_id: "ti_mmwave"
point_id: 9
x: 2.65625
y: -0.181640625
z: 1.16015625
range: 3.09396481514
velocity: 0.0
doppler_bin: 8
bearing: -3.91193032265
intensity: 32.0384864807
---
header: 
  seq: 440017
  stamp: 
    secs: 1561681966
    nsecs: 794805146
  frame_id: "ti_mmwave"
point_id: 10
x: 4.41796875
y: -0.287109375
z: 1.177734375
range: 4.88062095642
velocity: 0.0
doppler_bin: 8
bearing: -3.71823716164
intensity: 30.6744289398
---
header: 
  seq: 440018
  stamp: 
    secs: 1561681966
    nsecs: 794812872
  frame_id: "ti_mmwave"
point_id: 11
x: 4.46875
y: -0.2890625
z: 1.1484375
range: 4.9241976738
velocity: 0.0
doppler_bin: 8
bearing: -3.70103907585
intensity: 30.310043335
---
header: 
  seq: 440019
  stamp: 
    secs: 1561681966
    nsecs: 794836343
  frame_id: "ti_mmwave"
point_id: 12
x: 4.736328125
y: -0.44921875
z: -0.513671875
range: 5.09850549698
velocity: 0.0
doppler_bin: 8
bearing: -5.41803121567
intensity: 33.0513648987
---
header: 
  seq: 440020
  stamp: 
    secs: 1561681966
    nsecs: 794846045
  frame_id: "ti_mmwave"
point_id: 13
x: 4.78515625
y: -0.453125
z: -0.451171875
range: 5.14208269119
velocity: 0.0
doppler_bin: 8
bearing: -5.40942907333
intensity: 33.7106781006
---
header: 
  seq: 440021
  stamp: 
    secs: 1561681966
    nsecs: 795019488
  frame_id: "ti_mmwave"
point_id: 14
x: 4.837890625
y: -0.45703125
z: -0.287109375
range: 5.18565940857
velocity: 0.0
doppler_bin: 8
bearing: -5.39666557312
intensity: 30.3981056213
---
header: 
  seq: 440022
  stamp: 
    secs: 1561681966
    nsecs: 795039411
  frame_id: "ti_mmwave"
point_id: 15
x: 4.833984375
y: -0.46484375
z: 0.9609375
range: 5.27281332016
velocity: 0.0
doppler_bin: 8
bearing: -5.49276590347
intensity: 30.5576038361
---
header: 
  seq: 440023
  stamp: 
    secs: 1561681966
    nsecs: 795051841
  frame_id: "ti_mmwave"
point_id: 17
x: 0.041015625
y: -0.033203125
z: 0.0625
range: 0.0871539413929
velocity: 0.0
doppler_bin: 8
bearing: -38.9909973145
intensity: 30.1029987335
---
header: 
  seq: 440024
  stamp: 
    secs: 1561681966
    nsecs: 795061836
  frame_id: "ti_mmwave"
point_id: 18
x: 0.052734375
y: -0.04296875
z: 0.1015625
range: 0.130730912089
velocity: 0.0
doppler_bin: 8
bearing: -39.1736602783
intensity: 28.9927310944
---
header: 
  seq: 440025
  stamp: 
    secs: 1561681966
    nsecs: 795072628
  frame_id: "ti_mmwave"
point_id: 20
x: 1.12109375
y: -0.515625
z: 0.296875
range: 1.35088610649
velocity: 0.0
doppler_bin: 8
bearing: -24.6991329193
intensity: 18.9209461212
---
header: 
  seq: 440026
  stamp: 
    secs: 1561681966
    nsecs: 795081280
  frame_id: "ti_mmwave"
point_id: 21
x: 2.775390625
y: -2.00390625
z: -3.044921875
range: 4.88062095642
velocity: 0.0
doppler_bin: 8
bearing: -35.830291748
intensity: 27.7524623871
---
header: 
  seq: 440027
  stamp: 
    secs: 1561681966
    nsecs: 796310620
  frame_id: "ti_mmwave"
point_id: 0
x: 0.01171875
y: -0.0390625
z: -0.0078125
range: 0.0435769706964
velocity: 0.0
doppler_bin: 8
bearing: -73.3007583618
intensity: 30.7481651306
---
header: 
  seq: 440028
  stamp: 
    secs: 1561681966
    nsecs: 796363712
  frame_id: "ti_mmwave"
point_id: 1
x: 0.017578125
y: -0.080078125
z: -0.0078125
range: 0.0871539413929
velocity: 0.0
doppler_bin: 8
bearing: -77.6192398071
intensity: 31.9755630493
---
header: 
  seq: 440029
  stamp: 
    secs: 1561681966
    nsecs: 796376111
  frame_id: "ti_mmwave"
point_id: 2
x: 0.029296875
y: -0.119140625
z: -0.005859375
range: 0.130730912089
velocity: 0.0
doppler_bin: 8
bearing: -76.1849746704
intensity: 30.2448558807
---
header: 
  seq: 440030
  stamp: 
    secs: 1561681966
    nsecs: 796384712
  frame_id: "ti_mmwave"
point_id: 3
x: 0.056640625
y: -0.154296875
z: 0.005859375
range: 0.174307882786
velocity: 0.0
doppler_bin: 8
bearing: -69.8423843384
intensity: 25.5022830963
---
header: 
  seq: 440031
  stamp: 
    secs: 1561681966
    nsecs: 796392807
  frame_id: "ti_mmwave"
point_id: 4
x: 0.29296875
y: -0.080078125
z: -1.23046875
range: 1.35088610649
velocity: 0.0
doppler_bin: 8
bearing: -15.2874355316
intensity: 21.8469142914
---
header: 
  seq: 440032
  stamp: 
    secs: 1561681966
    nsecs: 796400665
  frame_id: "ti_mmwave"
point_id: 5
x: 0.333984375
y: -0.041015625
z: 1.265625
range: 1.39446306229
velocity: 0.0
doppler_bin: 8
bearing: -7.00126743317
intensity: 23.1806335449
---
header: 
  seq: 440033
  stamp: 
    secs: 1561681966
    nsecs: 796409399
  frame_id: "ti_mmwave"
point_id: 6
x: 0.46875
y: -0.04296875
z: 1.265625
range: 1.43804001808
velocity: 0.0
doppler_bin: 8
bearing: -5.23747634888
intensity: 21.875207901
---
header: 
  seq: 440034
  stamp: 
    secs: 1561681966
    nsecs: 796418786
  frame_id: "ti_mmwave"
point_id: 7
x: 2.54296875
y: -0.263671875
z: 1.197265625
range: 3.00681090355
velocity: 0.0
doppler_bin: 8
bearing: -5.91965341568
intensity: 29.4645233154
---
header: 
  seq: 440035
  stamp: 
    secs: 1561681966
    nsecs: 796429192
  frame_id: "ti_mmwave"
point_id: 8
x: 2.6015625
y: -0.267578125
z: 1.16796875
range: 3.05038785934
velocity: 0.0
doppler_bin: 8
bearing: -5.87238502502
intensity: 32.7415771484
---
header: 
  seq: 440036
  stamp: 
    secs: 1561681966
    nsecs: 796586667
  frame_id: "ti_mmwave"
point_id: 9
x: 2.658203125
y: -0.181640625
z: 1.154296875
range: 3.09396481514
velocity: 0.0
doppler_bin: 8
bearing: -3.90906453133
intensity: 32.0085067749
---
header: 
  seq: 440037
  stamp: 
    secs: 1561681966
    nsecs: 796605824
  frame_id: "ti_mmwave"
point_id: 10
x: 4.41015625
y: -0.287109375
z: 1.2109375
range: 4.88062095642
velocity: 0.0
doppler_bin: 8
bearing: -3.72480559349
intensity: 30.7188205719
---
header: 
  seq: 440038
  stamp: 
    secs: 1561681966
    nsecs: 796614186
  frame_id: "ti_mmwave"
point_id: 11
x: 4.46484375
y: -0.2890625
z: 1.162109375
range: 4.9241976738
velocity: 0.0
doppler_bin: 8
bearing: -3.70426845551
intensity: 30.3542976379
---
header: 
  seq: 440039
  stamp: 
    secs: 1561681966
    nsecs: 796622266
  frame_id: "ti_mmwave"
point_id: 12
x: 4.740234375
y: -0.44921875
z: -0.494140625
range: 5.09850549698
velocity: 0.0
doppler_bin: 8
bearing: -5.41359329224
intensity: 33.0427513123
---
header: 
  seq: 440040
  stamp: 
    secs: 1561681966
    nsecs: 796630326
  frame_id: "ti_mmwave"
point_id: 13
x: 4.787109375
y: -0.453125
z: -0.419921875
range: 5.14208269119
velocity: 0.0
doppler_bin: 8
bearing: -5.40723514557
intensity: 33.6679649353
---
header: 
  seq: 440041
  stamp: 
    secs: 1561681966
    nsecs: 796638326
  frame_id: "ti_mmwave"
point_id: 14
x: 4.83984375
y: -0.45703125
z: -0.259765625
range: 5.18565940857
velocity: 0.0
doppler_bin: 8
bearing: -5.39450025558
intensity: 30.3981056213
---
header: 
  seq: 440042
  stamp: 
    secs: 1561681966
    nsecs: 796646442
  frame_id: "ti_mmwave"
point_id: 15
x: 4.880859375
y: -0.30859375
z: 0.767578125
range: 5.27281332016
velocity: 0.0
doppler_bin: 8
bearing: -3.61772704124
intensity: 30.4649524689
---
header: 
  seq: 440043
  stamp: 
    secs: 1561681966
    nsecs: 796727545
  frame_id: "ti_mmwave"
point_id: 17
x: 0.041015625
y: -0.033203125
z: 0.0625
range: 0.0871539413929
velocity: 0.0
doppler_bin: 8
bearing: -38.9909973145
intensity: 30.1114730835
---
header: 
  seq: 440044
  stamp: 
    secs: 1561681966
    nsecs: 796745455
  frame_id: "ti_mmwave"
point_id: 18
x: 0.052734375
y: -0.04296875
z: 0.103515625
range: 0.130730912089
velocity: 0.0
doppler_bin: 8
bearing: -39.1736602783
intensity: 29.0036716461
---
header: 
  seq: 440045
  stamp: 
    secs: 1561681966
    nsecs: 796761571
  frame_id: "ti_mmwave"
point_id: 20
x: 1.1171875
y: -0.515625
z: 0.310546875
range: 1.35088610649
velocity: 0.0
doppler_bin: 8
bearing: -24.7751407623
intensity: 18.9762706757
---
header: 
  seq: 440046
  stamp: 
    secs: 1561681966
    nsecs: 796772816
  frame_id: "ti_mmwave"
point_id: 21
x: 2.78515625
y: -2.00390625
z: -3.03515625
range: 4.88062095642
velocity: 0.0
doppler_bin: 8
bearing: -35.7348327637
intensity: 27.7959651947
---
header: 
  seq: 440047
  stamp: 
    secs: 1561681966
    nsecs: 796785425
  frame_id: "ti_mmwave"
point_id: 22
x: 2.669921875
y: -2.021484375
z: -3.185546875
range: 4.9241976738
velocity: 0.0
doppler_bin: 8
bearing: -37.1305427551
intensity: 27.3798732758
---
header: 
  seq: 440048
  stamp: 
    secs: 1561681966
    nsecs: 854406013
  frame_id: "ti_mmwave"
point_id: 0
x: 0.01171875
y: -0.0390625
z: -0.0078125
range: 0.0435769706964
velocity: 0.0
doppler_bin: 8
bearing: -73.3007583618
intensity: 30.7445068359
---
header: 
  seq: 440049
  stamp: 
    secs: 1561681966
    nsecs: 854484915
  frame_id: "ti_mmwave"
point_id: 1
x: 0.017578125
y: -0.080078125
z: -0.0078125
range: 0.0871539413929
velocity: 0.0
doppler_bin: 8
bearing: -77.6192398071
intensity: 31.9755630493
---
header: 
  seq: 440050
  stamp: 
    secs: 1561681966
    nsecs: 854498312
  frame_id: "ti_mmwave"
point_id: 2
x: 0.029296875
y: -0.119140625
z: -0.005859375
range: 0.130730912089
velocity: 0.0
doppler_bin: 8
bearing: -76.1849746704
intensity: 30.2448558807
---
header: 
  seq: 440051
  stamp: 
    secs: 1561681966
    nsecs: 854506994
  frame_id: "ti_mmwave"
point_id: 3
x: 0.056640625
y: -0.154296875
z: 0.005859375
range: 0.174307882786
velocity: 0.0
doppler_bin: 8
bearing: -69.8423843384
intensity: 25.5144996643
---
header: 
  seq: 440052
  stamp: 
    secs: 1561681966
    nsecs: 854516002
  frame_id: "ti_mmwave"
point_id: 4
x: 0.349609375
y: -0.080078125
z: -1.216796875
range: 1.35088610649
velocity: 0.0
doppler_bin: 8
bearing: -12.9010734558
intensity: 21.8184356689
---
header: 
  seq: 440053
  stamp: 
    secs: 1561681966
    nsecs: 854524522
  frame_id: "ti_mmwave"
point_id: 5
x: 0.291015625
y: -0.041015625
z: 1.275390625
range: 1.39446306229
velocity: 0.0
doppler_bin: 8
bearing: -8.02240371704
intensity: 23.2221927643
---
header: 
  seq: 440054
  stamp: 
    secs: 1561681966
    nsecs: 854533224
  frame_id: "ti_mmwave"
point_id: 6
x: 0.375
y: -0.0
z: 1.296875
range: 1.43804001808
velocity: 0.0
doppler_bin: 8
bearing: -0.0
intensity: 21.9033164978
---
header: 
  seq: 440055
  stamp: 
    secs: 1561681966
    nsecs: 854542192
  frame_id: "ti_mmwave"
point_id: 7
x: 2.546875
y: -0.263671875
z: 1.189453125
range: 3.00681090355
velocity: 0.0
doppler_bin: 8
bearing: -5.91063833237
intensity: 29.4349460602
---
header: 
  seq: 440056
  stamp: 
    secs: 1561681966
    nsecs: 854552413
  frame_id: "ti_mmwave"
point_id: 8
x: 2.603515625
y: -0.267578125
z: 1.16015625
range: 3.05038785934
velocity: 0.0
doppler_bin: 8
bearing: -5.8680100441
intensity: 32.743888855
---
header: 
  seq: 440057
  stamp: 
    secs: 1561681966
    nsecs: 854560292
  frame_id: "ti_mmwave"
point_id: 9
x: 2.658203125
y: -0.181640625
z: 1.154296875
range: 3.09396481514
velocity: 0.0
doppler_bin: 8
bearing: -3.90906453133
intensity: 32.0330505371
---
header: 
  seq: 440058
  stamp: 
    secs: 1561681966
    nsecs: 854568073
  frame_id: "ti_mmwave"
point_id: 10
x: 4.4140625
y: -0.287109375
z: 1.1953125
range: 4.88062095642
velocity: 0.0
doppler_bin: 8
bearing: -3.72151875496
intensity: 30.6855697632
---
header: 
  seq: 440059
  stamp: 
    secs: 1561681966
    nsecs: 854575584
  frame_id: "ti_mmwave"
point_id: 11
x: 4.462890625
y: -0.2890625
z: 1.169921875
range: 4.9241976738
velocity: 0.0
doppler_bin: 8
bearing: -3.70588517189
intensity: 30.3382568359
---
header: 
  seq: 440060
  stamp: 
    secs: 1561681966
    nsecs: 854601643
  frame_id: "ti_mmwave"
point_id: 12
x: 4.73828125
y: -0.44921875
z: -0.49609375
range: 5.09850549698
velocity: 0.0
doppler_bin: 8
bearing: -5.4158115387
intensity: 33.1196556091
---
header: 
  seq: 440061
  stamp: 
    secs: 1561681966
    nsecs: 854625217
  frame_id: "ti_mmwave"
point_id: 13
x: 4.787109375
y: -0.453125
z: -0.423828125
range: 5.14208269119
velocity: 0.0
doppler_bin: 8
bearing: -5.40723514557
intensity: 33.7566375732
---
header: 
  seq: 440062
  stamp: 
    secs: 1561681966
    nsecs: 854639905
  frame_id: "ti_mmwave"
point_id: 14
x: 4.837890625
y: -0.45703125
z: -0.271484375
range: 5.18565940857
velocity: 0.0
doppler_bin: 8
bearing: -5.39666557312
intensity: 30.5384635925
---
header: 
  seq: 440063
  stamp: 
    secs: 1561681966
    nsecs: 854656876
  frame_id: "ti_mmwave"
point_id: 15
x: 4.88671875
y: -0.30859375
z: 0.720703125
range: 5.27281332016
velocity: 0.0
doppler_bin: 8
bearing: -3.61340069771
intensity: 30.4099769592
---
header: 
  seq: 440064
  stamp: 
    secs: 1561681966
    nsecs: 854674526
  frame_id: "ti_mmwave"
point_id: 17
x: 0.041015625
y: -0.033203125
z: 0.0625
range: 0.0871539413929
velocity: 0.0
doppler_bin: 8
bearing: -38.9909973145
intensity: 30.1114730835
---
header: 
  seq: 440065
  stamp: 
    secs: 1561681966
    nsecs: 854688467
  frame_id: "ti_mmwave"
point_id: 18
x: 0.052734375
y: -0.04296875
z: 0.103515625
range: 0.130730912089
velocity: 0.0
doppler_bin: 8
bearing: -39.1736602783
intensity: 28.9982051849
---
header: 
  seq: 440066
  stamp: 
    secs: 1561681966
    nsecs: 854710081
  frame_id: "ti_mmwave"
point_id: 20
x: 1.119140625
y: -0.515625
z: 0.298828125
range: 1.35088610649
velocity: 0.0
doppler_bin: 8
bearing: -24.7370834351
intensity: 18.9762706757
---
header: 
  seq: 440067
  stamp: 
    secs: 1561681966
    nsecs: 854725964
  frame_id: "ti_mmwave"
point_id: 21
x: 2.76953125
y: -2.00390625
z: -3.048828125
range: 4.88062095642
velocity: 0.0
doppler_bin: 8
bearing: -35.8877792358
intensity: 27.7959651947
---
header: 
  seq: 440068
  stamp: 
    secs: 1561681966
    nsecs: 854742638
  frame_id: "ti_mmwave"
point_id: 22
x: 2.609375
y: -2.021484375
z: -3.236328125
range: 4.9241976738
velocity: 0.0
doppler_bin: 8
bearing: -37.7649612427
intensity: 27.3399925232
---
header: 
  seq: 440069
  stamp: 
    secs: 1561681966
    nsecs: 856053741
  frame_id: "ti_mmwave"
point_id: 0
x: 0.01171875
y: -0.0390625
z: -0.0078125
range: 0.0435769706964
velocity: 0.0
doppler_bin: 8
bearing: -73.3007583618
intensity: 30.7518177032
---
header: 
  seq: 440070
  stamp: 
    secs: 1561681966
    nsecs: 856120786
  frame_id: "ti_mmwave"
point_id: 1
x: 0.017578125
y: -0.080078125
z: -0.0078125
range: 0.0871539413929
velocity: 0.0
doppler_bin: 8
bearing: -77.6192398071
intensity: 31.9783172607
---
header: 
  seq: 440071
  stamp: 
    secs: 1561681966
    nsecs: 856143896
  frame_id: "ti_mmwave"
point_id: 2
x: 0.029296875
y: -0.119140625
z: -0.005859375
range: 0.130730912089
velocity: 0.0
doppler_bin: 8
bearing: -76.1849746704
intensity: 30.2448558807
---
header: 
  seq: 440072
  stamp: 
    secs: 1561681966
    nsecs: 856171400
  frame_id: "ti_mmwave"
point_id: 3
x: 0.056640625
y: -0.154296875
z: 0.005859375
range: 0.174307882786
velocity: 0.0
doppler_bin: 8
bearing: -69.8423843384
intensity: 25.5022830963
---
header: 
  seq: 440073
  stamp: 
    secs: 1561681966
    nsecs: 856247656
  frame_id: "ti_mmwave"
point_id: 4
x: 0.3359375
y: -0.080078125
z: -1.220703125
range: 1.35088610649
velocity: 0.0
doppler_bin: 8
bearing: -13.4075088501
intensity: 21.875207901
---
header: 
  seq: 440074
  stamp: 
    secs: 1561681966
    nsecs: 856268016
  frame_id: "ti_mmwave"
point_id: 5
x: 0.318359375
y: -0.041015625
z: 1.26953125
range: 1.39446306229
velocity: 0.0
doppler_bin: 8
bearing: -7.34122562408
intensity: 23.2221927643
---
header: 
  seq: 440075
  stamp: 
    secs: 1561681966
    nsecs: 856280395
  frame_id: "ti_mmwave"
point_id: 6
x: 0.451171875
y: -0.0
z: 1.271484375
range: 1.43804001808
velocity: 0.0
doppler_bin: 8
bearing: -0.0
intensity: 21.875207901
---
header: 
  seq: 440076
  stamp: 
    secs: 1561681966
    nsecs: 856292205
  frame_id: "ti_mmwave"
point_id: 7
x: 2.548828125
y: -0.263671875
z: 1.181640625
range: 3.00681090355
velocity: 0.0
doppler_bin: 8
bearing: -5.90614128113
intensity: 29.4596061707
---
header: 
  seq: 440077
  stamp: 
    secs: 1561681966
    nsecs: 856309384
  frame_id: "ti_mmwave"
point_id: 8
x: 2.60546875
y: -0.267578125
z: 1.15625
range: 3.05038785934
velocity: 0.0
doppler_bin: 8
bearing: -5.86364221573
intensity: 32.7392692566
---
header: 
  seq: 440078
  stamp: 
    secs: 1561681966
    nsecs: 856368614
  frame_id: "ti_mmwave"
point_id: 9
x: 2.662109375
y: -0.181640625
z: 1.14453125
range: 3.09396481514
velocity: 0.0
doppler_bin: 8
bearing: -3.90334677696
intensity: 32.0276069641
---
header: 
  seq: 440079
  stamp: 
    secs: 1561681966
    nsecs: 856386246
  frame_id: "ti_mmwave"
point_id: 10
x: 4.4140625
y: -0.287109375
z: 1.19140625
range: 4.88062095642
velocity: 0.0
doppler_bin: 8
bearing: -3.72151875496
intensity: 30.7224998474
---
header: 
  seq: 440080
  stamp: 
    secs: 1561681966
    nsecs: 856399022
  frame_id: "ti_mmwave"
point_id: 11
x: 4.466796875
y: -0.2890625
z: 1.15625
range: 4.9241976738
velocity: 0.0
doppler_bin: 8
bearing: -3.70265316963
intensity: 30.3382568359
---
header: 
  seq: 440081
  stamp: 
    secs: 1561681966
    nsecs: 856412709
  frame_id: "ti_mmwave"
point_id: 12
x: 4.73828125
y: -0.44921875
z: -0.505859375
range: 5.09850549698
velocity: 0.0
doppler_bin: 8
bearing: -5.4158115387
intensity: 33.0877761841
---
header: 
  seq: 440082
  stamp: 
    secs: 1561681966
    nsecs: 856425938
  frame_id: "ti_mmwave"
point_id: 13
x: 4.78515625
y: -0.453125
z: -0.439453125
range: 5.14208269119
velocity: 0.0
doppler_bin: 8
bearing: -5.40942907333
intensity: 33.7438163757
---
header: 
  seq: 440083
  stamp: 
    secs: 1561681966
    nsecs: 856439577
  frame_id: "ti_mmwave"
point_id: 14
x: 4.837890625
y: -0.45703125
z: -0.302734375
range: 5.18565940857
velocity: 0.0
doppler_bin: 8
bearing: -5.39666557312
intensity: 30.5115261078
---
header: 
  seq: 440084
  stamp: 
    secs: 1561681966
    nsecs: 856454526
  frame_id: "ti_mmwave"
point_id: 15
x: 4.84375
y: -0.46484375
z: 0.90234375
range: 5.27281332016
velocity: 0.0
doppler_bin: 8
bearing: -5.48175907135
intensity: 30.4883003235
---
header: 
  seq: 440085
  stamp: 
    secs: 1561681966
    nsecs: 856467264
  frame_id: "ti_mmwave"
point_id: 17
x: 0.041015625
y: -0.033203125
z: 0.0625
range: 0.0871539413929
velocity: 0.0
doppler_bin: 8
bearing: -38.9909973145
intensity: 30.1072387695
---
header: 
  seq: 440086
  stamp: 
    secs: 1561681966
    nsecs: 856524759
  frame_id: "ti_mmwave"
point_id: 18
x: 0.052734375
y: -0.04296875
z: 0.1015625
range: 0.130730912089
velocity: 0.0
doppler_bin: 8
bearing: -39.1736602783
intensity: 28.9927310944
---
header: 
  seq: 440087
  stamp: 
    secs: 1561681966
    nsecs: 856547150
  frame_id: "ti_mmwave"
point_id: 20
x: 1.12109375
y: -0.515625
z: 0.296875
range: 1.35088610649
velocity: 0.0
doppler_bin: 8
bearing: -24.6991329193
intensity: 18.9209461212
---
header: 
  seq: 440088
  stamp: 
    secs: 1561681966
    nsecs: 856561777
  frame_id: "ti_mmwave"
point_id: 21
x: 2.7421875
y: -2.00390625
z: -3.07421875
range: 4.88062095642
velocity: 0.0
doppler_bin: 8
bearing: -36.1581840515
intensity: 27.8247261047
---
header: 
  seq: 440089
  stamp: 
    secs: 1561681966
    nsecs: 856573868
  frame_id: "ti_mmwave"
point_id: 22
x: 2.5859375
y: -2.021484375
z: -3.25390625
range: 4.9241976738
velocity: 0.0
doppler_bin: 8
bearing: -38.0155258179
intensity: 27.3559894562
---
header: 
  seq: 440090
  stamp: 
    secs: 1561681966
    nsecs: 914426567
  frame_id: "ti_mmwave"
point_id: 0
x: 0.01171875
y: -0.0390625
z: -0.0078125
range: 0.0435769706964
velocity: 0.0
doppler_bin: 8
bearing: -73.3007583618
intensity: 30.7445068359
---
header: 
  seq: 440091
  stamp: 
    secs: 1561681966
    nsecs: 914498473
  frame_id: "ti_mmwave"
point_id: 1
x: 0.017578125
y: -0.080078125
z: -0.0078125
range: 0.0871539413929
velocity: 0.0
doppler_bin: 8
bearing: -77.6192398071
intensity: 31.9755630493
---
header: 
  seq: 440092
  stamp: 
    secs: 1561681966
    nsecs: 914510015
  frame_id: "ti_mmwave"
point_id: 2
x: 0.041015625
y: -0.115234375
z: -0.0078125
range: 0.130730912089
velocity: 0.0
doppler_bin: 8
bearing: -70.4077224731
intensity: 30.2407493591
---
header: 
  seq: 440093
  stamp: 
    secs: 1561681966
    nsecs: 914518563
  frame_id: "ti_mmwave"
point_id: 3
x: 0.056640625
y: -0.154296875
z: 0.00390625
range: 0.174307882786
velocity: 0.0
doppler_bin: 8
bearing: -69.8423843384
intensity: 25.5144996643
---
header: 
  seq: 440094
  stamp: 
    secs: 1561681966
    nsecs: 914531199
  frame_id: "ti_mmwave"
point_id: 4
x: 0.341796875
y: -0.080078125
z: -1.21875
range: 1.35088610649
velocity: 0.0
doppler_bin: 8
bearing: -13.1857614517
intensity: 21.8469142914
---
header: 
  seq: 440095
  stamp: 
    secs: 1561681966
    nsecs: 914539890
  frame_id: "ti_mmwave"
point_id: 5
x: 0.3125
y: -0.041015625
z: 1.26953125
range: 1.39446306229
velocity: 0.0
doppler_bin: 8
bearing: -7.47732973099
intensity: 23.2221927643
---
header: 
  seq: 440096
  stamp: 
    secs: 1561681966
    nsecs: 914548082
  frame_id: "ti_mmwave"
point_id: 6
x: 0.4765625
y: -0.04296875
z: 1.26171875
range: 1.43804001808
velocity: 0.0
doppler_bin: 8
bearing: -5.15208148956
intensity: 21.9033164978
---
header: 
  seq: 440097
  stamp: 
    secs: 1561681966
    nsecs: 914560666
  frame_id: "ti_mmwave"
point_id: 7
x: 2.55078125
y: -0.263671875
z: 1.1796875
range: 3.00681090355
velocity: 0.0
doppler_bin: 8
bearing: -5.90165042877
intensity: 29.4596061707
---
header: 
  seq: 440098
  stamp: 
    secs: 1561681966
    nsecs: 914709878
  frame_id: "ti_mmwave"
point_id: 8
x: 2.60546875
y: -0.267578125
z: 1.158203125
range: 3.05038785934
velocity: 0.0
doppler_bin: 8
bearing: -5.86364221573
intensity: 32.7508087158
---
header: 
  seq: 440099
  stamp: 
    secs: 1561681966
    nsecs: 914728598
  frame_id: "ti_mmwave"
point_id: 9
x: 2.66015625
y: -0.181640625
z: 1.150390625
range: 3.09396481514
velocity: 0.0
doppler_bin: 8
bearing: -3.90620398521
intensity: 32.030330658
---
header: 
  seq: 440100
  stamp: 
    secs: 1561681966
    nsecs: 914736999
  frame_id: "ti_mmwave"
point_id: 10
x: 4.41796875
y: -0.287109375
z: 1.177734375
range: 4.88062095642
velocity: 0.0
doppler_bin: 8
bearing: -3.71823716164
intensity: 30.700378418
---
header: 
  seq: 440101
  stamp: 
    secs: 1561681966
    nsecs: 914742448
  frame_id: "ti_mmwave"
point_id: 11
x: 4.470703125
y: -0.2890625
z: 1.142578125
range: 4.9241976738
velocity: 0.0
doppler_bin: 8
bearing: -3.69942688942
intensity: 30.3221569061
---
header: 
  seq: 440102
  stamp: 
    secs: 1561681966
    nsecs: 914771257
  frame_id: "ti_mmwave"
point_id: 12
x: 4.7421875
y: -0.44921875
z: -0.474609375
range: 5.09850549698
velocity: 0.0
doppler_bin: 8
bearing: -5.41137647629
intensity: 33.0384368896
---
header: 
  seq: 440103
  stamp: 
    secs: 1561681966
    nsecs: 914780152
  frame_id: "ti_mmwave"
point_id: 13
x: 4.791015625
y: -0.453125
z: -0.376953125
range: 5.14208269119
velocity: 0.0
doppler_bin: 8
bearing: -5.40285253525
intensity: 33.6772842407
---
header: 
  seq: 440104
  stamp: 
    secs: 1561681966
    nsecs: 914849453
  frame_id: "ti_mmwave"
point_id: 14
x: 4.845703125
y: -0.45703125
z: -0.09375
range: 5.18565940857
velocity: 0.0
doppler_bin: 8
bearing: -5.38801622391
intensity: 30.3302135468
---
header: 
  seq: 440105
  stamp: 
    secs: 1561681966
    nsecs: 914859186
  frame_id: "ti_mmwave"
point_id: 15
x: 4.837890625
y: -0.46484375
z: 0.9375
range: 5.27281332016
velocity: 0.0
doppler_bin: 8
bearing: -5.48835754395
intensity: 30.6145248413
---
header: 
  seq: 440106
  stamp: 
    secs: 1561681966
    nsecs: 914869306
  frame_id: "ti_mmwave"
point_id: 17
x: 0.041015625
y: -0.033203125
z: 0.0625
range: 0.0871539413929
velocity: 0.0
doppler_bin: 8
bearing: -38.9909973145
intensity: 30.1072387695
---
header: 
  seq: 440107
  stamp: 
    secs: 1561681966
    nsecs: 914877679
  frame_id: "ti_mmwave"
point_id: 18
x: 0.052734375
y: -0.04296875
z: 0.103515625
range: 0.130730912089
velocity: 0.0
doppler_bin: 8
bearing: -39.1736602783
intensity: 28.9927310944
---
header: 
  seq: 440108
  stamp: 
    secs: 1561681966
    nsecs: 914884936
  frame_id: "ti_mmwave"
point_id: 20
x: 2.767578125
y: -2.00390625
z: -3.052734375
range: 4.88062095642
velocity: 0.0
doppler_bin: 8
bearing: -35.9069824219
intensity: 27.7959651947
---
header: 
  seq: 440109
  stamp: 
    secs: 1561681966
    nsecs: 914902758
  frame_id: "ti_mmwave"
point_id: 21
x: 2.6328125
y: -2.021484375
z: -3.216796875
range: 4.9241976738
velocity: 0.0
doppler_bin: 8
bearing: -37.5172042847
intensity: 27.3399925232
---
header: 
  seq: 440110
  stamp: 
    secs: 1561681966
    nsecs: 915769565
  frame_id: "ti_mmwave"
point_id: 0
x: 0.01171875
y: -0.0390625
z: -0.0078125
range: 0.0435769706964
velocity: 0.0
doppler_bin: 8
bearing: -73.3007583618
intensity: 30.7408466339
---
header: 
  seq: 440111
  stamp: 
    secs: 1561681966
    nsecs: 915829310
  frame_id: "ti_mmwave"
point_id: 1
x: 0.017578125
y: -0.080078125
z: -0.0078125
range: 0.0871539413929
velocity: 0.0
doppler_bin: 8
bearing: -77.6192398071
intensity: 31.9728050232
---
header: 
  seq: 440112
  stamp: 
    secs: 1561681966
    nsecs: 915846595
  frame_id: "ti_mmwave"
point_id: 2
x: 0.029296875
y: -0.119140625
z: -0.005859375
range: 0.130730912089
velocity: 0.0
doppler_bin: 8
bearing: -76.1849746704
intensity: 30.2407493591
---
header: 
  seq: 440113
  stamp: 
    secs: 1561681966
    nsecs: 915859019
  frame_id: "ti_mmwave"
point_id: 3
x: 0.056640625
y: -0.154296875
z: 0.005859375
range: 0.174307882786
velocity: 0.0
doppler_bin: 8
bearing: -69.8423843384
intensity: 25.5022830963
---
header: 
  seq: 440114
  stamp: 
    secs: 1561681966
    nsecs: 915920791
  frame_id: "ti_mmwave"
point_id: 4
x: 0.326171875
y: -0.080078125
z: -1.22265625
range: 1.35088610649
velocity: 0.0
doppler_bin: 8
bearing: -13.7938089371
intensity: 21.875207901
---
header: 
  seq: 440115
  stamp: 
    secs: 1561681966
    nsecs: 915936067
  frame_id: "ti_mmwave"
point_id: 5
x: 0.33203125
y: -0.041015625
z: 1.265625
range: 1.39446306229
velocity: 0.0
doppler_bin: 8
bearing: -7.04203891754
intensity: 23.2428245544
---
header: 
  seq: 440116
  stamp: 
    secs: 1561681966
    nsecs: 915947931
  frame_id: "ti_mmwave"
point_id: 6
x: 0.455078125
y: -0.0
z: 1.271484375
range: 1.43804001808
velocity: 0.0
doppler_bin: 8
bearing: -0.0
intensity: 21.9312458038
---
header: 
  seq: 440117
  stamp: 
    secs: 1561681966
    nsecs: 915962423
  frame_id: "ti_mmwave"
point_id: 7
x: 2.5546875
y: -0.263671875
z: 1.16796875
range: 3.00681090355
velocity: 0.0
doppler_bin: 8
bearing: -5.89269018173
intensity: 29.4398880005
---
header: 
  seq: 440118
  stamp: 
    secs: 1561681966
    nsecs: 915976644
  frame_id: "ti_mmwave"
point_id: 8
x: 2.607421875
y: -0.267578125
z: 1.154296875
range: 3.05038785934
velocity: 0.0
doppler_bin: 8
bearing: -5.85928010941
intensity: 32.7300109863
---
header: 
  seq: 440119
  stamp: 
    secs: 1561681966
    nsecs: 915988881
  frame_id: "ti_mmwave"
point_id: 9
x: 2.66796875
y: -0.181640625
z: 1.134765625
range: 3.09396481514
velocity: 0.0
doppler_bin: 8
bearing: -3.89480042458
intensity: 31.9920654297
---
header: 
  seq: 440120
  stamp: 
    secs: 1561681966
    nsecs: 916050819
  frame_id: "ti_mmwave"
point_id: 10
x: 4.4140625
y: -0.287109375
z: 1.1953125
range: 4.88062095642
velocity: 0.0
doppler_bin: 8
bearing: -3.72151875496
intensity: 30.7114524841
---
header: 
  seq: 440121
  stamp: 
    secs: 1561681966
    nsecs: 916064973
  frame_id: "ti_mmwave"
point_id: 11
x: 4.466796875
y: -0.2890625
z: 1.15234375
range: 4.9241976738
velocity: 0.0
doppler_bin: 8
bearing: -3.70265316963
intensity: 30.3422718048
---
header: 
  seq: 440122
  stamp: 
    secs: 1561681966
    nsecs: 916077532
  frame_id: "ti_mmwave"
point_id: 12
x: 4.740234375
y: -0.44921875
z: -0.486328125
range: 5.09850549698
velocity: 0.0
doppler_bin: 8
bearing: -5.41359329224
intensity: 33.0513648987
---
header: 
  seq: 440123
  stamp: 
    secs: 1561681966
    nsecs: 916089377
  frame_id: "ti_mmwave"
point_id: 13
x: 4.7890625
y: -0.453125
z: -0.3984375
range: 5.14208269119
velocity: 0.0
doppler_bin: 8
bearing: -5.40504264832
intensity: 33.662361145
---
header: 
  seq: 440124
  stamp: 
    secs: 1561681966
    nsecs: 916104794
  frame_id: "ti_mmwave"
point_id: 14
x: 4.841796875
y: -0.45703125
z: -0.203125
range: 5.18565940857
velocity: 0.0
doppler_bin: 8
bearing: -5.39233732224
intensity: 30.2857131958
---
header: 
  seq: 440125
  stamp: 
    secs: 1561681966
    nsecs: 916113890
  frame_id: "ti_mmwave"
point_id: 15
x: 4.837890625
y: -0.46484375
z: 0.935546875
range: 5.27281332016
velocity: 0.0
doppler_bin: 8
bearing: -5.48835754395
intensity: 30.4571399689
---
header: 
  seq: 440126
  stamp: 
