header: 
  seq: 172264
  stamp: 
    secs: 1561863806
    nsecs: 878472865
  frame_id: "ti_mmwave"
point_id: 0
x: 0.01171875
y: -0.0390625
z: -0.0078125
range: 0.0435769706964
velocity: 0.0
doppler_bin: 8
bearing: -73.3007583618
intensity: 30.8170719147
---
header: 
  seq: 172265
  stamp: 
    secs: 1561863806
    nsecs: 878564677
  frame_id: "ti_mmwave"
point_id: 1
x: 0.017578125
y: -0.080078125
z: -0.009765625
range: 0.0871539413929
velocity: 0.0
doppler_bin: 8
bearing: -77.6192398071
intensity: 32.0330505371
---
header: 
  seq: 172266
  stamp: 
    secs: 1561863806
    nsecs: 878585118
  frame_id: "ti_mmwave"
point_id: 2
x: 0.041015625
y: -0.115234375
z: -0.009765625
range: 0.130730912089
velocity: 0.0
doppler_bin: 8
bearing: -70.4077224731
intensity: 30.3019485474
---
header: 
  seq: 172267
  stamp: 
    secs: 1561863806
    nsecs: 878597148
  frame_id: "ti_mmwave"
point_id: 3
x: 0.056640625
y: -0.154296875
z: 0.00390625
range: 0.174307882786
velocity: 0.0
doppler_bin: 8
bearing: -69.8423843384
intensity: 25.550945282
---
header: 
  seq: 172268
  stamp: 
    secs: 1561863806
    nsecs: 878608814
  frame_id: "ti_mmwave"
point_id: 4
x: 0.16015625
y: -0.080078125
z: 1.255859375
range: 1.35088610649
velocity: 0.0
doppler_bin: 8
bearing: -26.5650501251
intensity: 23.1597042084
---
header: 
  seq: 172269
  stamp: 
    secs: 1561863806
    nsecs: 878620528
  frame_id: "ti_mmwave"
point_id: 5
x: 0.263671875
y: -0.041015625
z: -1.28125
range: 1.39446306229
velocity: 0.0
doppler_bin: 8
bearing: -8.84181499481
intensity: 24.6686763763
---
header: 
  seq: 172270
  stamp: 
    secs: 1561863806
    nsecs: 878632301
  frame_id: "ti_mmwave"
point_id: 6
x: 0.513671875
y: -0.04296875
z: -1.248046875
range: 1.43804001808
velocity: 0.0
doppler_bin: 8
bearing: -4.78167009354
intensity: 23.0963020325
---
header: 
  seq: 172271
  stamp: 
    secs: 1561863806
    nsecs: 878645574
  frame_id: "ti_mmwave"
point_id: 7
x: 0.564453125
y: -0.04296875
z: -1.26953125
range: 1.48161697388
velocity: 0.0
doppler_bin: 8
bearing: -4.35321998596
intensity: 21.7897701263
---
header: 
  seq: 172272
  stamp: 
    secs: 1561863806
    nsecs: 878658468
  frame_id: "ti_mmwave"
point_id: 8
x: 2.66015625
y: -0.1796875
z: 1.044921875
range: 3.05038785934
velocity: 0.0
doppler_bin: 8
bearing: -3.86432933807
intensity: 32.2814369202
---
header: 
  seq: 172273
  stamp: 
    secs: 1561863806
    nsecs: 878669897
  frame_id: "ti_mmwave"
point_id: 9
x: 2.755859375
y: -0.08984375
z: 0.9140625
range: 3.09396481514
velocity: 0.0
doppler_bin: 8
bearing: -1.86723792553
intensity: 31.3129787445
---
header: 
  seq: 172274
  stamp: 
    secs: 1561863806
    nsecs: 878681054
  frame_id: "ti_mmwave"
point_id: 10
x: 4.40625
y: -0.142578125
z: 1.244140625
range: 4.88062095642
velocity: 0.0
doppler_bin: 8
bearing: -1.85333895683
intensity: 31.4395103455
---
header: 
  seq: 172275
  stamp: 
    secs: 1561863806
    nsecs: 878692623
  frame_id: "ti_mmwave"
point_id: 11
x: 4.431640625
y: -0.14453125
z: 1.3046875
range: 4.9241976738
velocity: 0.0
doppler_bin: 8
bearing: -1.86795306206
intensity: 31.3161869049
---
header: 
  seq: 172276
  stamp: 
    secs: 1561863806
    nsecs: 878704714
  frame_id: "ti_mmwave"
point_id: 12
x: 4.728515625
y: -0.298828125
z: -0.6796875
range: 5.09850549698
velocity: 0.0
doppler_bin: 8
bearing: -3.61611390114
intensity: 33.4458885193
---
header: 
  seq: 172277
  stamp: 
    secs: 1561863806
    nsecs: 878718161
  frame_id: "ti_mmwave"
point_id: 13
x: 4.7734375
y: -0.30078125
z: -0.646484375
range: 5.14208269119
velocity: 0.0
doppler_bin: 8
bearing: -3.60552406311
intensity: 33.9304847717
---
header: 
  seq: 172278
  stamp: 
    secs: 1561863806
    nsecs: 878732227
  frame_id: "ti_mmwave"
point_id: 14
x: 4.81640625
y: -0.15234375
z: -0.693359375
range: 5.18565940857
velocity: 0.0
doppler_bin: 8
bearing: -1.81167113781
intensity: 30.4610481262
---
header: 
  seq: 172279
  stamp: 
    secs: 1561863806
    nsecs: 878826536
  frame_id: "ti_mmwave"
point_id: 15
x: 4.826171875
y: -0.306640625
z: 0.84765625
range: 5.22923660278
velocity: 0.0
doppler_bin: 8
bearing: -3.63551664352
intensity: 29.2272548676
---
header: 
  seq: 172280
  stamp: 
    secs: 1561863806
    nsecs: 878844774
  frame_id: "ti_mmwave"
point_id: 16
x: 4.89453125
y: -0.30859375
z: 0.6640625
range: 5.27281332016
velocity: 0.0
doppler_bin: 8
bearing: -3.60764837265
intensity: 31.2936763763
---
header: 
  seq: 172281
  stamp: 
    secs: 1561863806
    nsecs: 878856205
  frame_id: "ti_mmwave"
point_id: 17
x: 4.951171875
y: -0.623046875
z: 0.0
range: 5.31639051437
velocity: 0.0
doppler_bin: 8
bearing: -7.17230129242
intensity: 30.0259799957
---
header: 
  seq: 172282
  stamp: 
    secs: 1561863806
    nsecs: 878867039
  frame_id: "ti_mmwave"
point_id: 18
x: 2.23046875
y: 0.58203125
z: 0.349609375
range: 2.48388743401
velocity: 0.614668667316
doppler_bin: 9
bearing: 14.6249580383
intensity: 27.9239177704
---
header: 
  seq: 172283
  stamp: 
    secs: 1561863806
    nsecs: 878878405
  frame_id: "ti_mmwave"
point_id: 19
x: 2.2734375
y: 0.59375
z: 0.333984375
range: 2.5274643898
velocity: 0.614668667316
doppler_bin: 9
bearing: 14.6369037628
intensity: 27.4115161896
---
header: 
  seq: 172284
  stamp: 
    secs: 1561863806
    nsecs: 878889760
  frame_id: "ti_mmwave"
point_id: 20
x: 0.01171875
y: 0.03125
z: 0.0234375
range: 0.0435769706964
velocity: 0.0
doppler_bin: 8
bearing: 69.4439544678
intensity: 29.4398880005
---
header: 
  seq: 172285
  stamp: 
    secs: 1561863806
    nsecs: 878902571
  frame_id: "ti_mmwave"
point_id: 21
x: 0.041015625
y: -0.033203125
z: 0.0625
range: 0.0871539413929
velocity: 0.0
doppler_bin: 8
bearing: -38.9909973145
intensity: 30.1745071411
---
header: 
  seq: 172286
  stamp: 
    secs: 1561863806
    nsecs: 878913689
  frame_id: "ti_mmwave"
point_id: 22
x: 0.05078125
y: -0.04296875
z: 0.103515625
range: 0.130730912089
velocity: 0.0
doppler_bin: 8
bearing: -40.2363586426
intensity: 29.0417442322
---
header: 
  seq: 172287
  stamp: 
    secs: 1561863806
    nsecs: 880060881
  frame_id: "ti_mmwave"
point_id: 0
x: 0.01171875
y: -0.0390625
z: -0.0078125
range: 0.0435769706964
velocity: 0.0
doppler_bin: 8
bearing: -73.3007583618
intensity: 30.8170719147
---
header: 
  seq: 172288
  stamp: 
    secs: 1561863806
    nsecs: 880112185
  frame_id: "ti_mmwave"
point_id: 1
x: 0.017578125
y: -0.080078125
z: -0.009765625
range: 0.0871539413929
velocity: 0.0
doppler_bin: 8
bearing: -77.6192398071
intensity: 32.0330505371
---
header: 
  seq: 172289
  stamp: 
    secs: 1561863806
    nsecs: 880129060
  frame_id: "ti_mmwave"
point_id: 2
x: 0.041015625
y: -0.115234375
z: -0.009765625
range: 0.130730912089
velocity: 0.0
doppler_bin: 8
bearing: -70.4077224731
intensity: 30.2978954315
---
header: 
  seq: 172290
  stamp: 
    secs: 1561863806
    nsecs: 880141289
  frame_id: "ti_mmwave"
point_id: 3
x: 0.056640625
y: -0.154296875
z: 0.00390625
range: 0.174307882786
velocity: 0.0
doppler_bin: 8
bearing: -69.8423843384
intensity: 25.5388298035
---
header: 
  seq: 172291
  stamp: 
    secs: 1561863806
    nsecs: 880198714
  frame_id: "ti_mmwave"
point_id: 4
x: 0.1484375
y: -0.080078125
z: 1.2578125
range: 1.35088610649
velocity: 0.0
doppler_bin: 8
bearing: -28.3456954956
intensity: 23.1806335449
---
header: 
  seq: 172292
  stamp: 
    secs: 1561863806
    nsecs: 880212123
  frame_id: "ti_mmwave"
point_id: 5
x: 0.263671875
y: -0.041015625
z: -1.28125
range: 1.39446306229
velocity: 0.0
doppler_bin: 8
bearing: -8.84181499481
intensity: 24.6686763763
---
header: 
  seq: 172293
  stamp: 
    secs: 1561863806
    nsecs: 880223506
  frame_id: "ti_mmwave"
point_id: 6
x: 0.50390625
y: -0.04296875
z: -1.251953125
range: 1.43804001808
velocity: 0.0
doppler_bin: 8
bearing: -4.87389659882
intensity: 23.0749607086
---
header: 
  seq: 172294
  stamp: 
    secs: 1561863806
    nsecs: 880234533
  frame_id: "ti_mmwave"
point_id: 7
x: 0.564453125
y: -0.04296875
z: -1.26953125
range: 1.48161697388
velocity: 0.0
doppler_bin: 8
bearing: -4.35321998596
intensity: 21.7897701263
---
header: 
  seq: 172295
  stamp: 
    secs: 1561863806
    nsecs: 880245801
  frame_id: "ti_mmwave"
point_id: 8
x: 2.615234375
y: -0.17578125
z: 1.046875
range: 3.00681090355
velocity: 0.0
doppler_bin: 8
bearing: -3.84531402588
intensity: 29.1487178802
---
header: 
  seq: 172296
  stamp: 
    secs: 1561863806
    nsecs: 880258693
  frame_id: "ti_mmwave"
point_id: 9
x: 2.66015625
y: -0.1796875
z: 1.044921875
range: 3.05038785934
velocity: 0.0
doppler_bin: 8
bearing: -3.86432933807
intensity: 32.2942581177
---
header: 
  seq: 172297
  stamp: 
    secs: 1561863806
    nsecs: 880266411
  frame_id: "ti_mmwave"
point_id: 10
x: 2.7578125
y: -0.08984375
z: 0.908203125
range: 3.09396481514
velocity: 0.0
doppler_bin: 8
bearing: -1.86591637135
intensity: 31.306552887
---
header: 
  seq: 172298
  stamp: 
    secs: 1561863806
    nsecs: 880299096
  frame_id: "ti_mmwave"
point_id: 11
x: 4.412109375
y: -0.142578125
z: 1.2265625
range: 4.88062095642
velocity: 0.0
doppler_bin: 8
bearing: -1.85087943077
intensity: 31.4612808228
---
header: 
  seq: 172299
  stamp: 
    secs: 1561863806
    nsecs: 880373086
  frame_id: "ti_mmwave"
point_id: 12
x: 4.435546875
y: -0.14453125
z: 1.291015625
range: 4.9241976738
velocity: 0.0
doppler_bin: 8
bearing: -1.86630904675
intensity: 31.3385810852
---
header: 
  seq: 172300
  stamp: 
    secs: 1561863806
    nsecs: 880389644
  frame_id: "ti_mmwave"
point_id: 13
x: 4.7421875
y: -0.298828125
z: -0.580078125
range: 5.09850549698
velocity: 0.0
doppler_bin: 8
bearing: -3.60571622849
intensity: 33.324382782
---
header: 
  seq: 172301
  stamp: 
    secs: 1561863806
    nsecs: 880401631
  frame_id: "ti_mmwave"
point_id: 14
x: 4.775390625
y: -0.30078125
z: -0.63671875
range: 5.14208269119
velocity: 0.0
doppler_bin: 8
bearing: -3.60405302048
intensity: 33.9339981079
---
header: 
  seq: 172302
  stamp: 
    secs: 1561863806
    nsecs: 880412824
  frame_id: "ti_mmwave"
point_id: 15
x: 4.802734375
y: -0.15234375
z: -0.78125
range: 5.18565940857
velocity: 0.0
doppler_bin: 8
bearing: -1.81682503223
intensity: 30.5728569031
---
header: 
  seq: 172303
  stamp: 
    secs: 1561863806
    nsecs: 880424223
  frame_id: "ti_mmwave"
point_id: 16
x: 4.89453125
y: -0.30859375
z: 0.67578125
range: 5.27281332016
velocity: 0.0
doppler_bin: 8
bearing: -3.60764837265
intensity: 31.1826477051
---
header: 
  seq: 172304
  stamp: 
    secs: 1561863806
    nsecs: 880441433
  frame_id: "ti_mmwave"
point_id: 17
x: 4.951171875
y: -0.623046875
z: -0.029296875
range: 5.31639051437
velocity: 0.0
doppler_bin: 8
bearing: -7.17230129242
intensity: 29.9122600555
---
header: 
  seq: 172305
  stamp: 
    secs: 1561863806
    nsecs: 880489577
  frame_id: "ti_mmwave"
point_id: 18
x: 2.28515625
y: 0.59375
z: 0.244140625
range: 2.5274643898
velocity: 0.614668667316
doppler_bin: 9
bearing: 14.5650415421
intensity: 26.7117290497
---
header: 
  seq: 172306
  stamp: 
    secs: 1561863806
    nsecs: 880504738
  frame_id: "ti_mmwave"
point_id: 19
x: 0.01171875
y: 0.03125
z: 0.0234375
range: 0.0435769706964
velocity: 0.0
doppler_bin: 8
bearing: 69.4439544678
intensity: 29.4398880005
---
header: 
  seq: 172307
  stamp: 
    secs: 1561863806
    nsecs: 880516331
  frame_id: "ti_mmwave"
point_id: 20
x: 0.041015625
y: -0.033203125
z: 0.0625
range: 0.0871539413929
velocity: 0.0
doppler_bin: 8
bearing: -38.9909973145
intensity: 30.1745071411
---
header: 
  seq: 172308
  stamp: 
    secs: 1561863806
    nsecs: 880527510
  frame_id: "ti_mmwave"
point_id: 21
x: 0.05078125
y: -0.04296875
z: 0.103515625
range: 0.130730912089
velocity: 0.0
doppler_bin: 8
bearing: -40.2363586426
intensity: 29.0363254547
---
header: 
  seq: 172309
  stamp: 
    secs: 1561863806
    nsecs: 938523147
  frame_id: "ti_mmwave"
point_id: 0
x: 0.01171875
y: -0.0390625
z: -0.0078125
range: 0.0435769706964
velocity: 0.0
doppler_bin: 8
bearing: -73.3007583618
intensity: 30.8134727478
---
header: 
  seq: 172310
  stamp: 
    secs: 1561863806
    nsecs: 938594945
  frame_id: "ti_mmwave"
point_id: 1
x: 0.017578125
y: -0.080078125
z: -0.009765625
range: 0.0871539413929
velocity: 0.0
doppler_bin: 8
bearing: -77.6192398071
intensity: 32.030330658
---
header: 
  seq: 172311
  stamp: 
    secs: 1561863806
    nsecs: 938608683
  frame_id: "ti_mmwave"
point_id: 2
x: 0.029296875
y: -0.119140625
z: -0.005859375
range: 0.130730912089
velocity: 0.0
doppler_bin: 8
bearing: -76.1849746704
intensity: 30.3019485474
---
header: 
  seq: 172312
  stamp: 
    secs: 1561863806
    nsecs: 938618295
  frame_id: "ti_mmwave"
point_id: 3
x: 0.056640625
y: -0.154296875
z: 0.005859375
range: 0.174307882786
velocity: 0.0
doppler_bin: 8
bearing: -69.8423843384
intensity: 25.5388298035
---
header: 
  seq: 172313
  stamp: 
    secs: 1561863806
    nsecs: 938626803
  frame_id: "ti_mmwave"
point_id: 4
x: 0.138671875
y: -0.080078125
z: 1.2578125
range: 1.35088610649
velocity: 0.0
doppler_bin: 8
bearing: -30.0049190521
intensity: 23.1597042084
---
header: 
  seq: 172314
  stamp: 
    secs: 1561863806
    nsecs: 938635074
  frame_id: "ti_mmwave"
point_id: 5
x: 0.26953125
y: -0.041015625
z: -1.28125
range: 1.39446306229
velocity: 0.0
doppler_bin: 8
bearing: -8.65254211426
intensity: 24.6389293671
---
header: 
  seq: 172315
  stamp: 
    secs: 1561863806
    nsecs: 938643349
  frame_id: "ti_mmwave"
point_id: 6
x: 0.498046875
y: -0.04296875
z: -1.25390625
range: 1.43804001808
velocity: 0.0
doppler_bin: 8
bearing: -4.93095541
intensity: 23.031961441
---
header: 
  seq: 172316
  stamp: 
    secs: 1561863806
    nsecs: 938661673
  frame_id: "ti_mmwave"
point_id: 7
x: 0.53125
y: -0.04296875
z: -1.28515625
range: 1.48161697388
velocity: 0.0
doppler_bin: 8
bearing: -4.6241517067
intensity: 21.7318630219
---
header: 
  seq: 172317
  stamp: 
    secs: 1561863806
    nsecs: 938674932
  frame_id: "ti_mmwave"
point_id: 8
x: 2.615234375
y: -0.17578125
z: 1.046875
range: 3.00681090355
velocity: 0.0
doppler_bin: 8
bearing: -3.84531402588
intensity: 29.1009063721
---
header: 
  seq: 172318
  stamp: 
    secs: 1561863806
    nsecs: 938759225
  frame_id: "ti_mmwave"
point_id: 9
x: 2.658203125
y: -0.1796875
z: 1.048828125
range: 3.05038785934
velocity: 0.0
doppler_bin: 8
bearing: -3.86716008186
intensity: 32.2814369202
---
header: 
  seq: 172319
  stamp: 
    secs: 1561863806
    nsecs: 938774033
  frame_id: "ti_mmwave"
point_id: 10
x: 2.751953125
y: -0.08984375
z: 0.923828125
range: 3.09396481514
velocity: 0.0
doppler_bin: 8
bearing: -1.86988639832
intensity: 31.3289985657
---
header: 
  seq: 172320
  stamp: 
    secs: 1561863806
    nsecs: 938787622
  frame_id: "ti_mmwave"
point_id: 11
x: 4.408203125
y: -0.142578125
z: 1.240234375
range: 4.88062095642
velocity: 0.0
doppler_bin: 8
bearing: -1.85251843929
intensity: 31.455072403
---
header: 
  seq: 172321
  stamp: 
    secs: 1561863806
    nsecs: 938798212
  frame_id: "ti_mmwave"
point_id: 12
x: 4.43359375
y: -0.14453125
z: 1.30078125
range: 4.9241976738
velocity: 0.0
doppler_bin: 8
bearing: -1.86713063717
intensity: 31.319393158
---
header: 
  seq: 172322
  stamp: 
    secs: 1561863806
    nsecs: 938810147
  frame_id: "ti_mmwave"
point_id: 13
x: 4.734375
y: -0.298828125
z: -0.634765625
range: 5.09850549698
velocity: 0.0
doppler_bin: 8
bearing: -3.61165046692
intensity: 33.3425254822
---
header: 
  seq: 172323
  stamp: 
    secs: 1561863806
    nsecs: 938820829
  frame_id: "ti_mmwave"
point_id: 14
x: 4.7734375
y: -0.30078125
z: -0.654296875
range: 5.14208269119
velocity: 0.0
doppler_bin: 8
bearing: -3.60552406311
intensity: 33.9532623291
---
header: 
  seq: 172324
  stamp: 
    secs: 1561863806
    nsecs: 938830878
  frame_id: "ti_mmwave"
point_id: 15
x: 4.802734375
y: -0.15234375
z: -0.779296875
range: 5.18565940857
velocity: 0.0
doppler_bin: 8
bearing: -1.81682503223
intensity: 30.6892757416
---
header: 
  seq: 172325
  stamp: 
    secs: 1561863806
    nsecs: 938844053
  frame_id: "ti_mmwave"
point_id: 16
x: 4.837890625
y: -0.306640625
z: 0.7734375
range: 5.22923660278
velocity: 0.0
doppler_bin: 8
bearing: -3.62673401833
intensity: 28.8592624664
---
header: 
  seq: 172326
  stamp: 
    secs: 1561863806
    nsecs: 938854636
  frame_id: "ti_mmwave"
point_id: 17
x: 4.892578125
y: -0.30859375
z: 0.689453125
range: 5.27281332016
velocity: 0.0
doppler_bin: 8
bearing: -3.60908436775
intensity: 31.1892566681
---
header: 
  seq: 172327
  stamp: 
    secs: 1561863806
    nsecs: 938865152
  frame_id: "ti_mmwave"
point_id: 18
x: 4.951171875
y: -0.623046875
z: 0.029296875
range: 5.31639051437
velocity: 0.0
doppler_bin: 8
bearing: -7.17230129242
intensity: 29.9166908264
---
header: 
  seq: 172328
  stamp: 
    secs: 1561863806
    nsecs: 938877908
  frame_id: "ti_mmwave"
point_id: 19
x: 2.298828125
y: 0.51953125
z: 0.2734375
range: 2.5274643898
velocity: 0.614668667316
doppler_bin: 9
bearing: 12.7348146439
intensity: 26.2221393585
---
header: 
  seq: 172329
  stamp: 
    secs: 1561863806
    nsecs: 938889871
  frame_id: "ti_mmwave"
point_id: 20
x: 0.01171875
y: 0.03125
z: 0.025390625
range: 0.0435769706964
velocity: 0.0
doppler_bin: 8
bearing: 69.4439544678
intensity: 29.4349460602
---
header: 
  seq: 172330
  stamp: 
    secs: 1561863806
    nsecs: 938901803
  frame_id: "ti_mmwave"
point_id: 21
x: 0.041015625
y: -0.033203125
z: 0.0625
range: 0.0871539413929
velocity: 0.0
doppler_bin: 8
bearing: -38.9909973145
intensity: 30.1703338623
---
header: 
  seq: 172331
  stamp: 
    secs: 1561863806
    nsecs: 938909303
  frame_id: "ti_mmwave"
point_id: 22
x: 0.05078125
y: -0.04296875
z: 0.103515625
range: 0.130730912089
velocity: 0.0
doppler_bin: 8
bearing: -40.2363586426
intensity: 29.0417442322
---
header: 
  seq: 172332
  stamp: 
    secs: 1561863806
    nsecs: 940107491
  frame_id: "ti_mmwave"
point_id: 0
x: 0.01171875
y: -0.0390625
z: -0.0078125
range: 0.0435769706964
velocity: 0.0
doppler_bin: 8
bearing: -73.3007583618
intensity: 30.8206691742
---
header: 
  seq: 172333
  stamp: 
    secs: 1561863806
    nsecs: 940190303
  frame_id: "ti_mmwave"
point_id: 1
x: 0.017578125
y: -0.080078125
z: -0.009765625
range: 0.0871539413929
velocity: 0.0
doppler_bin: 8
bearing: -77.6192398071
intensity: 32.0330505371
---
header: 
  seq: 172334
  stamp: 
    secs: 1561863806
    nsecs: 940206487
  frame_id: "ti_mmwave"
point_id: 2
x: 0.041015625
y: -0.115234375
z: -0.009765625
range: 0.130730912089
velocity: 0.0
doppler_bin: 8
bearing: -70.4077224731
intensity: 30.293838501
---
header: 
  seq: 172335
  stamp: 
    secs: 1561863806
    nsecs: 940220586
  frame_id: "ti_mmwave"
point_id: 3
x: 0.056640625
y: -0.154296875
z: 0.005859375
range: 0.174307882786
velocity: 0.0
doppler_bin: 8
bearing: -69.8423843384
intensity: 25.5266819
---
header: 
  seq: 172336
  stamp: 
    secs: 1561863806
    nsecs: 940241420
  frame_id: "ti_mmwave"
point_id: 4
x: 0.177734375
y: -0.080078125
z: 1.25390625
range: 1.35088610649
velocity: 0.0
doppler_bin: 8
bearing: -24.2539196014
intensity: 23.2014636993
---
header: 
  seq: 172337
  stamp: 
    secs: 1561863806
    nsecs: 940314761
  frame_id: "ti_mmwave"
point_id: 5
x: 0.26171875
y: -0.041015625
z: -1.28125
range: 1.39446306229
velocity: 0.0
doppler_bin: 8
bearing: -8.9067440033
intensity: 24.6538276672
---
header: 
  seq: 172338
  stamp: 
    secs: 1561863806
    nsecs: 940333289
  frame_id: "ti_mmwave"
point_id: 6
x: 0.513671875
y: -0.04296875
z: -1.248046875
range: 1.43804001808
velocity: 0.0
doppler_bin: 8
bearing: -4.78167009354
intensity: 23.031961441
---
header: 
  seq: 172339
  stamp: 
    secs: 1561863806
    nsecs: 940346878
  frame_id: "ti_mmwave"
point_id: 7
x: 0.55078125
y: -0.04296875
z: -1.275390625
range: 1.48161697388
velocity: 0.0
doppler_bin: 8
bearing: -4.46084880829
intensity: 21.7318630219
---
header: 
  seq: 172340
  stamp: 
    secs: 1561863806
    nsecs: 940360046
  frame_id: "ti_mmwave"
point_id: 8
x: 2.66015625
y: -0.1796875
z: 1.044921875
range: 3.05038785934
velocity: 0.0
doppler_bin: 8
bearing: -3.86432933807
intensity: 32.3044891357
---
header: 
  seq: 172341
  stamp: 
    secs: 1561863806
    nsecs: 940374731
  frame_id: "ti_mmwave"
point_id: 9
x: 2.759765625
y: -0.08984375
z: 0.90234375
range: 3.09396481514
velocity: 0.0
doppler_bin: 8
bearing: -1.86459684372
intensity: 31.3289985657
---
header: 
  seq: 172342
  stamp: 
    secs: 1561863806
    nsecs: 940387683
  frame_id: "ti_mmwave"
point_id: 10
x: 4.412109375
y: -0.142578125
z: 1.2265625
range: 4.88062095642
velocity: 0.0
doppler_bin: 8
bearing: -1.85087943077
intensity: 31.4798526764
---
header: 
  seq: 172343
  stamp: 
    secs: 1561863806
    nsecs: 940401273
  frame_id: "ti_mmwave"
point_id: 11
x: 4.44140625
y: -0.14453125
z: 1.271484375
range: 4.9241976738
velocity: 0.0
doppler_bin: 8
bearing: -1.86384868622
intensity: 31.3513259888
---
header: 
  seq: 172344
  stamp: 
    secs: 1561863806
    nsecs: 940416017
  frame_id: "ti_mmwave"
point_id: 12
x: 4.7421875
y: -0.298828125
z: -0.572265625
range: 5.09850549698
velocity: 0.0
doppler_bin: 8
bearing: -3.60571622849
intensity: 33.3385009766
---
header: 
  seq: 172345
  stamp: 
    secs: 1561863806
    nsecs: 940426950
  frame_id: "ti_mmwave"
point_id: 13
x: 4.77734375
y: -0.30078125
z: -0.615234375
range: 5.14208269119
velocity: 0.0
doppler_bin: 8
bearing: -3.60258316994
intensity: 33.9585037231
---
header: 
  seq: 172346
  stamp: 
    secs: 1561863806
    nsecs: 940457517
  frame_id: "ti_mmwave"
point_id: 14
x: 4.8125
y: -0.15234375
z: -0.708984375
range: 5.18565940857
velocity: 0.0
doppler_bin: 8
bearing: -1.81314074993
intensity: 30.5956344604
---
header: 
  seq: 172347
  stamp: 
    secs: 1561863806
    nsecs: 940523945
  frame_id: "ti_mmwave"
point_id: 15
x: 4.828125
y: -0.306640625
z: 0.833984375
range: 5.22923660278
velocity: 0.0
doppler_bin: 8
bearing: -3.63404989243
intensity: 29.3550720215
---
header: 
  seq: 172348
  stamp: 
    secs: 1561863806
    nsecs: 940538128
  frame_id: "ti_mmwave"
point_id: 16
x: 4.88671875
y: -0.30859375
z: 0.716796875
range: 5.27281332016
velocity: 0.0
doppler_bin: 8
bearing: -3.61340069771
intensity: 31.344959259
---
header: 
  seq: 172349
  stamp: 
    secs: 1561863806
    nsecs: 940554196
  frame_id: "ti_mmwave"
point_id: 17
x: 4.951171875
y: -0.623046875
z: 0.05078125
range: 5.31639051437
velocity: 0.0
doppler_bin: 8
bearing: -7.17230129242
intensity: 29.9651165009
---
header: 
  seq: 172350
  stamp: 
    secs: 1561863806
    nsecs: 940569613
  frame_id: "ti_mmwave"
point_id: 18
x: 2.298828125
y: 0.51953125
z: 0.26953125
range: 2.5274643898
velocity: 0.614668667316
doppler_bin: 9
bearing: 12.7348146439
intensity: 26.5991611481
---
header: 
  seq: 172351
  stamp: 
    secs: 1561863806
    nsecs: 940582731
  frame_id: "ti_mmwave"
point_id: 19
x: 2.3203125
y: 0.603515625
z: 0.27734375
range: 2.5710413456
velocity: 0.614668667316
doppler_bin: 9
bearing: 14.5796384811
intensity: 27.6863803864
---
header: 
  seq: 172352
  stamp: 
    secs: 1561863806
    nsecs: 940601604
  frame_id: "ti_mmwave"
point_id: 20
x: 0.01171875
y: 0.03125
z: 0.025390625
range: 0.0435769706964
velocity: 0.0
doppler_bin: 8
bearing: 69.4439544678
intensity: 29.4398880005
---
header: 
  seq: 172353
  stamp: 
    secs: 1561863806
    nsecs: 940616725
  frame_id: "ti_mmwave"
point_id: 21
x: 0.041015625
y: -0.033203125
z: 0.0625
range: 0.0871539413929
velocity: 0.0
doppler_bin: 8
bearing: -38.9909973145
intensity: 30.1703338623
---
header: 
  seq: 172354
  stamp: 
    secs: 1561863806
    nsecs: 940631444
  frame_id: "ti_mmwave"
point_id: 22
x: 0.05078125
y: -0.04296875
z: 0.103515625
range: 0.130730912089
velocity: 0.0
doppler_bin: 8
bearing: -40.2363586426
intensity: 29.0363254547
---
header: 
  seq: 172355
  stamp: 
    secs: 1561863806
    nsecs: 998511941
  frame_id: "ti_mmwave"
point_id: 0
x: 0.01171875
y: -0.0390625
z: -0.0078125
range: 0.0435769706964
velocity: 0.0
doppler_bin: 8
bearing: -73.3007583618
intensity: 30.8206691742
---
header: 
  seq: 172356
  stamp: 
    secs: 1561863806
    nsecs: 998613809
  frame_id: "ti_mmwave"
point_id: 1
x: 0.017578125
y: -0.080078125
z: -0.009765625
range: 0.0871539413929
velocity: 0.0
doppler_bin: 8
bearing: -77.6192398071
intensity: 32.0330505371
---
header: 
  seq: 172357
  stamp: 
    secs: 1561863806
    nsecs: 998631897
  frame_id: "ti_mmwave"
point_id: 2
x: 0.041015625
y: -0.115234375
z: -0.009765625
range: 0.130730912089
velocity: 0.0
doppler_bin: 8
bearing: -70.4077224731
intensity: 30.3019485474
---
header: 
  seq: 172358
  stamp: 
    secs: 1561863806
    nsecs: 998647071
  frame_id: "ti_mmwave"
point_id: 3
x: 0.056640625
y: -0.154296875
z: 0.005859375
range: 0.174307882786
velocity: 0.0
doppler_bin: 8
bearing: -69.8423843384
intensity: 25.550945282
---
header: 
  seq: 172359
  stamp: 
    secs: 1561863806
    nsecs: 998655793
  frame_id: "ti_mmwave"
point_id: 4
x: 0.185546875
y: -0.080078125
z: 1.251953125
range: 1.35088610649
velocity: 0.0
doppler_bin: 8
bearing: -23.3440113068
intensity: 23.1806335449
---
header: 
  seq: 172360
  stamp: 
    secs: 1561863806
    nsecs: 998666355
  frame_id: "ti_mmwave"
point_id: 5
x: 0.25
y: -0.041015625
z: -1.28515625
range: 1.39446306229
velocity: 0.0
doppler_bin: 8
bearing: -9.31708621979
intensity: 24.6686763763
---
header: 
  seq: 172361
  stamp: 
    secs: 1561863806
    nsecs: 998674230
  frame_id: "ti_mmwave"
point_id: 6
x: 0.501953125
y: -0.04296875
z: -1.251953125
range: 1.43804001808
velocity: 0.0
doppler_bin: 8
bearing: -4.89276885986
intensity: 23.0963020325
---
header: 
  seq: 172362
  stamp: 
    secs: 1561863806
    nsecs: 998683701
  frame_id: "ti_mmwave"
point_id: 7
x: 0.556640625
y: -0.04296875
z: -1.2734375
range: 1.48161697388
velocity: 0.0
doppler_bin: 8
bearing: -4.41407871246
intensity: 21.8184356689
---
header: 
  seq: 172363
  stamp: 
    secs: 1561863806
    nsecs: 998697017
  frame_id: "ti_mmwave"
point_id: 8
x: 2.615234375
y: -0.17578125
z: 1.046875
range: 3.00681090355
velocity: 0.0
doppler_bin: 8
bearing: -3.84531402588
intensity: 29.1328392029
---
header: 
  seq: 172364
  stamp: 
    secs: 1561863806
    nsecs: 998708505
  frame_id: "ti_mmwave"
point_id: 9
x: 2.66015625
y: -0.1796875
z: 1.04296875
range: 3.05038785934
velocity: 0.0
doppler_bin: 8
bearing: -3.86432933807
intensity: 32.286567688
---
header: 
  seq: 172365
  stamp: 
    secs: 1561863806
    nsecs: 998724077
  frame_id: "ti_mmwave"
point_id: 10
x: 2.7578125
y: -0.08984375
z: 0.908203125
range: 3.09396481514
velocity: 0.0
doppler_bin: 8
bearing: -1.86591637135
intensity: 31.3161869049
---
header: 
  seq: 172366
  stamp: 
    secs: 1561863806
    nsecs: 998821581
  frame_id: "ti_mmwave"
point_id: 11
x: 4.41015625
y: -0.142578125
z: 1.232421875
range: 4.88062095642
velocity: 0.0
doppler_bin: 8
bearing: -1.85169863701
intensity: 31.4519634247
---
header: 
  seq: 172367
  stamp: 
    secs: 1561863806
    nsecs: 998839522
  frame_id: "ti_mmwave"
point_id: 12
x: 4.439453125
y: -0.14453125
z: 1.28125
range: 4.9241976738
velocity: 0.0
doppler_bin: 8
bearing: -1.86466813087
intensity: 31.319393158
---
header: 
  seq: 172368
  stamp: 
    secs: 1561863806
    nsecs: 998852836
  frame_id: "ti_mmwave"
point_id: 13
x: 4.736328125
y: -0.298828125
z: -0.623046875
range: 5.09850549698
velocity: 0.0
doppler_bin: 8
bearing: -3.61016488075
intensity: 33.3785858154
---
header: 
  seq: 172369
  stamp: 
    secs: 1561863806
    nsecs: 998865142
  frame_id: "ti_mmwave"
point_id: 14
x: 4.7734375
y: -0.30078125
z: -0.654296875
range: 5.14208269119
velocity: 0.0
doppler_bin: 8
bearing: -3.60552406311
intensity: 33.9654808044
---
header: 
  seq: 172370
  stamp: 
    secs: 1561863806
    nsecs: 998876708
  frame_id: "ti_mmwave"
point_id: 15
x: 4.794921875
y: -0.15234375
z: -0.826171875
range: 5.18565940857
velocity: 0.0
doppler_bin: 8
bearing: -1.81978332996
intensity: 30.7114524841
---
header: 
  seq: 172371
  stamp: 
    secs: 1561863806
    nsecs: 998889427
  frame_id: "ti_mmwave"
point_id: 16
x: 4.90234375
y: -0.30859375
z: 0.615234375
range: 5.27281332016
velocity: 0.0
doppler_bin: 8
bearing: -3.60191392899
intensity: 31.05169487
---
header: 
  seq: 172372
  stamp: 
    secs: 1561863806
    nsecs: 998905743
  frame_id: "ti_mmwave"
point_id: 17
x: 4.951171875
y: -0.623046875
z: 0.009765625
range: 5.31639051437
velocity: 0.0
doppler_bin: 8
bearing: -7.17230129242
intensity: 29.8045787811
---
header: 
  seq: 172373
  stamp: 
    secs: 1561863806
    nsecs: 998919934
  frame_id: "ti_mmwave"
point_id: 18
x: 0.01171875
y: 0.03125
z: 0.0234375
range: 0.0435769706964
velocity: 0.0
doppler_bin: 8
bearing: 69.4439544678
intensity: 29.4349460602
---
header: 
  seq: 172374
  stamp: 
    secs: 1561863806
    nsecs: 998936195
  frame_id: "ti_mmwave"
point_id: 19
x: 0.041015625
y: -0.033203125
z: 0.0625
range: 0.0871539413929
velocity: 0.0
doppler_bin: 8
bearing: -38.9909973145
intensity: 30.1745071411
---
header: 
  seq: 172375
  stamp: 
    secs: 1561863806
    nsecs: 998950458
  frame_id: "ti_mmwave"
point_id: 20
x: 0.05078125
y: -0.04296875
z: 0.103515625
range: 0.130730912089
velocity: 0.0
doppler_bin: 8
bearing: -40.2363586426
intensity: 29.0417442322
---
header: 
  seq: 172376
  stamp: 
    secs: 1561863807
    nsecs:    225856
  frame_id: "ti_mmwave"
point_id: 0
x: 0.01171875
y: -0.0390625
z: -0.0078125
range: 0.0435769706964
velocity: 0.0
doppler_bin: 8
bearing: -73.3007583618
intensity: 30.8206691742
---
header: 
  seq: 172377
  stamp: 
    secs: 1561863807
    nsecs:    290211
  frame_id: "ti_mmwave"
point_id: 1
x: 0.017578125
y: -0.080078125
z: -0.009765625
range: 0.0871539413929
velocity: 0.0
doppler_bin: 8
bearing: -77.6192398071
intensity: 32.0330505371
---
header: 
  seq: 172378
  stamp: 
    secs: 1561863807
    nsecs:    321855
  frame_id: "ti_mmwave"
point_id: 2
x: 0.041015625
y: -0.115234375
z: -0.009765625
range: 0.130730912089
velocity: 0.0
doppler_bin: 8
bearing: -70.4077224731
intensity: 30.3019485474
---
header: 
  seq: 172379
  stamp: 
    secs: 1561863807
    nsecs:    389302
  frame_id: "ti_mmwave"
point_id: 3
x: 0.056640625
y: -0.154296875
z: 0.005859375
range: 0.174307882786
velocity: 0.0
doppler_bin: 8
bearing: -69.8423843384
intensity: 25.5388298035
---
header: 
  seq: 172380
  stamp: 
    secs: 1561863807
    nsecs:    409205
  frame_id: "ti_mmwave"
point_id: 4
x: 0.130859375
y: -0.080078125
z: 1.259765625
range: 1.35088610649
velocity: 0.0
doppler_bin: 8
bearing: -31.4641437531
intensity: 23.1597042084
---
header: 
  seq: 172381
  stamp: 
    secs: 1561863807
    nsecs:    434168
  frame_id: "ti_mmwave"
point_id: 5
x: 0.265625
y: -0.041015625
z: -1.28125
range: 1.39446306229
velocity: 0.0
doppler_bin: 8
bearing: -8.77781772614
intensity: 24.6686763763
---
header: 
  seq: 172382
  stamp: 
    secs: 1561863807
    nsecs:    455112
  frame_id: "ti_mmwave"
point_id: 6
x: 0.513671875
y: -0.04296875
z: -1.248046875
range: 1.43804001808
velocity: 0.0
doppler_bin: 8
bearing: -4.78167009354
intensity: 23.1175384521
---
header: 
  seq: 172383
  stamp: 
    secs: 1561863807
    nsecs:    496647
  frame_id: "ti_mmwave"
point_id: 7
x: 0.5703125
y: -0.04296875
z: -1.267578125
range: 1.48161697388
velocity: 0.0
doppler_bin: 8
bearing: -4.30866527557
intensity: 21.7897701263
---
header: 
  seq: 172384
  stamp: 
    secs: 1561863807
    nsecs:    507242
  frame_id: "ti_mmwave"
point_id: 8
x: 2.607421875
y: -0.17578125
z: 1.064453125
range: 3.00681090355
velocity: 0.0
doppler_bin: 8
bearing: -3.8568007946
intensity: 29.1750545502
---
header: 
  seq: 172385
  stamp: 
    secs: 1561863807
    nsecs:    516601
  frame_id: "ti_mmwave"
point_id: 9
x: 2.658203125
y: -0.1796875
z: 1.048828125
range: 3.05038785934
velocity: 0.0
doppler_bin: 8
bearing: -3.86716008186
intensity: 32.2968177795
---
header: 
  seq: 172386
  stamp: 
    secs: 1561863807
    nsecs:    524502
  frame_id: "ti_mmwave"
point_id: 10
x: 2.755859375
y: -0.08984375
z: 0.91015625
range: 3.09396481514
velocity: 0.0
doppler_bin: 8
bearing: -1.86723792553
intensity: 31.3161869049
---
header: 
  seq: 172387
  stamp: 
    secs: 1561863807
    nsecs:    532038
  frame_id: "ti_mmwave"
point_id: 11
x: 4.412109375
y: -0.142578125
z: 1.228515625
range: 4.88062095642
velocity: 0.0
doppler_bin: 8
bearing: -1.85087943077
intensity: 31.4581775665
---
header: 
  seq: 172388
  stamp: 
    secs: 1561863807
    nsecs:    539671
  frame_id: "ti_mmwave"
point_id: 12
x: 4.439453125
y: -0.14453125
z: 1.28125
range: 4.9241976738
velocity: 0.0
doppler_bin: 8
bearing: -1.86466813087
intensity: 31.3129787445
---
header: 
  seq: 172389
  stamp: 
    secs: 1561863807
    nsecs:    547325
  frame_id: "ti_mmwave"
point_id: 13
x: 4.736328125
y: -0.298828125
z: -0.625
range: 5.09850549698
velocity: 0.0
doppler_bin: 8
bearing: -3.61016488075
intensity: 33.3405151367
---
header: 
  seq: 172390
  stamp: 
    secs: 1561863807
    nsecs:    561476
  frame_id: "ti_mmwave"
point_id: 14
x: 4.775390625
y: -0.30078125
z: -0.638671875
range: 5.14208269119
velocity: 0.0
doppler_bin: 8
bearing: -3.60405302048
intensity: 33.92345047
---
header: 
  seq: 172391
  stamp: 
    secs: 1561863807
    nsecs:    611571
  frame_id: "ti_mmwave"
point_id: 15
x: 4.806640625
y: -0.15234375
z: -0.751953125
range: 5.18565940857
velocity: 0.0
doppler_bin: 8
bearing: -1.81534969807
intensity: 30.4493160248
---
header: 
  seq: 172392
  stamp: 
    secs: 1561863807
    nsecs:    630563
  frame_id: "ti_mmwave"
point_id: 16
x: 4.810546875
y: -0.306640625
z: 0.927734375
range: 5.22923660278
velocity: 0.0
doppler_bin: 8
bearing: -3.64729380608
intensity: 29.1960105896
---
header: 
  seq: 172393
  stamp: 
    secs: 1561863807
    nsecs:    642756
  frame_id: "ti_mmwave"
point_id: 17
x: 4.880859375
y: -0.30859375
z: 0.759765625
range: 5.27281332016
velocity: 0.0
doppler_bin: 8
bearing: -3.61772704124
intensity: 31.344959259
---
header: 
  seq: 172394
  stamp: 
    secs: 1561863807
    nsecs:    654188
  frame_id: "ti_mmwave"
point_id: 18
x: 4.94921875
y: -0.623046875
z: 0.115234375
range: 5.31639051437
velocity: 0.0
doppler_bin: 8
bearing: -7.17510271072
intensity: 30.0043411255
---
header: 
  seq: 172395
  stamp: 
    secs: 1561863807
    nsecs:    666896
  frame_id: "ti_mmwave"
point_id: 19
x: 2.1953125
y: 0.65625
z: -0.435546875
range: 2.48388743401
velocity: 0.614668667316
doppler_bin: 9
bearing: 16.6431083679
intensity: 24.8287353516
---
header: 
  seq: 172396
  stamp: 
    secs: 1561863807
    nsecs:    680021
  frame_id: "ti_mmwave"
point_id: 20
x: 2.341796875
y: 0.52734375
z: 0.240234375
range: 2.5710413456
velocity: 0.614668667316
doppler_bin: 9
bearing: 12.6906166077
intensity: 26.0959434509
---
header: 
  seq: 172397
  stamp: 
    secs: 1561863807
    nsecs:    693333
  frame_id: "ti_mmwave"
point_id: 21
x: 2.380859375
y: 0.537109375
z: 0.263671875
range: 2.61461830139
velocity: 0.614668667316
doppler_bin: 9
bearing: 12.7128133774
intensity: 26.9983768463
---
header: 
  seq: 172398
  stamp: 
    secs: 1561863807
    nsecs:    704688
  frame_id: "ti_mmwave"
point_id: 22
x: 0.01171875
y: 0.03125
z: 0.025390625
range: 0.0435769706964
velocity: 0.0
doppler_bin: 8
bearing: 69.4439544678
intensity: 29.4349460602
---
header: 
  seq: 172399
  stamp: 
    secs: 1561863807
    nsecs:    715976
  frame_id: "ti_mmwave"
point_id: 23
x: 0.041015625
y: -0.033203125
z: 0.0625
range: 0.0871539413929
velocity: 0.0
doppler_bin: 8
bearing: -38.9909973145
intensity: 30.1786766052
---
header: 
  seq: 172400
  stamp: 
    secs: 1561863807
    nsecs:    770794
  frame_id: "ti_mmwave"
point_id: 24
x: 0.05078125
y: -0.04296875
z: 0.103515625
range: 0.130730912089
velocity: 0.0
doppler_bin: 8
bearing: -40.2363586426
intensity: 29.0417442322
---
header: 
  seq: 172401
  stamp: 
    secs: 1561863807
    nsecs:    791347
  frame_id: "ti_mmwave"
point_id: 26
x: 1.216796875
y: -0.291015625
z: 1.96875
range: 2.48388743401
velocity: 0.614668667316
doppler_bin: 9
bearing: -13.4505062103
intensity: 21.9033164978
---
header: 
  seq: 172402
  stamp: 
    secs: 1561863807
    nsecs:  58591508
  frame_id: "ti_mmwave"
point_id: 0
x: 0.01171875
y: -0.0390625
z: -0.0078125
range: 0.0435769706964
velocity: 0.0
doppler_bin: 8
bearing: -73.3007583618
intensity: 30.8206691742
---
header: 
  seq: 172403
  stamp: 
    secs: 1561863807
    nsecs:  58668630
  frame_id: "ti_mmwave"
point_id: 1
x: 0.017578125
y: -0.080078125
z: -0.009765625
range: 0.0871539413929
velocity: 0.0
doppler_bin: 8
bearing: -77.6192398071
intensity: 32.0330505371
---
header: 
  seq: 172404
  stamp: 
    secs: 1561863807
    nsecs:  58679372
  frame_id: "ti_mmwave"
point_id: 2
x: 0.041015625
y: -0.115234375
z: -0.009765625
range: 0.130730912089
velocity: 0.0
doppler_bin: 8
bearing: -70.4077224731
intensity: 30.2978954315
---
header: 
  seq: 172405
  stamp: 
    secs: 1561863807
    nsecs:  58690613
  frame_id: "ti_mmwave"
point_id: 3
x: 0.056640625
y: -0.154296875
z: 0.005859375
range: 0.174307882786
velocity: 0.0
doppler_bin: 8
bearing: -69.8423843384
intensity: 25.5388298035
---
header: 
  seq: 172406
  stamp: 
    secs: 1561863807
    nsecs:  58699378
  frame_id: "ti_mmwave"
point_id: 4
x: 0.130859375
y: -0.080078125
z: 1.2578125
range: 1.35088610649
velocity: 0.0
doppler_bin: 8
bearing: -31.4641437531
intensity: 23.1597042084
---
header: 
  seq: 172407
  stamp: 
    secs: 1561863807
    nsecs:  58707231
  frame_id: "ti_mmwave"
point_id: 5
x: 0.259765625
y: -0.041015625
z: -1.283203125
range: 1.39446306229
velocity: 0.0
doppler_bin: 8
bearing: -8.9726266861
intensity: 24.6389293671
---
header: 
  seq: 172408
  stamp: 
    secs: 1561863807
    nsecs:  58716712
  frame_id: "ti_mmwave"
point_id: 6
x: 0.498046875
y: -0.04296875
z: -1.25390625
range: 1.43804001808
velocity: 0.0
doppler_bin: 8
bearing: -4.93095541
intensity: 23.031961441
---
header: 
  seq: 172409
  stamp: 
    secs: 1561863807
    nsecs:  58724702
  frame_id: "ti_mmwave"
point_id: 7
x: 0.5390625
y: -0.04296875
z: -1.28125
range: 1.48161697388
velocity: 0.0
doppler_bin: 8
bearing: -4.55741930008
intensity: 21.7318630219
---
header: 
  seq: 172410
  stamp: 
    secs: 1561863807
    nsecs:  58732190
  frame_id: "ti_mmwave"
point_id: 8
x: 2.611328125
y: -0.17578125
z: 1.056640625
range: 3.00681090355
velocity: 0.0
doppler_bin: 8
bearing: -3.85104894638
intensity: 29.1539974213
---
header: 
  seq: 172411
  stamp: 
    secs: 1561863807
    nsecs:  58741060
  frame_id: "ti_mmwave"
point_id: 9
x: 2.658203125
y: -0.1796875
z: 1.046875
range: 3.05038785934
velocity: 0.0
doppler_bin: 8
bearing: -3.86716008186
intensity: 32.2968177795
---
header: 
  seq: 172412
  stamp: 
    secs: 1561863807
    nsecs:  58751247
  frame_id: "ti_mmwave"
point_id: 10
x: 2.755859375
y: -0.08984375
z: 0.91015625
range: 3.09396481514
velocity: 0.0
doppler_bin: 8
bearing: -1.86723792553
intensity: 31.3225975037
---
header: 
  seq: 172413
  stamp: 
    secs: 1561863807
    nsecs:  58759784
  frame_id: "ti_mmwave"
point_id: 11
x: 4.408203125
y: -0.142578125
z: 1.240234375
range: 4.88062095642
velocity: 0.0
doppler_bin: 8
bearing: -1.85251843929
intensity: 31.4457416534
---
header: 
  seq: 172414
  stamp: 
    secs: 1561863807
    nsecs:  58768074
  frame_id: "ti_mmwave"
point_id: 12
x: 4.431640625
y: -0.14453125
z: 1.306640625
range: 4.9241976738
velocity: 0.0
doppler_bin: 8
bearing: -1.86795306206
intensity: 31.3289985657
---
header: 
  seq: 172415
  stamp: 
    secs: 1561863807
    nsecs:  58776260
  frame_id: "ti_mmwave"
point_id: 13
x: 4.736328125
y: -0.298828125
z: -0.62109375
range: 5.09850549698
velocity: 0.0
doppler_bin: 8
bearing: -3.61016488075
intensity: 33.4004745483
---
header: 
  seq: 172416
  stamp: 
    secs: 1561863807
    nsecs:  58788606
  frame_id: "ti_mmwave"
point_id: 14
x: 4.7734375
y: -0.30078125
z: -0.650390625
range: 5.14208269119
velocity: 0.0
doppler_bin: 8
bearing: -3.60552406311
intensity: 33.9515151978
---
header: 
  seq: 172417
  stamp: 
    secs: 1561863807
    nsecs:  58957096
  frame_id: "ti_mmwave"
point_id: 15
x: 4.80078125
y: -0.15234375
z: -0.787109375
range: 5.18565940857
velocity: 0.0
doppler_bin: 8
bearing: -1.81756365299
intensity: 30.5307846069
---
header: 
  seq: 172418
  stamp: 
    secs: 1561863807
    nsecs:  58976669
  frame_id: "ti_mmwave"
point_id: 16
x: 4.8828125
y: -0.30859375
z: 0.748046875
range: 5.27281332016
velocity: 0.0
doppler_bin: 8
bearing: -3.61628341675
intensity: 31.25806427
---
header: 
  seq: 172419
  stamp: 
    secs: 1561863807
    nsecs:  58988273
  frame_id: "ti_mmwave"
point_id: 17
x: 4.951171875
y: -0.623046875
z: 0.107421875
range: 5.31639051437
velocity: 0.0
doppler_bin: 8
bearing: -7.17230129242
intensity: 29.9211139679
---
header: 
  seq: 172420
  stamp: 
    secs: 1561863807
    nsecs:  58997082
  frame_id: "ti_mmwave"
point_id: 18
x: 2.384765625
y: 0.4609375
z: 0.359375
range: 2.61461830139
velocity: 0.614668667316
doppler_bin: 9
bearing: 10.9394721985
intensity: 26.6464195251
---
header: 
  seq: 172421
  stamp: 
    secs: 1561863807
    nsecs:  59040027
  frame_id: "ti_mmwave"
point_id: 19
x: 0.01171875
y: 0.03125
z: 0.0234375
range: 0.0435769706964
velocity: 0.0
doppler_bin: 8
bearing: 69.4439544678
intensity: 29.4448261261
---
header: 
  seq: 172422
  stamp: 
    secs: 1561863807
    nsecs:  59049977
  frame_id: "ti_mmwave"
point_id: 20
x: 0.041015625
y: -0.033203125
z: 0.0625
range: 0.0871539413929
velocity: 0.0
doppler_bin: 8
bearing: -38.9909973145
intensity: 30.1745071411
---
header: 
  seq: 172423
  stamp: 
    secs: 1561863807
    nsecs:  59057861
  frame_id: "ti_mmwave"
point_id: 21
x: 0.052734375
y: -0.04296875
z: 0.103515625
range: 0.130730912089
velocity: 0.0
doppler_bin: 8
bearing: -39.1736602783
intensity: 29.0417442322
---
header: 
  seq: 172424
  stamp: 
    secs: 1561863807
    nsecs: 118506820
  frame_id: "ti_mmwave"
point_id: 0
x: 0.01171875
y: -0.0390625
z: -0.0078125
range: 0.0435769706964
velocity: 0.0
doppler_bin: 8
bearing: -73.3007583618
intensity: 30.8098697662
---
header: 
  seq: 172425
  stamp: 
    secs: 1561863807
    nsecs: 118580386
  frame_id: "ti_mmwave"
point_id: 1
x: 0.017578125
y: -0.080078125
z: -0.009765625
range: 0.0871539413929
velocity: 0.0
doppler_bin: 8
bearing: -77.6192398071
intensity: 32.030330658
---
header: 
  seq: 172426
  stamp: 
    secs: 1561863807
    nsecs: 118592003
  frame_id: "ti_mmwave"
point_id: 2
x: 0.041015625
y: -0.115234375
z: -0.009765625
range: 0.130730912089
velocity: 0.0
doppler_bin: 8
bearing: -70.4077224731
intensity: 30.3019485474
---
header: 
  seq: 172427
  stamp: 
    secs: 1561863807
    nsecs: 118600498
  frame_id: "ti_mmwave"
point_id: 3
x: 0.056640625
y: -0.154296875
z: 0.00390625
range: 0.174307882786
velocity: 0.0
doppler_bin: 8
bearing: -69.8423843384
intensity: 25.5388298035
---
header: 
  seq: 172428
  stamp: 
    secs: 1561863807
    nsecs: 118608971
  frame_id: "ti_mmwave"
point_id: 4
x: 0.115234375
y: -0.080078125
z: 1.259765625
range: 1.35088610649
velocity: 0.0
doppler_bin: 8
bearing: -34.7960281372
intensity: 23.2014636993
---
header: 
  seq: 172429
  stamp: 
    secs: 1561863807
    nsecs: 118616930
  frame_id: "ti_mmwave"
point_id: 5
x: 0.279296875
y: -0.041015625
z: -1.27734375
range: 1.39446306229
velocity: 0.0
doppler_bin: 8
bearing: -8.3543510437
intensity: 24.683473587
---
header: 
  seq: 172430
  stamp: 
    secs: 1561863807
    nsecs: 118624818
  frame_id: "ti_mmwave"
point_id: 6
x: 0.5078125
y: -0.04296875
z: -1.25
range: 1.43804001808
velocity: 0.0
doppler_bin: 8
bearing: -4.83658361435
intensity: 23.0963020325
---
header: 
  seq: 172431
  stamp: 
    secs: 1561863807
    nsecs: 118632897
  frame_id: "ti_mmwave"
point_id: 7
x: 2.615234375
y: -0.17578125
z: 1.046875
range: 3.00681090355
velocity: 0.0
doppler_bin: 8
bearing: -3.84531402588
intensity: 29.1328392029
---
header: 
  seq: 172432
  stamp: 
    secs: 1561863807
    nsecs: 118642688
  frame_id: "ti_mmwave"
point_id: 8
x: 2.662109375
y: -0.1796875
z: 1.041015625
range: 3.05038785934
velocity: 0.0
doppler_bin: 8
bearing: -3.86150240898
intensity: 32.2840042114
---
header: 
  seq: 172433
  stamp: 
    secs: 1561863807
    nsecs: 118650837
  frame_id: "ti_mmwave"
point_id: 9
x: 2.755859375
y: -0.08984375
z: 0.912109375
range: 3.09396481514
velocity: 0.0
doppler_bin: 8
bearing: -1.86723792553
intensity: 31.3129787445
---
header: 
  seq: 172434
  stamp: 
    secs: 1561863807
    nsecs: 118658541
  frame_id: "ti_mmwave"
point_id: 10
x: 4.41015625
y: -0.142578125
z: 1.234375
range: 4.88062095642
velocity: 0.0
doppler_bin: 8
bearing: -1.85169863701
intensity: 31.4426269531
---
header: 
  seq: 172435
  stamp: 
    secs: 1561863807
    nsecs: 118666040
  frame_id: "ti_mmwave"
point_id: 11
x: 4.443359375
y: -0.14453125
z: 1.267578125
range: 4.9241976738
velocity: 0.0
doppler_bin: 8
bearing: -1.86303019524
intensity: 31.3129787445
---
header: 
  seq: 172436
  stamp: 
    secs: 1561863807
    nsecs: 118673952
  frame_id: "ti_mmwave"
point_id: 12
x: 4.73828125
y: -0.298828125
z: -0.611328125
range: 5.09850549698
velocity: 0.0
doppler_bin: 8
bearing: -3.60868048668
intensity: 33.422252655
---
header: 
  seq: 172437
  stamp: 
    secs: 1561863807
    nsecs: 118681915
  frame_id: "ti_mmwave"
point_id: 13
x: 4.7734375
y: -0.30078125
z: -0.646484375
range: 5.14208269119
velocity: 0.0
doppler_bin: 8
bearing: -3.60552406311
intensity: 33.9602508545
---
header: 
  seq: 172438
  stamp: 
    secs: 1561863807
    nsecs: 118689575
  frame_id: "ti_mmwave"
point_id: 14
x: 4.8046875
y: -0.15234375
z: -0.76171875
range: 5.18565940857
velocity: 0.0
doppler_bin: 8
bearing: -1.81608688831
intensity: 30.5076637268
---
header: 
  seq: 172439
  stamp: 
    secs: 1561863807
    nsecs: 118698892
  frame_id: "ti_mmwave"
point_id: 15
x: 4.873046875
y: -0.30859375
z: 0.814453125
range: 5.27281332016
velocity: 0.0
doppler_bin: 8
bearing: -3.62351131439
intensity: 31.2678050995
---
header: 
  seq: 172440
  stamp: 
    secs: 1561863807
    nsecs: 118708097
  frame_id: "ti_mmwave"
point_id: 16
x: 4.94921875
y: -0.623046875
z: 0.1640625
range: 5.31639051437
velocity: 0.0
doppler_bin: 8
bearing: -7.17510271072
intensity: 29.9033889771
---
header: 
  seq: 172441
  stamp: 
    secs: 1561863807
    nsecs: 118716379
  frame_id: "ti_mmwave"
point_id: 17
x: 0.01171875
y: 0.03125
z: 0.025390625
range: 0.0435769706964
velocity: 0.0
doppler_bin: 8
bearing: 69.4439544678
intensity: 29.4398880005
---
header: 
  seq: 172442
  stamp: 
    secs: 1561863807
    nsecs: 118724712
  frame_id: "ti_mmwave"
point_id: 18
x: 0.041015625
y: -0.033203125
z: 0.0625
range: 0.0871539413929
velocity: 0.0
doppler_bin: 8
bearing: -38.9909973145
intensity: 30.1786766052
---
header: 
  seq: 172443
  stamp: 
    secs: 1561863807
    nsecs: 118735937
  frame_id: "ti_mmwave"
point_id: 19
x: 0.05078125
y: -0.04296875
z: 0.103515625
range: 0.130730912089
velocity: 0.0
doppler_bin: 8
bearing: -40.2363586426
intensity: 29.0471553802
---
header: 
  seq: 172444
  stamp: 
    secs: 1561863807
    nsecs: 119910105
  frame_id: "ti_mmwave"
point_id: 0
x: 0.01171875
y: -0.0390625
z: -0.0078125
range: 0.0435769706964
velocity: 0.0
doppler_bin: 8
bearing: -73.3007583618
intensity: 30.8134727478
---
header: 
  seq: 172445
  stamp: 
    secs: 1561863807
    nsecs: 119992404
  frame_id: "ti_mmwave"
point_id: 1
x: 0.017578125
y: -0.080078125
z: -0.009765625
range: 0.0871539413929
velocity: 0.0
doppler_bin: 8
bearing: -77.6192398071
intensity: 32.030330658
---
header: 
  seq: 172446
  stamp: 
    secs: 1561863807
    nsecs: 120006343
  frame_id: "ti_mmwave"
point_id: 2
x: 0.041015625
y: -0.115234375
z: -0.009765625
range: 0.130730912089
velocity: 0.0
doppler_bin: 8
bearing: -70.4077224731
intensity: 30.3019485474
---
header: 
  seq: 172447
  stamp: 
    secs: 1561863807
    nsecs: 120015735
  frame_id: "ti_mmwave"
point_id: 3
x: 0.056640625
y: -0.154296875
z: 0.00390625
range: 0.174307882786
velocity: 0.0
doppler_bin: 8
bearing: -69.8423843384
intensity: 25.5388298035
---
header: 
  seq: 172448
  stamp: 
    secs: 1561863807
    nsecs: 120031457
  frame_id: "ti_mmwave"
point_id: 4
x: 0.12109375
y: -0.080078125
z: 1.259765625
range: 1.35088610649
velocity: 0.0
doppler_bin: 8
bearing: -33.4762802124
intensity: 23.2221927643
---
header: 
  seq: 172449
  stamp: 
    secs: 1561863807
    nsecs: 120044904
  frame_id: "ti_mmwave"
point_id: 5
x: 0.26953125
y: -0.041015625
z: -1.28125
range: 1.39446306229
velocity: 0.0
doppler_bin: 8
bearing: -8.65254211426
intensity: 24.6538276672
---
header: 
  seq: 172450
  stamp: 
    secs: 1561863807
    nsecs: 120058366
  frame_id: "ti_mmwave"
point_id: 6
x: 0.50390625
y: -0.04296875
z: -1.251953125
range: 1.43804001808
velocity: 0.0
doppler_bin: 8
bearing: -4.87389659882
intensity: 23.0749607086
---
header: 
  seq: 172451
  stamp: 
    secs: 1561863807
    nsecs: 120071479
  frame_id: "ti_mmwave"
point_id: 7
x: 0.5390625
y: -0.04296875
z: -1.28125
range: 1.48161697388
velocity: 0.0
doppler_bin: 8
bearing: -4.55741930008
intensity: 21.7609119415
---
header: 
  seq: 172452
  stamp: 
    secs: 1561863807
    nsecs: 120085556
  frame_id: "ti_mmwave"
point_id: 8
x: 2.658203125
y: -0.1796875
z: 1.046875
range: 3.05038785934
velocity: 0.0
doppler_bin: 8
bearing: -3.86716008186
intensity: 32.3019332886
---
header: 
  seq: 172453
  stamp: 
    secs: 1561863807
    nsecs: 120098533
  frame_id: "ti_mmwave"
point_id: 9
x: 2.751953125
y: -0.08984375
z: 0.921875
range: 3.09396481514
velocity: 0.0
doppler_bin: 8
bearing: -1.86988639832
intensity: 31.306552887
---
header: 
  seq: 172454
  stamp: 
    secs: 1561863807
    nsecs: 120111901
  frame_id: "ti_mmwave"
point_id: 10
x: 4.41015625
y: -0.142578125
z: 1.23046875
range: 4.88062095642
velocity: 0.0
doppler_bin: 8
bearing: -1.85169863701
intensity: 31.4457416534
---
header: 
  seq: 172455
  stamp: 
    secs: 1561863807
    nsecs: 120124529
  frame_id: "ti_mmwave"
point_id: 11
x: 4.44140625
y: -0.14453125
z: 1.26953125
range: 4.9241976738
velocity: 0.0
doppler_bin: 8
bearing: -1.86384868622
intensity: 31.3161869049
---
header: 
  seq: 172456
  stamp: 
    secs: 1561863807
    nsecs: 120138560
  frame_id: "ti_mmwave"
point_id: 12
x: 4.732421875
y: -0.298828125
z: -0.646484375
range: 5.09850549698
velocity: 0.0
doppler_bin: 8
bearing: -3.61313724518
intensity: 33.3645973206
---
header: 
  seq: 172457
  stamp: 
    secs: 1561863807
    nsecs: 120151263
  frame_id: "ti_mmwave"
point_id: 13
x: 4.771484375
y: -0.30078125
z: -0.6640625
range: 5.14208269119
velocity: 0.0
doppler_bin: 8
bearing: -3.60699558258
intensity: 33.9515151978
---
header: 
  seq: 172458
  stamp: 
    secs: 1561863807
    nsecs: 120164441
  frame_id: "ti_mmwave"
point_id: 14
x: 4.8046875
y: -0.15234375
z: -0.771484375
range: 5.18565940857
velocity: 0.0
doppler_bin: 8
bearing: -1.81608688831
intensity: 30.6595306396
---
header: 
  seq: 172459
  stamp: 
    secs: 1561863807
    nsecs: 120178330
  frame_id: "ti_mmwave"
point_id: 15
x: 4.86328125
y: -0.30859375
z: 0.87109375
range: 5.27281332016
velocity: 0.0
doppler_bin: 8
bearing: -3.63076806068
intensity: 31.2678050995
---
header: 
  seq: 172460
  stamp: 
    secs: 1561863807
    nsecs: 120191109
  frame_id: "ti_mmwave"
point_id: 16
x: 4.947265625
y: -0.623046875
z: 0.20703125
range: 5.31639051437
velocity: 0.0
doppler_bin: 8
bearing: -7.17790555954
intensity: 29.8811283112
---
header: 
  seq: 172461
  stamp: 
    secs: 1561863807
    nsecs: 120203845
  frame_id: "ti_mmwave"
point_id: 17
x: 0.01171875
y: 0.03125
z: 0.025390625
range: 0.0435769706964
velocity: 0.0
doppler_bin: 8
bearing: 69.4439544678
intensity: 29.4448261261
---
header: 
  seq: 172462
  stamp: 
    secs: 1561863807
    nsecs: 120217025
  frame_id: "ti_mmwave"
point_id: 18
x: 0.041015625
y: -0.033203125
z: 0.0625
range: 0.0871539413929
velocity: 0.0
doppler_bin: 8
bearing: -38.9909973145
intensity: 30.1745071411
---
header: 
  seq: 172463
  stamp: 
    secs: 1561863807
    nsecs: 120229930
  frame_id: "ti_mmwave"
point_id: 19
x: 0.05078125
y: -0.04296875
z: 0.103515625
range: 0.130730912089
velocity: 0.0
doppler_bin: 8
bearing: -40.2363586426
intensity: 29.0417442322
---
header: 
  seq: 172464
  stamp: 
    secs: 1561863807
    nsecs: 178441811
  frame_id: "ti_mmwave"
point_id: 0
x: 0.01171875
y: -0.0390625
z: -0.0078125
range: 0.0435769706964
velocity: 0.0
doppler_bin: 8
bearing: -73.3007583618
intensity: 30.8170719147
---
header: 
  seq: 172465
  stamp: 
    secs: 1561863807
    nsecs: 178517462
  frame_id: "ti_mmwave"
point_id: 1
x: 0.017578125
y: -0.080078125
z: -0.009765625
range: 0.0871539413929
velocity: 0.0
doppler_bin: 8
bearing: -77.6192398071
intensity: 32.030330658
---
header: 
  seq: 172466
  stamp: 
    secs: 1561863807
    nsecs: 178528689
  frame_id: "ti_mmwave"
point_id: 2
x: 0.041015625
y: -0.115234375
z: -0.009765625
range: 0.130730912089
velocity: 0.0
doppler_bin: 8
bearing: -70.4077224731
intensity: 30.2978954315
---
header: 
  seq: 172467
  stamp: 
    secs: 1561863807
    nsecs: 178536956
  frame_id: "ti_mmwave"
point_id: 3
x: 0.056640625
y: -0.154296875
z: 0.00390625
range: 0.174307882786
velocity: 0.0
doppler_bin: 8
bearing: -69.8423843384
intensity: 25.5388298035
---
header: 
  seq: 172468
  stamp: 
    secs: 1561863807
    nsecs: 178544861
  frame_id: "ti_mmwave"
point_id: 4
x: 0.185546875
y: -0.080078125
z: 1.251953125
range: 1.35088610649
velocity: 0.0
doppler_bin: 8
bearing: -23.3440113068
intensity: 23.1597042084
---
header: 
  seq: 172469
  stamp: 
    secs: 1561863807
    nsecs: 178552750
  frame_id: "ti_mmwave"
point_id: 5
x: 0.228515625
y: -0.041015625
z: -1.2890625
range: 1.39446306229
velocity: 0.0
doppler_bin: 8
bearing: -10.1755104065
intensity: 24.6389293671
---
header: 
  seq: 172470
  stamp: 
    secs: 1561863807
    nsecs: 178560760
  frame_id: "ti_mmwave"
point_id: 6
x: 0.498046875
y: -0.04296875
z: -1.25390625
range: 1.43804001808
velocity: 0.0
doppler_bin: 8
bearing: -4.93095541
intensity: 23.031961441
---
header: 
  seq: 172471
  stamp: 
    secs: 1561863807
    nsecs: 178568812
  frame_id: "ti_mmwave"
point_id: 7
x: 0.556640625
y: -0.04296875
z: -1.2734375
range: 1.48161697388
velocity: 0.0
doppler_bin: 8
bearing: -4.41407871246
intensity: 21.7318630219
---
header: 
  seq: 172472
  stamp: 
    secs: 1561863807
    nsecs: 178579000
  frame_id: "ti_mmwave"
point_id: 8
x: 2.658203125
y: -0.1796875
z: 1.046875
range: 3.05038785934
velocity: 0.0
doppler_bin: 8
bearing: -3.86716008186
intensity: 32.2968177795
---
header: 
  seq: 172473
  stamp: 
    secs: 1561863807
    nsecs: 178590348
  frame_id: "ti_mmwave"
point_id: 9
x: 2.75390625
y: -0.08984375
z: 0.91796875
range: 3.09396481514
velocity: 0.0
doppler_bin: 8
bearing: -1.86856126785
intensity: 31.3289985657
---
header: 
  seq: 172474
  stamp: 
    secs: 1561863807
    nsecs: 178601671
  frame_id: "ti_mmwave"
point_id: 10
x: 4.41015625
y: -0.142578125
z: 1.234375
range: 4.88062095642
velocity: 0.0
doppler_bin: 8
bearing: -1.85169863701
intensity: 31.47057724
---
header: 
  seq: 172475
  stamp: 
    secs: 1561863807
    nsecs: 178613538
  frame_id: "ti_mmwave"
point_id: 11
x: 4.439453125
y: -0.14453125
z: 1.28125
range: 4.9241976738
velocity: 0.0
doppler_bin: 8
bearing: -1.86466813087
intensity: 31.3608608246
---
header: 
  seq: 172476
  stamp: 
    secs: 1561863807
    nsecs: 178621509
  frame_id: "ti_mmwave"
point_id: 12
x: 4.740234375
y: -0.298828125
z: -0.58984375
range: 5.09850549698
velocity: 0.0
doppler_bin: 8
bearing: -3.60719799995
intensity: 33.3264045715
---
header: 
  seq: 172477
  stamp: 
    secs: 1561863807
    nsecs: 178629718
  frame_id: "ti_mmwave"
point_id: 13
x: 4.7734375
y: -0.30078125
z: -0.654296875
range: 5.14208269119
velocity: 0.0
doppler_bin: 8
bearing: -3.60552406311
intensity: 33.9339981079
---
header: 
  seq: 172478
  stamp: 
    secs: 1561863807
    nsecs: 178637752
  frame_id: "ti_mmwave"
point_id: 14
x: 4.79296875
y: -0.15234375
z: -0.83203125
range: 5.18565940857
velocity: 0.0
doppler_bin: 8
bearing: -1.8205242157
intensity: 30.6818580627
---
header: 
  seq: 172479
  stamp: 
    secs: 1561863807
    nsecs: 178647666
  frame_id: "ti_mmwave"
point_id: 15
x: 4.88671875
y: -0.30859375
z: 0.72265625
range: 5.27281332016
velocity: 0.0
doppler_bin: 8
bearing: -3.61340069771
intensity: 31.1092624664
---
header: 
  seq: 172480
  stamp: 
    secs: 1561863807
    nsecs: 178656981
  frame_id: "ti_mmwave"
point_id: 16
x: 4.951171875
y: -0.623046875
z: 0.107421875
range: 5.31639051437
velocity: 0.0
doppler_bin: 8
bearing: -7.17230129242
intensity: 29.8362636566
---
header: 
  seq: 172481
  stamp: 
    secs: 1561863807
    nsecs: 178665406
  frame_id: "ti_mmwave"
point_id: 17
x: 0.01171875
y: 0.03125
z: 0.0234375
range: 0.0435769706964
velocity: 0.0
doppler_bin: 8
bearing: 69.4439544678
intensity: 29.4349460602
---
header: 
  seq: 172482
  stamp: 
    secs: 1561863807
    nsecs: 178674427
  frame_id: "ti_mmwave"
point_id: 18
x: 0.041015625
y: -0.033203125
z: 0.0625
range: 0.0871539413929
velocity: 0.0
doppler_bin: 8
bearing: -38.9909973145
intensity: 30.1661548615
---
header: 
  seq: 172483
  stamp: 
    secs: 1561863807
    nsecs: 178682831
  frame_id: "ti_mmwave"
point_id: 19
x: 0.05078125
y: -0.04296875
z: 0.103515625
range: 0.130730912089
velocity: 0.0
doppler_bin: 8
bearing: -40.2363586426
intensity: 29.0363254547
---
header: 
  seq: 172484
  stamp: 
    secs: 1561863807
    nsecs: 179716951
  frame_id: "ti_mmwave"
point_id: 0
x: 0.01171875
y: -0.0390625
z: -0.0078125
range: 0.0435769706964
velocity: 0.0
doppler_bin: 8
bearing: -73.3007583618
intensity: 30.8134727478
---
header: 
  seq: 172485
  stamp: 
    secs: 1561863807
    nsecs: 179777736
  frame_id: "ti_mmwave"
point_id: 1
x: 0.017578125
y: -0.080078125
z: -0.009765625
range: 0.0871539413929
velocity: 0.0
doppler_bin: 8
bearing: -77.6192398071
intensity: 32.030330658
---
header: 
  seq: 172486
  stamp: 
    secs: 1561863807
    nsecs: 179795865
  frame_id: "ti_mmwave"
point_id: 2
x: 0.029296875
y: -0.119140625
z: -0.005859375
range: 0.130730912089
velocity: 0.0
doppler_bin: 8
bearing: -76.1849746704
intensity: 30.2978954315
---
header: 
  seq: 172487
  stamp: 
    secs: 1561863807
    nsecs: 179841697
  frame_id: "ti_mmwave"
point_id: 3
x: 0.056640625
y: -0.154296875
z: 0.005859375
range: 0.174307882786
velocity: 0.0
doppler_bin: 8
bearing: -69.8423843384
intensity: 25.5266819
---
header: 
  seq: 172488
  stamp: 
    secs: 1561863807
    nsecs: 179865083
  frame_id: "ti_mmwave"
point_id: 4
x: 0.115234375
y: -0.080078125
z: 1.259765625
range: 1.35088610649
velocity: 0.0
doppler_bin: 8
bearing: -34.7960281372
intensity: 23.2014636993
---
header: 
  seq: 172489
  stamp: 
    secs: 1561863807
    nsecs: 179874122
  frame_id: "ti_mmwave"
point_id: 5
x: 0.28125
y: -0.041015625
z: -1.27734375
range: 1.39446306229
velocity: 0.0
doppler_bin: 8
bearing: -8.29714488983
intensity: 24.6389293671
---
header: 
  seq: 172490
  stamp: 
    secs: 1561863807
    nsecs: 179994048
  frame_id: "ti_mmwave"
point_id: 6
x: 0.51953125
y: -0.04296875
z: -1.24609375
range: 1.43804001808
velocity: 0.0
doppler_bin: 8
bearing: -4.72798776627
intensity: 23.031961441
---
header: 
  seq: 172491
  stamp: 
    secs: 1561863807
    nsecs: 180014562
  frame_id: "ti_mmwave"
point_id: 7
x: 0.576171875
y: -0.04296875
z: -1.265625
range: 1.48161697388
velocity: 0.0
doppler_bin: 8
bearing: -4.2650103569
intensity: 21.7318630219
---
header: 
  seq: 172492
  stamp: 
    secs: 1561863807
    nsecs: 180031676
  frame_id: "ti_mmwave"
point_id: 8
x: 2.22265625
y: 0.58203125
z: -0.390625
range: 2.48388743401
velocity: 0.0
doppler_bin: 8
bearing: 14.6741495132
intensity: 26.6086540222
---
header: 
  seq: 172493
  stamp: 
    secs: 1561863807
    nsecs: 180040403
  frame_id: "ti_mmwave"
point_id: 9
x: 2.267578125
y: 0.59375
z: -0.3671875
range: 2.5274643898
velocity: 0.0
doppler_bin: 8
bearing: 14.6730937958
intensity: 26.3548374176
---
header: 
  seq: 172494
  stamp: 
    secs: 1561863807
    nsecs: 180066801
  frame_id: "ti_mmwave"
point_id: 10
x: 2.658203125
y: -0.1796875
z: 1.05078125
range: 3.05038785934
velocity: 0.0
doppler_bin: 8
bearing: -3.86716008186
intensity: 32.2891349792
---
header: 
  seq: 172495
  stamp: 
    secs: 1561863807
    nsecs: 180087557
  frame_id: "ti_mmwave"
point_id: 11
x: 2.755859375
y: -0.08984375
z: 0.9140625
range: 3.09396481514
velocity: 0.0
