header: 
  seq: 276186
  stamp: 
    secs: 1561863960
    nsecs: 928325074
  frame_id: "ti_mmwave"
point_id: 0
x: 0.01171875
y: -0.0390625
z: -0.0078125
range: 0.0435769706964
velocity: 0.0
doppler_bin: 8
bearing: -73.3007583618
intensity: 30.7627620697
---
header: 
  seq: 276187
  stamp: 
    secs: 1561863960
    nsecs: 928432682
  frame_id: "ti_mmwave"
point_id: 1
x: 0.017578125
y: -0.080078125
z: -0.009765625
range: 0.0871539413929
velocity: 0.0
doppler_bin: 8
bearing: -77.6192398071
intensity: 31.9865703583
---
header: 
  seq: 276188
  stamp: 
    secs: 1561863960
    nsecs: 928444594
  frame_id: "ti_mmwave"
point_id: 2
x: 0.029296875
y: -0.119140625
z: -0.005859375
range: 0.130730912089
velocity: 0.0
doppler_bin: 8
bearing: -76.1849746704
intensity: 30.2530593872
---
header: 
  seq: 276189
  stamp: 
    secs: 1561863960
    nsecs: 928453162
  frame_id: "ti_mmwave"
point_id: 3
x: 0.056640625
y: -0.154296875
z: 0.005859375
range: 0.174307882786
velocity: 0.0
doppler_bin: 8
bearing: -69.8423843384
intensity: 25.5022830963
---
header: 
  seq: 276190
  stamp: 
    secs: 1561863960
    nsecs: 928463823
  frame_id: "ti_mmwave"
point_id: 4
x: 0.1328125
y: -0.080078125
z: 1.2578125
range: 1.35088610649
velocity: 0.0
doppler_bin: 8
bearing: -31.0875034332
intensity: 23.1175384521
---
header: 
  seq: 276191
  stamp: 
    secs: 1561863960
    nsecs: 928475610
  frame_id: "ti_mmwave"
point_id: 6
x: 0.421875
y: -0.083984375
z: -1.279296875
range: 1.43804001808
velocity: 0.0
doppler_bin: 8
bearing: -11.2589120865
intensity: 23.031961441
---
header: 
  seq: 276192
  stamp: 
    secs: 1561863960
    nsecs: 928483686
  frame_id: "ti_mmwave"
point_id: 7
x: 0.55859375
y: -0.04296875
z: -1.2734375
range: 1.48161697388
velocity: 0.0
doppler_bin: 8
bearing: -4.39870548248
intensity: 21.7026176453
---
header: 
  seq: 276193
  stamp: 
    secs: 1561863960
    nsecs: 928491665
  frame_id: "ti_mmwave"
point_id: 8
x: 2.439453125
y: 0.154296875
z: -0.23046875
range: 2.61461830139
velocity: 0.0
doppler_bin: 8
bearing: 3.61917114258
intensity: 27.0842094421
---
header: 
  seq: 276194
  stamp: 
    secs: 1561863960
    nsecs: 928499773
  frame_id: "ti_mmwave"
point_id: 9
x: 2.693359375
y: -0.087890625
z: 0.841796875
range: 3.00681090355
velocity: 0.0
doppler_bin: 8
bearing: -1.86903238297
intensity: 29.3449840546
---
header: 
  seq: 276195
  stamp: 
    secs: 1561863960
    nsecs: 928507628
  frame_id: "ti_mmwave"
point_id: 10
x: 2.67578125
y: -0.1796875
z: 1.00390625
range: 3.05038785934
velocity: 0.0
doppler_bin: 8
bearing: -3.84183168411
intensity: 32.3954963684
---
header: 
  seq: 276196
  stamp: 
    secs: 1561863960
    nsecs: 928515319
  frame_id: "ti_mmwave"
point_id: 11
x: 2.7578125
y: -0.08984375
z: 0.904296875
range: 3.09396481514
velocity: 0.0
doppler_bin: 8
bearing: -1.86591637135
intensity: 31.3767051697
---
header: 
  seq: 276197
  stamp: 
    secs: 1561863960
    nsecs: 928523892
  frame_id: "ti_mmwave"
point_id: 12
x: 4.419921875
y: -0.142578125
z: 1.201171875
range: 4.88062095642
velocity: 0.0
doppler_bin: 8
bearing: -1.847610116
intensity: 31.4019374847
---
header: 
  seq: 276198
  stamp: 
    secs: 1561863960
    nsecs: 928534365
  frame_id: "ti_mmwave"
point_id: 13
x: 4.4609375
y: -0.14453125
z: 1.205078125
range: 4.9241976738
velocity: 0.0
doppler_bin: 8
bearing: -1.85569405556
intensity: 30.9691009521
---
header: 
  seq: 276199
  stamp: 
    secs: 1561863960
    nsecs: 928542287
  frame_id: "ti_mmwave"
point_id: 14
x: 4.740234375
y: -0.298828125
z: -0.58203125
range: 5.09850549698
velocity: 0.0
doppler_bin: 8
bearing: -3.60719799995
intensity: 33.0513648987
---
header: 
  seq: 276200
  stamp: 
    secs: 1561863960
    nsecs: 928712908
  frame_id: "ti_mmwave"
point_id: 15
x: 4.77734375
y: -0.30078125
z: -0.626953125
range: 5.14208269119
velocity: 0.0
doppler_bin: 8
bearing: -3.60258316994
intensity: 33.4262008667
---
header: 
  seq: 276201
  stamp: 
    secs: 1561863960
    nsecs: 928730991
  frame_id: "ti_mmwave"
point_id: 16
x: 4.890625
y: -0.30859375
z: 0.6953125
range: 5.27281332016
velocity: 0.0
doppler_bin: 8
bearing: -3.61052203178
intensity: 31.0551013947
---
header: 
  seq: 276202
  stamp: 
    secs: 1561863960
    nsecs: 928739135
  frame_id: "ti_mmwave"
point_id: 17
x: 4.951171875
y: -0.623046875
z: 0.025390625
range: 5.31639051437
velocity: 0.0
doppler_bin: 8
bearing: -7.17230129242
intensity: 29.7497196198
---
header: 
  seq: 276203
  stamp: 
    secs: 1561863960
    nsecs: 928747545
  frame_id: "ti_mmwave"
point_id: 18
x: 2.392578125
y: 0.150390625
z: -0.28515625
range: 2.5710413456
velocity: -0.614668667316
doppler_bin: 7
bearing: 3.5967168808
intensity: 25.2504482269
---
header: 
  seq: 276204
  stamp: 
    secs: 1561863960
    nsecs: 928755486
  frame_id: "ti_mmwave"
point_id: 19
x: 2.416015625
y: 0.076171875
z: -0.421875
range: 2.61461830139
velocity: -0.614668667316
doppler_bin: 7
bearing: 1.80581700802
intensity: 26.9897003174
---
header: 
  seq: 276205
  stamp: 
    secs: 1561863960
    nsecs: 928765873
  frame_id: "ti_mmwave"
point_id: 20
x: 2.427734375
y: 0.15625
z: -0.55859375
range: 2.65819525719
velocity: -0.614668667316
doppler_bin: 7
bearing: 3.68250107765
intensity: 27.2509460449
---
header: 
  seq: 276206
  stamp: 
    secs: 1561863960
    nsecs: 928776135
  frame_id: "ti_mmwave"
point_id: 21
x: 0.01171875
y: 0.03125
z: 0.025390625
range: 0.0435769706964
velocity: 0.0
doppler_bin: 8
bearing: 69.4439544678
intensity: 29.4001808167
---
header: 
  seq: 276207
  stamp: 
    secs: 1561863960
    nsecs: 928781957
  frame_id: "ti_mmwave"
point_id: 22
x: 0.041015625
y: -0.033203125
z: 0.0625
range: 0.0871539413929
velocity: 0.0
doppler_bin: 8
bearing: -38.9909973145
intensity: 30.1452045441
---
header: 
  seq: 276208
  stamp: 
    secs: 1561863960
    nsecs: 928827616
  frame_id: "ti_mmwave"
point_id: 23
x: 0.052734375
y: -0.04296875
z: 0.103515625
range: 0.130730912089
velocity: 0.0
doppler_bin: 8
bearing: -39.1736602783
intensity: 29.0091304779
---
header: 
  seq: 276209
  stamp: 
    secs: 1561863960
    nsecs: 929814245
  frame_id: "ti_mmwave"
point_id: 0
x: 0.01171875
y: -0.0390625
z: -0.0078125
range: 0.0435769706964
velocity: 0.0
doppler_bin: 8
bearing: -73.3007583618
intensity: 30.7627620697
---
header: 
  seq: 276210
  stamp: 
    secs: 1561863960
    nsecs: 929858174
  frame_id: "ti_mmwave"
point_id: 1
x: 0.017578125
y: -0.080078125
z: -0.009765625
range: 0.0871539413929
velocity: 0.0
doppler_bin: 8
bearing: -77.6192398071
intensity: 31.9893188477
---
header: 
  seq: 276211
  stamp: 
    secs: 1561863960
    nsecs: 929870391
  frame_id: "ti_mmwave"
point_id: 2
x: 0.029296875
y: -0.119140625
z: -0.005859375
range: 0.130730912089
velocity: 0.0
doppler_bin: 8
bearing: -76.1849746704
intensity: 30.2530593872
---
header: 
  seq: 276212
  stamp: 
    secs: 1561863960
    nsecs: 929879601
  frame_id: "ti_mmwave"
point_id: 3
x: 0.056640625
y: -0.154296875
z: 0.005859375
range: 0.174307882786
velocity: 0.0
doppler_bin: 8
bearing: -69.8423843384
intensity: 25.5022830963
---
header: 
  seq: 276213
  stamp: 
    secs: 1561863960
    nsecs: 929893003
  frame_id: "ti_mmwave"
point_id: 4
x: 0.0859375
y: -0.080078125
z: 1.26171875
range: 1.35088610649
velocity: 0.0
doppler_bin: 8
bearing: -42.9786338806
intensity: 23.138671875
---
header: 
  seq: 276214
  stamp: 
    secs: 1561863960
    nsecs: 929919496
  frame_id: "ti_mmwave"
point_id: 5
x: 0.283203125
y: -0.041015625
z: -1.27734375
range: 1.39446306229
velocity: 0.0
doppler_bin: 8
bearing: -8.24071216583
intensity: 24.5939254761
---
header: 
  seq: 276215
  stamp: 
    secs: 1561863960
    nsecs: 929941412
  frame_id: "ti_mmwave"
point_id: 6
x: 0.533203125
y: -0.04296875
z: -1.240234375
range: 1.43804001808
velocity: 0.0
doppler_bin: 8
bearing: -4.60728597641
intensity: 22.9885311127
---
header: 
  seq: 276216
  stamp: 
    secs: 1561863960
    nsecs: 930005856
  frame_id: "ti_mmwave"
point_id: 7
x: 0.572265625
y: -0.04296875
z: -1.265625
range: 1.48161697388
velocity: 0.0
doppler_bin: 8
bearing: -4.29401493073
intensity: 21.6731739044
---
header: 
  seq: 276217
  stamp: 
    secs: 1561863960
    nsecs: 930020235
  frame_id: "ti_mmwave"
point_id: 8
x: 2.654296875
y: -0.1796875
z: 1.05859375
range: 3.05038785934
velocity: 0.0
doppler_bin: 8
bearing: -3.87283420563
intensity: 32.2193565369
---
header: 
  seq: 276218
  stamp: 
    secs: 1561863960
    nsecs: 930033703
  frame_id: "ti_mmwave"
point_id: 9
x: 2.755859375
y: -0.08984375
z: 0.912109375
range: 3.09396481514
velocity: 0.0
doppler_bin: 8
bearing: -1.86723792553
intensity: 31.2775249481
---
header: 
  seq: 276219
  stamp: 
    secs: 1561863960
    nsecs: 930046478
  frame_id: "ti_mmwave"
point_id: 10
x: 4.41796875
y: -0.142578125
z: 1.203125
range: 4.88062095642
velocity: 0.0
doppler_bin: 8
bearing: -1.84842634201
intensity: 31.3161869049
---
header: 
  seq: 276220
  stamp: 
    secs: 1561863960
    nsecs: 930057703
  frame_id: "ti_mmwave"
point_id: 11
x: 4.44921875
y: -0.14453125
z: 1.24609375
range: 4.9241976738
velocity: 0.0
doppler_bin: 8
bearing: -1.86057829857
intensity: 30.7554702759
---
header: 
  seq: 276221
  stamp: 
    secs: 1561863960
    nsecs: 930069772
  frame_id: "ti_mmwave"
point_id: 12
x: 4.7421875
y: -0.298828125
z: -0.578125
range: 5.09850549698
velocity: 0.0
doppler_bin: 8
bearing: -3.60571622849
intensity: 33.1492004395
---
header: 
  seq: 276222
  stamp: 
    secs: 1561863960
    nsecs: 930082083
  frame_id: "ti_mmwave"
point_id: 13
x: 4.77734375
y: -0.30078125
z: -0.61328125
range: 5.14208269119
velocity: 0.0
doppler_bin: 8
bearing: -3.60258316994
intensity: 33.4301452637
---
header: 
  seq: 276223
  stamp: 
    secs: 1561863960
    nsecs: 930093699
  frame_id: "ti_mmwave"
point_id: 14
x: 4.83203125
y: -0.154296875
z: 0.853515625
range: 5.22923660278
velocity: 0.0
doppler_bin: 8
bearing: -1.8289526701
intensity: 29.6988162994
---
header: 
  seq: 276224
  stamp: 
    secs: 1561863960
    nsecs: 930105438
  frame_id: "ti_mmwave"
point_id: 15
x: 4.89453125
y: -0.30859375
z: 0.66796875
range: 5.27281332016
velocity: 0.0
doppler_bin: 8
bearing: -3.60764837265
intensity: 31.319393158
---
header: 
  seq: 276225
  stamp: 
    secs: 1561863960
    nsecs: 930120000
  frame_id: "ti_mmwave"
point_id: 16
x: 4.951171875
y: -0.623046875
z: 0.03125
range: 5.31639051437
velocity: 0.0
doppler_bin: 8
bearing: -7.17230129242
intensity: 29.7909297943
---
header: 
  seq: 276226
  stamp: 
    secs: 1561863960
    nsecs: 930132328
  frame_id: "ti_mmwave"
point_id: 17
x: 2.37109375
y: 0.07421875
z: -0.056640625
range: 2.5274643898
velocity: -0.614668667316
doppler_bin: 7
bearing: 1.79285740852
intensity: 25.2633934021
---
header: 
  seq: 276227
  stamp: 
    secs: 1561863960
    nsecs: 930145974
  frame_id: "ti_mmwave"
point_id: 18
x: 2.40625
y: 0.076171875
z: -0.173828125
range: 2.5710413456
velocity: -0.614668667316
doppler_bin: 7
bearing: 1.81314074993
intensity: 25.7403125763
---
header: 
  seq: 276228
  stamp: 
    secs: 1561863960
    nsecs: 930176413
  frame_id: "ti_mmwave"
point_id: 19
x: 2.41015625
y: 0.154296875
z: -0.439453125
range: 2.61461830139
velocity: -0.614668667316
doppler_bin: 7
bearing: 3.66304540634
intensity: 25.9879055023
---
header: 
  seq: 276229
  stamp: 
    secs: 1561863960
    nsecs: 930186011
  frame_id: "ti_mmwave"
point_id: 20
x: 2.4296875
y: 0.15625
z: -0.546875
range: 2.65819525719
velocity: -0.614668667316
doppler_bin: 7
bearing: 3.67954921722
intensity: 24.4715805054
---
header: 
  seq: 276230
  stamp: 
    secs: 1561863960
    nsecs: 930195224
  frame_id: "ti_mmwave"
point_id: 21
x: 0.01171875
y: 0.03125
z: 0.025390625
range: 0.0435769706964
velocity: 0.0
doppler_bin: 8
bearing: 69.4439544678
intensity: 29.3951931
---
header: 
  seq: 276231
  stamp: 
    secs: 1561863960
    nsecs: 930202953
  frame_id: "ti_mmwave"
point_id: 22
x: 0.041015625
y: -0.033203125
z: 0.0625
range: 0.0871539413929
velocity: 0.0
doppler_bin: 8
bearing: -38.9909973145
intensity: 30.1452045441
---
header: 
  seq: 276232
  stamp: 
    secs: 1561863960
    nsecs: 930274059
  frame_id: "ti_mmwave"
point_id: 23
x: 0.052734375
y: -0.04296875
z: 0.103515625
range: 0.130730912089
velocity: 0.0
doppler_bin: 8
bearing: -39.1736602783
intensity: 29.0145835876
---
header: 
  seq: 276233
  stamp: 
    secs: 1561863960
    nsecs: 989260857
  frame_id: "ti_mmwave"
point_id: 0
x: 0.01171875
y: -0.0390625
z: -0.0078125
range: 0.0435769706964
velocity: 0.0
doppler_bin: 8
bearing: -73.3007583618
intensity: 30.7627620697
---
header: 
  seq: 276234
  stamp: 
    secs: 1561863960
    nsecs: 989340509
  frame_id: "ti_mmwave"
point_id: 1
x: 0.017578125
y: -0.080078125
z: -0.009765625
range: 0.0871539413929
velocity: 0.0
doppler_bin: 8
bearing: -77.6192398071
intensity: 31.9893188477
---
header: 
  seq: 276235
  stamp: 
    secs: 1561863960
    nsecs: 989352287
  frame_id: "ti_mmwave"
point_id: 2
x: 0.029296875
y: -0.119140625
z: -0.005859375
range: 0.130730912089
velocity: 0.0
doppler_bin: 8
bearing: -76.1849746704
intensity: 30.2571544647
---
header: 
  seq: 276236
  stamp: 
    secs: 1561863960
    nsecs: 989360997
  frame_id: "ti_mmwave"
point_id: 3
x: 0.056640625
y: -0.154296875
z: 0.005859375
range: 0.174307882786
velocity: 0.0
doppler_bin: 8
bearing: -69.8423843384
intensity: 25.5144996643
---
header: 
  seq: 276237
  stamp: 
    secs: 1561863960
    nsecs: 989369736
  frame_id: "ti_mmwave"
point_id: 4
x: 0.166015625
y: -0.080078125
z: 1.25390625
range: 1.35088610649
velocity: 0.0
doppler_bin: 8
bearing: -25.7504749298
intensity: 23.1175384521
---
header: 
  seq: 276238
  stamp: 
    secs: 1561863960
    nsecs: 989383896
  frame_id: "ti_mmwave"
point_id: 6
x: 0.427734375
y: -0.083984375
z: -1.27734375
range: 1.43804001808
velocity: 0.0
doppler_bin: 8
bearing: -11.1085424423
intensity: 22.9885311127
---
header: 
  seq: 276239
  stamp: 
    secs: 1561863960
    nsecs: 989403069
  frame_id: "ti_mmwave"
point_id: 7
x: 0.56640625
y: -0.04296875
z: -1.26953125
range: 1.48161697388
velocity: 0.0
doppler_bin: 8
bearing: -4.33826684952
intensity: 21.6435279846
---
header: 
  seq: 276240
  stamp: 
    secs: 1561863960
    nsecs: 989416627
  frame_id: "ti_mmwave"
point_id: 8
x: 2.669921875
y: -0.1796875
z: 1.021484375
range: 3.05038785934
velocity: 0.0
doppler_bin: 8
bearing: -3.85023736954
intensity: 32.3350372314
---
header: 
  seq: 276241
  stamp: 
    secs: 1561863960
    nsecs: 989424759
  frame_id: "ti_mmwave"
point_id: 9
x: 2.763671875
y: -0.08984375
z: 0.890625
range: 3.09396481514
velocity: 0.0
doppler_bin: 8
bearing: -1.8619633913
intensity: 31.3767051697
---
header: 
  seq: 276242
  stamp: 
    secs: 1561863960
    nsecs: 989592287
  frame_id: "ti_mmwave"
point_id: 10
x: 4.41796875
y: -0.142578125
z: 1.20703125
range: 4.88062095642
velocity: 0.0
doppler_bin: 8
bearing: -1.84842634201
intensity: 31.3767051697
---
header: 
  seq: 276243
  stamp: 
    secs: 1561863960
    nsecs: 989612371
  frame_id: "ti_mmwave"
point_id: 11
x: 4.451171875
y: -0.14453125
z: 1.240234375
range: 4.9241976738
velocity: 0.0
doppler_bin: 8
bearing: -1.8597625494
intensity: 30.824262619
---
header: 
  seq: 276244
  stamp: 
    secs: 1561863960
    nsecs: 989651771
  frame_id: "ti_mmwave"
point_id: 12
x: 4.7421875
y: -0.298828125
z: -0.580078125
range: 5.09850549698
velocity: 0.0
doppler_bin: 8
bearing: -3.60571622849
intensity: 33.064250946
---
header: 
  seq: 276245
  stamp: 
    secs: 1561863960
    nsecs: 989663616
  frame_id: "ti_mmwave"
point_id: 13
x: 4.77734375
y: -0.30078125
z: -0.615234375
range: 5.14208269119
velocity: 0.0
doppler_bin: 8
bearing: -3.60258316994
intensity: 33.5160293579
---
header: 
  seq: 276246
  stamp: 
    secs: 1561863960
    nsecs: 989670605
  frame_id: "ti_mmwave"
point_id: 14
x: 4.884765625
y: -0.30859375
z: 0.73046875
range: 5.27281332016
velocity: 0.0
doppler_bin: 8
bearing: -3.6148416996
intensity: 31.0788803101
---
header: 
  seq: 276247
  stamp: 
    secs: 1561863960
    nsecs: 989713091
  frame_id: "ti_mmwave"
point_id: 15
x: 4.951171875
y: -0.623046875
z: 0.0625
range: 5.31639051437
velocity: 0.0
doppler_bin: 8
bearing: -7.17230129242
intensity: 29.7312793732
---
header: 
  seq: 276248
  stamp: 
    secs: 1561863960
    nsecs: 989722459
  frame_id: "ti_mmwave"
point_id: 16
x: 0.01171875
y: 0.03125
z: 0.025390625
range: 0.0435769706964
velocity: 0.0
doppler_bin: 8
bearing: 69.4439544678
intensity: 29.3951931
---
header: 
  seq: 276249
  stamp: 
    secs: 1561863960
    nsecs: 989730709
  frame_id: "ti_mmwave"
point_id: 17
x: 0.041015625
y: -0.033203125
z: 0.0625
range: 0.0871539413929
velocity: 0.0
doppler_bin: 8
bearing: -38.9909973145
intensity: 30.1452045441
---
header: 
  seq: 276250
  stamp: 
    secs: 1561863960
    nsecs: 989739237
  frame_id: "ti_mmwave"
point_id: 18
x: 0.052734375
y: -0.04296875
z: 0.103515625
range: 0.130730912089
velocity: 0.0
doppler_bin: 8
bearing: -39.1736602783
intensity: 29.0145835876
---
header: 
  seq: 276251
  stamp: 
    secs: 1561863961
    nsecs:  48221531
  frame_id: "ti_mmwave"
point_id: 0
x: 0.01171875
y: -0.0390625
z: -0.0078125
range: 0.0435769706964
velocity: 0.0
doppler_bin: 8
bearing: -73.3007583618
intensity: 30.7664051056
---
header: 
  seq: 276252
  stamp: 
    secs: 1561863961
    nsecs:  48291122
  frame_id: "ti_mmwave"
point_id: 1
x: 0.017578125
y: -0.080078125
z: -0.009765625
range: 0.0871539413929
velocity: 0.0
doppler_bin: 8
bearing: -77.6192398071
intensity: 31.9893188477
---
header: 
  seq: 276253
  stamp: 
    secs: 1561863961
    nsecs:  48301814
  frame_id: "ti_mmwave"
point_id: 2
x: 0.029296875
y: -0.119140625
z: -0.005859375
range: 0.130730912089
velocity: 0.0
doppler_bin: 8
bearing: -76.1849746704
intensity: 30.2530593872
---
header: 
  seq: 276254
  stamp: 
    secs: 1561863961
    nsecs:  48311939
  frame_id: "ti_mmwave"
point_id: 3
x: 0.056640625
y: -0.154296875
z: 0.005859375
range: 0.174307882786
velocity: 0.0
doppler_bin: 8
bearing: -69.8423843384
intensity: 25.5022830963
---
header: 
  seq: 276255
  stamp: 
    secs: 1561863961
    nsecs:  48321105
  frame_id: "ti_mmwave"
point_id: 4
x: 0.14453125
y: -0.080078125
z: 1.2578125
range: 1.35088610649
velocity: 0.0
doppler_bin: 8
bearing: -28.9888248444
intensity: 23.1806335449
---
header: 
  seq: 276256
  stamp: 
    secs: 1561863961
    nsecs:  48332956
  frame_id: "ti_mmwave"
point_id: 6
x: 0.42578125
y: -0.083984375
z: -1.279296875
range: 1.43804001808
velocity: 0.0
doppler_bin: 8
bearing: -11.1582231522
intensity: 23.0102996826
---
header: 
  seq: 276257
  stamp: 
    secs: 1561863961
    nsecs:  48341410
  frame_id: "ti_mmwave"
point_id: 7
x: 0.552734375
y: -0.04296875
z: -1.275390625
range: 1.48161697388
velocity: 0.0
doppler_bin: 8
bearing: -4.44514894485
intensity: 21.6136798859
---
header: 
  seq: 276258
  stamp: 
    secs: 1561863961
    nsecs:  48350961
  frame_id: "ti_mmwave"
point_id: 8
x: 2.638671875
y: -0.1796875
z: 1.09765625
range: 3.05038785934
velocity: 0.0
doppler_bin: 8
bearing: -3.89569664001
intensity: 32.2193565369
---
header: 
  seq: 276259
  stamp: 
    secs: 1561863961
    nsecs:  48359235
  frame_id: "ti_mmwave"
point_id: 9
x: 2.748046875
y: -0.08984375
z: 0.935546875
range: 3.09396481514
velocity: 0.0
doppler_bin: 8
bearing: -1.8725425005
intensity: 31.2807598114
---
header: 
  seq: 276260
  stamp: 
    secs: 1561863961
    nsecs:  48533814
  frame_id: "ti_mmwave"
point_id: 10
x: 4.4140625
y: -0.142578125
z: 1.216796875
range: 4.88062095642
velocity: 0.0
doppler_bin: 8
bearing: -1.850061059
intensity: 31.2936763763
---
header: 
  seq: 276261
  stamp: 
    secs: 1561863961
    nsecs:  48552051
  frame_id: "ti_mmwave"
point_id: 11
x: 4.447265625
y: -0.14453125
z: 1.25390625
range: 4.9241976738
velocity: 0.0
doppler_bin: 8
bearing: -1.86139500141
intensity: 30.6107540131
---
header: 
  seq: 276262
  stamp: 
    secs: 1561863961
    nsecs:  48561914
  frame_id: "ti_mmwave"
point_id: 12
x: 4.734375
y: -0.298828125
z: -0.638671875
range: 5.09850549698
velocity: 0.0
doppler_bin: 8
bearing: -3.61165046692
intensity: 32.0194320679
---
header: 
  seq: 276263
  stamp: 
    secs: 1561863961
    nsecs:  48569997
  frame_id: "ti_mmwave"
point_id: 13
x: 4.767578125
y: -0.30078125
z: -0.697265625
range: 5.14208269119
velocity: 0.0
doppler_bin: 8
bearing: -3.60994315147
intensity: 32.5212440491
---
header: 
  seq: 276264
  stamp: 
    secs: 1561863961
    nsecs:  48578048
  frame_id: "ti_mmwave"
point_id: 14
x: 4.892578125
y: -0.30859375
z: 0.677734375
range: 5.27281332016
velocity: 0.0
doppler_bin: 8
bearing: -3.60908436775
intensity: 30.8134727478
---
header: 
  seq: 276265
  stamp: 
    secs: 1561863961
    nsecs:  48588169
  frame_id: "ti_mmwave"
point_id: 15
x: 4.951171875
y: -0.623046875
z: -0.033203125
range: 5.31639051437
velocity: 0.0
doppler_bin: 8
bearing: -7.17230129242
intensity: 29.527923584
---
header: 
  seq: 276266
  stamp: 
    secs: 1561863961
    nsecs:  48596310
  frame_id: "ti_mmwave"
point_id: 16
x: 0.01171875
y: 0.03125
z: 0.025390625
range: 0.0435769706964
velocity: 0.0
doppler_bin: 8
bearing: 69.4439544678
intensity: 29.3951931
---
header: 
  seq: 276267
  stamp: 
    secs: 1561863961
    nsecs:  48604415
  frame_id: "ti_mmwave"
point_id: 17
x: 0.041015625
y: -0.033203125
z: 0.0625
range: 0.0871539413929
velocity: 0.0
doppler_bin: 8
bearing: -38.9909973145
intensity: 30.1452045441
---
header: 
  seq: 276268
  stamp: 
    secs: 1561863961
    nsecs:  48612261
  frame_id: "ti_mmwave"
point_id: 18
x: 0.052734375
y: -0.04296875
z: 0.103515625
range: 0.130730912089
velocity: 0.0
doppler_bin: 8
bearing: -39.1736602783
intensity: 29.0091304779
---
header: 
  seq: 276269
  stamp: 
    secs: 1561863961
    nsecs:  49581853
  frame_id: "ti_mmwave"
point_id: 0
x: 0.01171875
y: -0.0390625
z: -0.0078125
range: 0.0435769706964
velocity: 0.0
doppler_bin: 8
bearing: -73.3007583618
intensity: 30.7591171265
---
header: 
  seq: 276270
  stamp: 
    secs: 1561863961
    nsecs:  49631889
  frame_id: "ti_mmwave"
point_id: 1
x: 0.017578125
y: -0.080078125
z: -0.009765625
range: 0.0871539413929
velocity: 0.0
doppler_bin: 8
bearing: -77.6192398071
intensity: 31.9865703583
---
header: 
  seq: 276271
  stamp: 
    secs: 1561863961
    nsecs:  49644147
  frame_id: "ti_mmwave"
point_id: 2
x: 0.029296875
y: -0.119140625
z: -0.005859375
range: 0.130730912089
velocity: 0.0
doppler_bin: 8
bearing: -76.1849746704
intensity: 30.248960495
---
header: 
  seq: 276272
  stamp: 
    secs: 1561863961
    nsecs:  49652790
  frame_id: "ti_mmwave"
point_id: 3
x: 0.056640625
y: -0.154296875
z: 0.005859375
range: 0.174307882786
velocity: 0.0
doppler_bin: 8
bearing: -69.8423843384
intensity: 25.5022830963
---
header: 
  seq: 276273
  stamp: 
    secs: 1561863961
    nsecs:  49661189
  frame_id: "ti_mmwave"
point_id: 4
x: 0.166015625
y: -0.080078125
z: 1.25390625
range: 1.35088610649
velocity: 0.0
doppler_bin: 8
bearing: -25.7504749298
intensity: 23.1597042084
---
header: 
  seq: 276274
  stamp: 
    secs: 1561863961
    nsecs:  49676868
  frame_id: "ti_mmwave"
point_id: 6
x: 0.41015625
y: -0.083984375
z: -1.283203125
range: 1.43804001808
velocity: 0.0
doppler_bin: 8
bearing: -11.5720338821
intensity: 23.0535144806
---
header: 
  seq: 276275
  stamp: 
    secs: 1561863961
    nsecs:  49690696
  frame_id: "ti_mmwave"
point_id: 7
x: 0.5546875
y: -0.04296875
z: -1.2734375
range: 1.48161697388
velocity: 0.0
doppler_bin: 8
bearing: -4.42955970764
intensity: 21.7318630219
---
header: 
  seq: 276276
  stamp: 
    secs: 1561863961
    nsecs:  49707423
  frame_id: "ti_mmwave"
point_id: 8
x: 2.322265625
y: 0.146484375
z: -0.14453125
range: 2.48388743401
velocity: 0.0
doppler_bin: 8
bearing: 3.60933375359
intensity: 27.3559894562
---
header: 
  seq: 276277
  stamp: 
    secs: 1561863961
    nsecs:  49715044
  frame_id: "ti_mmwave"
point_id: 9
x: 2.365234375
y: 0.1484375
z: 0.12109375
range: 2.5274643898
velocity: 0.0
doppler_bin: 8
bearing: 3.59106206894
intensity: 26.3748970032
---
header: 
  seq: 276278
  stamp: 
    secs: 1561863961
    nsecs:  49773385
  frame_id: "ti_mmwave"
point_id: 10
x: 2.435546875
y: 0.154296875
z: -0.263671875
range: 2.61461830139
velocity: 0.0
doppler_bin: 8
bearing: 3.62496066093
intensity: 26.1172332764
---
header: 
  seq: 276279
  stamp: 
    secs: 1561863961
    nsecs:  49781965
  frame_id: "ti_mmwave"
point_id: 11
x: 2.658203125
y: -0.1796875
z: 1.05078125
range: 3.05038785934
velocity: 0.0
doppler_bin: 8
bearing: -3.86716008186
intensity: 32.2167510986
---
header: 
  seq: 276280
  stamp: 
    secs: 1561863961
    nsecs:  49790593
  frame_id: "ti_mmwave"
point_id: 12
x: 2.755859375
y: -0.08984375
z: 0.91015625
range: 3.09396481514
velocity: 0.0
doppler_bin: 8
bearing: -1.86723792553
intensity: 31.3129787445
---
header: 
  seq: 276281
  stamp: 
    secs: 1561863961
    nsecs:  49798882
  frame_id: "ti_mmwave"
point_id: 13
x: 4.419921875
y: -0.142578125
z: 1.201171875
range: 4.88062095642
velocity: 0.0
doppler_bin: 8
bearing: -1.847610116
intensity: 31.455072403
---
header: 
  seq: 276282
  stamp: 
    secs: 1561863961
    nsecs:  49806985
  frame_id: "ti_mmwave"
point_id: 14
x: 4.45703125
y: -0.14453125
z: 1.21484375
range: 4.9241976738
velocity: 0.0
doppler_bin: 8
bearing: -1.8573192358
intensity: 30.9691009521
---
header: 
  seq: 276283
  stamp: 
    secs: 1561863961
    nsecs:  49814908
  frame_id: "ti_mmwave"
point_id: 15
x: 4.7421875
y: -0.30078125
z: -0.849609375
range: 5.14208269119
velocity: 0.0
doppler_bin: 8
bearing: -3.62922024727
intensity: 30.2077541351
---
header: 
  seq: 276284
  stamp: 
    secs: 1561863961
    nsecs:  49822853
  frame_id: "ti_mmwave"
point_id: 16
x: 4.890625
y: -0.30859375
z: 0.701171875
range: 5.27281332016
velocity: 0.0
doppler_bin: 8
bearing: -3.61052203178
intensity: 30.6258201599
---
header: 
  seq: 276285
  stamp: 
    secs: 1561863961
    nsecs:  49831970
  frame_id: "ti_mmwave"
point_id: 17
x: 4.951171875
y: -0.623046875
z: -0.02734375
range: 5.31639051437
velocity: 0.0
doppler_bin: 8
bearing: -7.17230129242
intensity: 29.4448261261
---
header: 
  seq: 276286
  stamp: 
    secs: 1561863961
    nsecs:  49840783
  frame_id: "ti_mmwave"
point_id: 18
x: 0.01171875
y: 0.03125
z: 0.025390625
range: 0.0435769706964
velocity: 0.0
doppler_bin: 8
bearing: 69.4439544678
intensity: 29.4051647186
---
header: 
  seq: 276287
  stamp: 
    secs: 1561863961
    nsecs:  49848361
  frame_id: "ti_mmwave"
point_id: 19
x: 0.041015625
y: -0.033203125
z: 0.0625
range: 0.0871539413929
velocity: 0.0
doppler_bin: 8
bearing: -38.9909973145
intensity: 30.1452045441
---
header: 
  seq: 276288
  stamp: 
    secs: 1561863961
    nsecs:  49858580
  frame_id: "ti_mmwave"
point_id: 20
x: 0.052734375
y: -0.04296875
z: 0.103515625
range: 0.130730912089
velocity: 0.0
doppler_bin: 8
bearing: -39.1736602783
intensity: 29.0145835876
---
header: 
  seq: 276289
  stamp: 
    secs: 1561863961
    nsecs: 108268436
  frame_id: "ti_mmwave"
point_id: 0
x: 0.01171875
y: -0.0390625
z: -0.0078125
range: 0.0435769706964
velocity: 0.0
doppler_bin: 8
bearing: -73.3007583618
intensity: 30.7627620697
---
header: 
  seq: 276290
  stamp: 
    secs: 1561863961
    nsecs: 108345120
  frame_id: "ti_mmwave"
point_id: 1
x: 0.017578125
y: -0.080078125
z: -0.009765625
range: 0.0871539413929
velocity: 0.0
doppler_bin: 8
bearing: -77.6192398071
intensity: 31.9865703583
---
header: 
  seq: 276291
  stamp: 
    secs: 1561863961
    nsecs: 108359069
  frame_id: "ti_mmwave"
point_id: 2
x: 0.041015625
y: -0.115234375
z: -0.0078125
range: 0.130730912089
velocity: 0.0
doppler_bin: 8
bearing: -70.4077224731
intensity: 30.248960495
---
header: 
  seq: 276292
  stamp: 
    secs: 1561863961
    nsecs: 108367603
  frame_id: "ti_mmwave"
point_id: 3
x: 0.056640625
y: -0.154296875
z: 0.005859375
range: 0.174307882786
velocity: 0.0
doppler_bin: 8
bearing: -69.8423843384
intensity: 25.5022830963
---
header: 
  seq: 276293
  stamp: 
    secs: 1561863961
    nsecs: 108376472
  frame_id: "ti_mmwave"
point_id: 4
x: 0.181640625
y: -0.080078125
z: 1.251953125
range: 1.35088610649
velocity: 0.0
doppler_bin: 8
bearing: -23.7907733917
intensity: 23.138671875
---
header: 
  seq: 276294
  stamp: 
    secs: 1561863961
    nsecs: 108386359
  frame_id: "ti_mmwave"
point_id: 5
x: 0.25390625
y: -0.041015625
z: -1.283203125
range: 1.39446306229
velocity: 0.0
doppler_bin: 8
bearing: -9.17620372772
intensity: 24.5939254761
---
header: 
  seq: 276295
  stamp: 
    secs: 1561863961
    nsecs: 108394817
  frame_id: "ti_mmwave"
point_id: 6
x: 0.51171875
y: -0.04296875
z: -1.248046875
range: 1.43804001808
velocity: 0.0
doppler_bin: 8
bearing: -4.79983615875
intensity: 22.9885311127
---
header: 
  seq: 276296
  stamp: 
    secs: 1561863961
    nsecs: 108403012
  frame_id: "ti_mmwave"
point_id: 7
x: 0.560546875
y: -0.04296875
z: -1.271484375
range: 1.48161697388
velocity: 0.0
doppler_bin: 8
bearing: -4.38343858719
intensity: 21.6435279846
---
header: 
  seq: 276297
  stamp: 
    secs: 1561863961
    nsecs: 108410677
  frame_id: "ti_mmwave"
point_id: 8
x: 2.654296875
y: -0.1796875
z: 1.056640625
range: 3.05038785934
velocity: 0.0
doppler_bin: 8
bearing: -3.87283420563
intensity: 32.2245635986
---
header: 
  seq: 276298
  stamp: 
    secs: 1561863961
    nsecs: 108420421
  frame_id: "ti_mmwave"
point_id: 9
x: 2.75390625
y: -0.08984375
z: 0.91796875
range: 3.09396481514
velocity: 0.0
doppler_bin: 8
bearing: -1.86856126785
intensity: 31.2645606995
---
header: 
  seq: 276299
  stamp: 
    secs: 1561863961
    nsecs: 108428591
  frame_id: "ti_mmwave"
point_id: 10
x: 4.408203125
y: -0.142578125
z: 1.240234375
range: 4.88062095642
velocity: 0.0
doppler_bin: 8
bearing: -1.85251843929
intensity: 31.2417812347
---
header: 
  seq: 276300
  stamp: 
    secs: 1561863961
    nsecs: 108436482
  frame_id: "ti_mmwave"
point_id: 11
x: 4.4375
y: -0.14453125
z: 1.283203125
range: 4.9241976738
velocity: 0.0
doppler_bin: 8
bearing: -1.86548817158
intensity: 30.5690479279
---
header: 
  seq: 276301
  stamp: 
    secs: 1561863961
    nsecs: 108444294
  frame_id: "ti_mmwave"
point_id: 12
x: 4.888671875
y: -0.30859375
z: 0.712890625
range: 5.27281332016
velocity: 0.0
doppler_bin: 8
bearing: -3.61196112633
intensity: 30.9691009521
---
header: 
  seq: 276302
  stamp: 
    secs: 1561863961
    nsecs: 108453706
  frame_id: "ti_mmwave"
point_id: 13
x: 4.951171875
y: -0.623046875
z: 0.00390625
range: 5.31639051437
velocity: 0.0
doppler_bin: 8
bearing: -7.17230129242
intensity: 29.5568771362
---
header: 
  seq: 276303
  stamp: 
    secs: 1561863961
    nsecs: 108466217
  frame_id: "ti_mmwave"
point_id: 14
x: 0.01171875
y: 0.03125
z: 0.025390625
range: 0.0435769706964
velocity: 0.0
doppler_bin: 8
bearing: 69.4439544678
intensity: 29.4001808167
---
header: 
  seq: 276304
  stamp: 
    secs: 1561863961
    nsecs: 108493868
  frame_id: "ti_mmwave"
point_id: 15
x: 0.041015625
y: -0.033203125
z: 0.0625
range: 0.0871539413929
velocity: 0.0
doppler_bin: 8
bearing: -38.9909973145
intensity: 30.1452045441
---
header: 
  seq: 276305
  stamp: 
    secs: 1561863961
    nsecs: 108594228
  frame_id: "ti_mmwave"
point_id: 16
x: 0.052734375
y: -0.04296875
z: 0.103515625
range: 0.130730912089
velocity: 0.0
doppler_bin: 8
bearing: -39.1736602783
intensity: 29.0091304779
---
header: 
  seq: 276306
  stamp: 
    secs: 1561863961
    nsecs: 109554842
  frame_id: "ti_mmwave"
point_id: 0
x: 0.01171875
y: -0.0390625
z: -0.0078125
range: 0.0435769706964
velocity: 0.0
doppler_bin: 8
bearing: -73.3007583618
intensity: 30.7627620697
---
header: 
  seq: 276307
  stamp: 
    secs: 1561863961
    nsecs: 109621986
  frame_id: "ti_mmwave"
point_id: 1
x: 0.017578125
y: -0.080078125
z: -0.009765625
range: 0.0871539413929
velocity: 0.0
doppler_bin: 8
bearing: -77.6192398071
intensity: 31.9865703583
---
header: 
  seq: 276308
  stamp: 
    secs: 1561863961
    nsecs: 109638186
  frame_id: "ti_mmwave"
point_id: 2
x: 0.029296875
y: -0.119140625
z: -0.005859375
range: 0.130730912089
velocity: 0.0
doppler_bin: 8
bearing: -76.1849746704
intensity: 30.2530593872
---
header: 
  seq: 276309
  stamp: 
    secs: 1561863961
    nsecs: 109652979
  frame_id: "ti_mmwave"
point_id: 3
x: 0.056640625
y: -0.154296875
z: 0.005859375
range: 0.174307882786
velocity: 0.0
doppler_bin: 8
bearing: -69.8423843384
intensity: 25.5022830963
---
header: 
  seq: 276310
  stamp: 
    secs: 1561863961
    nsecs: 109669158
  frame_id: "ti_mmwave"
point_id: 4
x: 0.12890625
y: -0.080078125
z: 1.259765625
range: 1.35088610649
velocity: 0.0
doppler_bin: 8
bearing: -31.8490524292
intensity: 23.0963020325
---
header: 
  seq: 276311
  stamp: 
    secs: 1561863961
    nsecs: 109683878
  frame_id: "ti_mmwave"
point_id: 5
x: 0.259765625
y: -0.041015625
z: -1.283203125
range: 1.39446306229
velocity: 0.0
doppler_bin: 8
bearing: -8.9726266861
intensity: 24.5939254761
---
header: 
  seq: 276312
  stamp: 
    secs: 1561863961
    nsecs: 109695684
  frame_id: "ti_mmwave"
point_id: 6
x: 0.416015625
y: -0.083984375
z: -1.28125
range: 1.43804001808
velocity: 0.0
doppler_bin: 8
bearing: -11.4133548737
intensity: 23.0102996826
---
header: 
  seq: 276313
  stamp: 
    secs: 1561863961
    nsecs: 109724591
  frame_id: "ti_mmwave"
point_id: 7
x: 0.5546875
y: -0.04296875
z: -1.275390625
range: 1.48161697388
velocity: 0.0
doppler_bin: 8
bearing: -4.42955970764
intensity: 21.6731739044
---
header: 
  seq: 276314
  stamp: 
    secs: 1561863961
    nsecs: 109738490
  frame_id: "ti_mmwave"
point_id: 8
x: 2.625
y: -0.17578125
z: 1.021484375
range: 3.00681090355
velocity: 0.0
doppler_bin: 8
bearing: -3.83105134964
intensity: 29.1115760803
---
header: 
  seq: 276315
  stamp: 
    secs: 1561863961
    nsecs: 109751342
  frame_id: "ti_mmwave"
point_id: 9
x: 2.65625
y: -0.1796875
z: 1.0546875
range: 3.05038785934
velocity: 0.0
doppler_bin: 8
bearing: -3.86999511719
intensity: 32.2505073547
---
header: 
  seq: 276316
  stamp: 
    secs: 1561863961
    nsecs: 109763627
  frame_id: "ti_mmwave"
point_id: 10
x: 2.75390625
y: -0.08984375
z: 0.91796875
range: 3.09396481514
velocity: 0.0
doppler_bin: 8
bearing: -1.86856126785
intensity: 31.2483005524
---
header: 
  seq: 276317
  stamp: 
    secs: 1561863961
    nsecs: 109776096
  frame_id: "ti_mmwave"
point_id: 11
x: 4.408203125
y: -0.142578125
z: 1.078125
range: 4.83704376221
velocity: 0.0
doppler_bin: 8
bearing: -1.85251843929
intensity: 28.1358089447
---
header: 
  seq: 276318
  stamp: 
    secs: 1561863961
    nsecs: 109790023
  frame_id: "ti_mmwave"
point_id: 12
x: 4.4140625
y: -0.142578125
z: 1.21875
range: 4.88062095642
velocity: 0.0
doppler_bin: 8
bearing: -1.850061059
intensity: 31.3798675537
---
header: 
  seq: 276319
  stamp: 
    secs: 1561863961
    nsecs: 109802157
  frame_id: "ti_mmwave"
point_id: 13
x: 4.447265625
y: -0.14453125
z: 1.248046875
range: 4.9241976738
velocity: 0.0
doppler_bin: 8
bearing: -1.86139500141
intensity: 30.8206691742
---
header: 
  seq: 276320
  stamp: 
    secs: 1561863961
    nsecs: 109815207
  frame_id: "ti_mmwave"
point_id: 14
x: 4.890625
y: -0.30859375
z: 0.693359375
range: 5.27281332016
velocity: 0.0
doppler_bin: 8
bearing: -3.61052203178
intensity: 31.25806427
---
header: 
  seq: 276321
  stamp: 
    secs: 1561863961
    nsecs: 109828420
  frame_id: "ti_mmwave"
point_id: 15
x: 4.951171875
y: -0.623046875
z: 0.0390625
range: 5.31639051437
velocity: 0.0
doppler_bin: 8
bearing: -7.17230129242
intensity: 29.8317508698
---
header: 
  seq: 276322
  stamp: 
    secs: 1561863961
    nsecs: 109841611
  frame_id: "ti_mmwave"
point_id: 16
x: 0.01171875
y: 0.03125
z: 0.025390625
range: 0.0435769706964
velocity: 0.0
doppler_bin: 8
bearing: 69.4439544678
intensity: 29.4001808167
---
header: 
  seq: 276323
  stamp: 
    secs: 1561863961
    nsecs: 109853429
  frame_id: "ti_mmwave"
point_id: 17
x: 0.041015625
y: -0.033203125
z: 0.0625
range: 0.0871539413929
velocity: 0.0
doppler_bin: 8
bearing: -38.9909973145
intensity: 30.141002655
---
header: 
  seq: 276324
  stamp: 
    secs: 1561863961
    nsecs: 109866778
  frame_id: "ti_mmwave"
point_id: 18
x: 0.052734375
y: -0.04296875
z: 0.103515625
range: 0.130730912089
velocity: 0.0
doppler_bin: 8
bearing: -39.1736602783
intensity: 29.0091304779
---
header: 
  seq: 276325
  stamp: 
    secs: 1561863961
    nsecs: 168458477
  frame_id: "ti_mmwave"
point_id: 0
x: 0.01171875
y: -0.0390625
z: -0.0078125
range: 0.0435769706964
velocity: 0.0
doppler_bin: 8
bearing: -73.3007583618
intensity: 30.7554702759
---
header: 
  seq: 276326
  stamp: 
    secs: 1561863961
    nsecs: 168548602
  frame_id: "ti_mmwave"
point_id: 1
x: 0.017578125
y: -0.080078125
z: -0.0078125
range: 0.0871539413929
velocity: 0.0
doppler_bin: 8
bearing: -77.6192398071
intensity: 31.9865703583
---
header: 
  seq: 276327
  stamp: 
    secs: 1561863961
    nsecs: 168568700
  frame_id: "ti_mmwave"
point_id: 2
x: 0.041015625
y: -0.115234375
z: -0.0078125
range: 0.130730912089
velocity: 0.0
doppler_bin: 8
bearing: -70.4077224731
intensity: 30.2448558807
---
header: 
  seq: 276328
  stamp: 
    secs: 1561863961
    nsecs: 168583061
  frame_id: "ti_mmwave"
point_id: 3
x: 0.056640625
y: -0.154296875
z: 0.005859375
range: 0.174307882786
velocity: 0.0
doppler_bin: 8
bearing: -69.8423843384
intensity: 25.5022830963
---
header: 
  seq: 276329
  stamp: 
    secs: 1561863961
    nsecs: 168596686
  frame_id: "ti_mmwave"
point_id: 4
x: 0.146484375
y: -0.080078125
z: 1.2578125
range: 1.35088610649
velocity: 0.0
doppler_bin: 8
bearing: -28.6639575958
intensity: 23.1597042084
---
header: 
  seq: 276330
  stamp: 
    secs: 1561863961
    nsecs: 168615818
  frame_id: "ti_mmwave"
point_id: 6
x: 0.42578125
y: -0.083984375
z: -1.279296875
range: 1.43804001808
velocity: 0.0
doppler_bin: 8
bearing: -11.1582231522
intensity: 22.9885311127
---
header: 
  seq: 276331
  stamp: 
    secs: 1561863961
    nsecs: 168632450
  frame_id: "ti_mmwave"
point_id: 7
x: 2.611328125
y: -0.17578125
z: 1.056640625
range: 3.00681090355
velocity: 0.0
doppler_bin: 8
bearing: -3.85104894638
intensity: 29.0525608063
---
header: 
  seq: 276332
  stamp: 
    secs: 1561863961
    nsecs: 168646849
  frame_id: "ti_mmwave"
point_id: 8
x: 2.654296875
y: -0.1796875
z: 1.05859375
range: 3.05038785934
velocity: 0.0
doppler_bin: 8
bearing: -3.87283420563
intensity: 32.2608413696
---
header: 
  seq: 276333
  stamp: 
    secs: 1561863961
    nsecs: 168655426
  frame_id: "ti_mmwave"
point_id: 9
x: 2.74609375
y: -0.08984375
z: 0.943359375
range: 3.09396481514
velocity: 0.0
doppler_bin: 8
bearing: -1.8738732338
intensity: 31.2678050995
---
header: 
  seq: 276334
  stamp: 
    secs: 1561863961
    nsecs: 168823343
  frame_id: "ti_mmwave"
point_id: 10
x: 4.4140625
y: -0.142578125
z: 1.056640625
range: 4.83704376221
velocity: 0.0
doppler_bin: 8
bearing: -1.850061059
intensity: 28.182258606
---
header: 
  seq: 276335
  stamp: 
    secs: 1561863961
    nsecs: 168849388
  frame_id: "ti_mmwave"
point_id: 11
x: 4.41796875
y: -0.142578125
z: 1.203125
range: 4.88062095642
velocity: 0.0
doppler_bin: 8
bearing: -1.84842634201
intensity: 31.5167617798
---
header: 
  seq: 276336
  stamp: 
    secs: 1561863961
    nsecs: 168859126
  frame_id: "ti_mmwave"
point_id: 12
x: 4.458984375
y: -0.14453125
z: 1.212890625
range: 4.9241976738
velocity: 0.0
doppler_bin: 8
bearing: -1.85650622845
intensity: 31.1159858704
---
header: 
  seq: 276337
  stamp: 
    secs: 1561863961
    nsecs: 168867530
  frame_id: "ti_mmwave"
point_id: 13
x: 4.888671875
y: -0.30859375
z: 0.71484375
range: 5.27281332016
velocity: 0.0
doppler_bin: 8
bearing: -3.61196112633
intensity: 31.1394329071
---
header: 
  seq: 276338
  stamp: 
    secs: 1561863961
    nsecs: 168877832
  frame_id: "ti_mmwave"
point_id: 14
x: 4.951171875
y: -0.623046875
z: 0.0703125
range: 5.31639051437
velocity: 0.0
doppler_bin: 8
bearing: -7.17230129242
intensity: 29.6473083496
---
header: 
  seq: 276339
  stamp: 
    secs: 1561863961
    nsecs: 168886628
  frame_id: "ti_mmwave"
point_id: 15
x: 0.01171875
y: 0.03125
z: 0.025390625
range: 0.0435769706964
velocity: 0.0
doppler_bin: 8
bearing: 69.4439544678
intensity: 29.4001808167
---
header: 
  seq: 276340
  stamp: 
    secs: 1561863961
    nsecs: 168892484
  frame_id: "ti_mmwave"
point_id: 16
x: 0.041015625
y: -0.033203125
z: 0.0625
range: 0.0871539413929
velocity: 0.0
doppler_bin: 8
bearing: -38.9909973145
intensity: 30.141002655
---
header: 
  seq: 276341
  stamp: 
    secs: 1561863961
    nsecs: 168918128
  frame_id: "ti_mmwave"
point_id: 17
x: 0.052734375
y: -0.04296875
z: 0.103515625
range: 0.130730912089
velocity: 0.0
doppler_bin: 8
bearing: -39.1736602783
intensity: 29.0091304779
---
header: 
  seq: 276342
  stamp: 
    secs: 1561863961
    nsecs: 169855143
  frame_id: "ti_mmwave"
point_id: 0
x: 0.01171875
y: -0.0390625
z: -0.0078125
range: 0.0435769706964
velocity: 0.0
doppler_bin: 8
bearing: -73.3007583618
intensity: 30.7664051056
---
header: 
  seq: 276343
  stamp: 
    secs: 1561863961
    nsecs: 169922913
  frame_id: "ti_mmwave"
point_id: 1
x: 0.017578125
y: -0.080078125
z: -0.009765625
range: 0.0871539413929
velocity: 0.0
doppler_bin: 8
bearing: -77.6192398071
intensity: 31.9893188477
---
header: 
  seq: 276344
  stamp: 
    secs: 1561863961
    nsecs: 169941207
  frame_id: "ti_mmwave"
point_id: 2
x: 0.029296875
y: -0.119140625
z: -0.005859375
range: 0.130730912089
velocity: 0.0
doppler_bin: 8
bearing: -76.1849746704
intensity: 30.2530593872
---
header: 
  seq: 276345
  stamp: 
    secs: 1561863961
    nsecs: 169985874
  frame_id: "ti_mmwave"
point_id: 3
x: 0.056640625
y: -0.154296875
z: 0.005859375
range: 0.174307882786
velocity: 0.0
doppler_bin: 8
bearing: -69.8423843384
intensity: 25.5022830963
---
header: 
  seq: 276346
  stamp: 
    secs: 1561863961
    nsecs: 170000810
  frame_id: "ti_mmwave"
point_id: 4
x: 0.12109375
y: -0.080078125
z: 1.259765625
range: 1.35088610649
velocity: 0.0
doppler_bin: 8
bearing: -33.4762802124
intensity: 23.1597042084
---
header: 
  seq: 276347
  stamp: 
    secs: 1561863961
    nsecs: 170017771
  frame_id: "ti_mmwave"
point_id: 6
x: 0.42578125
y: -0.083984375
z: -1.279296875
range: 1.43804001808
velocity: 0.0
doppler_bin: 8
bearing: -11.1582231522
intensity: 23.0102996826
---
header: 
  seq: 276348
  stamp: 
    secs: 1561863961
    nsecs: 170032341
  frame_id: "ti_mmwave"
point_id: 7
x: 0.56640625
y: -0.04296875
z: -1.26953125
range: 1.48161697388
velocity: 0.0
doppler_bin: 8
bearing: -4.33826684952
intensity: 21.6435279846
---
header: 
  seq: 276349
  stamp: 
    secs: 1561863961
    nsecs: 170077909
  frame_id: "ti_mmwave"
point_id: 8
x: 2.28515625
y: 0.072265625
z: -0.14453125
range: 2.44031047821
velocity: 0.0
doppler_bin: 8
bearing: 1.81131434441
intensity: 26.7024593353
---
header: 
  seq: 276350
  stamp: 
    secs: 1561863961
    nsecs: 170096306
  frame_id: "ti_mmwave"
point_id: 9
x: 2.328125
y: 0.072265625
z: -0.103515625
range: 2.48388743401
velocity: 0.0
doppler_bin: 8
bearing: 1.77790546417
intensity: 26.7760696411
---
header: 
  seq: 276351
  stamp: 
    secs: 1561863961
    nsecs: 170111722
  frame_id: "ti_mmwave"
point_id: 10
x: 2.662109375
y: -0.1796875
z: 1.041015625
range: 3.05038785934
velocity: 0.0
doppler_bin: 8
bearing: -3.86150240898
intensity: 32.2788658142
---
header: 
  seq: 276352
  stamp: 
    secs: 1561863961
    nsecs: 170140841
  frame_id: "ti_mmwave"
point_id: 11
x: 2.751953125
y: -0.08984375
z: 0.921875
range: 3.09396481514
velocity: 0.0
doppler_bin: 8
bearing: -1.86988639832
intensity: 31.2904510498
---
header: 
  seq: 276353
  stamp: 
    secs: 1561863961
    nsecs: 170204205
  frame_id: "ti_mmwave"
point_id: 12
x: 4.404296875
y: -0.142578125
z: 1.095703125
range: 4.83704376221
velocity: 0.0
doppler_bin: 8
bearing: -1.85416030884
intensity: 28.1424751282
---
header: 
  seq: 276354
  stamp: 
    secs: 1561863961
    nsecs: 170219772
  frame_id: "ti_mmwave"
point_id: 13
x: 4.416015625
y: -0.142578125
z: 1.2109375
range: 4.88062095642
velocity: 0.0
doppler_bin: 8
bearing: -1.84924340248
intensity: 31.4426269531
---
header: 
  seq: 276355
  stamp: 
    secs: 1561863961
    nsecs: 170232746
  frame_id: "ti_mmwave"
point_id: 14
x: 4.4609375
y: -0.14453125
z: 1.205078125
range: 4.9241976738
velocity: 0.0
doppler_bin: 8
bearing: -1.85569405556
intensity: 30.9516925812
---
header: 
  seq: 276356
  stamp: 
    secs: 1561863961
    nsecs: 170245613
  frame_id: "ti_mmwave"
point_id: 15
x: 4.83203125
y: -0.306640625
z: 0.814453125
range: 5.22923660278
velocity: 0.0
doppler_bin: 8
bearing: -3.63112020493
intensity: 30.0173377991
---
header: 
  seq: 276357
  stamp: 
    secs: 1561863961
    nsecs: 170254680
  frame_id: "ti_mmwave"
point_id: 16
x: 4.892578125
y: -0.30859375
z: 0.6875
range: 5.27281332016
velocity: 0.0
doppler_bin: 8
bearing: -3.60908436775
intensity: 31.4082221985
---
header: 
  seq: 276358
  stamp: 
    secs: 1561863961
    nsecs: 170286914
  frame_id: "ti_mmwave"
point_id: 17
x: 4.951171875
y: -0.623046875
z: 0.07421875
range: 5.31639051437
velocity: 0.0
doppler_bin: 8
bearing: -7.17230129242
intensity: 30.0
---
header: 
  seq: 276359
  stamp: 
    secs: 1561863961
    nsecs: 170300880
  frame_id: "ti_mmwave"
point_id: 18
x: 0.01171875
y: 0.03125
z: 0.025390625
range: 0.0435769706964
velocity: 0.0
doppler_bin: 8
bearing: 69.4439544678
intensity: 29.4001808167
---
header: 
  seq: 276360
  stamp: 
    secs: 1561863961
    nsecs: 170314284
  frame_id: "ti_mmwave"
point_id: 19
x: 0.041015625
y: -0.033203125
z: 0.0625
range: 0.0871539413929
velocity: 0.0
doppler_bin: 8
bearing: -38.9909973145
intensity: 30.1452045441
---
header: 
  seq: 276361
  stamp: 
    secs: 1561863961
    nsecs: 170327288
  frame_id: "ti_mmwave"
point_id: 20
x: 0.052734375
y: -0.04296875
z: 0.103515625
range: 0.130730912089
velocity: 0.0
doppler_bin: 8
bearing: -39.1736602783
intensity: 29.0145835876
---
header: 
  seq: 276362
  stamp: 
    secs: 1561863961
    nsecs: 228303634
  frame_id: "ti_mmwave"
point_id: 0
x: 0.01171875
y: -0.0390625
z: -0.0078125
range: 0.0435769706964
velocity: 0.0
doppler_bin: 8
bearing: -73.3007583618
intensity: 30.7664051056
---
header: 
  seq: 276363
  stamp: 
    secs: 1561863961
    nsecs: 228398222
  frame_id: "ti_mmwave"
point_id: 1
x: 0.017578125
y: -0.080078125
z: -0.009765625
range: 0.0871539413929
velocity: 0.0
doppler_bin: 8
bearing: -77.6192398071
intensity: 31.9865703583
---
header: 
  seq: 276364
  stamp: 
    secs: 1561863961
    nsecs: 228418318
  frame_id: "ti_mmwave"
point_id: 2
x: 0.029296875
y: -0.119140625
z: -0.005859375
range: 0.130730912089
velocity: 0.0
doppler_bin: 8
bearing: -76.1849746704
intensity: 30.2530593872
---
header: 
  seq: 276365
  stamp: 
    secs: 1561863961
    nsecs: 228432358
  frame_id: "ti_mmwave"
point_id: 3
x: 0.056640625
y: -0.154296875
z: 0.005859375
range: 0.174307882786
velocity: 0.0
doppler_bin: 8
bearing: -69.8423843384
intensity: 25.490032196
---
header: 
  seq: 276366
  stamp: 
    secs: 1561863961
    nsecs: 228448710
  frame_id: "ti_mmwave"
point_id: 4
x: 0.080078125
y: -0.080078125
z: 1.263671875
range: 1.35088610649
velocity: 0.0
doppler_bin: 8
bearing: -45.0
intensity: 23.0749607086
---
header: 
  seq: 276367
  stamp: 
    secs: 1561863961
    nsecs: 228462695
  frame_id: "ti_mmwave"
point_id: 5
x: 0.068359375
y: -0.08203125
z: -1.3046875
range: 1.39446306229
velocity: 0.0
doppler_bin: 8
bearing: -50.1944313049
intensity: 24.563659668
---
header: 
  seq: 276368
  stamp: 
    secs: 1561863961
    nsecs: 228477039
  frame_id: "ti_mmwave"
point_id: 6
x: 0.43359375
y: -0.083984375
z: -1.275390625
range: 1.43804001808
velocity: 0.0
doppler_bin: 8
bearing: -10.9620876312
intensity: 22.9666519165
---
header: 
  seq: 276369
  stamp: 
    secs: 1561863961
    nsecs: 228490378
  frame_id: "ti_mmwave"
point_id: 7
x: 0.5546875
y: -0.04296875
z: -1.275390625
range: 1.48161697388
velocity: 0.0
doppler_bin: 8
bearing: -4.42955970764
intensity: 21.6435279846
---
header: 
  seq: 276370
  stamp: 
    secs: 1561863961
    nsecs: 228507066
  frame_id: "ti_mmwave"
point_id: 8
x: 2.625
y: -0.17578125
z: 1.021484375
range: 3.00681090355
velocity: 0.0
doppler_bin: 8
bearing: -3.83105134964
intensity: 29.0579586029
---
header: 
  seq: 276371
  stamp: 
    secs: 1561863961
    nsecs: 228586108
  frame_id: "ti_mmwave"
point_id: 9
x: 2.662109375
y: -0.1796875
z: 1.037109375
range: 3.05038785934
velocity: 0.0
doppler_bin: 8
bearing: -3.86150240898
intensity: 32.2762947083
---
header: 
  seq: 276372
  stamp: 
    secs: 1561863961
    nsecs: 228600645
  frame_id: "ti_mmwave"
point_id: 10
x: 2.755859375
y: -0.08984375
z: 0.91015625
range: 3.09396481514
velocity: 0.0
doppler_bin: 8
bearing: -1.86723792553
intensity: 31.3545074463
---
header: 
  seq: 276373
  stamp: 
    secs: 1561863961
    nsecs: 228613873
  frame_id: "ti_mmwave"
point_id: 11
x: 4.41796875
y: -0.142578125
z: 1.203125
range: 4.88062095642
velocity: 0.0
doppler_bin: 8
bearing: -1.84842634201
intensity: 31.3640346527
---
header: 
  seq: 276374
  stamp: 
    secs: 1561863961
    nsecs: 228628940
  frame_id: "ti_mmwave"
point_id: 12
x: 4.453125
y: -0.14453125
z: 1.232421875
range: 4.9241976738
velocity: 0.0
doppler_bin: 8
bearing: -1.85894739628
intensity: 30.8350257874
---
header: 
  seq: 276375
  stamp: 
    secs: 1561863961
    nsecs: 228642002
  frame_id: "ti_mmwave"
point_id: 13
x: 4.8125
y: -0.306640625
z: 0.91796875
range: 5.22923660278
velocity: 0.0
doppler_bin: 8
bearing: -3.6458170414
intensity: 29.9211139679
---
header: 
  seq: 276376
  stamp: 
    secs: 1561863961
    nsecs: 228655134
  frame_id: "ti_mmwave"
point_id: 14
x: 4.88671875
y: -0.30859375
z: 0.720703125
range: 5.27281332016
velocity: 0.0
doppler_bin: 8
bearing: -3.61340069771
intensity: 31.389339447
---
header: 
  seq: 276377
  stamp: 
    secs: 1561863961
    nsecs: 228667914
  frame_id: "ti_mmwave"
point_id: 15
x: 4.951171875
y: -0.623046875
z: 0.10546875
range: 5.31639051437
velocity: 0.0
doppler_bin: 8
bearing: -7.17230129242
intensity: 29.9475688934
---
header: 
  seq: 276378
  stamp: 
    secs: 1561863961
    nsecs: 228687573
  frame_id: "ti_mmwave"
point_id: 16
x: 0.01171875
y: 0.03125
z: 0.025390625
range: 0.0435769706964
velocity: 0.0
doppler_bin: 8
bearing: 69.4439544678
intensity: 29.4051647186
---
header: 
  seq: 276379
  stamp: 
    secs: 1561863961
    nsecs: 228731810
  frame_id: "ti_mmwave"
point_id: 17
x: 0.041015625
y: -0.033203125
z: 0.0625
range: 0.0871539413929
velocity: 0.0
doppler_bin: 8
bearing: -38.9909973145
intensity: 30.141002655
---
header: 
  seq: 276380
  stamp: 
    secs: 1561863961
    nsecs: 228746838
  frame_id: "ti_mmwave"
point_id: 18
x: 0.052734375
y: -0.04296875
z: 0.103515625
range: 0.130730912089
velocity: 0.0
doppler_bin: 8
bearing: -39.1736602783
intensity: 29.0091304779
---
header: 
  seq: 276381
  stamp: 
    secs: 1561863961
    nsecs: 229483314
  frame_id: "ti_mmwave"
point_id: 0
x: 0.01171875
y: -0.0390625
z: -0.0078125
range: 0.0435769706964
velocity: 0.0
doppler_bin: 8
bearing: -73.3007583618
intensity: 30.7627620697
---
header: 
  seq: 276382
  stamp: 
    secs: 1561863961
    nsecs: 229551967
  frame_id: "ti_mmwave"
point_id: 1
x: 0.017578125
y: -0.080078125
z: -0.009765625
range: 0.0871539413929
velocity: 0.0
doppler_bin: 8
bearing: -77.6192398071
intensity: 31.9893188477
---
header: 
  seq: 276383
  stamp: 
    secs: 1561863961
    nsecs: 229572316
  frame_id: "ti_mmwave"
point_id: 2
x: 0.029296875
y: -0.119140625
z: -0.005859375
range: 0.130730912089
velocity: 0.0
doppler_bin: 8
bearing: -76.1849746704
intensity: 30.2530593872
---
header: 
  seq: 276384
  stamp: 
    secs: 1561863961
    nsecs: 229587543
  frame_id: "ti_mmwave"
point_id: 3
x: 0.056640625
y: -0.154296875
z: 0.005859375
range: 0.174307882786
velocity: 0.0
doppler_bin: 8
bearing: -69.8423843384
intensity: 25.5144996643
---
header: 
  seq: 276385
  stamp: 
    secs: 1561863961
    nsecs: 229656678
  frame_id: "ti_mmwave"
point_id: 4
x: 0.154296875
y: -0.080078125
z: 1.255859375
range: 1.35088610649
velocity: 0.0
doppler_bin: 8
bearing: -27.4287414551
intensity: 23.138671875
---
header: 
  seq: 276386
  stamp: 
    secs: 1561863961
    nsecs: 229673664
  frame_id: "ti_mmwave"
point_id: 5
x: 0.291015625
y: -0.041015625
z: -1.275390625
range: 1.39446306229
velocity: 0.0
doppler_bin: 8
bearing: -8.02240371704
intensity: 24.6089782715
---
header: 
  seq: 276387
  stamp: 
    secs: 1561863961
    nsecs: 229685866
  frame_id: "ti_mmwave"
point_id: 6
x: 0.537109375
y: -0.04296875
z: -1.23828125
range: 1.43804001808
velocity: 0.0
doppler_bin: 8
bearing: -4.57392120361
intensity: 23.0102996826
---
header: 
  seq: 276388
  stamp: 
    secs: 1561863961
    nsecs: 229699211
  frame_id: "ti_mmwave"
point_id: 7
x: 0.572265625
y: -0.04296875
z: -1.267578125
range: 1.48161697388
velocity: 0.0
doppler_bin: 8
bearing: -4.29401493073
intensity: 21.6731739044
---
header: 
  seq: 276389
  stamp: 
    secs: 1561863961
    nsecs: 229714186
  frame_id: "ti_mmwave"
point_id: 8
x: 2.615234375
y: -0.17578125
z: 1.048828125
range: 3.00681090355
velocity: 0.0
doppler_bin: 8
bearing: -3.84531402588
intensity: 29.1487178802
---
header: 
  seq: 276390
  stamp: 
    secs: 1561863961
    nsecs: 229768003
  frame_id: "ti_mmwave"
point_id: 9
x: 2.654296875
y: -0.1796875
z: 1.060546875
range: 3.05038785934
velocity: 0.0
doppler_bin: 8
bearing: -3.87283420563
intensity: 32.2968177795
---
header: 
  seq: 276391
  stamp: 
    secs: 1561863961
    nsecs: 229785045
  frame_id: "ti_mmwave"
point_id: 10
x: 2.75
y: -0.08984375
z: 0.927734375
range: 3.09396481514
velocity: 0.0
doppler_bin: 8
bearing: -1.87121355534
intensity: 31.332195282
---
header: 
  seq: 276392
  stamp: 
    secs: 1561863961
    nsecs: 229799391
  frame_id: "ti_mmwave"
point_id: 11
x: 4.4140625
y: -0.142578125
z: 1.05078125
range: 4.83704376221
velocity: 0.0
doppler_bin: 8
bearing: -1.850061059
intensity: 28.2151355743
---
header: 
  seq: 276393
  stamp: 
    secs: 1561863961
    nsecs: 229811973
  frame_id: "ti_mmwave"
point_id: 12
x: 4.421875
y: -0.142578125
z: 1.193359375
range: 4.88062095642
velocity: 0.0
doppler_bin: 8
bearing: -1.84679484367
intensity: 31.4612808228
---
header: 
  seq: 276394
  stamp: 
    secs: 1561863961
    nsecs: 229820236
  frame_id: "ti_mmwave"
point_id: 13
x: 4.453125
y: -0.14453125
z: 1.232421875
range: 4.9241976738
velocity: 0.0
doppler_bin: 8
bearing: -1.85894739628
intensity: 30.8742637634
---
header: 
  seq: 276395
  stamp: 
    secs: 1561863961
    nsecs: 229856224
  frame_id: "ti_mmwave"
point_id: 14
x: 4.88671875
y: -0.30859375
z: 0.7265625
range: 5.27281332016
velocity: 0.0
doppler_bin: 8
bearing: -3.61340069771
intensity: 31.306552887
---
header: 
  seq: 276396
  stamp: 
    secs: 1561863961
    nsecs: 229882213
  frame_id: "ti_mmwave"
point_id: 15
x: 4.94921875
y: -0.623046875
z: 0.1171875
range: 5.31639051437
velocity: 0.0
doppler_bin: 8
bearing: -7.17510271072
intensity: 29.9607372284
---
header: 
  seq: 276397
  stamp: 
    secs: 1561863961
    nsecs: 229895687
  frame_id: "ti_mmwave"
point_id: 16
x: 0.01171875
y: 0.03125
z: 0.025390625
range: 0.0435769706964
velocity: 0.0
doppler_bin: 8
bearing: 69.4439544678
intensity: 29.4051647186
---
header: 
  seq: 276398
  stamp: 
    secs: 1561863961
    nsecs: 229925807
  frame_id: "ti_mmwave"
point_id: 17
x: 0.041015625
y: -0.033203125
z: 0.0625
range: 0.0871539413929
velocity: 0.0
doppler_bin: 8
bearing: -38.9909973145
intensity: 30.141002655
---
header: 
  seq: 276399
  stamp: 
    secs: 1561863961
    nsecs: 229950414
  frame_id: "ti_mmwave"
point_id: 18
x: 0.052734375
y: -0.04296875
z: 0.103515625
range: 0.130730912089
velocity: 0.0
doppler_bin: 8
bearing: -39.1736602783
intensity: 29.0145835876
---
header: 
  seq: 276400
  stamp: 
    secs: 1561863961
    nsecs: 289147504
  frame_id: "ti_mmwave"
point_id: 0
x: 0.01171875
y: -0.0390625
z: -0.0078125
range: 0.0435769706964
velocity: 0.0
doppler_bin: 8
bearing: -73.3007583618
intensity: 30.7664051056
---
header: 
  seq: 276401
  stamp: 
    secs: 1561863961
    nsecs: 289218712
  frame_id: "ti_mmwave"
point_id: 1
x: 0.017578125
y: -0.080078125
z: -0.0078125
range: 0.0871539413929
velocity: 0.0
doppler_bin: 8
bearing: -77.6192398071
intensity: 31.9865703583
---
header: 
  seq: 276402
  stamp: 
    secs: 1561863961
    nsecs: 289229458
  frame_id: "ti_mmwave"
point_id: 2
x: 0.029296875
y: -0.119140625
z: -0.005859375
range: 0.130730912089
velocity: 0.0
doppler_bin: 8
bearing: -76.1849746704
intensity: 30.248960495
---
header: 
  seq: 276403
  stamp: 
    secs: 1561863961
    nsecs: 289238217
  frame_id: "ti_mmwave"
point_id: 3
x: 0.056640625
y: -0.154296875
z: 0.005859375
range: 0.174307882786
velocity: 0.0
doppler_bin: 8
bearing: -69.8423843384
intensity: 25.490032196
---
header: 
  seq: 276404
  stamp: 
    secs: 1561863961
    nsecs: 289249666
  frame_id: "ti_mmwave"
point_id: 4
x: 0.158203125
y: -0.080078125
z: 1.255859375
range: 1.35088610649
velocity: 0.0
doppler_bin: 8
bearing: -26.8472938538
intensity: 23.1175384521
---
header: 
  seq: 276405
  stamp: 
    secs: 1561863961
    nsecs: 289260228
  frame_id: "ti_mmwave"
point_id: 6
x: 0.431640625
y: -0.083984375
z: -1.27734375
range: 1.43804001808
velocity: 0.0
doppler_bin: 8
bearing: -11.0104799271
intensity: 23.031961441
---
header: 
  seq: 276406
  stamp: 
    secs: 1561863961
    nsecs: 289270364
  frame_id: "ti_mmwave"
point_id: 7
x: 2.6171875
y: -0.17578125
z: 1.041015625
range: 3.00681090355
velocity: 0.0
doppler_bin: 8
bearing: -3.84245300293
intensity: 29.0794849396
---
header: 
  seq: 276407
  stamp: 
    secs: 1561863961
    nsecs: 289443359
  frame_id: "ti_mmwave"
point_id: 8
x: 2.658203125
y: -0.1796875
z: 1.05078125
range: 3.05038785934
velocity: 0.0
doppler_bin: 8
bearing: -3.86716008186
intensity: 32.3223342896
---
header: 
  seq: 276408
  stamp: 
    secs: 1561863961
    nsecs: 289465181
  frame_id: "ti_mmwave"
point_id: 9
x: 2.740234375
y: -0.08984375
z: 0.958984375
range: 3.09396481514
velocity: 0.0
doppler_bin: 8
bearing: -1.87787723541
intensity: 31.4082221985
---
header: 
  seq: 276409
  stamp: 
    secs: 1561863961
    nsecs: 289474408
  frame_id: "ti_mmwave"
point_id: 10
x: 4.412109375
y: -0.142578125
z: 1.06640625
range: 4.83704376221
velocity: 0.0
doppler_bin: 8
bearing: -1.85087943077
intensity: 28.2607479095
---
header: 
  seq: 276410
  stamp: 
    secs: 1561863961
    nsecs: 289482729
  frame_id: "ti_mmwave"
point_id: 11
x: 4.41796875
y: -0.142578125
z: 1.205078125
range: 4.88062095642
velocity: 0.0
doppler_bin: 8
bearing: -1.84842634201
intensity: 31.4952697754
---
header: 
  seq: 276411
  stamp: 
    secs: 1561863961
    nsecs: 289522660
  frame_id: "ti_mmwave"
point_id: 12
x: 4.453125
y: -0.14453125
z: 1.232421875
range: 4.9241976738
velocity: 0.0
doppler_bin: 8
bearing: -1.85894739628
intensity: 30.9968070984
---
header: 
  seq: 276412
  stamp: 
    secs: 1561863961
    nsecs: 289531712
  frame_id: "ti_mmwave"
point_id: 13
x: 4.8828125
y: -0.30859375
z: 0.744140625
range: 5.27281332016
velocity: 0.0
doppler_bin: 8
bearing: -3.61628341675
intensity: 31.1627559662
---
header: 
  seq: 276413
  stamp: 
    secs: 1561863961
    nsecs: 289539969
  frame_id: "ti_mmwave"
point_id: 14
x: 4.94921875
y: -0.623046875
z: 0.123046875
range: 5.31639051437
velocity: 0.0
doppler_bin: 8
bearing: -7.17510271072
intensity: 29.8989448547
---
header: 
  seq: 276414
  stamp: 
    secs: 1561863961
    nsecs: 289549545
  frame_id: "ti_mmwave"
point_id: 15
x: 0.01171875
y: 0.03125
z: 0.0234375
range: 0.0435769706964
velocity: 0.0
doppler_bin: 8
bearing: 69.4439544678
intensity: 29.4051647186
---
header: 
  seq: 276415
  stamp: 
    secs: 1561863961
    nsecs: 289571383
  frame_id: "ti_mmwave"
point_id: 16
x: 0.041015625
y: -0.033203125
z: 0.0625
range: 0.0871539413929
velocity: 0.0
doppler_bin: 8
bearing: -38.9909973145
intensity: 30.141002655
---
header: 
  seq: 276416
  stamp: 
    secs: 1561863961
    nsecs: 289589864
  frame_id: "ti_mmwave"
point_id: 17
x: 0.052734375
y: -0.04296875
z: 0.103515625
range: 0.130730912089
velocity: 0.0
doppler_bin: 8
bearing: -39.1736602783
intensity: 29.0091304779
---
header: 
  seq: 276417
  stamp: 
    secs: 1561863961
    nsecs: 348322770
  frame_id: "ti_mmwave"
point_id: 0
x: 0.01171875
y: -0.0390625
z: -0.0078125
range: 0.0435769706964
velocity: 0.0
doppler_bin: 8
