header: 
  seq: 369689
  stamp: 
    secs: 1561864102
    nsecs: 468247028
  frame_id: "ti_mmwave"
point_id: 0
x: 0.01171875
y: -0.0390625
z: -0.0078125
range: 0.0435769706964
velocity: 0.0
doppler_bin: 8
bearing: -73.3007583618
intensity: 30.7298469543
---
header: 
  seq: 369690
  stamp: 
    secs: 1561864102
    nsecs: 468326182
  frame_id: "ti_mmwave"
point_id: 1
x: 0.017578125
y: -0.080078125
z: -0.009765625
range: 0.0871539413929
velocity: 0.0
doppler_bin: 8
bearing: -77.6192398071
intensity: 31.9617614746
---
header: 
  seq: 369691
  stamp: 
    secs: 1561864102
    nsecs: 468344956
  frame_id: "ti_mmwave"
point_id: 2
x: 0.029296875
y: -0.119140625
z: -0.005859375
range: 0.130730912089
velocity: 0.0
doppler_bin: 8
bearing: -76.1849746704
intensity: 30.2201576233
---
header: 
  seq: 369692
  stamp: 
    secs: 1561864102
    nsecs: 468357215
  frame_id: "ti_mmwave"
point_id: 3
x: 0.056640625
y: -0.154296875
z: 0.005859375
range: 0.174307882786
velocity: 0.0
doppler_bin: 8
bearing: -69.8423843384
intensity: 25.490032196
---
header: 
  seq: 369693
  stamp: 
    secs: 1561864102
    nsecs: 468370119
  frame_id: "ti_mmwave"
point_id: 4
x: 0.16796875
y: -0.080078125
z: 1.25390625
range: 1.35088610649
velocity: 0.0
doppler_bin: 8
bearing: -25.489200592
intensity: 23.1175384521
---
header: 
  seq: 369694
  stamp: 
    secs: 1561864102
    nsecs: 468384903
  frame_id: "ti_mmwave"
point_id: 6
x: 0.42578125
y: -0.083984375
z: -1.27734375
range: 1.43804001808
velocity: 0.0
doppler_bin: 8
bearing: -11.1582231522
intensity: 22.9885311127
---
header: 
  seq: 369695
  stamp: 
    secs: 1561864102
    nsecs: 468483670
  frame_id: "ti_mmwave"
point_id: 7
x: 0.546875
y: -0.04296875
z: -1.27734375
range: 1.48161697388
velocity: 0.0
doppler_bin: 8
bearing: -4.49258184433
intensity: 21.5533599854
---
header: 
  seq: 369696
  stamp: 
    secs: 1561864102
    nsecs: 468504810
  frame_id: "ti_mmwave"
point_id: 8
x: 2.662109375
y: -0.1796875
z: 1.041015625
range: 3.05038785934
velocity: 0.0
doppler_bin: 8
bearing: -3.86150240898
intensity: 32.24792099
---
header: 
  seq: 369697
  stamp: 
    secs: 1561864102
    nsecs: 468517442
  frame_id: "ti_mmwave"
point_id: 9
x: 2.7578125
y: -0.08984375
z: 0.90625
range: 3.09396481514
velocity: 0.0
doppler_bin: 8
bearing: -1.86591637135
intensity: 31.2807598114
---
header: 
  seq: 369698
  stamp: 
    secs: 1561864102
    nsecs: 468530245
  frame_id: "ti_mmwave"
point_id: 10
x: 4.412109375
y: -0.142578125
z: 1.2265625
range: 4.88062095642
velocity: 0.0
doppler_bin: 8
bearing: -1.85087943077
intensity: 31.389339447
---
header: 
  seq: 369699
  stamp: 
    secs: 1561864102
    nsecs: 468542994
  frame_id: "ti_mmwave"
point_id: 11
x: 4.4375
y: -0.14453125
z: 1.2890625
range: 4.9241976738
velocity: 0.0
doppler_bin: 8
bearing: -1.86548817158
intensity: 31.2613143921
---
header: 
  seq: 369700
  stamp: 
    secs: 1561864102
    nsecs: 468555736
  frame_id: "ti_mmwave"
point_id: 12
x: 4.7265625
y: -0.298828125
z: -0.689453125
range: 5.09850549698
velocity: 0.0
doppler_bin: 8
bearing: -3.61760425568
intensity: 33.5526008606
---
header: 
  seq: 369701
  stamp: 
    secs: 1561864102
    nsecs: 468567587
  frame_id: "ti_mmwave"
point_id: 13
x: 4.765625
y: -0.30078125
z: -0.703125
range: 5.14208269119
velocity: 0.0
doppler_bin: 8
bearing: -3.61141896248
intensity: 34.1329994202
---
header: 
  seq: 369702
  stamp: 
    secs: 1561864102
    nsecs: 468579710
  frame_id: "ti_mmwave"
point_id: 14
x: 4.80078125
y: -0.15234375
z: -0.787109375
range: 5.18565940857
velocity: 0.0
doppler_bin: 8
bearing: -1.81756365299
intensity: 30.7224998474
---
header: 
  seq: 369703
  stamp: 
    secs: 1561864102
    nsecs: 468592170
  frame_id: "ti_mmwave"
point_id: 15
x: 4.890625
y: -0.30859375
z: 0.703125
range: 5.27281332016
velocity: 0.0
doppler_bin: 8
bearing: -3.61052203178
intensity: 31.0822658539
---
header: 
  seq: 369704
  stamp: 
    secs: 1561864102
    nsecs: 468604369
  frame_id: "ti_mmwave"
point_id: 16
x: 4.951171875
y: -0.623046875
z: 0.076171875
range: 5.31639051437
velocity: 0.0
doppler_bin: 8
bearing: -7.17230129242
intensity: 29.8944988251
---
header: 
  seq: 369705
  stamp: 
    secs: 1561864102
    nsecs: 468616162
  frame_id: "ti_mmwave"
point_id: 17
x: 2.134765625
y: 0.787109375
z: -0.263671875
range: 2.44031047821
velocity: 0.614668667316
doppler_bin: 9
bearing: 20.2394332886
intensity: 25.5750713348
---
header: 
  seq: 369706
  stamp: 
    secs: 1561864102
    nsecs: 468628467
  frame_id: "ti_mmwave"
point_id: 18
x: 2.173828125
y: 0.80078125
z: -0.259765625
range: 2.48388743401
velocity: 0.614668667316
doppler_bin: 9
bearing: 20.2224731445
intensity: 26.4933490753
---
header: 
  seq: 369707
  stamp: 
    secs: 1561864102
    nsecs: 468640863
  frame_id: "ti_mmwave"
point_id: 19
x: 2.17578125
y: 0.890625
z: -0.318359375
range: 2.5274643898
velocity: 0.614668667316
doppler_bin: 9
bearing: 22.2610397339
intensity: 25.6937389374
---
header: 
  seq: 369708
  stamp: 
    secs: 1561864102
    nsecs: 468653369
  frame_id: "ti_mmwave"
point_id: 20
x: 2.169921875
y: 0.98046875
z: -0.39453125
range: 2.5710413456
velocity: 0.614668667316
doppler_bin: 9
bearing: 24.3156032562
intensity: 25.7863922119
---
header: 
  seq: 369709
  stamp: 
    secs: 1561864102
    nsecs: 468665852
  frame_id: "ti_mmwave"
point_id: 21
x: 2.23828125
y: 0.919921875
z: -0.41015625
range: 2.61461830139
velocity: 0.614668667316
doppler_bin: 9
bearing: 22.3424053192
intensity: 24.8855075836
---
header: 
  seq: 369710
  stamp: 
    secs: 1561864102
    nsecs: 468674148
  frame_id: "ti_mmwave"
point_id: 22
x: 0.009765625
y: 0.03125
z: 0.025390625
range: 0.0435769706964
velocity: 0.0
doppler_bin: 8
bearing: 72.6459732056
intensity: 29.380191803
---
header: 
  seq: 369711
  stamp: 
    secs: 1561864102
    nsecs: 469007016
  frame_id: "ti_mmwave"
point_id: 23
x: 0.041015625
y: -0.033203125
z: 0.0625
range: 0.0871539413929
velocity: 0.0
doppler_bin: 8
bearing: -38.9909973145
intensity: 30.1241531372
---
header: 
  seq: 369712
  stamp: 
    secs: 1561864102
    nsecs: 469038685
  frame_id: "ti_mmwave"
point_id: 24
x: 0.052734375
y: -0.04296875
z: 0.103515625
range: 0.130730912089
velocity: 0.0
doppler_bin: 8
bearing: -39.1736602783
intensity: 28.9927310944
---
header: 
  seq: 369713
  stamp: 
    secs: 1561864102
    nsecs: 469057644
  frame_id: "ti_mmwave"
point_id: 26
x: 1.251953125
y: 0.076171875
z: 2.0625
range: 2.5710413456
velocity: 0.614668667316
doppler_bin: 9
bearing: 3.48172259331
intensity: 22.900346756
---
header: 
  seq: 369714
  stamp: 
    secs: 1561864102
    nsecs: 469070385
  frame_id: "ti_mmwave"
point_id: 27
x: 1.541015625
y: 0.076171875
z: 1.908203125
range: 2.61461830139
velocity: 0.614668667316
doppler_bin: 9
bearing: 2.82980751991
intensity: 22.5527248383
---
header: 
  seq: 369715
  stamp: 
    secs: 1561864102
    nsecs: 469771693
  frame_id: "ti_mmwave"
point_id: 0
x: 0.01171875
y: -0.0390625
z: -0.0078125
range: 0.0435769706964
velocity: 0.0
doppler_bin: 8
bearing: -73.3007583618
intensity: 30.7298469543
---
header: 
  seq: 369716
  stamp: 
    secs: 1561864102
    nsecs: 469823889
  frame_id: "ti_mmwave"
point_id: 1
x: 0.017578125
y: -0.080078125
z: -0.0078125
range: 0.0871539413929
velocity: 0.0
doppler_bin: 8
bearing: -77.6192398071
intensity: 31.9589958191
---
header: 
  seq: 369717
  stamp: 
    secs: 1561864102
    nsecs: 469843019
  frame_id: "ti_mmwave"
point_id: 2
x: 0.029296875
y: -0.119140625
z: -0.005859375
range: 0.130730912089
velocity: 0.0
doppler_bin: 8
bearing: -76.1849746704
intensity: 30.2201576233
---
header: 
  seq: 369718
  stamp: 
    secs: 1561864102
    nsecs: 469856376
  frame_id: "ti_mmwave"
point_id: 3
x: 0.056640625
y: -0.154296875
z: 0.005859375
range: 0.174307882786
velocity: 0.0
doppler_bin: 8
bearing: -69.8423843384
intensity: 25.4777469635
---
header: 
  seq: 369719
  stamp: 
    secs: 1561864102
    nsecs: 469901338
  frame_id: "ti_mmwave"
point_id: 4
x: 0.16015625
y: -0.080078125
z: 1.255859375
range: 1.35088610649
velocity: 0.0
doppler_bin: 8
bearing: -26.5650501251
intensity: 23.0749607086
---
header: 
  seq: 369720
  stamp: 
    secs: 1561864102
    nsecs: 469922761
  frame_id: "ti_mmwave"
point_id: 5
x: 0.06640625
y: -0.08203125
z: 1.3046875
range: 1.39446306229
velocity: 0.0
doppler_bin: 8
bearing: -51.0090065002
intensity: 24.563659668
---
header: 
  seq: 369721
  stamp: 
    secs: 1561864102
    nsecs: 469939240
  frame_id: "ti_mmwave"
point_id: 6
x: 0.421875
y: -0.083984375
z: -1.279296875
range: 1.43804001808
velocity: 0.0
doppler_bin: 8
bearing: -11.2589120865
intensity: 22.9666519165
---
header: 
  seq: 369722
  stamp: 
    secs: 1561864102
    nsecs: 469955878
  frame_id: "ti_mmwave"
point_id: 7
x: 0.560546875
y: -0.04296875
z: -1.271484375
range: 1.48161697388
velocity: 0.0
doppler_bin: 8
bearing: -4.38343858719
intensity: 21.6136798859
---
header: 
  seq: 369723
  stamp: 
    secs: 1561864102
    nsecs: 469972898
  frame_id: "ti_mmwave"
point_id: 8
x: 2.66015625
y: -0.1796875
z: 1.04296875
range: 3.05038785934
velocity: 0.0
doppler_bin: 8
bearing: -3.86432933807
intensity: 32.2427406311
---
header: 
  seq: 369724
  stamp: 
    secs: 1561864102
    nsecs: 469989019
  frame_id: "ti_mmwave"
point_id: 9
x: 2.75390625
y: -0.08984375
z: 0.916015625
range: 3.09396481514
velocity: 0.0
doppler_bin: 8
bearing: -1.86856126785
intensity: 31.2839927673
---
header: 
  seq: 369725
  stamp: 
    secs: 1561864102
    nsecs: 470004899
  frame_id: "ti_mmwave"
point_id: 10
x: 4.408203125
y: -0.142578125
z: 1.240234375
range: 4.88062095642
velocity: 0.0
doppler_bin: 8
bearing: -1.85251843929
intensity: 31.3798675537
---
header: 
  seq: 369726
  stamp: 
    secs: 1561864102
    nsecs: 470020606
  frame_id: "ti_mmwave"
point_id: 11
x: 4.427734375
y: -0.14453125
z: 1.318359375
range: 4.9241976738
velocity: 0.0
doppler_bin: 8
bearing: -1.86959993839
intensity: 31.2645606995
---
header: 
  seq: 369727
  stamp: 
    secs: 1561864102
    nsecs: 470036674
  frame_id: "ti_mmwave"
point_id: 12
x: 4.75
y: -0.298828125
z: -0.513671875
range: 5.09850549698
velocity: 0.0
doppler_bin: 8
bearing: -3.59980130196
intensity: 33.4202766418
---
header: 
  seq: 369728
  stamp: 
    secs: 1561864102
    nsecs: 470046898
  frame_id: "ti_mmwave"
point_id: 13
x: 4.783203125
y: -0.30078125
z: -0.580078125
range: 5.14208269119
velocity: 0.0
doppler_bin: 8
bearing: -3.59818196297
intensity: 34.0585823059
---
header: 
  seq: 369729
  stamp: 
    secs: 1561864102
    nsecs: 470209873
  frame_id: "ti_mmwave"
point_id: 14
x: 4.806640625
y: -0.15234375
z: -0.755859375
range: 5.18565940857
velocity: 0.0
doppler_bin: 8
bearing: -1.81534969807
intensity: 30.7445068359
---
header: 
  seq: 369730
  stamp: 
    secs: 1561864102
    nsecs: 470240546
  frame_id: "ti_mmwave"
point_id: 15
x: 4.8828125
y: -0.30859375
z: 0.75
range: 5.27281332016
velocity: 0.0
doppler_bin: 8
bearing: -3.61628341675
intensity: 31.0619087219
---
header: 
  seq: 369731
  stamp: 
    secs: 1561864102
    nsecs: 470257633
  frame_id: "ti_mmwave"
point_id: 16
x: 4.94921875
y: -0.623046875
z: 0.16796875
range: 5.31639051437
velocity: 0.0
doppler_bin: 8
bearing: -7.17510271072
intensity: 29.9078273773
---
header: 
  seq: 369732
  stamp: 
    secs: 1561864102
    nsecs: 470269822
  frame_id: "ti_mmwave"
point_id: 17
x: 2.3671875
y: 0.966796875
z: 0.328125
range: 2.74534916878
velocity: 0.614668667316
doppler_bin: 9
bearing: 22.215883255
intensity: 26.2221393585
---
header: 
  seq: 369733
  stamp: 
    secs: 1561864102
    nsecs: 470282452
  frame_id: "ti_mmwave"
point_id: 18
x: 0.01171875
y: 0.03125
z: 0.025390625
range: 0.0435769706964
velocity: 0.0
doppler_bin: 8
bearing: 69.4439544678
intensity: 29.3751792908
---
header: 
  seq: 369734
  stamp: 
    secs: 1561864102
    nsecs: 470296624
  frame_id: "ti_mmwave"
point_id: 19
x: 0.041015625
y: -0.033203125
z: 0.0625
range: 0.0871539413929
velocity: 0.0
doppler_bin: 8
bearing: -38.9909973145
intensity: 30.1241531372
---
header: 
  seq: 369735
  stamp: 
    secs: 1561864102
    nsecs: 470308905
  frame_id: "ti_mmwave"
point_id: 20
x: 0.052734375
y: -0.04296875
z: 0.103515625
range: 0.130730912089
velocity: 0.0
doppler_bin: 8
bearing: -39.1736602783
intensity: 28.9872512817
---
header: 
  seq: 369736
  stamp: 
    secs: 1561864102
    nsecs: 528268195
  frame_id: "ti_mmwave"
point_id: 0
x: 0.01171875
y: -0.0390625
z: -0.0078125
range: 0.0435769706964
velocity: 0.0
doppler_bin: 8
bearing: -73.3007583618
intensity: 30.7335166931
---
header: 
  seq: 369737
  stamp: 
    secs: 1561864102
    nsecs: 528336113
  frame_id: "ti_mmwave"
point_id: 1
x: 0.017578125
y: -0.080078125
z: -0.0078125
range: 0.0871539413929
velocity: 0.0
doppler_bin: 8
bearing: -77.6192398071
intensity: 31.9617614746
---
header: 
  seq: 369738
  stamp: 
    secs: 1561864102
    nsecs: 528346612
  frame_id: "ti_mmwave"
point_id: 2
x: 0.029296875
y: -0.119140625
z: -0.005859375
range: 0.130730912089
velocity: 0.0
doppler_bin: 8
bearing: -76.1849746704
intensity: 30.2201576233
---
header: 
  seq: 369739
  stamp: 
    secs: 1561864102
    nsecs: 528356880
  frame_id: "ti_mmwave"
point_id: 3
x: 0.056640625
y: -0.154296875
z: 0.005859375
range: 0.174307882786
velocity: 0.0
doppler_bin: 8
bearing: -69.8423843384
intensity: 25.4777469635
---
header: 
  seq: 369740
  stamp: 
    secs: 1561864102
    nsecs: 528365370
  frame_id: "ti_mmwave"
point_id: 4
x: 0.083984375
y: -0.080078125
z: 1.263671875
range: 1.35088610649
velocity: 0.0
doppler_bin: 8
bearing: -43.6360702515
intensity: 23.1175384521
---
header: 
  seq: 369741
  stamp: 
    secs: 1561864102
    nsecs: 528374391
  frame_id: "ti_mmwave"
point_id: 5
x: 0.015625
y: -0.08203125
z: -1.306640625
range: 1.39446306229
velocity: 0.0
doppler_bin: 8
bearing: -79.2156982422
intensity: 24.5939254761
---
header: 
  seq: 369742
  stamp: 
    secs: 1561864102
    nsecs: 528382385
  frame_id: "ti_mmwave"
point_id: 6
x: 0.419921875
y: -0.083984375
z: -1.28125
range: 1.43804001808
velocity: 0.0
doppler_bin: 8
bearing: -11.3099327087
intensity: 22.9885311127
---
header: 
  seq: 369743
  stamp: 
    secs: 1561864102
    nsecs: 528392691
  frame_id: "ti_mmwave"
point_id: 7
x: 0.54296875
y: -0.04296875
z: -1.279296875
range: 1.48161697388
velocity: 0.0
doppler_bin: 8
bearing: -4.52476835251
intensity: 21.5836257935
---
header: 
  seq: 369744
  stamp: 
    secs: 1561864102
    nsecs: 528401730
  frame_id: "ti_mmwave"
point_id: 8
x: 2.66015625
y: -0.1796875
z: 1.04296875
range: 3.05038785934
velocity: 0.0
doppler_bin: 8
bearing: -3.86432933807
intensity: 32.2323608398
---
header: 
  seq: 369745
  stamp: 
    secs: 1561864102
    nsecs: 528410134
  frame_id: "ti_mmwave"
point_id: 9
x: 2.75390625
y: -0.08984375
z: 0.916015625
range: 3.09396481514
velocity: 0.0
doppler_bin: 8
bearing: -1.86856126785
intensity: 31.2742881775
---
header: 
  seq: 369746
  stamp: 
    secs: 1561864102
    nsecs: 528418421
  frame_id: "ti_mmwave"
point_id: 10
x: 4.41015625
y: -0.142578125
z: 1.232421875
range: 4.88062095642
velocity: 0.0
doppler_bin: 8
bearing: -1.85169863701
intensity: 31.3767051697
---
header: 
  seq: 369747
  stamp: 
    secs: 1561864102
    nsecs: 528429150
  frame_id: "ti_mmwave"
point_id: 11
x: 4.435546875
y: -0.14453125
z: 1.29296875
range: 4.9241976738
velocity: 0.0
doppler_bin: 8
bearing: -1.86630904675
intensity: 31.25806427
---
header: 
  seq: 369748
  stamp: 
    secs: 1561864102
    nsecs: 528591842
  frame_id: "ti_mmwave"
point_id: 12
x: 4.75390625
y: -0.298828125
z: -0.45703125
range: 5.09850549698
velocity: 0.0
doppler_bin: 8
bearing: -3.59685111046
intensity: 33.2613105774
---
header: 
  seq: 369749
  stamp: 
    secs: 1561864102
    nsecs: 528609625
  frame_id: "ti_mmwave"
point_id: 13
x: 4.787109375
y: -0.30078125
z: -0.5390625
range: 5.14208269119
velocity: 0.0
doppler_bin: 8
bearing: -3.59525370598
intensity: 33.9164085388
---
header: 
  seq: 369750
  stamp: 
    secs: 1561864102
    nsecs: 528618988
  frame_id: "ti_mmwave"
point_id: 14
x: 4.8125
y: -0.15234375
z: -0.720703125
range: 5.18565940857
velocity: 0.0
doppler_bin: 8
bearing: -1.81314074993
intensity: 30.6145248413
---
header: 
  seq: 369751
  stamp: 
    secs: 1561864102
    nsecs: 528627145
  frame_id: "ti_mmwave"
point_id: 15
x: 4.904296875
y: -0.30859375
z: 0.59765625
range: 5.27281332016
velocity: 0.0
doppler_bin: 8
bearing: -3.60048341751
intensity: 30.9377174377
---
header: 
  seq: 369752
  stamp: 
    secs: 1561864102
    nsecs: 528636661
  frame_id: "ti_mmwave"
point_id: 16
x: 4.951171875
y: -0.623046875
z: 0.048828125
range: 5.31639051437
velocity: 0.0
doppler_bin: 8
bearing: -7.17230129242
intensity: 29.7451171875
---
header: 
  seq: 369753
  stamp: 
    secs: 1561864102
    nsecs: 528644655
  frame_id: "ti_mmwave"
point_id: 17
x: 0.01171875
y: 0.03125
z: 0.025390625
range: 0.0435769706964
velocity: 0.0
doppler_bin: 8
bearing: 69.4439544678
intensity: 29.380191803
---
header: 
  seq: 369754
  stamp: 
    secs: 1561864102
    nsecs: 528654267
  frame_id: "ti_mmwave"
point_id: 18
x: 0.041015625
y: -0.033203125
z: 0.0625
range: 0.0871539413929
velocity: 0.0
doppler_bin: 8
bearing: -38.9909973145
intensity: 30.1283721924
---
header: 
  seq: 369755
  stamp: 
    secs: 1561864102
    nsecs: 528662087
  frame_id: "ti_mmwave"
point_id: 19
x: 0.052734375
y: -0.04296875
z: 0.1015625
range: 0.130730912089
velocity: 0.0
doppler_bin: 8
bearing: -39.1736602783
intensity: 28.9927310944
---
header: 
  seq: 369756
  stamp: 
    secs: 1561864102
    nsecs: 588309114
  frame_id: "ti_mmwave"
point_id: 0
x: 0.01171875
y: -0.0390625
z: -0.0078125
range: 0.0435769706964
velocity: 0.0
doppler_bin: 8
bearing: -73.3007583618
intensity: 30.7298469543
---
header: 
  seq: 369757
  stamp: 
    secs: 1561864102
    nsecs: 588398677
  frame_id: "ti_mmwave"
point_id: 1
x: 0.017578125
y: -0.080078125
z: -0.0078125
range: 0.0871539413929
velocity: 0.0
doppler_bin: 8
bearing: -77.6192398071
intensity: 31.9617614746
---
header: 
  seq: 369758
  stamp: 
    secs: 1561864102
    nsecs: 588414986
  frame_id: "ti_mmwave"
point_id: 2
x: 0.029296875
y: -0.119140625
z: -0.005859375
range: 0.130730912089
velocity: 0.0
doppler_bin: 8
bearing: -76.1849746704
intensity: 30.2201576233
---
header: 
  seq: 369759
  stamp: 
    secs: 1561864102
    nsecs: 588430302
  frame_id: "ti_mmwave"
point_id: 3
x: 0.056640625
y: -0.154296875
z: 0.005859375
range: 0.174307882786
velocity: 0.0
doppler_bin: 8
bearing: -69.8423843384
intensity: 25.490032196
---
header: 
  seq: 369760
  stamp: 
    secs: 1561864102
    nsecs: 588442648
  frame_id: "ti_mmwave"
point_id: 4
x: 0.15234375
y: -0.080078125
z: 1.255859375
range: 1.35088610649
velocity: 0.0
doppler_bin: 8
bearing: -27.7282581329
intensity: 23.0963020325
---
header: 
  seq: 369761
  stamp: 
    secs: 1561864102
    nsecs: 588458610
  frame_id: "ti_mmwave"
point_id: 6
x: 0.427734375
y: -0.083984375
z: -1.27734375
range: 1.43804001808
velocity: 0.0
doppler_bin: 8
bearing: -11.1085424423
intensity: 22.9885311127
---
header: 
  seq: 369762
  stamp: 
    secs: 1561864102
    nsecs: 588536723
  frame_id: "ti_mmwave"
point_id: 7
x: 0.556640625
y: -0.04296875
z: -1.2734375
range: 1.48161697388
velocity: 0.0
doppler_bin: 8
bearing: -4.41407871246
intensity: 21.5836257935
---
header: 
  seq: 369763
  stamp: 
    secs: 1561864102
    nsecs: 588551243
  frame_id: "ti_mmwave"
point_id: 8
x: 2.611328125
y: -0.17578125
z: 1.056640625
range: 3.00681090355
velocity: 0.0
doppler_bin: 8
bearing: -3.85104894638
intensity: 29.0254669189
---
header: 
  seq: 369764
  stamp: 
    secs: 1561864102
    nsecs: 588562822
  frame_id: "ti_mmwave"
point_id: 9
x: 2.658203125
y: -0.1796875
z: 1.048828125
range: 3.05038785934
velocity: 0.0
doppler_bin: 8
bearing: -3.86716008186
intensity: 32.2608413696
---
header: 
  seq: 369765
  stamp: 
    secs: 1561864102
    nsecs: 588574666
  frame_id: "ti_mmwave"
point_id: 10
x: 2.75390625
y: -0.08984375
z: 0.91796875
range: 3.09396481514
velocity: 0.0
doppler_bin: 8
bearing: -1.86856126785
intensity: 31.2872219086
---
header: 
  seq: 369766
  stamp: 
    secs: 1561864102
    nsecs: 588586965
  frame_id: "ti_mmwave"
point_id: 11
x: 4.41015625
y: -0.142578125
z: 1.23046875
range: 4.88062095642
velocity: 0.0
doppler_bin: 8
bearing: -1.85169863701
intensity: 31.389339447
---
header: 
  seq: 369767
  stamp: 
    secs: 1561864102
    nsecs: 588597270
  frame_id: "ti_mmwave"
point_id: 12
x: 4.43359375
y: -0.14453125
z: 1.302734375
range: 4.9241976738
velocity: 0.0
doppler_bin: 8
bearing: -1.86713063717
intensity: 31.2742881775
---
header: 
  seq: 369768
  stamp: 
    secs: 1561864102
    nsecs: 588606951
  frame_id: "ti_mmwave"
point_id: 13
x: 4.728515625
y: -0.298828125
z: -0.681640625
range: 5.09850549698
velocity: 0.0
doppler_bin: 8
bearing: -3.61611390114
intensity: 33.4654846191
---
header: 
  seq: 369769
  stamp: 
    secs: 1561864102
    nsecs: 588617835
  frame_id: "ti_mmwave"
point_id: 14
x: 4.771484375
y: -0.30078125
z: -0.658203125
range: 5.14208269119
velocity: 0.0
doppler_bin: 8
bearing: -3.60699558258
intensity: 34.0671043396
---
header: 
  seq: 369770
  stamp: 
    secs: 1561864102
    nsecs: 588628640
  frame_id: "ti_mmwave"
point_id: 15
x: 4.810546875
y: -0.15234375
z: -0.72265625
range: 5.18565940857
velocity: 0.0
doppler_bin: 8
bearing: -1.81387650967
intensity: 30.6707077026
---
header: 
  seq: 369771
  stamp: 
    secs: 1561864102
    nsecs: 588641015
  frame_id: "ti_mmwave"
point_id: 16
x: 4.841796875
y: -0.306640625
z: 0.748046875
range: 5.22923660278
velocity: 0.0
doppler_bin: 8
bearing: -3.62381625175
intensity: 29.0471553802
---
header: 
  seq: 369772
  stamp: 
    secs: 1561864102
    nsecs: 588652964
  frame_id: "ti_mmwave"
point_id: 17
x: 4.900390625
y: -0.30859375
z: 0.62890625
range: 5.27281332016
velocity: 0.0
doppler_bin: 8
bearing: -3.60334610939
intensity: 31.1494445801
---
header: 
  seq: 369773
  stamp: 
    secs: 1561864102
    nsecs: 588668864
  frame_id: "ti_mmwave"
point_id: 18
x: 4.951171875
y: -0.623046875
z: 0.03515625
range: 5.31639051437
velocity: 0.0
doppler_bin: 8
bearing: -7.17230129242
intensity: 29.9166908264
---
header: 
  seq: 369774
  stamp: 
    secs: 1561864102
    nsecs: 588682436
  frame_id: "ti_mmwave"
point_id: 19
x: 0.01171875
y: 0.03125
z: 0.025390625
range: 0.0435769706964
velocity: 0.0
doppler_bin: 8
bearing: 69.4439544678
intensity: 29.3751792908
---
header: 
  seq: 369775
  stamp: 
    secs: 1561864102
    nsecs: 588695234
  frame_id: "ti_mmwave"
point_id: 20
x: 0.041015625
y: -0.033203125
z: 0.0625
range: 0.0871539413929
velocity: 0.0
doppler_bin: 8
bearing: -38.9909973145
intensity: 30.1241531372
---
header: 
  seq: 369776
  stamp: 
    secs: 1561864102
    nsecs: 588760440
  frame_id: "ti_mmwave"
point_id: 21
x: 0.052734375
y: -0.04296875
z: 0.103515625
range: 0.130730912089
velocity: 0.0
doppler_bin: 8
bearing: -39.1736602783
intensity: 28.9872512817
---
header: 
  seq: 369777
  stamp: 
    secs: 1561864102
    nsecs: 590047359
  frame_id: "ti_mmwave"
point_id: 0
x: 0.01171875
y: -0.0390625
z: -0.0078125
range: 0.0435769706964
velocity: 0.0
doppler_bin: 8
bearing: -73.3007583618
intensity: 30.7335166931
---
header: 
  seq: 369778
  stamp: 
    secs: 1561864102
    nsecs: 590103019
  frame_id: "ti_mmwave"
point_id: 1
x: 0.017578125
y: -0.080078125
z: -0.0078125
range: 0.0871539413929
velocity: 0.0
doppler_bin: 8
bearing: -77.6192398071
intensity: 31.9645252228
---
header: 
  seq: 369779
  stamp: 
    secs: 1561864102
    nsecs: 590116314
  frame_id: "ti_mmwave"
point_id: 2
x: 0.029296875
y: -0.119140625
z: -0.005859375
range: 0.130730912089
velocity: 0.0
doppler_bin: 8
bearing: -76.1849746704
intensity: 30.2242832184
---
header: 
  seq: 369780
  stamp: 
    secs: 1561864102
    nsecs: 590129534
  frame_id: "ti_mmwave"
point_id: 3
x: 0.056640625
y: -0.154296875
z: 0.005859375
range: 0.174307882786
velocity: 0.0
doppler_bin: 8
bearing: -69.8423843384
intensity: 25.490032196
---
header: 
  seq: 369781
  stamp: 
    secs: 1561864102
    nsecs: 590146730
  frame_id: "ti_mmwave"
point_id: 4
x: 0.15234375
y: -0.080078125
z: 1.255859375
range: 1.35088610649
velocity: 0.0
doppler_bin: 8
bearing: -27.7282581329
intensity: 23.138671875
---
header: 
  seq: 369782
  stamp: 
    secs: 1561864102
    nsecs: 590205790
  frame_id: "ti_mmwave"
point_id: 6
x: 0.421875
y: -0.083984375
z: -1.279296875
range: 1.43804001808
velocity: 0.0
doppler_bin: 8
bearing: -11.2589120865
intensity: 23.0102996826
---
header: 
  seq: 369783
  stamp: 
    secs: 1561864102
    nsecs: 590217640
  frame_id: "ti_mmwave"
point_id: 7
x: 0.533203125
y: -0.04296875
z: -1.283203125
range: 1.48161697388
velocity: 0.0
doppler_bin: 8
bearing: -4.60728597641
intensity: 21.6136798859
---
header: 
  seq: 369784
  stamp: 
    secs: 1561864102
    nsecs: 590227868
  frame_id: "ti_mmwave"
point_id: 8
x: 2.169921875
y: 0.80078125
z: -0.296875
range: 2.48388743401
velocity: 0.0
doppler_bin: 8
bearing: 20.2559223175
intensity: 26.8930892944
---
header: 
  seq: 369785
  stamp: 
    secs: 1561864102
    nsecs: 590240053
  frame_id: "ti_mmwave"
point_id: 9
x: 2.21484375
y: 0.81640625
z: -0.24609375
range: 2.5274643898
velocity: 0.0
doppler_bin: 8
bearing: 20.2342262268
intensity: 27.8390350342
---
header: 
  seq: 369786
  stamp: 
    secs: 1561864102
    nsecs: 590252038
  frame_id: "ti_mmwave"
point_id: 10
x: 2.255859375
y: 0.830078125
z: -0.2109375
range: 2.5710413456
velocity: 0.0
doppler_bin: 8
bearing: 20.2018680573
intensity: 26.0852603912
---
header: 
  seq: 369787
  stamp: 
    secs: 1561864102
    nsecs: 590263507
  frame_id: "ti_mmwave"
point_id: 11
x: 2.6171875
y: -0.17578125
z: 1.044921875
range: 3.00681090355
velocity: 0.0
doppler_bin: 8
bearing: -3.84245300293
intensity: 28.9817657471
---
header: 
  seq: 369788
  stamp: 
    secs: 1561864102
    nsecs: 590274588
  frame_id: "ti_mmwave"
point_id: 12
x: 2.66015625
y: -0.1796875
z: 1.04296875
range: 3.05038785934
velocity: 0.0
doppler_bin: 8
bearing: -3.86432933807
intensity: 32.2505073547
---
header: 
  seq: 369789
  stamp: 
    secs: 1561864102
    nsecs: 590286864
  frame_id: "ti_mmwave"
point_id: 13
x: 2.755859375
y: -0.08984375
z: 0.91015625
range: 3.09396481514
velocity: 0.0
doppler_bin: 8
bearing: -1.86723792553
intensity: 31.2775249481
---
header: 
  seq: 369790
  stamp: 
    secs: 1561864102
    nsecs: 590298516
  frame_id: "ti_mmwave"
point_id: 14
x: 4.41015625
y: -0.142578125
z: 1.234375
range: 4.88062095642
velocity: 0.0
doppler_bin: 8
bearing: -1.85169863701
intensity: 31.3861846924
---
header: 
  seq: 369791
  stamp: 
    secs: 1561864102
    nsecs: 590343273
  frame_id: "ti_mmwave"
point_id: 15
x: 4.43359375
y: -0.14453125
z: 1.30078125
range: 4.9241976738
velocity: 0.0
doppler_bin: 8
bearing: -1.86713063717
intensity: 31.2678050995
---
header: 
  seq: 369792
  stamp: 
    secs: 1561864102
    nsecs: 590359458
  frame_id: "ti_mmwave"
point_id: 16
x: 4.734375
y: -0.298828125
z: -0.626953125
range: 5.09850549698
velocity: 0.0
doppler_bin: 8
bearing: -3.61165046692
intensity: 33.2858352661
---
header: 
  seq: 369793
  stamp: 
    secs: 1561864102
    nsecs: 590371797
  frame_id: "ti_mmwave"
point_id: 17
x: 4.771484375
y: -0.30078125
z: -0.66015625
range: 5.14208269119
velocity: 0.0
doppler_bin: 8
bearing: -3.60699558258
intensity: 33.968963623
---
header: 
  seq: 369794
  stamp: 
    secs: 1561864102
    nsecs: 590383226
  frame_id: "ti_mmwave"
point_id: 18
x: 4.798828125
y: -0.15234375
z: -0.802734375
range: 5.18565940857
velocity: 0.0
doppler_bin: 8
bearing: -1.81830310822
intensity: 30.6892757416
---
header: 
  seq: 369795
  stamp: 
    secs: 1561864102
    nsecs: 590395500
  frame_id: "ti_mmwave"
point_id: 19
x: 4.859375
y: -0.154296875
z: 0.677734375
range: 5.22923660278
velocity: 0.0
doppler_bin: 8
bearing: -1.81866800785
intensity: 28.680562973
---
header: 
  seq: 369796
  stamp: 
    secs: 1561864102
    nsecs: 590408380
  frame_id: "ti_mmwave"
point_id: 20
x: 4.89453125
y: -0.30859375
z: 0.66796875
range: 5.27281332016
velocity: 0.0
doppler_bin: 8
bearing: -3.60764837265
intensity: 30.9025802612
---
header: 
  seq: 369797
  stamp: 
    secs: 1561864102
    nsecs: 590420667
  frame_id: "ti_mmwave"
point_id: 21
x: 4.94921875
y: -0.623046875
z: 0.115234375
range: 5.31639051437
velocity: 0.0
doppler_bin: 8
bearing: -7.17510271072
intensity: 29.6567192078
---
header: 
  seq: 369798
  stamp: 
    secs: 1561864102
    nsecs: 590435123
  frame_id: "ti_mmwave"
point_id: 22
x: 0.01171875
y: 0.03125
z: 0.025390625
range: 0.0435769706964
velocity: 0.0
doppler_bin: 8
bearing: 69.4439544678
intensity: 29.3701610565
---
header: 
  seq: 369799
  stamp: 
    secs: 1561864102
    nsecs: 590448252
  frame_id: "ti_mmwave"
point_id: 23
x: 0.041015625
y: -0.033203125
z: 0.0625
range: 0.0871539413929
velocity: 0.0
doppler_bin: 8
bearing: -38.9909973145
intensity: 30.1241531372
---
header: 
  seq: 369800
  stamp: 
    secs: 1561864102
    nsecs: 590496643
  frame_id: "ti_mmwave"
point_id: 24
x: 0.052734375
y: -0.04296875
z: 0.103515625
range: 0.130730912089
velocity: 0.0
doppler_bin: 8
bearing: -39.1736602783
intensity: 28.9872512817
---
header: 
  seq: 369801
  stamp: 
    secs: 1561864102
    nsecs: 590515552
  frame_id: "ti_mmwave"
point_id: 26
x: 1.599609375
y: -0.076171875
z: 1.806640625
range: 2.5710413456
velocity: 0.0
doppler_bin: 8
bearing: -2.7263109684
intensity: 23.0963020325
---
header: 
  seq: 369802
  stamp: 
    secs: 1561864102
    nsecs: 648316177
  frame_id: "ti_mmwave"
point_id: 0
x: 0.01171875
y: -0.0390625
z: -0.0078125
range: 0.0435769706964
velocity: 0.0
doppler_bin: 8
bearing: -73.3007583618
intensity: 30.7335166931
---
header: 
  seq: 369803
  stamp: 
    secs: 1561864102
    nsecs: 648409674
  frame_id: "ti_mmwave"
point_id: 1
x: 0.017578125
y: -0.080078125
z: -0.009765625
range: 0.0871539413929
velocity: 0.0
doppler_bin: 8
bearing: -77.6192398071
intensity: 31.9645252228
---
header: 
  seq: 369804
  stamp: 
    secs: 1561864102
    nsecs: 648429011
  frame_id: "ti_mmwave"
point_id: 2
x: 0.029296875
y: -0.119140625
z: -0.005859375
range: 0.130730912089
velocity: 0.0
doppler_bin: 8
bearing: -76.1849746704
intensity: 30.2242832184
---
header: 
  seq: 369805
  stamp: 
    secs: 1561864102
    nsecs: 648445312
  frame_id: "ti_mmwave"
point_id: 3
x: 0.056640625
y: -0.154296875
z: 0.005859375
range: 0.174307882786
velocity: 0.0
doppler_bin: 8
bearing: -69.8423843384
intensity: 25.490032196
---
header: 
  seq: 369806
  stamp: 
    secs: 1561864102
    nsecs: 648459067
  frame_id: "ti_mmwave"
point_id: 4
x: 0.16015625
y: -0.080078125
z: 1.255859375
range: 1.35088610649
velocity: 0.0
doppler_bin: 8
bearing: -26.5650501251
intensity: 23.1175384521
---
header: 
  seq: 369807
  stamp: 
    secs: 1561864102
    nsecs: 648475411
  frame_id: "ti_mmwave"
point_id: 6
x: 0.4453125
y: -0.083984375
z: -1.271484375
range: 1.43804001808
velocity: 0.0
doppler_bin: 8
bearing: -10.6803331375
intensity: 22.9885311127
---
header: 
  seq: 369808
  stamp: 
    secs: 1561864102
    nsecs: 648488474
  frame_id: "ti_mmwave"
point_id: 7
x: 2.611328125
y: -0.17578125
z: 1.056640625
range: 3.00681090355
velocity: 0.0
doppler_bin: 8
bearing: -3.85104894638
intensity: 29.0091304779
---
header: 
  seq: 369809
  stamp: 
    secs: 1561864102
    nsecs: 648502869
  frame_id: "ti_mmwave"
point_id: 8
x: 2.658203125
y: -0.1796875
z: 1.048828125
range: 3.05038785934
velocity: 0.0
doppler_bin: 8
bearing: -3.86716008186
intensity: 32.2608413696
---
header: 
  seq: 369810
  stamp: 
    secs: 1561864102
    nsecs: 648517376
  frame_id: "ti_mmwave"
point_id: 9
x: 2.755859375
y: -0.08984375
z: 0.9140625
range: 3.09396481514
velocity: 0.0
doppler_bin: 8
bearing: -1.86723792553
intensity: 31.2839927673
---
header: 
  seq: 369811
  stamp: 
    secs: 1561864102
    nsecs: 648529344
  frame_id: "ti_mmwave"
point_id: 10
x: 4.412109375
y: -0.142578125
z: 1.2265625
range: 4.88062095642
velocity: 0.0
doppler_bin: 8
bearing: -1.85087943077
intensity: 31.3640346527
---
header: 
  seq: 369812
  stamp: 
    secs: 1561864102
    nsecs: 648545916
  frame_id: "ti_mmwave"
point_id: 11
x: 4.435546875
y: -0.14453125
z: 1.29296875
range: 4.9241976738
velocity: 0.0
doppler_bin: 8
bearing: -1.86630904675
intensity: 31.2515583038
---
header: 
  seq: 369813
  stamp: 
    secs: 1561864102
    nsecs: 648559613
  frame_id: "ti_mmwave"
point_id: 12
x: 4.763671875
y: -0.298828125
z: -0.359375
range: 5.09850549698
velocity: 0.0
doppler_bin: 8
bearing: -3.58949661255
intensity: 33.0276374817
---
header: 
  seq: 369814
  stamp: 
    secs: 1561864102
    nsecs: 648576999
  frame_id: "ti_mmwave"
point_id: 13
x: 4.79296875
y: -0.30078125
z: -0.478515625
range: 5.14208269119
velocity: 0.0
doppler_bin: 8
bearing: -3.59086942673
intensity: 33.7566375732
---
header: 
  seq: 369815
  stamp: 
    secs: 1561864102
    nsecs: 648658619
  frame_id: "ti_mmwave"
point_id: 14
x: 4.822265625
y: -0.15234375
z: -0.650390625
range: 5.18565940857
velocity: 0.0
doppler_bin: 8
bearing: -1.80947124958
intensity: 30.4493160248
---
header: 
  seq: 369816
  stamp: 
    secs: 1561864102
    nsecs: 648673174
  frame_id: "ti_mmwave"
point_id: 15
x: 4.890625
y: -0.30859375
z: 0.69921875
range: 5.27281332016
velocity: 0.0
doppler_bin: 8
bearing: -3.61052203178
intensity: 31.0720996857
---
header: 
  seq: 369817
  stamp: 
    secs: 1561864102
    nsecs: 648686549
  frame_id: "ti_mmwave"
point_id: 16
x: 4.966796875
y: -0.46875
z: 0.11328125
range: 5.31639051437
velocity: 0.0
doppler_bin: 8
bearing: -5.39141845703
intensity: 29.8362636566
---
header: 
  seq: 369818
  stamp: 
    secs: 1561864102
    nsecs: 648699499
  frame_id: "ti_mmwave"
point_id: 17
x: 0.01171875
y: 0.03125
z: 0.0234375
range: 0.0435769706964
velocity: 0.0
doppler_bin: 8
bearing: 69.4439544678
intensity: 29.3751792908
---
header: 
  seq: 369819
  stamp: 
    secs: 1561864102
    nsecs: 648714529
  frame_id: "ti_mmwave"
point_id: 18
x: 0.041015625
y: -0.033203125
z: 0.0625
range: 0.0871539413929
velocity: 0.0
doppler_bin: 8
bearing: -38.9909973145
intensity: 30.1283721924
---
header: 
  seq: 369820
  stamp: 
    secs: 1561864102
    nsecs: 648728196
  frame_id: "ti_mmwave"
point_id: 19
x: 0.052734375
y: -0.04296875
z: 0.1015625
range: 0.130730912089
velocity: 0.0
doppler_bin: 8
bearing: -39.1736602783
intensity: 28.9927310944
---
header: 
  seq: 369821
  stamp: 
    secs: 1561864102
    nsecs: 649849310
  frame_id: "ti_mmwave"
point_id: 0
x: 0.01171875
y: -0.0390625
z: -0.0078125
range: 0.0435769706964
velocity: 0.0
doppler_bin: 8
bearing: -73.3007583618
intensity: 30.7335166931
---
header: 
  seq: 369822
  stamp: 
    secs: 1561864102
    nsecs: 649912245
  frame_id: "ti_mmwave"
point_id: 1
x: 0.017578125
y: -0.080078125
z: -0.0078125
range: 0.0871539413929
velocity: 0.0
doppler_bin: 8
bearing: -77.6192398071
intensity: 31.9617614746
---
header: 
  seq: 369823
  stamp: 
    secs: 1561864102
    nsecs: 649929521
  frame_id: "ti_mmwave"
point_id: 2
x: 0.029296875
y: -0.119140625
z: -0.005859375
range: 0.130730912089
velocity: 0.0
doppler_bin: 8
bearing: -76.1849746704
intensity: 30.2201576233
---
header: 
  seq: 369824
  stamp: 
    secs: 1561864102
    nsecs: 649942554
  frame_id: "ti_mmwave"
point_id: 3
x: 0.056640625
y: -0.154296875
z: 0.005859375
range: 0.174307882786
velocity: 0.0
doppler_bin: 8
bearing: -69.8423843384
intensity: 25.4777469635
---
header: 
  seq: 369825
  stamp: 
    secs: 1561864102
    nsecs: 649954828
  frame_id: "ti_mmwave"
point_id: 4
x: 0.068359375
y: -0.080078125
z: 1.263671875
range: 1.35088610649
velocity: 0.0
doppler_bin: 8
bearing: -49.5139884949
intensity: 23.0963020325
---
header: 
  seq: 369826
  stamp: 
    secs: 1561864102
    nsecs: 649967524
  frame_id: "ti_mmwave"
point_id: 5
x: 0.021484375
y: -0.08203125
z: -1.306640625
range: 1.39446306229
velocity: 0.0
doppler_bin: 8
bearing: -75.3236083984
intensity: 24.5788192749
---
header: 
  seq: 369827
  stamp: 
    secs: 1561864102
    nsecs: 649981613
  frame_id: "ti_mmwave"
point_id: 6
x: 0.43359375
y: -0.083984375
z: -1.275390625
range: 1.43804001808
velocity: 0.0
doppler_bin: 8
bearing: -10.9620876312
intensity: 22.9446620941
---
header: 
  seq: 369828
  stamp: 
    secs: 1561864102
    nsecs: 649994587
  frame_id: "ti_mmwave"
point_id: 7
x: 0.5625
y: -0.04296875
z: -1.271484375
range: 1.48161697388
velocity: 0.0
doppler_bin: 8
bearing: -4.36827754974
intensity: 21.5836257935
---
header: 
  seq: 369829
  stamp: 
    secs: 1561864102
    nsecs: 650007403
  frame_id: "ti_mmwave"
point_id: 8
x: 2.154296875
y: 0.80078125
z: -0.396484375
range: 2.48388743401
velocity: 0.0
doppler_bin: 8
bearing: 20.3907794952
intensity: 25.8092498779
---
header: 
  seq: 369830
  stamp: 
    secs: 1561864102
    nsecs: 650019957
  frame_id: "ti_mmwave"
point_id: 9
x: 2.19921875
y: 0.81640625
z: -0.359375
range: 2.5274643898
velocity: 0.0
doppler_bin: 8
bearing: 20.3662128448
intensity: 28.1557769775
---
header: 
  seq: 369831
  stamp: 
    secs: 1561864102
    nsecs: 650094779
  frame_id: "ti_mmwave"
point_id: 10
x: 2.23828125
y: 0.830078125
z: -0.3515625
range: 2.5710413456
velocity: 0.0
doppler_bin: 8
bearing: 20.3475589752
intensity: 26.8214511871
---
header: 
  seq: 369832
  stamp: 
    secs: 1561864102
    nsecs: 650109471
  frame_id: "ti_mmwave"
point_id: 11
x: 2.658203125
y: -0.1796875
z: 1.048828125
range: 3.05038785934
velocity: 0.0
doppler_bin: 8
bearing: -3.86716008186
intensity: 32.2685775757
---
header: 
  seq: 369833
  stamp: 
    secs: 1561864102
    nsecs: 650121977
  frame_id: "ti_mmwave"
point_id: 12
x: 2.755859375
y: -0.08984375
z: 0.9140625
range: 3.09396481514
velocity: 0.0
doppler_bin: 8
bearing: -1.86723792553
intensity: 31.3033370972
---
header: 
  seq: 369834
  stamp: 
    secs: 1561864102
    nsecs: 650135862
  frame_id: "ti_mmwave"
point_id: 13
x: 4.41015625
y: -0.142578125
z: 1.234375
range: 4.88062095642
velocity: 0.0
doppler_bin: 8
bearing: -1.85169863701
intensity: 31.3735408783
---
header: 
  seq: 369835
  stamp: 
    secs: 1561864102
    nsecs: 650147649
  frame_id: "ti_mmwave"
point_id: 14
x: 4.43359375
y: -0.14453125
z: 1.298828125
range: 4.9241976738
velocity: 0.0
doppler_bin: 8
bearing: -1.86713063717
intensity: 31.2450428009
---
header: 
  seq: 369836
  stamp: 
    secs: 1561864102
    nsecs: 650162415
  frame_id: "ti_mmwave"
point_id: 15
x: 4.73046875
y: -0.298828125
z: -0.669921875
range: 5.09850549698
velocity: 0.0
doppler_bin: 8
bearing: -3.61462497711
intensity: 33.6754226685
---
header: 
  seq: 369837
  stamp: 
    secs: 1561864102
    nsecs: 650202432
  frame_id: "ti_mmwave"
point_id: 16
x: 4.76953125
y: -0.30078125
z: -0.68359375
range: 5.14208269119
velocity: 0.0
doppler_bin: 8
bearing: -3.60846877098
intensity: 34.2143936157
---
header: 
  seq: 369838
  stamp: 
    secs: 1561864102
    nsecs: 650258752
  frame_id: "ti_mmwave"
point_id: 17
x: 4.794921875
y: -0.15234375
z: -0.82421875
range: 5.18565940857
velocity: 0.0
doppler_bin: 8
bearing: -1.81978332996
intensity: 30.8493366241
---
header: 
  seq: 369839
  stamp: 
    secs: 1561864102
    nsecs: 650273928
  frame_id: "ti_mmwave"
point_id: 18
x: 4.853515625
y: -0.154296875
z: 0.716796875
range: 5.22923660278
velocity: 0.0
doppler_bin: 8
bearing: -1.82086229324
intensity: 28.8366146088
---
header: 
  seq: 369840
  stamp: 
    secs: 1561864102
    nsecs: 650288491
  frame_id: "ti_mmwave"
point_id: 19
x: 4.892578125
y: -0.30859375
z: 0.689453125
range: 5.27281332016
velocity: 0.0
doppler_bin: 8
bearing: -3.60908436775
intensity: 31.0653076172
---
header: 
  seq: 369841
  stamp: 
    secs: 1561864102
    nsecs: 650299214
  frame_id: "ti_mmwave"
point_id: 20
x: 4.966796875
y: -0.46875
z: 0.10546875
range: 5.31639051437
velocity: 0.0
doppler_bin: 8
bearing: -5.39141845703
intensity: 29.8181858063
---
header: 
  seq: 369842
  stamp: 
    secs: 1561864102
    nsecs: 650306886
  frame_id: "ti_mmwave"
point_id: 21
x: 0.01171875
y: 0.03125
z: 0.025390625
range: 0.0435769706964
velocity: 0.0
doppler_bin: 8
bearing: 69.4439544678
intensity: 29.3751792908
---
header: 
  seq: 369843
  stamp: 
    secs: 1561864102
    nsecs: 650346170
  frame_id: "ti_mmwave"
point_id: 22
x: 0.041015625
y: -0.033203125
z: 0.0625
range: 0.0871539413929
velocity: 0.0
doppler_bin: 8
bearing: -38.9909973145
intensity: 30.1283721924
---
header: 
  seq: 369844
  stamp: 
    secs: 1561864102
    nsecs: 650361786
  frame_id: "ti_mmwave"
point_id: 23
x: 0.052734375
y: -0.04296875
z: 0.103515625
range: 0.130730912089
velocity: 0.0
doppler_bin: 8
bearing: -39.1736602783
intensity: 28.9927310944
---
header: 
  seq: 369845
  stamp: 
    secs: 1561864102
    nsecs: 708319174
  frame_id: "ti_mmwave"
point_id: 0
x: 0.01171875
y: -0.0390625
z: -0.0078125
range: 0.0435769706964
velocity: 0.0
doppler_bin: 8
bearing: -73.3007583618
intensity: 30.7298469543
---
header: 
  seq: 369846
  stamp: 
    secs: 1561864102
    nsecs: 708392255
  frame_id: "ti_mmwave"
point_id: 1
x: 0.017578125
y: -0.080078125
z: -0.0078125
range: 0.0871539413929
velocity: 0.0
doppler_bin: 8
bearing: -77.6192398071
intensity: 31.9589958191
---
header: 
  seq: 369847
  stamp: 
    secs: 1561864102
    nsecs: 708403266
  frame_id: "ti_mmwave"
point_id: 2
x: 0.029296875
y: -0.119140625
z: -0.005859375
range: 0.130730912089
velocity: 0.0
doppler_bin: 8
bearing: -76.1849746704
intensity: 30.2160263062
---
header: 
  seq: 369848
  stamp: 
    secs: 1561864102
    nsecs: 708411214
  frame_id: "ti_mmwave"
point_id: 3
x: 0.056640625
y: -0.154296875
z: 0.005859375
range: 0.174307882786
velocity: 0.0
doppler_bin: 8
bearing: -69.8423843384
intensity: 25.4777469635
---
header: 
  seq: 369849
  stamp: 
    secs: 1561864102
    nsecs: 708445573
  frame_id: "ti_mmwave"
point_id: 4
x: 0.154296875
y: -0.080078125
z: 1.255859375
range: 1.35088610649
velocity: 0.0
doppler_bin: 8
bearing: -27.4287414551
intensity: 23.0963020325
---
header: 
  seq: 369850
  stamp: 
    secs: 1561864102
    nsecs: 708529350
  frame_id: "ti_mmwave"
point_id: 5
x: 0.0546875
y: -0.08203125
z: 1.3046875
range: 1.39446306229
velocity: 0.0
doppler_bin: 8
bearing: -56.3099327087
intensity: 24.5788192749
---
header: 
  seq: 369851
  stamp: 
    secs: 1561864102
    nsecs: 708539456
  frame_id: "ti_mmwave"
point_id: 6
x: 0.408203125
y: -0.083984375
z: -1.283203125
range: 1.43804001808
velocity: 0.0
doppler_bin: 8
bearing: -11.6258993149
intensity: 22.9666519165
---
header: 
  seq: 369852
  stamp: 
    secs: 1561864102
    nsecs: 708549084
  frame_id: "ti_mmwave"
point_id: 7
x: 2.609375
y: -0.17578125
z: 1.064453125
range: 3.00681090355
velocity: 0.0
doppler_bin: 8
bearing: -3.85392260551
intensity: 28.9982051849
---
header: 
  seq: 369853
  stamp: 
    secs: 1561864102
    nsecs: 708558970
  frame_id: "ti_mmwave"
point_id: 8
x: 2.65625
y: -0.1796875
z: 1.052734375
range: 3.05038785934
velocity: 0.0
doppler_bin: 8
bearing: -3.86999511719
intensity: 32.2608413696
---
header: 
  seq: 369854
  stamp: 
    secs: 1561864102
    nsecs: 708566950
  frame_id: "ti_mmwave"
point_id: 9
x: 2.751953125
y: -0.08984375
z: 0.923828125
range: 3.09396481514
velocity: 0.0
doppler_bin: 8
bearing: -1.86988639832
intensity: 31.3033370972
---
header: 
  seq: 369855
  stamp: 
    secs: 1561864102
    nsecs: 708574274
  frame_id: "ti_mmwave"
point_id: 10
x: 4.408203125
y: -0.142578125
z: 1.244140625
range: 4.88062095642
velocity: 0.0
doppler_bin: 8
bearing: -1.85251843929
intensity: 31.3956432343
---
header: 
  seq: 369856
  stamp: 
    secs: 1561864102
    nsecs: 708581623
  frame_id: "ti_mmwave"
point_id: 11
x: 4.4296875
y: -0.14453125
z: 1.3125
range: 4.9241976738
velocity: 0.0
doppler_bin: 8
bearing: -1.86877608299
intensity: 31.2678050995
---
header: 
  seq: 369857
  stamp: 
    secs: 1561864102
    nsecs: 708588946
  frame_id: "ti_mmwave"
point_id: 12
x: 4.740234375
y: -0.298828125
z: -0.587890625
range: 5.09850549698
velocity: 0.0
doppler_bin: 8
bearing: -3.60719799995
intensity: 33.2407646179
---
header: 
  seq: 369858
  stamp: 
    secs: 1561864102
    nsecs: 708596713
  frame_id: "ti_mmwave"
point_id: 13
x: 4.775390625
y: -0.30078125
z: -0.62890625
range: 5.14208269119
velocity: 0.0
doppler_bin: 8
bearing: -3.60405302048
intensity: 33.9252090454
---
header: 
  seq: 369859
  stamp: 
    secs: 1561864102
    nsecs: 708604110
  frame_id: "ti_mmwave"
point_id: 14
x: 4.806640625
y: -0.15234375
z: -0.75390625
range: 5.18565940857
velocity: 0.0
doppler_bin: 8
bearing: -1.81534969807
intensity: 30.5842609406
---
header: 
  seq: 369860
  stamp: 
    secs: 1561864102
    nsecs: 708614988
  frame_id: "ti_mmwave"
point_id: 15
x: 4.892578125
y: -0.30859375
z: 0.68359375
range: 5.27281332016
velocity: 0.0
doppler_bin: 8
bearing: -3.60908436775
intensity: 31.0856494904
---
header: 
  seq: 369861
  stamp: 
    secs: 1561864102
    nsecs: 708623068
  frame_id: "ti_mmwave"
point_id: 16
x: 4.96875
y: -0.46875
z: 0.0859375
range: 5.31639051437
velocity: 0.0
doppler_bin: 8
bearing: -5.38931179047
intensity: 29.8587532043
---
header: 
  seq: 369862
  stamp: 
    secs: 1561864102
    nsecs: 708689559
  frame_id: "ti_mmwave"
point_id: 17
x: 0.01171875
y: 0.03125
z: 0.025390625
range: 0.0435769706964
velocity: 0.0
doppler_bin: 8
bearing: 69.4439544678
intensity: 29.3651371002
---
header: 
  seq: 369863
  stamp: 
    secs: 1561864102
    nsecs: 708699867
  frame_id: "ti_mmwave"
point_id: 18
x: 0.041015625
y: -0.033203125
z: 0.0625
range: 0.0871539413929
velocity: 0.0
doppler_bin: 8
bearing: -38.9909973145
intensity: 30.1241531372
---
header: 
  seq: 369864
  stamp: 
    secs: 1561864102
    nsecs: 708707731
  frame_id: "ti_mmwave"
point_id: 19
x: 0.052734375
y: -0.04296875
z: 0.103515625
range: 0.130730912089
velocity: 0.0
doppler_bin: 8
bearing: -39.1736602783
intensity: 28.9872512817
---
header: 
  seq: 369865
  stamp: 
    secs: 1561864102
    nsecs: 709680569
  frame_id: "ti_mmwave"
point_id: 0
x: 0.01171875
y: -0.0390625
z: -0.0078125
range: 0.0435769706964
velocity: 0.0
doppler_bin: 8
bearing: -73.3007583618
intensity: 30.7298469543
---
header: 
  seq: 369866
  stamp: 
    secs: 1561864102
    nsecs: 709724084
  frame_id: "ti_mmwave"
point_id: 1
x: 0.017578125
y: -0.080078125
z: -0.009765625
range: 0.0871539413929
velocity: 0.0
doppler_bin: 8
bearing: -77.6192398071
intensity: 31.9617614746
---
header: 
  seq: 369867
  stamp: 
    secs: 1561864102
    nsecs: 709734184
  frame_id: "ti_mmwave"
point_id: 2
x: 0.029296875
y: -0.119140625
z: -0.005859375
range: 0.130730912089
velocity: 0.0
doppler_bin: 8
bearing: -76.1849746704
intensity: 30.2242832184
---
header: 
  seq: 369868
  stamp: 
    secs: 1561864102
    nsecs: 709742386
  frame_id: "ti_mmwave"
point_id: 3
x: 0.056640625
y: -0.154296875
z: 0.005859375
range: 0.174307882786
velocity: 0.0
doppler_bin: 8
bearing: -69.8423843384
intensity: 25.4777469635
---
header: 
  seq: 369869
  stamp: 
    secs: 1561864102
    nsecs: 709750651
  frame_id: "ti_mmwave"
point_id: 4
x: 0.130859375
y: -0.080078125
z: 1.259765625
range: 1.35088610649
velocity: 0.0
doppler_bin: 8
bearing: -31.4641437531
intensity: 23.0963020325
---
header: 
  seq: 369870
  stamp: 
    secs: 1561864102
    nsecs: 709762174
  frame_id: "ti_mmwave"
point_id: 6
x: 0.435546875
y: -0.083984375
z: -1.275390625
range: 1.43804001808
velocity: 0.0
doppler_bin: 8
bearing: -10.9141130447
intensity: 22.9885311127
---
header: 
  seq: 369871
  stamp: 
    secs: 1561864102
    nsecs: 709771451
  frame_id: "ti_mmwave"
point_id: 7
x: 0.5546875
y: -0.04296875
z: -1.275390625
range: 1.48161697388
velocity: 0.0
doppler_bin: 8
bearing: -4.42955970764
intensity: 21.5836257935
---
header: 
  seq: 369872
  stamp: 
    secs: 1561864102
    nsecs: 709779611
  frame_id: "ti_mmwave"
point_id: 8
x: 2.65625
y: -0.1796875
z: 1.056640625
range: 3.05038785934
velocity: 0.0
doppler_bin: 8
bearing: -3.86999511719
intensity: 32.2582588196
---
header: 
  seq: 369873
  stamp: 
    secs: 1561864102
    nsecs: 709787021
  frame_id: "ti_mmwave"
point_id: 9
x: 2.751953125
y: -0.08984375
z: 0.921875
range: 3.09396481514
velocity: 0.0
doppler_bin: 8
bearing: -1.86988639832
intensity: 31.2904510498
---
header: 
  seq: 369874
  stamp: 
    secs: 1561864102
    nsecs: 709795000
  frame_id: "ti_mmwave"
point_id: 10
x: 4.412109375
y: -0.142578125
z: 1.228515625
range: 4.88062095642
velocity: 0.0
doppler_bin: 8
bearing: -1.85087943077
intensity: 31.389339447
---
header: 
  seq: 369875
  stamp: 
    secs: 1561864102
    nsecs: 709802976
  frame_id: "ti_mmwave"
point_id: 11
x: 4.43359375
y: -0.14453125
z: 1.302734375
range: 4.9241976738
velocity: 0.0
doppler_bin: 8
bearing: -1.86713063717
intensity: 31.2678050995
---
header: 
  seq: 369876
  stamp: 
    secs: 1561864102
    nsecs: 709810963
  frame_id: "ti_mmwave"
point_id: 12
x: 4.734375
y: -0.298828125
z: -0.630859375
range: 5.09850549698
velocity: 0.0
doppler_bin: 8
bearing: -3.61165046692
intensity: 33.4321174622
---
header: 
  seq: 369877
  stamp: 
    secs: 1561864102
    nsecs: 709819684
  frame_id: "ti_mmwave"
point_id: 13
x: 4.775390625
y: -0.30078125
z: -0.63671875
range: 5.14208269119
velocity: 0.0
doppler_bin: 8
bearing: -3.60405302048
intensity: 34.0449180603
---
header: 
  seq: 369878
  stamp: 
    secs: 1561864102
    nsecs: 709827838
  frame_id: "ti_mmwave"
point_id: 14
x: 4.80859375
y: -0.15234375
z: -0.73828125
range: 5.18565940857
velocity: 0.0
doppler_bin: 8
bearing: -1.81461262703
intensity: 30.6595306396
---
header: 
  seq: 369879
  stamp: 
    secs: 1561864102
    nsecs: 709848189
  frame_id: "ti_mmwave"
point_id: 15
x: 4.875
y: -0.30859375
z: 0.794921875
range: 5.27281332016
velocity: 0.0
doppler_bin: 8
bearing: -3.62206339836
intensity: 31.058506012
---
header: 
  seq: 369880
  stamp: 
    secs: 1561864102
    nsecs: 709862243
  frame_id: "ti_mmwave"
point_id: 16
x: 4.94921875
y: -0.623046875
z: 0.16796875
range: 5.31639051437
velocity: 0.0
doppler_bin: 8
bearing: -7.17510271072
intensity: 29.7497196198
---
header: 
  seq: 369881
  stamp: 
    secs: 1561864102
    nsecs: 709875985
  frame_id: "ti_mmwave"
point_id: 17
x: 0.01171875
y: 0.03125
z: 0.025390625
range: 0.0435769706964
velocity: 0.0
doppler_bin: 8
bearing: 69.4439544678
intensity: 29.3751792908
---
header: 
  seq: 369882
  stamp: 
    secs: 1561864102
    nsecs: 709890271
  frame_id: "ti_mmwave"
point_id: 18
x: 0.041015625
y: -0.033203125
z: 0.0625
range: 0.0871539413929
velocity: 0.0
doppler_bin: 8
bearing: -38.9909973145
intensity: 30.1241531372
---
header: 
  seq: 369883
  stamp: 
    secs: 1561864102
    nsecs: 709901985
  frame_id: "ti_mmwave"
point_id: 19
x: 0.052734375
y: -0.04296875
z: 0.1015625
range: 0.130730912089
velocity: 0.0
doppler_bin: 8
bearing: -39.1736602783
intensity: 28.9927310944
---
header: 
  seq: 369884
  stamp: 
    secs: 1561864102
    nsecs: 768134541
  frame_id: "ti_mmwave"
point_id: 0
x: 0.01171875
y: -0.0390625
z: -0.0078125
range: 0.0435769706964
velocity: 0.0
doppler_bin: 8
bearing: -73.3007583618
intensity: 30.7224998474
---
header: 
  seq: 369885
  stamp: 
    secs: 1561864102
    nsecs: 768217267
  frame_id: "ti_mmwave"
point_id: 1
x: 0.017578125
y: -0.080078125
z: -0.0078125
range: 0.0871539413929
velocity: 0.0
doppler_bin: 8
bearing: -77.6192398071
intensity: 31.9589958191
---
header: 
  seq: 369886
  stamp: 
    secs: 1561864102
    nsecs: 768230960
  frame_id: "ti_mmwave"
point_id: 2
x: 0.029296875
y: -0.119140625
z: -0.005859375
range: 0.130730912089
velocity: 0.0
doppler_bin: 8
bearing: -76.1849746704
intensity: 30.2160263062
---
header: 
  seq: 369887
  stamp: 
    secs: 1561864102
    nsecs: 768239631
  frame_id: "ti_mmwave"
point_id: 3
x: 0.056640625
y: -0.154296875
z: 0.005859375
range: 0.174307882786
velocity: 0.0
doppler_bin: 8
bearing: -69.8423843384
intensity: 25.4777469635
---
header: 
  seq: 369888
  stamp: 
    secs: 1561864102
    nsecs: 768248773
  frame_id: "ti_mmwave"
point_id: 4
x: 0.111328125
y: -0.080078125
z: 1.259765625
range: 1.35088610649
velocity: 0.0
doppler_bin: 8
bearing: -35.7273979187
intensity: 23.0963020325
---
header: 
  seq: 369889
  stamp: 
    secs: 1561864102
    nsecs: 768257226
  frame_id: "ti_mmwave"
point_id: 5
x: 0.0625
y: -0.08203125
z: -1.3046875
range: 1.39446306229
velocity: 0.0
doppler_bin: 8
bearing: -52.6960487366
intensity: 24.5788192749
---
header: 
  seq: 369890
  stamp: 
    secs: 1561864102
    nsecs: 768264952
  frame_id: "ti_mmwave"
point_id: 6
x: 0.4375
y: -0.083984375
z: -1.2734375
range: 1.43804001808
velocity: 0.0
doppler_bin: 8
bearing: -10.8665513992
intensity: 22.9666519165
---
header: 
  seq: 369891
  stamp: 
    secs: 1561864102
    nsecs: 768273225
  frame_id: "ti_mmwave"
point_id: 7
x: 0.55078125
y: -0.04296875
z: -1.275390625
range: 1.48161697388
velocity: 0.0
doppler_bin: 8
bearing: -4.46084880829
intensity: 21.5836257935
---
header: 
  seq: 369892
  stamp: 
    secs: 1561864102
    nsecs: 768283204
  frame_id: "ti_mmwave"
point_id: 8
x: 2.232421875
y: 0.830078125
z: -0.38671875
range: 2.5710413456
velocity: 0.0
doppler_bin: 8
bearing: 20.3965702057
intensity: 26.5991611481
---
header: 
  seq: 369893
  stamp: 
    secs: 1561864102
    nsecs: 768292760
  frame_id: "ti_mmwave"
point_id: 9
x: 2.615234375
y: -0.17578125
z: 1.048828125
range: 3.00681090355
velocity: 0.0
doppler_bin: 8
bearing: -3.84531402588
intensity: 28.9982051849
---
header: 
  seq: 369894
  stamp: 
    secs: 1561864102
    nsecs: 768301756
  frame_id: "ti_mmwave"
point_id: 10
x: 2.662109375
y: -0.1796875
z: 1.041015625
range: 3.05038785934
velocity: 0.0
doppler_bin: 8
bearing: -3.86150240898
intensity: 32.2659988403
---
header: 
  seq: 369895
  stamp: 
    secs: 1561864102
    nsecs: 768310006
  frame_id: "ti_mmwave"
point_id: 11
x: 2.7578125
y: -0.08984375
z: 0.90625
range: 3.09396481514
velocity: 0.0
doppler_bin: 8
bearing: -1.86591637135
intensity: 31.3161869049
---
header: 
  seq: 369896
  stamp: 
    secs: 1561864102
    nsecs: 768318545
  frame_id: "ti_mmwave"
point_id: 12
x: 4.41015625
y: -0.142578125
z: 1.23046875
range: 4.88062095642
velocity: 0.0
doppler_bin: 8
bearing: -1.85169863701
intensity: 31.383026123
---
header: 
  seq: 369897
  stamp: 
    secs: 1561864102
    nsecs: 768326636
  frame_id: "ti_mmwave"
point_id: 13
x: 4.431640625
y: -0.14453125
z: 1.30859375
range: 4.9241976738
velocity: 0.0
doppler_bin: 8
bearing: -1.86795306206
intensity: 31.2548122406
---
header: 
  seq: 369898
  stamp: 
    secs: 1561864102
    nsecs: 768334795
  frame_id: "ti_mmwave"
point_id: 14
x: 4.75
y: -0.298828125
z: -0.498046875
range: 5.09850549698
velocity: 0.0
doppler_bin: 8
bearing: -3.59980130196
intensity: 33.2366447449
---
header: 
  seq: 369899
  stamp: 
    secs: 1561864102
    nsecs: 768346636
  frame_id: "ti_mmwave"
point_id: 15
x: 4.78515625
y: -0.30078125
z: -0.5625
range: 5.14208269119
velocity: 0.0
doppler_bin: 8
bearing: -3.5967168808
intensity: 33.9093513489
---
header: 
  seq: 369900
  stamp: 
    secs: 1561864102
    nsecs: 768356197
  frame_id: "ti_mmwave"
point_id: 16
x: 4.81640625
y: -0.15234375
z: -0.693359375
range: 5.18565940857
velocity: 0.0
doppler_bin: 8
bearing: -1.81167113781
intensity: 30.5652370453
---
header: 
  seq: 369901
  stamp: 
    secs: 1561864102
    nsecs: 768378226
  frame_id: "ti_mmwave"
point_id: 17
x: 4.900390625
y: -0.30859375
z: 0.62890625
range: 5.27281332016
velocity: 0.0
doppler_bin: 8
bearing: -3.60334610939
intensity: 30.9166698456
---
header: 
  seq: 369902
  stamp: 
    secs: 1561864102
    nsecs: 768389881
  frame_id: "ti_mmwave"
point_id: 18
x: 4.96875
y: -0.46875
z: -0.005859375
range: 5.31639051437
velocity: 0.0
doppler_bin: 8
bearing: -5.38931179047
intensity: 29.6848297119
---
header: 
  seq: 369903
  stamp: 
    secs: 1561864102
    nsecs: 768561190
  frame_id: "ti_mmwave"
point_id: 19
x: 0.01171875
y: 0.03125
z: 0.025390625
range: 0.0435769706964
velocity: 0.0
doppler_bin: 8
bearing: 69.4439544678
intensity: 29.3751792908
---
header: 
  seq: 369904
  stamp: 
    secs: 1561864102
    nsecs: 768592221
  frame_id: "ti_mmwave"
point_id: 20
x: 0.041015625
y: -0.033203125
z: 0.0625
range: 0.0871539413929
velocity: 0.0
doppler_bin: 8
bearing: -38.9909973145
intensity: 30.1283721924
---
header: 
  seq: 369905
  stamp: 
    secs: 1561864102
    nsecs: 768611040
  frame_id: "ti_mmwave"
point_id: 21
x: 0.052734375
y: -0.04296875
z: 0.1015625
range: 0.130730912089
velocity: 0.0
doppler_bin: 8
bearing: -39.1736602783
intensity: 28.9982051849
---
header: 
  seq: 369906
  stamp: 
    secs: 1561864102
    nsecs: 769531517
  frame_id: "ti_mmwave"
point_id: 0
x: 0.01171875
y: -0.0390625
z: -0.0078125
range: 0.0435769706964
velocity: 0.0
doppler_bin: 8
bearing: -73.3007583618
intensity: 30.7335166931
---
header: 
  seq: 369907
  stamp: 
    secs: 1561864102
    nsecs: 769582945
  frame_id: "ti_mmwave"
point_id: 1
x: 0.017578125
y: -0.080078125
z: -0.009765625
range: 0.0871539413929
velocity: 0.0
doppler_bin: 8
bearing: -77.6192398071
intensity: 31.9617614746
---
header: 
  seq: 369908
  stamp: 
    secs: 1561864102
    nsecs: 769598928
  frame_id: "ti_mmwave"
point_id: 2
x: 0.029296875
y: -0.119140625
z: -0.005859375
range: 0.130730912089
velocity: 0.0
doppler_bin: 8
bearing: -76.1849746704
intensity: 30.2242832184
---
header: 
  seq: 369909
  stamp: 
    secs: 1561864102
    nsecs: 769613737
  frame_id: "ti_mmwave"
point_id: 3
x: 0.056640625
y: -0.154296875
z: 0.005859375
range: 0.174307882786
velocity: 0.0
doppler_bin: 8
bearing: -69.8423843384
intensity: 25.490032196
---
header: 
  seq: 369910
  stamp: 
    secs: 1561864102
    nsecs: 769629231
  frame_id: "ti_mmwave"
point_id: 4
x: 0.205078125
y: -0.080078125
z: 1.25
range: 1.35088610649
velocity: 0.0
doppler_bin: 8
bearing: -21.3294620514
intensity: 23.0963020325
---
header: 
  seq: 369911
  stamp: 
    secs: 1561864102
    nsecs: 769843902
  frame_id: "ti_mmwave"
point_id: 5
x: 0.08984375
y: -0.08203125
z: 1.302734375
range: 1.39446306229
velocity: 0.0
doppler_bin: 8
bearing: -42.3974380493
intensity: 24.5939254761
---
header: 
  seq: 369912
  stamp: 
    secs: 1561864102
    nsecs: 769961155
  frame_id: "ti_mmwave"
point_id: 6
x: 0.416015625
y: -0.083984375
z: -1.28125
range: 1.43804001808
velocity: 0.0
doppler_bin: 8
bearing: -11.4133548737
intensity: 23.0102996826
---
header: 
  seq: 369913
  stamp: 
    secs: 1561864102
    nsecs: 769998283
  frame_id: "ti_mmwave"
point_id: 7
x: 0.53125
y: -0.04296875
z: -1.28515625
range: 1.48161697388
velocity: 0.0
doppler_bin: 8
bearing: -4.6241517067
intensity: 21.6435279846
---
header: 
  seq: 369914
  stamp: 
    secs: 1561864102
    nsecs: 770007857
  frame_id: "ti_mmwave"
point_id: 8
x: 2.263671875
y: 0.75390625
z: -0.357421875
range: 2.5710413456
velocity: 0.0
doppler_bin: 8
bearing: 18.4201164246
intensity: 26.9019603729
---
header: 
  seq: 369915
  stamp: 
    secs: 1561864102
    nsecs: 770074564
  frame_id: "ti_mmwave"
point_id: 9
x: 2.611328125
y: -0.17578125
z: 1.0546875
range: 3.00681090355
velocity: 0.0
doppler_bin: 8
bearing: -3.85104894638
intensity: 29.0036716461
---
header: 
  seq: 369916
  stamp: 
    secs: 1561864102
    nsecs: 770091673
  frame_id: "ti_mmwave"
point_id: 10
x: 2.66015625
y: -0.1796875
z: 1.046875
range: 3.05038785934
velocity: 0.0
doppler_bin: 8
bearing: -3.86432933807
intensity: 32.263420105
---
header: 
  seq: 369917
  stamp: 
    secs: 1561864102
    nsecs: 770104055
  frame_id: "ti_mmwave"
point_id: 11
x: 2.75390625
y: -0.08984375
z: 0.916015625
range: 3.09396481514
velocity: 0.0
doppler_bin: 8
bearing: -1.86856126785
intensity: 31.3161869049
---
header: 
  seq: 369918
  stamp: 
    secs: 1561864102
    nsecs: 770124135
  frame_id: "ti_mmwave"
point_id: 12
x: 4.408203125
y: -0.142578125
z: 1.23828125
range: 4.88062095642
velocity: 0.0
doppler_bin: 8
bearing: -1.85251843929
intensity: 31.389339447
---
header: 
  seq: 369919
  stamp: 
    secs: 1561864102
    nsecs: 770137968
  frame_id: "ti_mmwave"
point_id: 13
x: 4.43359375
y: -0.14453125
z: 1.298828125
range: 4.9241976738
velocity: 0.0
doppler_bin: 8
bearing: -1.86713063717
intensity: 31.2645606995
---
header: 
  seq: 369920
  stamp: 
    secs: 1561864102
    nsecs: 770149763
  frame_id: "ti_mmwave"
point_id: 14
x: 4.728515625
y: -0.298828125
z: -0.68359375
range: 5.09850549698
velocity: 0.0
doppler_bin: 8
