header: 
  seq: 337775
  stamp: 
    secs: 1561864054
    nsecs: 408068282
  frame_id: "ti_mmwave"
point_id: 0
x: 0.01171875
y: -0.0390625
z: -0.0078125
range: 0.0435769706964
velocity: 0.0
doppler_bin: 8
bearing: -73.3007583618
intensity: 30.7481651306
---
header: 
  seq: 337776
  stamp: 
    secs: 1561864054
    nsecs: 408155978
  frame_id: "ti_mmwave"
point_id: 1
x: 0.017578125
y: -0.080078125
z: -0.009765625
range: 0.0871539413929
velocity: 0.0
doppler_bin: 8
bearing: -77.6192398071
intensity: 31.9700469971
---
header: 
  seq: 337777
  stamp: 
    secs: 1561864054
    nsecs: 408173578
  frame_id: "ti_mmwave"
point_id: 2
x: 0.029296875
y: -0.119140625
z: -0.005859375
range: 0.130730912089
velocity: 0.0
doppler_bin: 8
bearing: -76.1849746704
intensity: 30.2284069061
---
header: 
  seq: 337778
  stamp: 
    secs: 1561864054
    nsecs: 408186872
  frame_id: "ti_mmwave"
point_id: 3
x: 0.056640625
y: -0.154296875
z: 0.005859375
range: 0.174307882786
velocity: 0.0
doppler_bin: 8
bearing: -69.8423843384
intensity: 25.490032196
---
header: 
  seq: 337779
  stamp: 
    secs: 1561864054
    nsecs: 408200919
  frame_id: "ti_mmwave"
point_id: 4
x: 1.130859375
y: 0.1796875
z: 0.009765625
range: 1.22015523911
velocity: 0.0
doppler_bin: 8
bearing: 9.02851486206
intensity: 24.7567119598
---
header: 
  seq: 337780
  stamp: 
    secs: 1561864054
    nsecs: 408226895
  frame_id: "ti_mmwave"
point_id: 5
x: 1.15625
y: 0.1484375
z: 0.21484375
range: 1.2637321949
velocity: 0.0
doppler_bin: 8
bearing: 7.31552553177
intensity: 27.4115161896
---
header: 
  seq: 337781
  stamp: 
    secs: 1561864054
    nsecs: 408245953
  frame_id: "ti_mmwave"
point_id: 6
x: 0.904296875
y: 0.076171875
z: 0.826171875
range: 1.3073091507
velocity: 0.0
doppler_bin: 8
bearing: 4.81484460831
intensity: 27.032913208
---
header: 
  seq: 337782
  stamp: 
    secs: 1561864054
    nsecs: 408265577
  frame_id: "ti_mmwave"
point_id: 7
x: 1.126953125
y: 0.0390625
z: 0.578125
range: 1.35088610649
velocity: 0.0
doppler_bin: 8
bearing: 1.98519408703
intensity: 28.1224460602
---
header: 
  seq: 337783
  stamp: 
    secs: 1561864054
    nsecs: 408283783
  frame_id: "ti_mmwave"
point_id: 8
x: 1.236328125
y: 0.041015625
z: -0.427734375
range: 1.39446306229
velocity: 0.0
doppler_bin: 8
bearing: 1.90011107922
intensity: 28.1023254395
---
header: 
  seq: 337784
  stamp: 
    secs: 1561864054
    nsecs: 408371067
  frame_id: "ti_mmwave"
point_id: 9
x: 1.224609375
y: 0.04296875
z: -0.56640625
range: 1.43804001808
velocity: 0.0
doppler_bin: 8
bearing: 2.0095539093
intensity: 25.2891674042
---
header: 
  seq: 337785
  stamp: 
    secs: 1561864054
    nsecs: 408386203
  frame_id: "ti_mmwave"
point_id: 10
x: 2.623046875
y: -0.17578125
z: 1.029296875
range: 3.00681090355
velocity: 0.0
doppler_bin: 8
bearing: -3.83389568329
intensity: 28.8024177551
---
header: 
  seq: 337786
  stamp: 
    secs: 1561864054
    nsecs: 408398813
  frame_id: "ti_mmwave"
point_id: 11
x: 2.66796875
y: -0.1796875
z: 1.0234375
range: 3.05038785934
velocity: 0.0
doppler_bin: 8
bearing: -3.85304760933
intensity: 32.0628585815
---
header: 
  seq: 337787
  stamp: 
    secs: 1561864054
    nsecs: 408413306
  frame_id: "ti_mmwave"
point_id: 12
x: 2.767578125
y: -0.08984375
z: 0.87890625
range: 3.09396481514
velocity: 0.0
doppler_bin: 8
bearing: -1.85933709145
intensity: 31.1394329071
---
header: 
  seq: 337788
  stamp: 
    secs: 1561864054
    nsecs: 408426593
  frame_id: "ti_mmwave"
point_id: 13
x: 4.40625
y: -0.287109375
z: 1.220703125
range: 4.88062095642
velocity: 0.0
doppler_bin: 8
bearing: -3.72809815407
intensity: 30.6929798126
---
header: 
  seq: 337789
  stamp: 
    secs: 1561864054
    nsecs: 408457870
  frame_id: "ti_mmwave"
point_id: 14
x: 4.486328125
y: -0.14453125
z: 1.099609375
range: 4.9241976738
velocity: 0.0
doppler_bin: 8
bearing: -1.84519886971
intensity: 30.5766601562
---
header: 
  seq: 337790
  stamp: 
    secs: 1561864054
    nsecs: 408472924
  frame_id: "ti_mmwave"
point_id: 15
x: 4.701171875
y: -0.296875
z: -0.568359375
range: 5.0549287796
velocity: 0.0
doppler_bin: 8
bearing: -3.6133813858
intensity: 29.3851966858
---
header: 
  seq: 337791
  stamp: 
    secs: 1561864054
    nsecs: 408486662
  frame_id: "ti_mmwave"
point_id: 16
x: 4.74609375
y: -0.298828125
z: -0.53515625
range: 5.09850549698
velocity: 0.0
doppler_bin: 8
bearing: -3.60275626183
intensity: 33.4044418335
---
header: 
  seq: 337792
  stamp: 
    secs: 1561864054
    nsecs: 408500580
  frame_id: "ti_mmwave"
point_id: 17
x: 4.78515625
y: -0.30078125
z: -0.55859375
range: 5.14208269119
velocity: 0.0
doppler_bin: 8
bearing: -3.5967168808
intensity: 33.8560638428
---
header: 
  seq: 337793
  stamp: 
    secs: 1561864054
    nsecs: 408513379
  frame_id: "ti_mmwave"
point_id: 18
x: 4.796875
y: -0.15234375
z: -0.8125
range: 5.18565940857
velocity: 0.0
doppler_bin: 8
bearing: -1.81904268265
intensity: 30.3059978485
---
header: 
  seq: 337794
  stamp: 
    secs: 1561864054
    nsecs: 408527294
  frame_id: "ti_mmwave"
point_id: 19
x: 4.8984375
y: -0.30859375
z: 0.640625
range: 5.27281332016
velocity: 0.0
doppler_bin: 8
bearing: -3.60477876663
intensity: 30.3221569061
---
header: 
  seq: 337795
  stamp: 
    secs: 1561864054
    nsecs: 408536828
  frame_id: "ti_mmwave"
point_id: 20
x: 4.927734375
y: -0.779296875
z: -0.119140625
range: 5.31639051437
velocity: 0.0
doppler_bin: 8
bearing: -8.98661994934
intensity: 29.4743366241
---
header: 
  seq: 337796
  stamp: 
    secs: 1561864054
    nsecs: 408558171
  frame_id: "ti_mmwave"
point_id: 21
x: 0.01171875
y: 0.03125
z: 0.025390625
range: 0.0435769706964
velocity: 0.0
doppler_bin: 8
bearing: 69.4439544678
intensity: 29.380191803
---
header: 
  seq: 337797
  stamp: 
    secs: 1561864054
    nsecs: 408577615
  frame_id: "ti_mmwave"
point_id: 22
x: 0.041015625
y: -0.033203125
z: 0.0625
range: 0.0871539413929
velocity: 0.0
doppler_bin: 8
bearing: -38.9909973145
intensity: 30.1325874329
---
header: 
  seq: 337798
  stamp: 
    secs: 1561864054
    nsecs: 408650554
  frame_id: "ti_mmwave"
point_id: 23
x: 0.052734375
y: -0.04296875
z: 0.103515625
range: 0.130730912089
velocity: 0.0
doppler_bin: 8
bearing: -39.1736602783
intensity: 28.9982051849
---
header: 
  seq: 337799
  stamp: 
    secs: 1561864054
    nsecs: 408682739
  frame_id: "ti_mmwave"
point_id: 25
x: 0.974609375
y: 0.421875
z: -0.61328125
range: 1.3073091507
velocity: 0.0
doppler_bin: 8
bearing: 23.4061336517
intensity: 24.9831047058
---
header: 
  seq: 337800
  stamp: 
    secs: 1561864054
    nsecs: 408697161
  frame_id: "ti_mmwave"
point_id: 26
x: 0.958984375
y: 0.435546875
z: -0.705078125
range: 1.35088610649
velocity: 0.0
doppler_bin: 8
bearing: 24.4263687134
intensity: 25.2633934021
---
header: 
  seq: 337801
  stamp: 
    secs: 1561864054
    nsecs: 408710556
  frame_id: "ti_mmwave"
point_id: 27
x: 1.140625
y: 0.548828125
z: -0.470703125
range: 1.43804001808
velocity: 0.0
doppler_bin: 8
bearing: 25.6952037811
intensity: 23.2633590698
---
header: 
  seq: 337802
  stamp: 
    secs: 1561864054
    nsecs: 409821253
  frame_id: "ti_mmwave"
point_id: 0
x: 0.01171875
y: -0.0390625
z: -0.0078125
range: 0.0435769706964
velocity: 0.0
doppler_bin: 8
bearing: -73.3007583618
intensity: 30.7408466339
---
header: 
  seq: 337803
  stamp: 
    secs: 1561864054
    nsecs: 409847864
  frame_id: "ti_mmwave"
point_id: 1
x: 0.017578125
y: -0.080078125
z: -0.009765625
range: 0.0871539413929
velocity: 0.0
doppler_bin: 8
bearing: -77.6192398071
intensity: 31.9672870636
---
header: 
  seq: 337804
  stamp: 
    secs: 1561864054
    nsecs: 409857383
  frame_id: "ti_mmwave"
point_id: 2
x: 0.029296875
y: -0.119140625
z: -0.005859375
range: 0.130730912089
velocity: 0.0
doppler_bin: 8
bearing: -76.1849746704
intensity: 30.2284069061
---
header: 
  seq: 337805
  stamp: 
    secs: 1561864054
    nsecs: 409866227
  frame_id: "ti_mmwave"
point_id: 3
x: 0.056640625
y: -0.154296875
z: 0.005859375
range: 0.174307882786
velocity: 0.0
doppler_bin: 8
bearing: -69.8423843384
intensity: 25.490032196
---
header: 
  seq: 337806
  stamp: 
    secs: 1561864054
    nsecs: 409874424
  frame_id: "ti_mmwave"
point_id: 4
x: 1.076171875
y: 0.2421875
z: -0.037109375
range: 1.1765781641
velocity: 0.0
doppler_bin: 8
bearing: 12.6828575134
intensity: 20.7188205719
---
header: 
  seq: 337807
  stamp: 
    secs: 1561864054
    nsecs: 409882254
  frame_id: "ti_mmwave"
point_id: 5
x: 1.119140625
y: 0.21484375
z: -0.119140625
range: 1.22015523911
velocity: 0.0
doppler_bin: 8
bearing: 10.86698246
intensity: 27.2916469574
---
header: 
  seq: 337808
  stamp: 
    secs: 1561864054
    nsecs: 409927727
  frame_id: "ti_mmwave"
point_id: 6
x: 1.115234375
y: 0.259765625
z: -0.30859375
range: 1.2637321949
velocity: 0.0
doppler_bin: 8
bearing: 13.1118164062
intensity: 30.1745071411
---
header: 
  seq: 337809
  stamp: 
    secs: 1561864054
    nsecs: 409935911
  frame_id: "ti_mmwave"
point_id: 7
x: 1.13671875
y: 0.267578125
z: -0.376953125
range: 1.3073091507
velocity: 0.0
doppler_bin: 8
bearing: 13.2460069656
intensity: 29.7451171875
---
header: 
  seq: 337810
  stamp: 
    secs: 1561864054
    nsecs: 409945056
  frame_id: "ti_mmwave"
point_id: 8
x: 1.26171875
y: 0.119140625
z: 0.0390625
range: 1.35088610649
velocity: 0.0
doppler_bin: 8
bearing: 5.39428806305
intensity: 28.2477645874
---
header: 
  seq: 337811
  stamp: 
    secs: 1561864054
    nsecs: 409953144
  frame_id: "ti_mmwave"
point_id: 9
x: 1.302734375
y: 0.123046875
z: 0.0078125
range: 1.39446306229
velocity: 0.0
doppler_bin: 8
bearing: 5.39573764801
intensity: 29.4596061707
---
header: 
  seq: 337812
  stamp: 
    secs: 1561864054
    nsecs: 409960412
  frame_id: "ti_mmwave"
point_id: 10
x: 1.34375
y: 0.126953125
z: 0.025390625
range: 1.43804001808
velocity: 0.0
doppler_bin: 8
bearing: 5.3970990181
intensity: 27.774269104
---
header: 
  seq: 337813
  stamp: 
    secs: 1561864054
    nsecs: 409967728
  frame_id: "ti_mmwave"
point_id: 11
x: 2.57421875
y: -0.17578125
z: 1.142578125
range: 3.00681090355
velocity: 0.0
doppler_bin: 8
bearing: -3.90639400482
intensity: 29.127532959
---
header: 
  seq: 337814
  stamp: 
    secs: 1561864054
    nsecs: 409974994
  frame_id: "ti_mmwave"
point_id: 12
x: 2.642578125
y: -0.1796875
z: 1.0859375
range: 3.05038785934
velocity: 0.0
doppler_bin: 8
bearing: -3.88995575905
intensity: 32.4179534912
---
header: 
  seq: 337815
  stamp: 
    secs: 1561864054
    nsecs: 409982278
  frame_id: "ti_mmwave"
point_id: 13
x: 2.740234375
y: -0.08984375
z: 0.9609375
range: 3.09396481514
velocity: 0.0
doppler_bin: 8
bearing: -1.87787723541
intensity: 31.4891090393
---
header: 
  seq: 337816
  stamp: 
    secs: 1561864054
    nsecs: 409989537
  frame_id: "ti_mmwave"
point_id: 14
x: 4.392578125
y: -0.142578125
z: 1.142578125
range: 4.83704376221
velocity: 0.0
doppler_bin: 8
bearing: -1.85910367966
intensity: 29.0363254547
---
header: 
  seq: 337817
  stamp: 
    secs: 1561864054
    nsecs: 409997931
  frame_id: "ti_mmwave"
point_id: 15
x: 4.416015625
y: -0.142578125
z: 1.21484375
range: 4.88062095642
velocity: 0.0
doppler_bin: 8
bearing: -1.84924340248
intensity: 32.4179534912
---
header: 
  seq: 337818
  stamp: 
    secs: 1561864054
    nsecs: 410004931
  frame_id: "ti_mmwave"
point_id: 16
x: 4.458984375
y: -0.14453125
z: 1.208984375
range: 4.9241976738
velocity: 0.0
doppler_bin: 8
bearing: -1.85650622845
intensity: 32.1245384216
---
header: 
  seq: 337819
  stamp: 
    secs: 1561864054
    nsecs: 410013727
  frame_id: "ti_mmwave"
point_id: 17
x: 4.712890625
y: -0.296875
z: -0.458984375
range: 5.0549287796
velocity: 0.0
doppler_bin: 8
bearing: -3.60442066193
intensity: 29.6047077179
---
header: 
  seq: 337820
  stamp: 
    secs: 1561864054
    nsecs: 410234822
  frame_id: "ti_mmwave"
point_id: 18
x: 4.744140625
y: -0.298828125
z: -0.560546875
range: 5.09850549698
velocity: 0.0
doppler_bin: 8
bearing: -3.60423564911
intensity: 33.9619941711
---
header: 
  seq: 337821
  stamp: 
    secs: 1561864054
    nsecs: 410260156
  frame_id: "ti_mmwave"
point_id: 19
x: 4.7734375
y: -0.30078125
z: -0.65625
range: 5.14208269119
velocity: 0.0
doppler_bin: 8
bearing: -3.60552406311
intensity: 34.3870048523
---
header: 
  seq: 337822
  stamp: 
    secs: 1561864054
    nsecs: 410276197
  frame_id: "ti_mmwave"
point_id: 20
x: 4.759765625
y: -0.15234375
z: -1.013671875
range: 5.18565940857
velocity: 0.0
doppler_bin: 8
bearing: -1.83321535587
intensity: 29.9078273773
---
header: 
  seq: 337823
  stamp: 
    secs: 1561864054
    nsecs: 410288769
  frame_id: "ti_mmwave"
point_id: 21
x: 4.79296875
y: -0.154296875
z: 1.044921875
range: 5.22923660278
velocity: 0.0
doppler_bin: 8
bearing: -1.84384846687
intensity: 30.3221569061
---
header: 
  seq: 337824
  stamp: 
    secs: 1561864054
    nsecs: 410302131
  frame_id: "ti_mmwave"
point_id: 22
x: 4.87109375
y: -0.30859375
z: 0.826171875
range: 5.27281332016
velocity: 0.0
doppler_bin: 8
bearing: -3.62496066093
intensity: 32.2427406311
---
header: 
  seq: 337825
  stamp: 
    secs: 1561864054
    nsecs: 410322715
  frame_id: "ti_mmwave"
point_id: 23
x: 4.962890625
y: -0.46875
z: 0.255859375
range: 5.31639051437
velocity: 0.0
doppler_bin: 8
bearing: -5.39563703537
intensity: 30.1994667053
---
header: 
  seq: 337826
  stamp: 
    secs: 1561864054
    nsecs: 410382916
  frame_id: "ti_mmwave"
point_id: 24
x: 0.01171875
y: 0.03125
z: 0.025390625
range: 0.0435769706964
velocity: 0.0
doppler_bin: 8
bearing: 69.4439544678
intensity: 29.3751792908
---
header: 
  seq: 337827
  stamp: 
    secs: 1561864054
    nsecs: 410397669
  frame_id: "ti_mmwave"
point_id: 25
x: 0.041015625
y: -0.033203125
z: 0.0625
range: 0.0871539413929
velocity: 0.0
doppler_bin: 8
bearing: -38.9909973145
intensity: 30.1367969513
---
header: 
  seq: 337828
  stamp: 
    secs: 1561864054
    nsecs: 410410306
  frame_id: "ti_mmwave"
point_id: 26
x: 0.052734375
y: -0.04296875
z: 0.103515625
range: 0.130730912089
velocity: 0.0
doppler_bin: 8
bearing: -39.1736602783
intensity: 29.0036716461
---
header: 
  seq: 337829
  stamp: 
    secs: 1561864054
    nsecs: 410427890
  frame_id: "ti_mmwave"
point_id: 28
x: 1.029296875
y: -0.154296875
z: 0.6484375
range: 1.3073091507
velocity: 0.0
doppler_bin: 8
bearing: -8.52544975281
intensity: 27.3319721222
---
header: 
  seq: 337830
  stamp: 
    secs: 1561864054
    nsecs: 468213426
  frame_id: "ti_mmwave"
point_id: 0
x: 0.01171875
y: -0.0390625
z: -0.0078125
range: 0.0435769706964
velocity: 0.0
doppler_bin: 8
bearing: -73.3007583618
intensity: 30.7591171265
---
header: 
  seq: 337831
  stamp: 
    secs: 1561864054
    nsecs: 468297192
  frame_id: "ti_mmwave"
point_id: 1
x: 0.017578125
y: -0.080078125
z: -0.0078125
range: 0.0871539413929
velocity: 0.0
doppler_bin: 8
bearing: -77.6192398071
intensity: 31.9728050232
---
header: 
  seq: 337832
  stamp: 
    secs: 1561864054
    nsecs: 468314609
  frame_id: "ti_mmwave"
point_id: 2
x: 0.029296875
y: -0.119140625
z: -0.005859375
range: 0.130730912089
velocity: 0.0
doppler_bin: 8
bearing: -76.1849746704
intensity: 30.2325248718
---
header: 
  seq: 337833
  stamp: 
    secs: 1561864054
    nsecs: 468328421
  frame_id: "ti_mmwave"
point_id: 3
x: 0.056640625
y: -0.154296875
z: 0.005859375
range: 0.174307882786
velocity: 0.0
doppler_bin: 8
bearing: -69.8423843384
intensity: 25.490032196
---
header: 
  seq: 337834
  stamp: 
    secs: 1561864054
    nsecs: 468342062
  frame_id: "ti_mmwave"
point_id: 4
x: 1.078125
y: 0.2421875
z: 0.00390625
range: 1.1765781641
velocity: 0.0
doppler_bin: 8
bearing: 12.6606225967
intensity: 23.6172790527
---
header: 
  seq: 337835
  stamp: 
    secs: 1561864054
    nsecs: 468359143
  frame_id: "ti_mmwave"
point_id: 5
x: 1.1171875
y: 0.25
z: 0.009765625
range: 1.22015523911
velocity: 0.0
doppler_bin: 8
bearing: 12.6136274338
intensity: 28.9097957611
---
header: 
  seq: 337836
  stamp: 
    secs: 1561864054
    nsecs: 468373233
  frame_id: "ti_mmwave"
point_id: 6
x: 1.158203125
y: 0.259765625
z: -0.021484375
range: 1.2637321949
velocity: 0.0
doppler_bin: 8
bearing: 12.641292572
intensity: 30.3221569061
---
header: 
  seq: 337837
  stamp: 
    secs: 1561864054
    nsecs: 468390770
  frame_id: "ti_mmwave"
point_id: 7
x: 1.203125
y: 0.19140625
z: -0.154296875
range: 1.3073091507
velocity: 0.0
doppler_bin: 8
bearing: 9.03948307037
intensity: 30.4999294281
---
header: 
  seq: 337838
  stamp: 
    secs: 1561864054
    nsecs: 468458925
  frame_id: "ti_mmwave"
point_id: 8
x: 1.236328125
y: 0.158203125
z: -0.234375
range: 1.35088610649
velocity: 0.0
doppler_bin: 8
bearing: 7.29205846786
intensity: 30.678144455
---
header: 
  seq: 337839
  stamp: 
    secs: 1561864054
    nsecs: 468473895
  frame_id: "ti_mmwave"
point_id: 9
x: 1.24609375
y: 0.08203125
z: -0.390625
range: 1.39446306229
velocity: 0.0
doppler_bin: 8
bearing: 3.76638793945
intensity: 28.8761730194
---
header: 
  seq: 337840
  stamp: 
    secs: 1561864054
    nsecs: 468486638
  frame_id: "ti_mmwave"
point_id: 10
x: 1.322265625
y: -0.0
z: -0.267578125
range: 1.43804001808
velocity: 0.0
doppler_bin: 8
bearing: -0.0
intensity: 27.2509460449
---
header: 
  seq: 337841
  stamp: 
    secs: 1561864054
    nsecs: 468501246
  frame_id: "ti_mmwave"
point_id: 11
x: 2.671875
y: -0.087890625
z: 0.90625
range: 3.00681090355
velocity: 0.0
doppler_bin: 8
bearing: -1.88405025005
intensity: 28.633228302
---
header: 
  seq: 337842
  stamp: 
    secs: 1561864054
    nsecs: 468515786
  frame_id: "ti_mmwave"
point_id: 12
x: 2.662109375
y: -0.1796875
z: 1.041015625
range: 3.05038785934
velocity: 0.0
doppler_bin: 8
bearing: -3.86150240898
intensity: 31.886472702
---
header: 
  seq: 337843
  stamp: 
    secs: 1561864054
    nsecs: 468529917
  frame_id: "ti_mmwave"
point_id: 13
x: 2.759765625
y: -0.08984375
z: 0.90234375
range: 3.09396481514
velocity: 0.0
doppler_bin: 8
bearing: -1.86459684372
intensity: 30.7809410095
---
header: 
  seq: 337844
  stamp: 
    secs: 1561864054
    nsecs: 468542867
  frame_id: "ti_mmwave"
point_id: 14
x: 4.404296875
y: -0.142578125
z: 1.091796875
range: 4.83704376221
velocity: 0.0
doppler_bin: 8
bearing: -1.85416030884
intensity: 29.0633506775
---
header: 
  seq: 337845
  stamp: 
    secs: 1561864054
    nsecs: 468574162
  frame_id: "ti_mmwave"
point_id: 15
x: 4.423828125
y: -0.142578125
z: 1.18359375
range: 4.88062095642
velocity: 0.0
doppler_bin: 8
bearing: -1.84597980976
intensity: 32.4551277161
---
header: 
  seq: 337846
  stamp: 
    secs: 1561864054
    nsecs: 468637786
  frame_id: "ti_mmwave"
point_id: 16
x: 4.44921875
y: -0.14453125
z: 1.24609375
range: 4.9241976738
velocity: 0.0
doppler_bin: 8
bearing: -1.86057829857
intensity: 31.9617614746
---
header: 
  seq: 337847
  stamp: 
    secs: 1561864054
    nsecs: 468652044
  frame_id: "ti_mmwave"
point_id: 17
x: 4.693359375
y: -0.4453125
z: -0.541015625
range: 5.0549287796
velocity: 0.0
doppler_bin: 8
bearing: -5.42007780075
intensity: 29.2427921295
---
header: 
  seq: 337848
  stamp: 
    secs: 1561864054
    nsecs: 468666157
  frame_id: "ti_mmwave"
point_id: 18
x: 4.7421875
y: -0.298828125
z: -0.56640625
range: 5.09850549698
velocity: 0.0
doppler_bin: 8
bearing: -3.60571622849
intensity: 33.8560638428
---
header: 
  seq: 337849
  stamp: 
    secs: 1561864054
    nsecs: 468679214
  frame_id: "ti_mmwave"
point_id: 19
x: 4.779296875
y: -0.30078125
z: -0.60546875
range: 5.14208269119
velocity: 0.0
doppler_bin: 8
bearing: -3.60111522675
intensity: 34.3440933228
---
header: 
  seq: 337850
  stamp: 
    secs: 1561864054
    nsecs: 468692645
  frame_id: "ti_mmwave"
point_id: 20
x: 4.8125
y: -0.15234375
z: -0.71875
range: 5.18565940857
velocity: 0.0
doppler_bin: 8
bearing: -1.81314074993
intensity: 30.5346260071
---
header: 
  seq: 337851
  stamp: 
    secs: 1561864054
    nsecs: 468706203
  frame_id: "ti_mmwave"
point_id: 21
x: 4.81640625
y: -0.154296875
z: 0.939453125
range: 5.22923660278
velocity: 0.0
doppler_bin: 8
bearing: -1.83488214016
intensity: 30.3702793121
---
header: 
  seq: 337852
  stamp: 
    secs: 1561864054
    nsecs: 468721416
  frame_id: "ti_mmwave"
point_id: 22
x: 4.880859375
y: -0.30859375
z: 0.767578125
range: 5.27281332016
velocity: 0.0
doppler_bin: 8
bearing: -3.61772704124
intensity: 32.3804626465
---
header: 
  seq: 337853
  stamp: 
    secs: 1561864054
    nsecs: 468740425
  frame_id: "ti_mmwave"
point_id: 23
x: 4.96484375
y: -0.46875
z: 0.1953125
range: 5.31639051437
velocity: 0.0
doppler_bin: 8
bearing: -5.39352655411
intensity: 30.6295776367
---
header: 
  seq: 337854
  stamp: 
    secs: 1561864054
    nsecs: 468778823
  frame_id: "ti_mmwave"
point_id: 24
x: 0.01171875
y: 0.03125
z: 0.025390625
range: 0.0435769706964
velocity: 0.0
doppler_bin: 8
bearing: 69.4439544678
intensity: 29.3851966858
---
header: 
  seq: 337855
  stamp: 
    secs: 1561864054
    nsecs: 468795067
  frame_id: "ti_mmwave"
point_id: 25
x: 0.041015625
y: -0.033203125
z: 0.0625
range: 0.0871539413929
velocity: 0.0
doppler_bin: 8
bearing: -38.9909973145
intensity: 30.1325874329
---
header: 
  seq: 337856
  stamp: 
    secs: 1561864054
    nsecs: 468807870
  frame_id: "ti_mmwave"
point_id: 26
x: 0.052734375
y: -0.04296875
z: 0.103515625
range: 0.130730912089
velocity: 0.0
doppler_bin: 8
bearing: -39.1736602783
intensity: 28.9982051849
---
header: 
  seq: 337857
  stamp: 
    secs: 1561864054
    nsecs: 469882872
  frame_id: "ti_mmwave"
point_id: 0
x: 0.01171875
y: -0.0390625
z: -0.0078125
range: 0.0435769706964
velocity: 0.0
doppler_bin: 8
bearing: -73.3007583618
intensity: 30.7481651306
---
header: 
  seq: 337858
  stamp: 
    secs: 1561864054
    nsecs: 469946657
  frame_id: "ti_mmwave"
point_id: 1
x: 0.017578125
y: -0.080078125
z: -0.009765625
range: 0.0871539413929
velocity: 0.0
doppler_bin: 8
bearing: -77.6192398071
intensity: 31.9700469971
---
header: 
  seq: 337859
  stamp: 
    secs: 1561864054
    nsecs: 469968741
  frame_id: "ti_mmwave"
point_id: 2
x: 0.029296875
y: -0.119140625
z: -0.005859375
range: 0.130730912089
velocity: 0.0
doppler_bin: 8
bearing: -76.1849746704
intensity: 30.2325248718
---
header: 
  seq: 337860
  stamp: 
    secs: 1561864054
    nsecs: 469982008
  frame_id: "ti_mmwave"
point_id: 3
x: 0.056640625
y: -0.154296875
z: 0.005859375
range: 0.174307882786
velocity: 0.0
doppler_bin: 8
bearing: -69.8423843384
intensity: 25.490032196
---
header: 
  seq: 337861
  stamp: 
    secs: 1561864054
    nsecs: 469993490
  frame_id: "ti_mmwave"
point_id: 4
x: 1.083984375
y: 0.20703125
z: 0.01953125
range: 1.1765781641
velocity: 0.0
doppler_bin: 8
bearing: 10.8127584457
intensity: 25.1321754456
---
header: 
  seq: 337862
  stamp: 
    secs: 1561864054
    nsecs: 470005425
  frame_id: "ti_mmwave"
point_id: 5
x: 1.123046875
y: 0.21484375
z: 0.068359375
range: 1.22015523911
velocity: 0.0
doppler_bin: 8
bearing: 10.8300790787
intensity: 29.4398880005
---
header: 
  seq: 337863
  stamp: 
    secs: 1561864054
    nsecs: 470016683
  frame_id: "ti_mmwave"
point_id: 6
x: 1.162109375
y: 0.22265625
z: 0.09375
range: 1.2637321949
velocity: 0.0
doppler_bin: 8
bearing: 10.8462343216
intensity: 28.9320678711
---
header: 
  seq: 337864
  stamp: 
    secs: 1561864054
    nsecs: 470028101
  frame_id: "ti_mmwave"
point_id: 7
x: 1.15234375
y: 0.306640625
z: -0.29296875
range: 1.3073091507
velocity: 0.0
doppler_bin: 8
bearing: 14.9011917114
intensity: 28.2672252655
---
header: 
  seq: 337865
  stamp: 
    secs: 1561864054
    nsecs: 470039708
  frame_id: "ti_mmwave"
point_id: 8
x: 1.162109375
y: 0.31640625
z: -0.396484375
range: 1.35088610649
velocity: 0.0
doppler_bin: 8
bearing: 15.2306728363
intensity: 27.9587993622
---
header: 
  seq: 337866
  stamp: 
    secs: 1561864054
    nsecs: 470115729
  frame_id: "ti_mmwave"
point_id: 9
x: 0.68359375
y: -0.041015625
z: 1.115234375
range: 1.39446306229
velocity: 0.0
doppler_bin: 8
bearing: -3.43363022804
intensity: 27.7232170105
---
header: 
  seq: 337867
  stamp: 
    secs: 1561864054
    nsecs: 470131198
  frame_id: "ti_mmwave"
point_id: 10
x: 0.52734375
y: -0.0
z: 1.2421875
range: 1.43804001808
velocity: 0.0
doppler_bin: 8
bearing: -0.0
intensity: 25.965970993
---
header: 
  seq: 337868
  stamp: 
    secs: 1561864054
    nsecs: 470142812
  frame_id: "ti_mmwave"
point_id: 11
x: 2.623046875
y: -0.17578125
z: 1.02734375
range: 3.00681090355
velocity: 0.0
doppler_bin: 8
bearing: -3.83389568329
intensity: 29.1328392029
---
header: 
  seq: 337869
  stamp: 
    secs: 1561864054
    nsecs: 470153703
  frame_id: "ti_mmwave"
point_id: 12
x: 2.666015625
y: -0.1796875
z: 1.02734375
range: 3.05038785934
velocity: 0.0
doppler_bin: 8
bearing: -3.85586214066
intensity: 32.3325004578
---
header: 
  seq: 337870
  stamp: 
    secs: 1561864054
    nsecs: 470165020
  frame_id: "ti_mmwave"
point_id: 13
x: 2.763671875
y: -0.08984375
z: 0.888671875
range: 3.09396481514
velocity: 0.0
doppler_bin: 8
bearing: -1.8619633913
intensity: 31.3545074463
---
header: 
  seq: 337871
  stamp: 
    secs: 1561864054
    nsecs: 470176463
  frame_id: "ti_mmwave"
point_id: 14
x: 4.412109375
y: -0.142578125
z: 1.224609375
range: 4.88062095642
velocity: 0.0
doppler_bin: 8
bearing: -1.85087943077
intensity: 31.205739975
---
header: 
  seq: 337872
  stamp: 
    secs: 1561864054
    nsecs: 470187220
  frame_id: "ti_mmwave"
point_id: 15
x: 4.423828125
y: -0.14453125
z: 1.3359375
range: 4.9241976738
velocity: 0.0
doppler_bin: 8
bearing: -1.87124967575
intensity: 30.5994186401
---
header: 
  seq: 337873
  stamp: 
    secs: 1561864054
    nsecs: 470197454
  frame_id: "ti_mmwave"
point_id: 16
x: 4.75
y: -0.298828125
z: -0.505859375
range: 5.09850549698
velocity: 0.0
doppler_bin: 8
bearing: -3.59980130196
intensity: 33.5256843567
---
header: 
  seq: 337874
  stamp: 
    secs: 1561864054
    nsecs: 470259923
  frame_id: "ti_mmwave"
point_id: 17
x: 4.78515625
y: -0.30078125
z: -0.55859375
range: 5.14208269119
velocity: 0.0
doppler_bin: 8
bearing: -3.5967168808
intensity: 34.1246070862
---
header: 
  seq: 337875
  stamp: 
    secs: 1561864054
    nsecs: 470275383
  frame_id: "ti_mmwave"
point_id: 18
x: 4.818359375
y: -0.15234375
z: -0.673828125
range: 5.18565940857
velocity: 0.0
doppler_bin: 8
bearing: -1.81093740463
intensity: 30.561422348
---
header: 
  seq: 337876
  stamp: 
    secs: 1561864054
    nsecs: 470287717
  frame_id: "ti_mmwave"
point_id: 19
x: 4.888671875
y: -0.30859375
z: 0.705078125
range: 5.27281332016
velocity: 0.0
doppler_bin: 8
bearing: -3.61196112633
intensity: 31.2775249481
---
header: 
  seq: 337877
  stamp: 
    secs: 1561864054
    nsecs: 470298407
  frame_id: "ti_mmwave"
point_id: 20
x: 4.96875
y: -0.46875
z: 0.05078125
range: 5.31639051437
velocity: 0.0
doppler_bin: 8
bearing: -5.38931179047
intensity: 29.8855895996
---
header: 
  seq: 337878
  stamp: 
    secs: 1561864054
    nsecs: 470309238
  frame_id: "ti_mmwave"
point_id: 21
x: 0.01171875
y: 0.03125
z: 0.0234375
range: 0.0435769706964
velocity: 0.0
doppler_bin: 8
bearing: 69.4439544678
intensity: 29.3851966858
---
header: 
  seq: 337879
  stamp: 
    secs: 1561864054
    nsecs: 470321812
  frame_id: "ti_mmwave"
point_id: 22
x: 0.041015625
y: -0.033203125
z: 0.0625
range: 0.0871539413929
velocity: 0.0
doppler_bin: 8
bearing: -38.9909973145
intensity: 30.1367969513
---
header: 
  seq: 337880
  stamp: 
    secs: 1561864054
    nsecs: 470333316
  frame_id: "ti_mmwave"
point_id: 23
x: 0.052734375
y: -0.04296875
z: 0.103515625
range: 0.130730912089
velocity: 0.0
doppler_bin: 8
bearing: -39.1736602783
intensity: 29.0036716461
---
header: 
  seq: 337881
  stamp: 
    secs: 1561864054
    nsecs: 470346917
  frame_id: "ti_mmwave"
point_id: 25
x: 0.841796875
y: -0.115234375
z: 0.88671875
range: 1.3073091507
velocity: 0.0
doppler_bin: 8
bearing: -7.79482555389
intensity: 25.3402614594
---
header: 
  seq: 337882
  stamp: 
    secs: 1561864054
    nsecs: 470353787
  frame_id: "ti_mmwave"
point_id: 26
x: 0.78125
y: -0.119140625
z: 0.9921875
range: 1.35088610649
velocity: 0.0
doppler_bin: 8
bearing: -8.67080116272
intensity: 27.2997436523
---
header: 
  seq: 337883
  stamp: 
    secs: 1561864054
    nsecs: 528198917
  frame_id: "ti_mmwave"
point_id: 0
x: 0.01171875
y: -0.0390625
z: -0.0078125
range: 0.0435769706964
velocity: 0.0
doppler_bin: 8
bearing: -73.3007583618
intensity: 30.7445068359
---
header: 
  seq: 337884
  stamp: 
    secs: 1561864054
    nsecs: 528282522
  frame_id: "ti_mmwave"
point_id: 1
x: 0.017578125
y: -0.080078125
z: -0.009765625
range: 0.0871539413929
velocity: 0.0
doppler_bin: 8
bearing: -77.6192398071
intensity: 31.9700469971
---
header: 
  seq: 337885
  stamp: 
    secs: 1561864054
    nsecs: 528307125
  frame_id: "ti_mmwave"
point_id: 2
x: 0.029296875
y: -0.119140625
z: -0.005859375
range: 0.130730912089
velocity: 0.0
doppler_bin: 8
bearing: -76.1849746704
intensity: 30.2325248718
---
header: 
  seq: 337886
  stamp: 
    secs: 1561864054
    nsecs: 528320185
  frame_id: "ti_mmwave"
point_id: 3
x: 0.056640625
y: -0.154296875
z: 0.005859375
range: 0.174307882786
velocity: 0.0
doppler_bin: 8
bearing: -69.8423843384
intensity: 25.490032196
---
header: 
  seq: 337887
  stamp: 
    secs: 1561864054
    nsecs: 528398261
  frame_id: "ti_mmwave"
point_id: 4
x: 1.125
y: 0.0390625
z: 0.486328125
range: 1.3073091507
velocity: 0.0
doppler_bin: 8
bearing: 1.98863792419
intensity: 27.3399925232
---
header: 
  seq: 337888
  stamp: 
    secs: 1561864054
    nsecs: 528414959
  frame_id: "ti_mmwave"
point_id: 5
x: 1.25
y: 0.0390625
z: 0.205078125
range: 1.35088610649
velocity: 0.0
doppler_bin: 8
bearing: 1.7899106741
intensity: 26.7486114502
---
header: 
  seq: 337889
  stamp: 
    secs: 1561864054
    nsecs: 528426448
  frame_id: "ti_mmwave"
point_id: 6
x: 0.703125
y: -0.123046875
z: 1.09765625
range: 1.39446306229
velocity: 0.0
doppler_bin: 8
bearing: -9.92624568939
intensity: 25.0105934143
---
header: 
  seq: 337890
  stamp: 
    secs: 1561864054
    nsecs: 528437048
  frame_id: "ti_mmwave"
point_id: 7
x: 1.03125
y: -0.126953125
z: 0.86328125
range: 1.43804001808
velocity: 0.0
doppler_bin: 8
bearing: -7.01814651489
intensity: 25.7287158966
---
header: 
  seq: 337891
  stamp: 
    secs: 1561864054
    nsecs: 528450155
  frame_id: "ti_mmwave"
point_id: 8
x: 1.1328125
y: -0.0
z: 0.806640625
range: 1.48161697388
velocity: 0.0
doppler_bin: 8
bearing: -0.0
intensity: 24.7712116241
---
header: 
  seq: 337892
  stamp: 
    secs: 1561864054
    nsecs: 528461597
  frame_id: "ti_mmwave"
point_id: 9
x: 2.5859375
y: -0.17578125
z: 1.119140625
range: 3.00681090355
velocity: 0.0
doppler_bin: 8
bearing: -3.88874602318
intensity: 29.2582759857
---
header: 
  seq: 337893
  stamp: 
    secs: 1561864054
    nsecs: 528519248
  frame_id: "ti_mmwave"
point_id: 10
x: 2.64453125
y: -0.1796875
z: 1.083984375
range: 3.05038785934
velocity: 0.0
doppler_bin: 8
bearing: -3.88709139824
intensity: 32.3552856445
---
header: 
  seq: 337894
  stamp: 
    secs: 1561864054
    nsecs: 528534751
  frame_id: "ti_mmwave"
point_id: 11
x: 2.74609375
y: -0.08984375
z: 0.939453125
range: 3.09396481514
velocity: 0.0
doppler_bin: 8
bearing: -1.8738732338
intensity: 31.3861846924
---
header: 
  seq: 337895
  stamp: 
    secs: 1561864054
    nsecs: 528559488
  frame_id: "ti_mmwave"
point_id: 12
x: 4.427734375
y: -0.142578125
z: 1.16796875
range: 4.88062095642
velocity: 0.0
doppler_bin: 8
bearing: -1.84435260296
intensity: 29.4349460602
---
header: 
  seq: 337896
  stamp: 
    secs: 1561864054
    nsecs: 528579210
  frame_id: "ti_mmwave"
point_id: 13
x: 4.44140625
y: -0.14453125
z: 1.26953125
range: 4.9241976738
velocity: 0.0
doppler_bin: 8
bearing: -1.86384868622
intensity: 28.7852172852
---
header: 
  seq: 337897
  stamp: 
    secs: 1561864054
    nsecs: 528600205
  frame_id: "ti_mmwave"
point_id: 14
x: 4.74609375
y: -0.298828125
z: -0.533203125
range: 5.09850549698
velocity: 0.0
doppler_bin: 8
bearing: -3.60275626183
intensity: 33.455696106
---
header: 
  seq: 337898
  stamp: 
    secs: 1561864054
    nsecs: 528660053
  frame_id: "ti_mmwave"
point_id: 15
x: 4.787109375
y: -0.30078125
z: -0.54296875
range: 5.14208269119
velocity: 0.0
doppler_bin: 8
bearing: -3.59525370598
intensity: 34.0568771362
---
header: 
  seq: 337899
  stamp: 
    secs: 1561864054
    nsecs: 528673477
  frame_id: "ti_mmwave"
point_id: 16
x: 4.828125
y: -0.15234375
z: -0.599609375
range: 5.18565940857
velocity: 0.0
doppler_bin: 8
bearing: -1.80727696419
intensity: 30.7224998474
---
header: 
  seq: 337900
  stamp: 
    secs: 1561864054
    nsecs: 528686498
  frame_id: "ti_mmwave"
point_id: 17
x: 4.890625
y: -0.46484375
z: 0.60546875
range: 5.27281332016
velocity: 0.0
doppler_bin: 8
bearing: -5.42953395844
intensity: 30.1283721924
---
header: 
  seq: 337901
  stamp: 
    secs: 1561864054
    nsecs: 528697202
  frame_id: "ti_mmwave"
point_id: 18
x: 1.048828125
y: 0.310546875
z: -0.1484375
range: 1.1765781641
velocity: -0.614668667316
doppler_bin: 7
bearing: 16.4934616089
intensity: 23.0749607086
---
header: 
  seq: 337902
  stamp: 
    secs: 1561864054
    nsecs: 528707781
  frame_id: "ti_mmwave"
point_id: 19
x: 1.0859375
y: 0.322265625
z: -0.169921875
range: 1.22015523911
velocity: -0.614668667316
doppler_bin: 7
bearing: 16.5289173126
intensity: 28.4818916321
---
header: 
  seq: 337903
  stamp: 
    secs: 1561864054
    nsecs: 528719372
  frame_id: "ti_mmwave"
point_id: 20
x: 1.123046875
y: 0.333984375
z: -0.1875
range: 1.2637321949
velocity: -0.614668667316
doppler_bin: 7
bearing: 16.5620193481
intensity: 29.7173957825
---
header: 
  seq: 337904
  stamp: 
    secs: 1561864054
    nsecs: 528812122
  frame_id: "ti_mmwave"
point_id: 21
x: 0.01171875
y: 0.03125
z: 0.025390625
range: 0.0435769706964
velocity: 0.0
doppler_bin: 8
bearing: 69.4439544678
intensity: 29.3901977539
---
header: 
  seq: 337905
  stamp: 
    secs: 1561864054
    nsecs: 528830859
  frame_id: "ti_mmwave"
point_id: 22
x: 0.041015625
y: -0.033203125
z: 0.0625
range: 0.0871539413929
velocity: 0.0
doppler_bin: 8
bearing: -38.9909973145
intensity: 30.1325874329
---
header: 
  seq: 337906
  stamp: 
    secs: 1561864054
    nsecs: 528843178
  frame_id: "ti_mmwave"
point_id: 23
x: 0.052734375
y: -0.04296875
z: 0.103515625
range: 0.130730912089
velocity: 0.0
doppler_bin: 8
bearing: -39.1736602783
intensity: 28.9982051849
---
header: 
  seq: 337907
  stamp: 
    secs: 1561864054
    nsecs: 528857211
  frame_id: "ti_mmwave"
point_id: 25
x: 1.255859375
y: 0.3671875
z: 0.0078125
range: 1.39446306229
velocity: 0.0
doppler_bin: 8
bearing: 16.2978363037
intensity: 22.4054927826
---
header: 
  seq: 337908
  stamp: 
    secs: 1561864054
    nsecs: 588225862
  frame_id: "ti_mmwave"
point_id: 0
x: 0.01171875
y: -0.0390625
z: -0.0078125
range: 0.0435769706964
velocity: 0.0
doppler_bin: 8
bearing: -73.3007583618
intensity: 30.7518177032
---
header: 
  seq: 337909
  stamp: 
    secs: 1561864054
    nsecs: 588315699
  frame_id: "ti_mmwave"
point_id: 1
x: 0.017578125
y: -0.080078125
z: -0.0078125
range: 0.0871539413929
velocity: 0.0
doppler_bin: 8
bearing: -77.6192398071
intensity: 31.9755630493
---
header: 
  seq: 337910
  stamp: 
    secs: 1561864054
    nsecs: 588334032
  frame_id: "ti_mmwave"
point_id: 2
x: 0.029296875
y: -0.119140625
z: -0.005859375
range: 0.130730912089
velocity: 0.0
doppler_bin: 8
bearing: -76.1849746704
intensity: 30.2325248718
---
header: 
  seq: 337911
  stamp: 
    secs: 1561864054
    nsecs: 588350271
  frame_id: "ti_mmwave"
point_id: 3
x: 0.056640625
y: -0.154296875
z: 0.005859375
range: 0.174307882786
velocity: 0.0
doppler_bin: 8
bearing: -69.8423843384
intensity: 25.490032196
---
header: 
  seq: 337912
  stamp: 
    secs: 1561864054
    nsecs: 588361122
  frame_id: "ti_mmwave"
point_id: 4
x: 1.158203125
y: 0.185546875
z: -0.171875
range: 1.2637321949
velocity: 0.0
doppler_bin: 8
bearing: 9.10158157349
intensity: 30.6295776367
---
header: 
  seq: 337913
  stamp: 
    secs: 1561864054
    nsecs: 588374019
  frame_id: "ti_mmwave"
point_id: 5
x: 1.220703125
y: 0.115234375
z: -0.064453125
range: 1.3073091507
velocity: 0.0
doppler_bin: 8
bearing: 5.39274072647
intensity: 30.9656238556
---
header: 
  seq: 337914
  stamp: 
    secs: 1561864054
    nsecs: 588386211
  frame_id: "ti_mmwave"
point_id: 6
x: 1.263671875
y: 0.080078125
z: -0.0625
range: 1.35088610649
velocity: 0.0
doppler_bin: 8
bearing: 3.62595057487
intensity: 30.1535968781
---
header: 
  seq: 337915
  stamp: 
    secs: 1561864054
    nsecs: 588398100
  frame_id: "ti_mmwave"
point_id: 7
x: 1.29296875
y: 0.08203125
z: -0.1875
range: 1.39446306229
velocity: 0.0
doppler_bin: 8
bearing: 3.63021397591
intensity: 28.5491294861
---
header: 
  seq: 337916
  stamp: 
    secs: 1561864054
    nsecs: 588481887
  frame_id: "ti_mmwave"
point_id: 8
x: 1.3359375
y: 0.126953125
z: -0.142578125
range: 1.43804001808
velocity: 0.0
doppler_bin: 8
bearing: 5.42847299576
intensity: 25.9879055023
---
header: 
  seq: 337917
  stamp: 
    secs: 1561864054
    nsecs: 588497581
  frame_id: "ti_mmwave"
point_id: 9
x: 2.62109375
y: -0.17578125
z: 1.03515625
range: 3.00681090355
velocity: 0.0
doppler_bin: 8
bearing: -3.83674383163
intensity: 28.8309345245
---
header: 
  seq: 337918
  stamp: 
    secs: 1561864054
    nsecs: 588511194
  frame_id: "ti_mmwave"
point_id: 10
x: 2.6640625
y: -0.1796875
z: 1.037109375
range: 3.05038785934
velocity: 0.0
doppler_bin: 8
bearing: -3.85868024826
intensity: 32.2245635986
---
header: 
  seq: 337919
  stamp: 
    secs: 1561864054
    nsecs: 588522728
  frame_id: "ti_mmwave"
point_id: 11
x: 2.7578125
y: -0.08984375
z: 0.908203125
range: 3.09396481514
velocity: 0.0
doppler_bin: 8
bearing: -1.86591637135
intensity: 31.383026123
---
header: 
  seq: 337920
  stamp: 
    secs: 1561864054
    nsecs: 588533648
  frame_id: "ti_mmwave"
point_id: 12
x: 4.7265625
y: -0.296875
z: -0.296875
range: 5.0549287796
velocity: 0.0
doppler_bin: 8
bearing: -3.59402155876
intensity: 29.0471553802
---
header: 
  seq: 337921
  stamp: 
    secs: 1561864054
    nsecs: 588544591
  frame_id: "ti_mmwave"
point_id: 13
x: 4.75
y: -0.298828125
z: -0.501953125
range: 5.09850549698
velocity: 0.0
doppler_bin: 8
bearing: -3.59980130196
intensity: 33.3081932068
---
header: 
  seq: 337922
  stamp: 
    secs: 1561864054
    nsecs: 588557579
  frame_id: "ti_mmwave"
point_id: 14
x: 4.78515625
y: -0.30078125
z: -0.55859375
range: 5.14208269119
velocity: 0.0
doppler_bin: 8
bearing: -3.5967168808
intensity: 33.8596343994
---
header: 
  seq: 337923
  stamp: 
    secs: 1561864054
    nsecs: 588569429
  frame_id: "ti_mmwave"
point_id: 15
x: 4.818359375
y: -0.15234375
z: -0.6796875
range: 5.18565940857
velocity: 0.0
doppler_bin: 8
bearing: -1.81093740463
intensity: 30.7954292297
---
header: 
  seq: 337924
  stamp: 
    secs: 1561864054
    nsecs: 588582157
  frame_id: "ti_mmwave"
point_id: 16
x: 1.013671875
y: 0.171875
z: -0.404296875
range: 1.1765781641
velocity: -0.614668667316
doppler_bin: 7
bearing: 9.6233663559
intensity: 23.8916606903
---
header: 
  seq: 337925
  stamp: 
    secs: 1561864054
    nsecs: 588595428
  frame_id: "ti_mmwave"
point_id: 17
x: 1.07421875
y: 0.21484375
z: -0.3359375
range: 1.22015523911
velocity: -0.614668667316
doppler_bin: 7
bearing: 11.3099327087
intensity: 28.5672893524
---
header: 
  seq: 337926
  stamp: 
    secs: 1561864054
    nsecs: 588607789
  frame_id: "ti_mmwave"
point_id: 18
x: 0.01171875
y: 0.03125
z: 0.025390625
range: 0.0435769706964
velocity: 0.0
doppler_bin: 8
bearing: 69.4439544678
intensity: 29.3901977539
---
header: 
  seq: 337927
  stamp: 
    secs: 1561864054
    nsecs: 588669122
  frame_id: "ti_mmwave"
point_id: 19
x: 0.041015625
y: -0.033203125
z: 0.0625
range: 0.0871539413929
velocity: 0.0
doppler_bin: 8
bearing: -38.9909973145
intensity: 30.1325874329
---
header: 
  seq: 337928
  stamp: 
    secs: 1561864054
    nsecs: 588686131
  frame_id: "ti_mmwave"
point_id: 20
x: 0.052734375
y: -0.04296875
z: 0.103515625
range: 0.130730912089
velocity: 0.0
doppler_bin: 8
bearing: -39.1736602783
intensity: 28.9982051849
---
header: 
  seq: 337929
  stamp: 
    secs: 1561864054
    nsecs: 588700591
  frame_id: "ti_mmwave"
point_id: 22
x: 0.650390625
y: -0.337890625
z: 1.134765625
range: 1.43804001808
velocity: 0.0
doppler_bin: 8
bearing: -27.4527568817
intensity: 23.2221927643
---
header: 
  seq: 337930
  stamp: 
    secs: 1561864054
    nsecs: 589718563
  frame_id: "ti_mmwave"
point_id: 0
x: 0.01171875
y: -0.0390625
z: -0.0078125
range: 0.0435769706964
velocity: 0.0
doppler_bin: 8
bearing: -73.3007583618
intensity: 30.7445068359
---
header: 
  seq: 337931
  stamp: 
    secs: 1561864054
    nsecs: 589793279
  frame_id: "ti_mmwave"
point_id: 1
x: 0.017578125
y: -0.080078125
z: -0.009765625
range: 0.0871539413929
velocity: 0.0
doppler_bin: 8
bearing: -77.6192398071
intensity: 31.9700469971
---
header: 
  seq: 337932
  stamp: 
    secs: 1561864054
    nsecs: 589804799
  frame_id: "ti_mmwave"
point_id: 2
x: 0.029296875
y: -0.119140625
z: -0.005859375
range: 0.130730912089
velocity: 0.0
doppler_bin: 8
bearing: -76.1849746704
intensity: 30.2325248718
---
header: 
  seq: 337933
  stamp: 
    secs: 1561864054
    nsecs: 589813799
  frame_id: "ti_mmwave"
point_id: 3
x: 0.056640625
y: -0.154296875
z: 0.005859375
range: 0.174307882786
velocity: 0.0
doppler_bin: 8
bearing: -69.8423843384
intensity: 25.490032196
---
header: 
  seq: 337934
  stamp: 
    secs: 1561864054
    nsecs: 589823466
  frame_id: "ti_mmwave"
point_id: 4
x: 1.04296875
y: 0.19921875
z: -0.06640625
range: 1.13300120831
velocity: 0.0
doppler_bin: 8
bearing: 10.8138771057
intensity: 24.2160396576
---
header: 
  seq: 337935
  stamp: 
    secs: 1561864054
    nsecs: 589834191
  frame_id: "ti_mmwave"
point_id: 5
x: 1.083984375
y: 0.20703125
z: -0.05078125
range: 1.1765781641
velocity: 0.0
doppler_bin: 8
bearing: 10.8127584457
intensity: 31.2319812775
---
header: 
  seq: 337936
  stamp: 
    secs: 1561864054
    nsecs: 589897928
  frame_id: "ti_mmwave"
point_id: 6
x: 1.130859375
y: 0.1796875
z: -0.009765625
range: 1.22015523911
velocity: 0.0
doppler_bin: 8
bearing: 9.02851486206
intensity: 33.2366447449
---
header: 
  seq: 337937
  stamp: 
    secs: 1561864054
    nsecs: 589908453
  frame_id: "ti_mmwave"
point_id: 7
x: 1.177734375
y: 0.19140625
z: -0.283203125
range: 1.3073091507
velocity: 0.0
doppler_bin: 8
bearing: 9.23104381561
intensity: 30.3221569061
---
header: 
  seq: 337938
  stamp: 
    secs: 1561864054
    nsecs: 589916646
  frame_id: "ti_mmwave"
point_id: 8
x: 1.2421875
y: 0.197265625
z: -0.162109375
range: 1.35088610649
velocity: 0.0
doppler_bin: 8
bearing: 9.02350616455
intensity: 29.1487178802
---
header: 
  seq: 337939
  stamp: 
    secs: 1561864054
    nsecs: 589927329
  frame_id: "ti_mmwave"
point_id: 9
x: 1.259765625
y: 0.123046875
z: 0.3359375
range: 1.39446306229
velocity: 0.0
doppler_bin: 8
bearing: 5.57863616943
intensity: 26.3548374176
---
header: 
  seq: 337940
  stamp: 
    secs: 1561864054
    nsecs: 589937007
  frame_id: "ti_mmwave"
point_id: 10
x: 1.2578125
y: 0.04296875
z: 0.486328125
range: 1.43804001808
velocity: 0.0
doppler_bin: 8
bearing: 1.95654821396
intensity: 27.0156803131
---
header: 
  seq: 337941
  stamp: 
    secs: 1561864054
    nsecs: 589944520
  frame_id: "ti_mmwave"
point_id: 11
x: 2.611328125
y: -0.17578125
z: 1.0546875
range: 3.00681090355
velocity: 0.0
doppler_bin: 8
bearing: -3.85104894638
intensity: 28.9872512817
---
header: 
  seq: 337942
  stamp: 
    secs: 1561864054
    nsecs: 589953107
  frame_id: "ti_mmwave"
point_id: 12
x: 2.65625
y: -0.1796875
z: 1.052734375
range: 3.05038785934
velocity: 0.0
doppler_bin: 8
bearing: -3.86999511719
intensity: 32.3678894043
---
header: 
  seq: 337943
  stamp: 
    secs: 1561864054
    nsecs: 589961403
  frame_id: "ti_mmwave"
point_id: 13
x: 2.748046875
y: -0.08984375
z: 0.9375
range: 3.09396481514
velocity: 0.0
doppler_bin: 8
bearing: -1.8725425005
intensity: 31.4144973755
---
header: 
  seq: 337944
  stamp: 
    secs: 1561864054
    nsecs: 589969624
  frame_id: "ti_mmwave"
point_id: 14
x: 4.732421875
y: -0.44921875
z: -0.55859375
range: 5.09850549698
velocity: 0.0
doppler_bin: 8
bearing: -5.42247676849
intensity: 32.4054908752
---
header: 
  seq: 337945
  stamp: 
    secs: 1561864054
    nsecs: 590015962
  frame_id: "ti_mmwave"
point_id: 15
x: 4.779296875
y: -0.30078125
z: -0.611328125
range: 5.14208269119
velocity: 0.0
doppler_bin: 8
bearing: -3.60111522675
intensity: 33.0984306335
---
header: 
  seq: 337946
  stamp: 
    secs: 1561864054
    nsecs: 590024605
  frame_id: "ti_mmwave"
point_id: 16
x: 4.798828125
y: -0.3046875
z: -0.751953125
range: 5.18565940857
velocity: 0.0
doppler_bin: 8
bearing: -3.63295125961
intensity: 30.1994667053
---
header: 
  seq: 337947
  stamp: 
    secs: 1561864054
    nsecs: 590034270
  frame_id: "ti_mmwave"
point_id: 17
x: 1.162109375
y: 0.22265625
z: -0.08203125
range: 1.2637321949
velocity: -0.614668667316
doppler_bin: 7
bearing: 10.8462343216
intensity: 30.9166698456
---
header: 
  seq: 337948
  stamp: 
    secs: 1561864054
    nsecs: 590043282
  frame_id: "ti_mmwave"
point_id: 18
x: 0.01171875
y: 0.03125
z: 0.025390625
range: 0.0435769706964
velocity: 0.0
doppler_bin: 8
bearing: 69.4439544678
intensity: 29.3851966858
---
header: 
  seq: 337949
  stamp: 
    secs: 1561864054
    nsecs: 590053151
  frame_id: "ti_mmwave"
point_id: 19
x: 0.041015625
y: -0.033203125
z: 0.0625
range: 0.0871539413929
velocity: 0.0
doppler_bin: 8
bearing: -38.9909973145
intensity: 30.1325874329
---
header: 
  seq: 337950
  stamp: 
    secs: 1561864054
    nsecs: 590112782
  frame_id: "ti_mmwave"
point_id: 20
x: 0.052734375
y: -0.04296875
z: 0.103515625
range: 0.130730912089
velocity: 0.0
doppler_bin: 8
bearing: -39.1736602783
intensity: 28.9927310944
---
header: 
  seq: 337951
  stamp: 
    secs: 1561864054
    nsecs: 590125688
  frame_id: "ti_mmwave"
point_id: 22
x: 0.677734375
y: -0.23828125
z: 1.044921875
range: 1.35088610649
velocity: 0.0
doppler_bin: 8
bearing: -19.3709106445
intensity: 26.2013607025
---
header: 
  seq: 337952
  stamp: 
    secs: 1561864054
    nsecs: 648222753
  frame_id: "ti_mmwave"
point_id: 0
x: 0.01171875
y: -0.0390625
z: -0.0078125
range: 0.0435769706964
velocity: 0.0
doppler_bin: 8
bearing: -73.3007583618
intensity: 30.7481651306
---
header: 
  seq: 337953
  stamp: 
    secs: 1561864054
    nsecs: 648302616
  frame_id: "ti_mmwave"
point_id: 1
x: 0.017578125
y: -0.080078125
z: -0.009765625
range: 0.0871539413929
velocity: 0.0
doppler_bin: 8
bearing: -77.6192398071
intensity: 31.9728050232
---
header: 
  seq: 337954
  stamp: 
    secs: 1561864054
    nsecs: 648313987
  frame_id: "ti_mmwave"
point_id: 2
x: 0.029296875
y: -0.119140625
z: -0.005859375
range: 0.130730912089
velocity: 0.0
doppler_bin: 8
bearing: -76.1849746704
intensity: 30.2366390228
---
header: 
  seq: 337955
  stamp: 
    secs: 1561864054
    nsecs: 648322545
  frame_id: "ti_mmwave"
point_id: 3
x: 0.056640625
y: -0.154296875
z: 0.005859375
range: 0.174307882786
velocity: 0.0
doppler_bin: 8
bearing: -69.8423843384
intensity: 25.490032196
---
header: 
  seq: 337956
  stamp: 
    secs: 1561864054
    nsecs: 648330805
  frame_id: "ti_mmwave"
point_id: 4
x: 1.20703125
y: 0.076171875
z: 0.203125
range: 1.3073091507
velocity: 0.0
doppler_bin: 8
bearing: 3.61096477509
intensity: 30.1494026184
---
header: 
  seq: 337957
  stamp: 
    secs: 1561864054
    nsecs: 648338884
  frame_id: "ti_mmwave"
point_id: 5
x: 1.224609375
y: -0.0
z: 0.330078125
range: 1.35088610649
velocity: 0.0
doppler_bin: 8
bearing: -0.0
intensity: 30.6632595062
---
header: 
  seq: 337958
  stamp: 
    secs: 1561864054
    nsecs: 648347550
  frame_id: "ti_mmwave"
point_id: 6
x: 1.154296875
y: -0.041015625
z: 0.61328125
range: 1.39446306229
velocity: 0.0
doppler_bin: 8
bearing: -2.03503465652
intensity: 26.9284687042
---
header: 
  seq: 337959
  stamp: 
    secs: 1561864054
    nsecs: 648355549
  frame_id: "ti_mmwave"
point_id: 7
x: 2.615234375
y: -0.17578125
z: 1.046875
range: 3.00681090355
velocity: 0.0
doppler_bin: 8
bearing: -3.84531402588
intensity: 29.1907806396
---
header: 
  seq: 337960
  stamp: 
    secs: 1561864054
    nsecs: 648365538
  frame_id: "ti_mmwave"
point_id: 8
x: 2.66796875
y: -0.1796875
z: 1.025390625
range: 3.05038785934
velocity: 0.0
doppler_bin: 8
bearing: -3.85304760933
intensity: 32.4477157593
---
header: 
  seq: 337961
  stamp: 
    secs: 1561864054
    nsecs: 648375008
  frame_id: "ti_mmwave"
point_id: 9
x: 2.767578125
y: -0.08984375
z: 0.873046875
range: 3.09396481514
velocity: 0.0
doppler_bin: 8
bearing: -1.85933709145
intensity: 31.5167617798
---
header: 
  seq: 337962
  stamp: 
    secs: 1561864054
    nsecs: 648382925
  frame_id: "ti_mmwave"
point_id: 10
x: 4.740234375
y: -0.44921875
z: -0.490234375
range: 5.09850549698
velocity: 0.0
doppler_bin: 8
bearing: -5.41359329224
intensity: 31.8041267395
---
header: 
  seq: 337963
  stamp: 
    secs: 1561864054
    nsecs: 648545163
  frame_id: "ti_mmwave"
point_id: 11
x: 4.78515625
y: -0.30078125
z: -0.548828125
range: 5.14208269119
velocity: 0.0
doppler_bin: 8
bearing: -3.5967168808
intensity: 32.5163803101
---
header: 
  seq: 337964
  stamp: 
    secs: 1561864054
    nsecs: 648564246
  frame_id: "ti_mmwave"
point_id: 12
x: 4.818359375
y: -0.3046875
z: -0.626953125
range: 5.18565940857
velocity: 0.0
doppler_bin: 8
bearing: -3.61826372147
intensity: 29.7772369385
---
header: 
  seq: 337965
  stamp: 
    secs: 1561864054
    nsecs: 648572304
  frame_id: "ti_mmwave"
point_id: 13
x: 1.025390625
y: 0.232421875
z: -0.158203125
range: 1.13300120831
velocity: -0.614668667316
doppler_bin: 7
bearing: 12.7712430954
intensity: 26.0205993652
---
header: 
  seq: 337966
  stamp: 
    secs: 1561864054
    nsecs: 648580480
  frame_id: "ti_mmwave"
point_id: 14
x: 1.06640625
y: 0.2421875
z: -0.154296875
range: 1.1765781641
velocity: -0.614668667316
doppler_bin: 7
bearing: 12.7951946259
intensity: 30.8813610077
---
header: 
  seq: 337967
  stamp: 
    secs: 1561864054
    nsecs: 648590185
  frame_id: "ti_mmwave"
point_id: 15
x: 1.107421875
y: 0.25
z: -0.14453125
range: 1.22015523911
velocity: -0.614668667316
doppler_bin: 7
bearing: 12.7212533951
intensity: 32.0547485352
---
header: 
  seq: 337968
  stamp: 
    secs: 1561864054
    nsecs: 648597902
  frame_id: "ti_mmwave"
point_id: 16
x: 1.146484375
y: 0.259765625
z: -0.15625
range: 1.2637321949
velocity: -0.614668667316
doppler_bin: 7
bearing: 12.7662916183
intensity: 30.0086765289
---
header: 
  seq: 337969
  stamp: 
    secs: 1561864054
    nsecs: 648606851
  frame_id: "ti_mmwave"
point_id: 17
x: 0.01171875
y: 0.03125
z: 0.025390625
range: 0.0435769706964
velocity: 0.0
doppler_bin: 8
bearing: 69.4439544678
intensity: 29.3851966858
---
header: 
  seq: 337970
  stamp: 
    secs: 1561864054
    nsecs: 648615175
  frame_id: "ti_mmwave"
point_id: 18
x: 0.041015625
y: -0.033203125
z: 0.0625
range: 0.0871539413929
velocity: 0.0
doppler_bin: 8
bearing: -38.9909973145
intensity: 30.1325874329
---
header: 
  seq: 337971
  stamp: 
    secs: 1561864054
    nsecs: 648623309
  frame_id: "ti_mmwave"
point_id: 19
x: 0.052734375
y: -0.04296875
z: 0.103515625
range: 0.130730912089
velocity: 0.0
doppler_bin: 8
bearing: -39.1736602783
intensity: 29.0036716461
---
header: 
  seq: 337972
  stamp: 
    secs: 1561864054
    nsecs: 649646042
  frame_id: "ti_mmwave"
point_id: 0
x: 0.01171875
y: -0.0390625
z: -0.0078125
range: 0.0435769706964
velocity: 0.0
doppler_bin: 8
bearing: -73.3007583618
intensity: 30.7408466339
---
header: 
  seq: 337973
  stamp: 
    secs: 1561864054
    nsecs: 649693751
  frame_id: "ti_mmwave"
point_id: 1
x: 0.017578125
y: -0.080078125
z: -0.009765625
range: 0.0871539413929
velocity: 0.0
doppler_bin: 8
bearing: -77.6192398071
intensity: 31.9700469971
---
header: 
  seq: 337974
  stamp: 
    secs: 1561864054
    nsecs: 649708479
  frame_id: "ti_mmwave"
point_id: 2
x: 0.029296875
y: -0.119140625
z: -0.005859375
range: 0.130730912089
velocity: 0.0
doppler_bin: 8
bearing: -76.1849746704
intensity: 30.2325248718
---
header: 
  seq: 337975
  stamp: 
    secs: 1561864054
    nsecs: 649721049
  frame_id: "ti_mmwave"
point_id: 3
x: 0.056640625
y: -0.154296875
z: 0.005859375
range: 0.174307882786
velocity: 0.0
doppler_bin: 8
bearing: -69.8423843384
intensity: 25.490032196
---
header: 
  seq: 337976
  stamp: 
    secs: 1561864054
    nsecs: 649734071
  frame_id: "ti_mmwave"
point_id: 4
x: 1.16015625
y: 0.185546875
z: -0.16796875
range: 1.2637321949
velocity: 0.0
doppler_bin: 8
bearing: 9.08651447296
intensity: 30.3702793121
---
header: 
  seq: 337977
  stamp: 
    secs: 1561864054
    nsecs: 649845322
  frame_id: "ti_mmwave"
point_id: 5
x: 1.224609375
y: 0.076171875
z: -0.009765625
range: 1.3073091507
velocity: 0.0
doppler_bin: 8
bearing: 3.55926680565
intensity: 30.8635978699
---
header: 
  seq: 337978
  stamp: 
    secs: 1561864054
    nsecs: 649876231
  frame_id: "ti_mmwave"
point_id: 6
x: 1.255859375
y: -0.0
z: 0.173828125
range: 1.35088610649
velocity: 0.0
doppler_bin: 8
bearing: -0.0
intensity: 29.350030899
---
header: 
  seq: 337979
  stamp: 
    secs: 1561864054
    nsecs: 649905479
  frame_id: "ti_mmwave"
point_id: 7
x: 2.61328125
y: -0.17578125
z: 1.052734375
range: 3.00681090355
velocity: 0.0
doppler_bin: 8
bearing: -3.84817934036
intensity: 29.0902080536
---
header: 
  seq: 337980
  stamp: 
    secs: 1561864054
    nsecs: 649928001
  frame_id: "ti_mmwave"
point_id: 8
x: 2.65234375
y: -0.1796875
z: 1.064453125
range: 3.05038785934
velocity: 0.0
doppler_bin: 8
bearing: -3.87567687035
intensity: 32.3704071045
---
header: 
  seq: 337981
  stamp: 
    secs: 1561864054
    nsecs: 649949598
  frame_id: "ti_mmwave"
point_id: 9
x: 2.73828125
y: -0.08984375
z: 0.9609375
range: 3.09396481514
velocity: 0.0
doppler_bin: 8
bearing: -1.87921595573
intensity: 31.4207649231
---
header: 
  seq: 337982
  stamp: 
    secs: 1561864054
    nsecs: 649962679
  frame_id: "ti_mmwave"
point_id: 10
x: 4.732421875
y: -0.44921875
z: -0.55859375
range: 5.09850549698
velocity: 0.0
doppler_bin: 8
bearing: -5.42247676849
intensity: 30.0432128906
---
header: 
  seq: 337983
  stamp: 
    secs: 1561864054
    nsecs: 650025638
  frame_id: "ti_mmwave"
point_id: 11
x: 4.76953125
y: -0.30078125
z: -0.681640625
range: 5.14208269119
velocity: 0.0
doppler_bin: 8
bearing: -3.60846877098
intensity: 30.8206691742
---
header: 
  seq: 337984
  stamp: 
    secs: 1561864054
    nsecs: 650044576
  frame_id: "ti_mmwave"
point_id: 12
x: 1.0390625
y: 0.19921875
z: -0.111328125
range: 1.13300120831
velocity: -0.614668667316
doppler_bin: 7
bearing: 10.8535671234
intensity: 27.6117572784
---
header: 
  seq: 337985
  stamp: 
    secs: 1561864054
    nsecs: 650059579
  frame_id: "ti_mmwave"
point_id: 13
x: 1.080078125
y: 0.20703125
z: -0.095703125
range: 1.1765781641
velocity: -0.614668667316
doppler_bin: 7
bearing: 10.8509378433
intensity: 31.3608608246
---
header: 
  seq: 337986
  stamp: 
    secs: 1561864054
    nsecs: 650072197
  frame_id: "ti_mmwave"
point_id: 14
x: 1.126953125
y: 0.1796875
z: -0.087890625
range: 1.22015523911
velocity: -0.614668667316
doppler_bin: 7
bearing: 9.0592918396
intensity: 31.7897701263
---
header: 
  seq: 337987
  stamp: 
    secs: 1561864054
    nsecs: 650084805
  frame_id: "ti_mmwave"
point_id: 15
x: 0.01171875
y: 0.03125
z: 0.025390625
range: 0.0435769706964
velocity: 0.0
doppler_bin: 8
bearing: 69.4439544678
intensity: 29.380191803
---
header: 
  seq: 337988
  stamp: 
    secs: 1561864054
    nsecs: 650100371
  frame_id: "ti_mmwave"
point_id: 16
x: 0.041015625
y: -0.033203125
z: 0.0625
range: 0.0871539413929
velocity: 0.0
doppler_bin: 8
bearing: -38.9909973145
intensity: 30.1367969513
---
header: 
  seq: 337989
  stamp: 
    secs: 1561864054
    nsecs: 650115371
  frame_id: "ti_mmwave"
point_id: 17
x: 0.052734375
y: -0.04296875
z: 0.103515625
range: 0.130730912089
velocity: 0.0
doppler_bin: 8
bearing: -39.1736602783
intensity: 29.0036716461
---
header: 
  seq: 337990
  stamp: 
    secs: 1561864054
    nsecs: 708497606
  frame_id: "ti_mmwave"
point_id: 0
x: 0.01171875
y: -0.0390625
z: -0.0078125
range: 0.0435769706964
velocity: 0.0
doppler_bin: 8
bearing: -73.3007583618
intensity: 30.7408466339
---
header: 
  seq: 337991
  stamp: 
    secs: 1561864054
    nsecs: 708572305
  frame_id: "ti_mmwave"
point_id: 1
x: 0.017578125
y: -0.080078125
z: -0.0078125
range: 0.0871539413929
velocity: 0.0
doppler_bin: 8
bearing: -77.6192398071
intensity: 31.9728050232
---
header: 
  seq: 337992
  stamp: 
    secs: 1561864054
    nsecs: 708583154
  frame_id: "ti_mmwave"
point_id: 2
x: 0.029296875
y: -0.119140625
z: -0.005859375
range: 0.130730912089
velocity: 0.0
doppler_bin: 8
bearing: -76.1849746704
intensity: 30.2366390228
---
header: 
  seq: 337993
  stamp: 
    secs: 1561864054
    nsecs: 708591127
  frame_id: "ti_mmwave"
point_id: 3
x: 0.056640625
y: -0.154296875
z: 0.005859375
range: 0.174307882786
velocity: 0.0
doppler_bin: 8
bearing: -69.8423843384
intensity: 25.490032196
---
header: 
  seq: 337994
  stamp: 
    secs: 1561864054
    nsecs: 708602852
  frame_id: "ti_mmwave"
point_id: 4
x: 1.162109375
y: 0.07421875
z: -0.224609375
range: 1.2637321949
velocity: 0.0
doppler_bin: 8
bearing: 3.6542634964
intensity: 28.4633712769
---
header: 
  seq: 337995
  stamp: 
    secs: 1561864054
    nsecs: 708611922
  frame_id: "ti_mmwave"
point_id: 5
x: 1.20703125
y: 0.115234375
z: -0.1953125
range: 1.3073091507
velocity: 0.0
doppler_bin: 8
bearing: 5.4534573555
intensity: 28.9320678711
---
header: 
  seq: 337996
  stamp: 
    secs: 1561864054
    nsecs: 708620756
  frame_id: "ti_mmwave"
point_id: 6
x: 1.263671875
y: 0.0390625
z: -0.10546875
range: 1.35088610649
velocity: 0.0
doppler_bin: 8
bearing: 1.77055776119
intensity: 29.0145835876
---
header: 
  seq: 337997
  stamp: 
    secs: 1561864054
    nsecs: 708632543
  frame_id: "ti_mmwave"
point_id: 7
x: 1.306640625
y: -0.0
z: -0.087890625
range: 1.39446306229
velocity: 0.0
doppler_bin: 8
bearing: -0.0
intensity: 29.0036716461
---
header: 
  seq: 337998
  stamp: 
    secs: 1561864054
    nsecs: 708640615
  frame_id: "ti_mmwave"
point_id: 8
x: 2.630859375
y: -0.17578125
z: 1.0078125
range: 3.00681090355
velocity: 0.0
doppler_bin: 8
bearing: -3.82254433632
intensity: 28.9320678711
---
header: 
  seq: 337999
  stamp: 
    secs: 1561864054
    nsecs: 708658168
  frame_id: "ti_mmwave"
point_id: 9
x: 2.669921875
y: -0.1796875
z: 1.01953125
range: 3.05038785934
velocity: 0.0
doppler_bin: 8
bearing: -3.85023736954
intensity: 32.2891349792
---
header: 
  seq: 338000
  stamp: 
    secs: 1561864054
    nsecs: 708668590
  frame_id: "ti_mmwave"
point_id: 10
x: 2.765625
y: -0.08984375
z: 0.8828125
range: 3.09396481514
velocity: 0.0
doppler_bin: 8
bearing: -1.8606492281
intensity: 31.3924922943
---
header: 
  seq: 338001
  stamp: 
    secs: 1561864054
    nsecs: 708840009
  frame_id: "ti_mmwave"
point_id: 11
x: 4.76171875
y: -0.30078125
z: -0.728515625
range: 5.14208269119
velocity: 0.0
doppler_bin: 8
bearing: -3.61437344551
intensity: 28.7966918945
---
header: 
  seq: 338002
  stamp: 
    secs: 1561864054
    nsecs: 708859390
  frame_id: "ti_mmwave"
point_id: 12
x: 0.98828125
y: 0.19140625
z: -0.1796875
range: 1.08942425251
velocity: -0.614668667316
doppler_bin: 7
bearing: 10.9611034393
intensity: 23.5410842896
---
header: 
  seq: 338003
  stamp: 
    secs: 1561864054
    nsecs: 708868149
  frame_id: "ti_mmwave"
point_id: 13
x: 1.03515625
y: 0.166015625
z: -0.173828125
range: 1.13300120831
velocity: -0.614668667316
doppler_bin: 7
bearing: 9.11135673523
intensity: 30.1661548615
---
header: 
  seq: 338004
  stamp: 
    secs: 1561864054
    nsecs: 708877618
  frame_id: "ti_mmwave"
point_id: 14
x: 1.072265625
y: 0.20703125
z: -0.16796875
range: 1.1765781641
velocity: -0.614668667316
doppler_bin: 7
bearing: 10.9281005859
intensity: 32.2427406311
---
header: 
  seq: 338005
  stamp: 
    secs: 1561864054
    nsecs: 708887134
  frame_id: "ti_mmwave"
point_id: 15
x: 1.11328125
y: 0.21484375
z: -0.162109375
range: 1.22015523911
velocity: -0.614668667316
doppler_bin: 7
bearing: 10.9228048325
intensity: 30.248960495
---
header: 
  seq: 338006
  stamp: 
    secs: 1561864054
    nsecs: 708895143
  frame_id: "ti_mmwave"
point_id: 16
x: 0.01171875
y: 0.03125
z: 0.025390625
range: 0.0435769706964
velocity: 0.0
doppler_bin: 8
bearing: 69.4439544678
intensity: 29.3851966858
---
header: 
  seq: 338007
  stamp: 
    secs: 1561864054
    nsecs: 708903382
