header: 
  seq: 320721
  stamp: 
    secs: 1561864028
    nsecs: 668374790
  frame_id: "ti_mmwave"
point_id: 0
x: 0.01171875
y: -0.0390625
z: -0.0078125
range: 0.0435769706964
velocity: 0.0
doppler_bin: 8
bearing: -73.3007583618
intensity: 30.7445068359
---
header: 
  seq: 320722
  stamp: 
    secs: 1561864028
    nsecs: 668463744
  frame_id: "ti_mmwave"
point_id: 1
x: 0.017578125
y: -0.080078125
z: -0.009765625
range: 0.0871539413929
velocity: 0.0
doppler_bin: 8
bearing: -77.6192398071
intensity: 31.9783172607
---
header: 
  seq: 320723
  stamp: 
    secs: 1561864028
    nsecs: 668476081
  frame_id: "ti_mmwave"
point_id: 2
x: 0.029296875
y: -0.119140625
z: -0.005859375
range: 0.130730912089
velocity: 0.0
doppler_bin: 8
bearing: -76.1849746704
intensity: 30.2448558807
---
header: 
  seq: 320724
  stamp: 
    secs: 1561864028
    nsecs: 668484822
  frame_id: "ti_mmwave"
point_id: 3
x: 0.056640625
y: -0.154296875
z: 0.005859375
range: 0.174307882786
velocity: 0.0
doppler_bin: 8
bearing: -69.8423843384
intensity: 25.5144996643
---
header: 
  seq: 320725
  stamp: 
    secs: 1561864028
    nsecs: 668496115
  frame_id: "ti_mmwave"
point_id: 4
x: 0.123046875
y: -0.080078125
z: 1.259765625
range: 1.35088610649
velocity: 0.0
doppler_bin: 8
bearing: -33.0558242798
intensity: 23.138671875
---
header: 
  seq: 320726
  stamp: 
    secs: 1561864028
    nsecs: 668506415
  frame_id: "ti_mmwave"
point_id: 6
x: 0.42578125
y: -0.083984375
z: -1.27734375
range: 1.43804001808
velocity: 0.0
doppler_bin: 8
bearing: -11.1582231522
intensity: 23.0102996826
---
header: 
  seq: 320727
  stamp: 
    secs: 1561864028
    nsecs: 668514740
  frame_id: "ti_mmwave"
point_id: 7
x: 0.5546875
y: -0.04296875
z: -1.2734375
range: 1.48161697388
velocity: 0.0
doppler_bin: 8
bearing: -4.42955970764
intensity: 21.6731739044
---
header: 
  seq: 320728
  stamp: 
    secs: 1561864028
    nsecs: 668522834
  frame_id: "ti_mmwave"
point_id: 8
x: 2.6171875
y: -0.17578125
z: 1.0390625
range: 3.00681090355
velocity: 0.0
doppler_bin: 8
bearing: -3.84245300293
intensity: 28.9597473145
---
header: 
  seq: 320729
  stamp: 
    secs: 1561864028
    nsecs: 668530749
  frame_id: "ti_mmwave"
point_id: 9
x: 2.666015625
y: -0.1796875
z: 1.03125
range: 3.05038785934
velocity: 0.0
doppler_bin: 8
bearing: -3.85586214066
intensity: 32.2323608398
---
header: 
  seq: 320730
  stamp: 
    secs: 1561864028
    nsecs: 668542331
  frame_id: "ti_mmwave"
point_id: 10
x: 2.759765625
y: -0.08984375
z: 0.90234375
range: 3.09396481514
velocity: 0.0
doppler_bin: 8
bearing: -1.86459684372
intensity: 31.2678050995
---
header: 
  seq: 320731
  stamp: 
    secs: 1561864028
    nsecs: 668554707
  frame_id: "ti_mmwave"
point_id: 11
x: 4.41015625
y: -0.142578125
z: 1.234375
range: 4.88062095642
velocity: 0.0
doppler_bin: 8
bearing: -1.85169863701
intensity: 31.427022934
---
header: 
  seq: 320732
  stamp: 
    secs: 1561864028
    nsecs: 668567186
  frame_id: "ti_mmwave"
point_id: 12
x: 4.435546875
y: -0.14453125
z: 1.291015625
range: 4.9241976738
velocity: 0.0
doppler_bin: 8
bearing: -1.86630904675
intensity: 31.2904510498
---
header: 
  seq: 320733
  stamp: 
    secs: 1561864028
    nsecs: 668575665
  frame_id: "ti_mmwave"
point_id: 13
x: 4.740234375
y: -0.298828125
z: -0.5859375
range: 5.09850549698
velocity: 0.0
doppler_bin: 8
bearing: -3.60719799995
intensity: 33.5218238831
---
header: 
  seq: 320734
  stamp: 
    secs: 1561864028
    nsecs: 668583744
  frame_id: "ti_mmwave"
point_id: 14
x: 4.77734375
y: -0.30078125
z: -0.619140625
range: 5.14208269119
velocity: 0.0
doppler_bin: 8
bearing: -3.60258316994
intensity: 34.0243339539
---
header: 
  seq: 320735
  stamp: 
    secs: 1561864028
    nsecs: 668591697
  frame_id: "ti_mmwave"
point_id: 15
x: 4.8046875
y: -0.15234375
z: -0.771484375
range: 5.18565940857
velocity: 0.0
doppler_bin: 8
bearing: -1.81608688831
intensity: 30.561422348
---
header: 
  seq: 320736
  stamp: 
    secs: 1561864028
    nsecs: 668599665
  frame_id: "ti_mmwave"
point_id: 16
x: 4.884765625
y: -0.30859375
z: 0.73828125
range: 5.27281332016
velocity: 0.0
doppler_bin: 8
bearing: -3.6148416996
intensity: 31.0448703766
---
header: 
  seq: 320737
  stamp: 
    secs: 1561864028
    nsecs: 668607652
  frame_id: "ti_mmwave"
point_id: 17
x: 4.951171875
y: -0.623046875
z: 0.08984375
range: 5.31639051437
velocity: 0.0
doppler_bin: 8
bearing: -7.17230129242
intensity: 29.7635002136
---
header: 
  seq: 320738
  stamp: 
    secs: 1561864028
    nsecs: 668620414
  frame_id: "ti_mmwave"
point_id: 18
x: 0.01171875
y: 0.03125
z: 0.025390625
range: 0.0435769706964
velocity: 0.0
doppler_bin: 8
bearing: 69.4439544678
intensity: 29.3901977539
---
header: 
  seq: 320739
  stamp: 
    secs: 1561864028
    nsecs: 668771182
  frame_id: "ti_mmwave"
point_id: 19
x: 0.041015625
y: -0.033203125
z: 0.0625
range: 0.0871539413929
velocity: 0.0
doppler_bin: 8
bearing: -38.9909973145
intensity: 30.1452045441
---
header: 
  seq: 320740
  stamp: 
    secs: 1561864028
    nsecs: 668790296
  frame_id: "ti_mmwave"
point_id: 20
x: 0.052734375
y: -0.04296875
z: 0.103515625
range: 0.130730912089
velocity: 0.0
doppler_bin: 8
bearing: -39.1736602783
intensity: 29.0091304779
---
header: 
  seq: 320741
  stamp: 
    secs: 1561864028
    nsecs: 669813974
  frame_id: "ti_mmwave"
point_id: 0
x: 0.01171875
y: -0.0390625
z: -0.0078125
range: 0.0435769706964
velocity: 0.0
doppler_bin: 8
bearing: -73.3007583618
intensity: 30.7481651306
---
header: 
  seq: 320742
  stamp: 
    secs: 1561864028
    nsecs: 669904751
  frame_id: "ti_mmwave"
point_id: 1
x: 0.017578125
y: -0.080078125
z: -0.009765625
range: 0.0871539413929
velocity: 0.0
doppler_bin: 8
bearing: -77.6192398071
intensity: 31.9783172607
---
header: 
  seq: 320743
  stamp: 
    secs: 1561864028
    nsecs: 669917028
  frame_id: "ti_mmwave"
point_id: 2
x: 0.029296875
y: -0.119140625
z: -0.005859375
range: 0.130730912089
velocity: 0.0
doppler_bin: 8
bearing: -76.1849746704
intensity: 30.2448558807
---
header: 
  seq: 320744
  stamp: 
    secs: 1561864028
    nsecs: 669925290
  frame_id: "ti_mmwave"
point_id: 3
x: 0.056640625
y: -0.154296875
z: 0.00390625
range: 0.174307882786
velocity: 0.0
doppler_bin: 8
bearing: -69.8423843384
intensity: 25.5022830963
---
header: 
  seq: 320745
  stamp: 
    secs: 1561864028
    nsecs: 670034452
  frame_id: "ti_mmwave"
point_id: 4
x: 0.123046875
y: -0.080078125
z: 1.259765625
range: 1.35088610649
velocity: 0.0
doppler_bin: 8
bearing: -33.0558242798
intensity: 23.138671875
---
header: 
  seq: 320746
  stamp: 
    secs: 1561864028
    nsecs: 670090687
  frame_id: "ti_mmwave"
point_id: 6
x: 0.435546875
y: -0.083984375
z: -1.275390625
range: 1.43804001808
velocity: 0.0
doppler_bin: 8
bearing: -10.9141130447
intensity: 23.031961441
---
header: 
  seq: 320747
  stamp: 
    secs: 1561864028
    nsecs: 670105838
  frame_id: "ti_mmwave"
point_id: 7
x: 0.564453125
y: -0.04296875
z: -1.271484375
range: 1.48161697388
velocity: 0.0
doppler_bin: 8
bearing: -4.35321998596
intensity: 21.6731739044
---
header: 
  seq: 320748
  stamp: 
    secs: 1561864028
    nsecs: 670118476
  frame_id: "ti_mmwave"
point_id: 8
x: 2.689453125
y: -0.087890625
z: 0.849609375
range: 3.00681090355
velocity: 0.0
doppler_bin: 8
bearing: -1.87174499035
intensity: 28.864906311
---
header: 
  seq: 320749
  stamp: 
    secs: 1561864028
    nsecs: 670131626
  frame_id: "ti_mmwave"
point_id: 9
x: 2.671875
y: -0.1796875
z: 1.01171875
range: 3.05038785934
velocity: 0.0
doppler_bin: 8
bearing: -3.84743142128
intensity: 32.2245635986
---
header: 
  seq: 320750
  stamp: 
    secs: 1561864028
    nsecs: 670166681
  frame_id: "ti_mmwave"
point_id: 10
x: 2.759765625
y: -0.08984375
z: 0.8984375
range: 3.09396481514
velocity: 0.0
doppler_bin: 8
bearing: -1.86459684372
intensity: 31.2807598114
---
header: 
  seq: 320751
  stamp: 
    secs: 1561864028
    nsecs: 670175532
  frame_id: "ti_mmwave"
point_id: 11
x: 4.41015625
y: -0.142578125
z: 1.234375
range: 4.88062095642
velocity: 0.0
doppler_bin: 8
bearing: -1.85169863701
intensity: 31.427022934
---
header: 
  seq: 320752
  stamp: 
    secs: 1561864028
    nsecs: 670186077
  frame_id: "ti_mmwave"
point_id: 12
x: 4.435546875
y: -0.14453125
z: 1.29296875
range: 4.9241976738
velocity: 0.0
doppler_bin: 8
bearing: -1.86630904675
intensity: 31.2968997955
---
header: 
  seq: 320753
  stamp: 
    secs: 1561864028
    nsecs: 670193702
  frame_id: "ti_mmwave"
point_id: 13
x: 4.7265625
y: -0.298828125
z: -0.685546875
range: 5.09850549698
velocity: 0.0
doppler_bin: 8
bearing: -3.61760425568
intensity: 33.3785858154
---
header: 
  seq: 320754
  stamp: 
    secs: 1561864028
    nsecs: 670202765
  frame_id: "ti_mmwave"
point_id: 14
x: 4.771484375
y: -0.30078125
z: -0.662109375
range: 5.14208269119
velocity: 0.0
doppler_bin: 8
bearing: -3.60699558258
intensity: 34.0053787231
---
header: 
  seq: 320755
  stamp: 
    secs: 1561864028
    nsecs: 670210757
  frame_id: "ti_mmwave"
point_id: 15
x: 4.80078125
y: -0.15234375
z: -0.7890625
range: 5.18565940857
velocity: 0.0
doppler_bin: 8
bearing: -1.81756365299
intensity: 30.5994186401
---
header: 
  seq: 320756
  stamp: 
    secs: 1561864028
    nsecs: 670227903
  frame_id: "ti_mmwave"
point_id: 16
x: 4.880859375
y: -0.30859375
z: 0.759765625
range: 5.27281332016
velocity: 0.0
doppler_bin: 8
bearing: -3.61772704124
intensity: 31.1494445801
---
header: 
  seq: 320757
  stamp: 
    secs: 1561864028
    nsecs: 670240410
  frame_id: "ti_mmwave"
point_id: 17
x: 4.94921875
y: -0.623046875
z: 0.1484375
range: 5.31639051437
velocity: 0.0
doppler_bin: 8
bearing: -7.17510271072
intensity: 29.8362636566
---
header: 
  seq: 320758
  stamp: 
    secs: 1561864028
    nsecs: 670248520
  frame_id: "ti_mmwave"
point_id: 18
x: 0.01171875
y: 0.03125
z: 0.025390625
range: 0.0435769706964
velocity: 0.0
doppler_bin: 8
bearing: 69.4439544678
intensity: 29.3851966858
---
header: 
  seq: 320759
  stamp: 
    secs: 1561864028
    nsecs: 670297499
  frame_id: "ti_mmwave"
point_id: 19
x: 0.041015625
y: -0.033203125
z: 0.0625
range: 0.0871539413929
velocity: 0.0
doppler_bin: 8
bearing: -38.9909973145
intensity: 30.1367969513
---
header: 
  seq: 320760
  stamp: 
    secs: 1561864028
    nsecs: 670312124
  frame_id: "ti_mmwave"
point_id: 20
x: 0.052734375
y: -0.04296875
z: 0.103515625
range: 0.130730912089
velocity: 0.0
doppler_bin: 8
bearing: -39.1736602783
intensity: 29.0091304779
---
header: 
  seq: 320761
  stamp: 
    secs: 1561864028
    nsecs: 728218433
  frame_id: "ti_mmwave"
point_id: 0
x: 0.01171875
y: -0.0390625
z: -0.0078125
range: 0.0435769706964
velocity: 0.0
doppler_bin: 8
bearing: -73.3007583618
intensity: 30.7518177032
---
header: 
  seq: 320762
  stamp: 
    secs: 1561864028
    nsecs: 728293587
  frame_id: "ti_mmwave"
point_id: 1
x: 0.017578125
y: -0.080078125
z: -0.009765625
range: 0.0871539413929
velocity: 0.0
doppler_bin: 8
bearing: -77.6192398071
intensity: 31.9783172607
---
header: 
  seq: 320763
  stamp: 
    secs: 1561864028
    nsecs: 728309891
  frame_id: "ti_mmwave"
point_id: 2
x: 0.029296875
y: -0.119140625
z: -0.005859375
range: 0.130730912089
velocity: 0.0
doppler_bin: 8
bearing: -76.1849746704
intensity: 30.2407493591
---
header: 
  seq: 320764
  stamp: 
    secs: 1561864028
    nsecs: 728324588
  frame_id: "ti_mmwave"
point_id: 3
x: 0.056640625
y: -0.154296875
z: 0.005859375
range: 0.174307882786
velocity: 0.0
doppler_bin: 8
bearing: -69.8423843384
intensity: 25.5022830963
---
header: 
  seq: 320765
  stamp: 
    secs: 1561864028
    nsecs: 728339796
  frame_id: "ti_mmwave"
point_id: 4
x: 0.0625
y: -0.080078125
z: 1.263671875
range: 1.35088610649
velocity: 0.0
doppler_bin: 8
bearing: -52.0283966064
intensity: 23.138671875
---
header: 
  seq: 320766
  stamp: 
    secs: 1561864028
    nsecs: 728505142
  frame_id: "ti_mmwave"
point_id: 6
x: 0.416015625
y: -0.083984375
z: -1.28125
range: 1.43804001808
velocity: 0.0
doppler_bin: 8
bearing: -11.4133548737
intensity: 23.0102996826
---
header: 
  seq: 320767
  stamp: 
    secs: 1561864028
    nsecs: 728541693
  frame_id: "ti_mmwave"
point_id: 7
x: 0.556640625
y: -0.04296875
z: -1.2734375
range: 1.48161697388
velocity: 0.0
doppler_bin: 8
bearing: -4.41407871246
intensity: 21.6435279846
---
header: 
  seq: 320768
  stamp: 
    secs: 1561864028
    nsecs: 728560583
  frame_id: "ti_mmwave"
point_id: 8
x: 2.619140625
y: -0.17578125
z: 1.03515625
range: 3.00681090355
velocity: 0.0
doppler_bin: 8
bearing: -3.83959650993
intensity: 28.8705444336
---
header: 
  seq: 320769
  stamp: 
    secs: 1561864028
    nsecs: 728611651
  frame_id: "ti_mmwave"
point_id: 9
x: 2.66796875
y: -0.1796875
z: 1.025390625
range: 3.05038785934
velocity: 0.0
doppler_bin: 8
bearing: -3.85304760933
intensity: 32.1958465576
---
header: 
  seq: 320770
  stamp: 
    secs: 1561864028
    nsecs: 728625278
  frame_id: "ti_mmwave"
point_id: 10
x: 2.76171875
y: -0.08984375
z: 0.896484375
range: 3.09396481514
velocity: 0.0
doppler_bin: 8
bearing: -1.86327898502
intensity: 31.25806427
---
header: 
  seq: 320771
  stamp: 
    secs: 1561864028
    nsecs: 728665545
  frame_id: "ti_mmwave"
point_id: 11
x: 4.41015625
y: -0.142578125
z: 1.23046875
range: 4.88062095642
velocity: 0.0
doppler_bin: 8
bearing: -1.85169863701
intensity: 31.4113616943
---
header: 
  seq: 320772
  stamp: 
    secs: 1561864028
    nsecs: 728692732
  frame_id: "ti_mmwave"
point_id: 12
x: 4.439453125
y: -0.14453125
z: 1.283203125
range: 4.9241976738
velocity: 0.0
doppler_bin: 8
bearing: -1.86466813087
intensity: 31.2872219086
---
header: 
  seq: 320773
  stamp: 
    secs: 1561864028
    nsecs: 728701916
  frame_id: "ti_mmwave"
point_id: 13
x: 4.736328125
y: -0.298828125
z: -0.62109375
range: 5.09850549698
velocity: 0.0
doppler_bin: 8
bearing: -3.61016488075
intensity: 33.1217727661
---
header: 
  seq: 320774
  stamp: 
    secs: 1561864028
    nsecs: 728751969
  frame_id: "ti_mmwave"
point_id: 14
x: 4.7734375
y: -0.30078125
z: -0.6484375
range: 5.14208269119
velocity: 0.0
doppler_bin: 8
bearing: -3.60552406311
intensity: 33.9111175537
---
header: 
  seq: 320775
  stamp: 
    secs: 1561864028
    nsecs: 728767517
  frame_id: "ti_mmwave"
point_id: 15
x: 4.798828125
y: -0.15234375
z: -0.80859375
range: 5.18565940857
velocity: 0.0
doppler_bin: 8
bearing: -1.81830310822
intensity: 30.5804615021
---
header: 
  seq: 320776
  stamp: 
    secs: 1561864028
    nsecs: 728777628
  frame_id: "ti_mmwave"
point_id: 16
x: 4.88671875
y: -0.30859375
z: 0.71875
range: 5.27281332016
velocity: 0.0
doppler_bin: 8
bearing: -3.61340069771
intensity: 31.0380363464
---
header: 
  seq: 320777
  stamp: 
    secs: 1561864028
    nsecs: 728834199
  frame_id: "ti_mmwave"
point_id: 17
x: 4.94921875
y: -0.623046875
z: 0.138671875
range: 5.31639051437
velocity: 0.0
doppler_bin: 8
bearing: -7.17510271072
intensity: 29.8272342682
---
header: 
  seq: 320778
  stamp: 
    secs: 1561864028
    nsecs: 728847950
  frame_id: "ti_mmwave"
point_id: 18
x: 0.01171875
y: 0.03125
z: 0.025390625
range: 0.0435769706964
velocity: 0.0
doppler_bin: 8
bearing: 69.4439544678
intensity: 29.3951931
---
header: 
  seq: 320779
  stamp: 
    secs: 1561864028
    nsecs: 729442354
  frame_id: "ti_mmwave"
point_id: 19
x: 0.041015625
y: -0.033203125
z: 0.0625
range: 0.0871539413929
velocity: 0.0
doppler_bin: 8
bearing: -38.9909973145
intensity: 30.141002655
---
header: 
  seq: 320780
  stamp: 
    secs: 1561864028
    nsecs: 729470927
  frame_id: "ti_mmwave"
point_id: 20
x: 0.052734375
y: -0.04296875
z: 0.103515625
range: 0.130730912089
velocity: 0.0
doppler_bin: 8
bearing: -39.1736602783
intensity: 29.0091304779
---
header: 
  seq: 320781
  stamp: 
    secs: 1561864028
    nsecs: 788263502
  frame_id: "ti_mmwave"
point_id: 0
x: 0.01171875
y: -0.0390625
z: -0.0078125
range: 0.0435769706964
velocity: 0.0
doppler_bin: 8
bearing: -73.3007583618
intensity: 30.7445068359
---
header: 
  seq: 320782
  stamp: 
    secs: 1561864028
    nsecs: 788342897
  frame_id: "ti_mmwave"
point_id: 1
x: 0.017578125
y: -0.080078125
z: -0.009765625
range: 0.0871539413929
velocity: 0.0
doppler_bin: 8
bearing: -77.6192398071
intensity: 31.9755630493
---
header: 
  seq: 320783
  stamp: 
    secs: 1561864028
    nsecs: 788355646
  frame_id: "ti_mmwave"
point_id: 2
x: 0.041015625
y: -0.115234375
z: -0.0078125
range: 0.130730912089
velocity: 0.0
doppler_bin: 8
bearing: -70.4077224731
intensity: 30.2366390228
---
header: 
  seq: 320784
  stamp: 
    secs: 1561864028
    nsecs: 788367793
  frame_id: "ti_mmwave"
point_id: 3
x: 0.056640625
y: -0.154296875
z: 0.005859375
range: 0.174307882786
velocity: 0.0
doppler_bin: 8
bearing: -69.8423843384
intensity: 25.490032196
---
header: 
  seq: 320785
  stamp: 
    secs: 1561864028
    nsecs: 788383797
  frame_id: "ti_mmwave"
point_id: 4
x: 0.150390625
y: -0.080078125
z: 1.255859375
range: 1.35088610649
velocity: 0.0
doppler_bin: 8
bearing: -28.0338516235
intensity: 23.138671875
---
header: 
  seq: 320786
  stamp: 
    secs: 1561864028
    nsecs: 788396766
  frame_id: "ti_mmwave"
point_id: 5
x: 0.0390625
y: -0.08203125
z: 1.306640625
range: 1.39446306229
velocity: 0.0
doppler_bin: 8
bearing: -64.5366516113
intensity: 24.6239795685
---
header: 
  seq: 320787
  stamp: 
    secs: 1561864028
    nsecs: 788405005
  frame_id: "ti_mmwave"
point_id: 6
x: 0.41796875
y: -0.083984375
z: -1.28125
range: 1.43804001808
velocity: 0.0
doppler_bin: 8
bearing: -11.3614110947
intensity: 23.0102996826
---
header: 
  seq: 320788
  stamp: 
    secs: 1561864028
    nsecs: 788413294
  frame_id: "ti_mmwave"
point_id: 7
x: 0.5546875
y: -0.04296875
z: -1.2734375
range: 1.48161697388
velocity: 0.0
doppler_bin: 8
bearing: -4.42955970764
intensity: 21.6136798859
---
header: 
  seq: 320789
  stamp: 
    secs: 1561864028
    nsecs: 788422372
  frame_id: "ti_mmwave"
point_id: 8
x: 2.63671875
y: -0.17578125
z: 0.990234375
range: 3.00681090355
velocity: 0.0
doppler_bin: 8
bearing: -3.81407499313
intensity: 28.9153747559
---
header: 
  seq: 320790
  stamp: 
    secs: 1561864028
    nsecs: 788430602
  frame_id: "ti_mmwave"
point_id: 9
x: 2.673828125
y: -0.1796875
z: 1.009765625
range: 3.05038785934
velocity: 0.0
doppler_bin: 8
bearing: -3.84462928772
intensity: 32.2167510986
---
header: 
  seq: 320791
  stamp: 
    secs: 1561864028
    nsecs: 788438857
  frame_id: "ti_mmwave"
point_id: 10
x: 2.759765625
y: -0.08984375
z: 0.8984375
range: 3.09396481514
velocity: 0.0
doppler_bin: 8
bearing: -1.86459684372
intensity: 31.2807598114
---
header: 
  seq: 320792
  stamp: 
    secs: 1561864028
    nsecs: 788449593
  frame_id: "ti_mmwave"
point_id: 11
x: 4.41015625
y: -0.142578125
z: 1.23046875
range: 4.88062095642
velocity: 0.0
doppler_bin: 8
bearing: -1.85169863701
intensity: 31.4176330566
---
header: 
  seq: 320793
  stamp: 
    secs: 1561864028
    nsecs: 788470701
  frame_id: "ti_mmwave"
point_id: 12
x: 4.4375
y: -0.14453125
z: 1.283203125
range: 4.9241976738
velocity: 0.0
doppler_bin: 8
bearing: -1.86548817158
intensity: 31.2904510498
---
header: 
  seq: 320794
  stamp: 
    secs: 1561864028
    nsecs: 788482637
  frame_id: "ti_mmwave"
point_id: 13
x: 4.732421875
y: -0.298828125
z: -0.646484375
range: 5.09850549698
velocity: 0.0
doppler_bin: 8
bearing: -3.61313724518
intensity: 33.2980461121
---
header: 
  seq: 320795
  stamp: 
    secs: 1561864028
    nsecs: 788567092
  frame_id: "ti_mmwave"
point_id: 14
x: 4.771484375
y: -0.30078125
z: -0.66015625
range: 5.14208269119
velocity: 0.0
doppler_bin: 8
bearing: -3.60699558258
intensity: 33.9828720093
---
header: 
  seq: 320796
  stamp: 
    secs: 1561864028
    nsecs: 788577540
  frame_id: "ti_mmwave"
point_id: 15
x: 4.80078125
y: -0.15234375
z: -0.7890625
range: 5.18565940857
velocity: 0.0
doppler_bin: 8
bearing: -1.81756365299
intensity: 30.6107540131
---
header: 
  seq: 320797
  stamp: 
    secs: 1561864028
    nsecs: 788585460
  frame_id: "ti_mmwave"
point_id: 16
x: 4.888671875
y: -0.30859375
z: 0.71484375
range: 5.27281332016
velocity: 0.0
doppler_bin: 8
bearing: -3.61196112633
intensity: 31.1627559662
---
header: 
  seq: 320798
  stamp: 
    secs: 1561864028
    nsecs: 788593438
  frame_id: "ti_mmwave"
point_id: 17
x: 4.951171875
y: -0.623046875
z: 0.078125
range: 5.31639051437
velocity: 0.0
doppler_bin: 8
bearing: -7.17230129242
intensity: 29.863237381
---
header: 
  seq: 320799
  stamp: 
    secs: 1561864028
    nsecs: 788603338
  frame_id: "ti_mmwave"
point_id: 18
x: 0.01171875
y: 0.03125
z: 0.025390625
range: 0.0435769706964
velocity: 0.0
doppler_bin: 8
bearing: 69.4439544678
intensity: 29.3851966858
---
header: 
  seq: 320800
  stamp: 
    secs: 1561864028
    nsecs: 788613054
  frame_id: "ti_mmwave"
point_id: 19
x: 0.041015625
y: -0.033203125
z: 0.0625
range: 0.0871539413929
velocity: 0.0
doppler_bin: 8
bearing: -38.9909973145
intensity: 30.141002655
---
header: 
  seq: 320801
  stamp: 
    secs: 1561864028
    nsecs: 788624672
  frame_id: "ti_mmwave"
point_id: 20
x: 0.052734375
y: -0.04296875
z: 0.103515625
range: 0.130730912089
velocity: 0.0
doppler_bin: 8
bearing: -39.1736602783
intensity: 29.0036716461
---
header: 
  seq: 320802
  stamp: 
    secs: 1561864028
    nsecs: 789628995
  frame_id: "ti_mmwave"
point_id: 0
x: 0.01171875
y: -0.0390625
z: -0.0078125
range: 0.0435769706964
velocity: 0.0
doppler_bin: 8
bearing: -73.3007583618
intensity: 30.7518177032
---
header: 
  seq: 320803
  stamp: 
    secs: 1561864028
    nsecs: 789674635
  frame_id: "ti_mmwave"
point_id: 1
x: 0.017578125
y: -0.080078125
z: -0.009765625
range: 0.0871539413929
velocity: 0.0
doppler_bin: 8
bearing: -77.6192398071
intensity: 31.9810695648
---
header: 
  seq: 320804
  stamp: 
    secs: 1561864028
    nsecs: 789684656
  frame_id: "ti_mmwave"
point_id: 2
x: 0.029296875
y: -0.119140625
z: -0.005859375
range: 0.130730912089
velocity: 0.0
doppler_bin: 8
bearing: -76.1849746704
intensity: 30.2407493591
---
header: 
  seq: 320805
  stamp: 
    secs: 1561864028
    nsecs: 789694611
  frame_id: "ti_mmwave"
point_id: 3
x: 0.056640625
y: -0.154296875
z: 0.005859375
range: 0.174307882786
velocity: 0.0
doppler_bin: 8
bearing: -69.8423843384
intensity: 25.5022830963
---
header: 
  seq: 320806
  stamp: 
    secs: 1561864028
    nsecs: 789703010
  frame_id: "ti_mmwave"
point_id: 4
x: 0.1640625
y: -0.080078125
z: 1.255859375
range: 1.35088610649
velocity: 0.0
doppler_bin: 8
bearing: -26.0167827606
intensity: 23.138671875
---
header: 
  seq: 320807
  stamp: 
    secs: 1561864028
    nsecs: 789713523
  frame_id: "ti_mmwave"
point_id: 6
x: 0.427734375
y: -0.083984375
z: -1.27734375
range: 1.43804001808
velocity: 0.0
doppler_bin: 8
bearing: -11.1085424423
intensity: 23.0102996826
---
header: 
  seq: 320808
  stamp: 
    secs: 1561864028
    nsecs: 789721355
  frame_id: "ti_mmwave"
point_id: 7
x: 0.560546875
y: -0.04296875
z: -1.271484375
range: 1.48161697388
velocity: 0.0
doppler_bin: 8
bearing: -4.38343858719
intensity: 21.6435279846
---
header: 
  seq: 320809
  stamp: 
    secs: 1561864028
    nsecs: 789729179
  frame_id: "ti_mmwave"
point_id: 8
x: 2.5546875
y: 0.6640625
z: -0.3125
range: 2.83250308037
velocity: 0.0
doppler_bin: 8
bearing: 14.570933342
intensity: 26.7209777832
---
header: 
  seq: 320810
  stamp: 
    secs: 1561864028
    nsecs: 789736964
  frame_id: "ti_mmwave"
point_id: 9
x: 2.599609375
y: 0.67578125
z: -0.279296875
range: 2.87608003616
velocity: 0.0
doppler_bin: 8
bearing: 14.5717973709
intensity: 27.0243053436
---
header: 
  seq: 320811
  stamp: 
    secs: 1561864028
    nsecs: 789744581
  frame_id: "ti_mmwave"
point_id: 10
x: 2.5859375
y: -0.17578125
z: 1.115234375
range: 3.00681090355
velocity: 0.0
doppler_bin: 8
bearing: -3.88874602318
intensity: 29.0794849396
---
header: 
  seq: 320812
  stamp: 
    secs: 1561864028
    nsecs: 789756151
  frame_id: "ti_mmwave"
point_id: 11
x: 2.6484375
y: -0.1796875
z: 1.07421875
range: 3.05038785934
velocity: 0.0
doppler_bin: 8
bearing: -3.88137626648
intensity: 32.2840042114
---
header: 
  seq: 320813
  stamp: 
    secs: 1561864028
    nsecs: 789764503
  frame_id: "ti_mmwave"
point_id: 12
x: 2.748046875
y: -0.08984375
z: 0.935546875
range: 3.09396481514
velocity: 0.0
doppler_bin: 8
bearing: -1.8725425005
intensity: 31.306552887
---
header: 
  seq: 320814
  stamp: 
    secs: 1561864028
    nsecs: 789772401
  frame_id: "ti_mmwave"
point_id: 13
x: 4.41015625
y: -0.142578125
z: 1.23046875
range: 4.88062095642
velocity: 0.0
doppler_bin: 8
bearing: -1.85169863701
intensity: 31.4113616943
---
header: 
  seq: 320815
  stamp: 
    secs: 1561864028
    nsecs: 789781199
  frame_id: "ti_mmwave"
point_id: 14
x: 4.439453125
y: -0.14453125
z: 1.28125
range: 4.9241976738
velocity: 0.0
doppler_bin: 8
bearing: -1.86466813087
intensity: 31.2775249481
---
header: 
  seq: 320816
  stamp: 
    secs: 1561864028
    nsecs: 789789266
  frame_id: "ti_mmwave"
point_id: 15
x: 4.734375
y: -0.298828125
z: -0.62890625
range: 5.09850549698
velocity: 0.0
doppler_bin: 8
bearing: -3.61165046692
intensity: 33.3405151367
---
header: 
  seq: 320817
  stamp: 
    secs: 1561864028
    nsecs: 789797392
  frame_id: "ti_mmwave"
point_id: 16
x: 4.7734375
y: -0.30078125
z: -0.6484375
range: 5.14208269119
velocity: 0.0
doppler_bin: 8
bearing: -3.60552406311
intensity: 34.01745224
---
header: 
  seq: 320818
  stamp: 
    secs: 1561864028
    nsecs: 789816707
  frame_id: "ti_mmwave"
point_id: 17
x: 4.798828125
y: -0.15234375
z: -0.798828125
range: 5.18565940857
velocity: 0.0
doppler_bin: 8
bearing: -1.81830310822
intensity: 30.6855697632
---
header: 
  seq: 320819
  stamp: 
    secs: 1561864028
    nsecs: 789831480
  frame_id: "ti_mmwave"
point_id: 18
x: 4.88671875
y: -0.30859375
z: 0.7265625
range: 5.27281332016
velocity: 0.0
doppler_bin: 8
bearing: -3.61340069771
intensity: 31.0720996857
---
header: 
  seq: 320820
  stamp: 
    secs: 1561864028
    nsecs: 789844277
  frame_id: "ti_mmwave"
point_id: 19
x: 4.951171875
y: -0.623046875
z: 0.072265625
range: 5.31639051437
velocity: 0.0
doppler_bin: 8
bearing: -7.17230129242
intensity: 29.8587532043
---
header: 
  seq: 320821
  stamp: 
    secs: 1561864028
    nsecs: 789851927
  frame_id: "ti_mmwave"
point_id: 20
x: 0.01171875
y: 0.03125
z: 0.025390625
range: 0.0435769706964
velocity: 0.0
doppler_bin: 8
bearing: 69.4439544678
intensity: 29.3901977539
---
header: 
  seq: 320822
  stamp: 
    secs: 1561864028
    nsecs: 789925271
  frame_id: "ti_mmwave"
point_id: 21
x: 0.041015625
y: -0.033203125
z: 0.0625
range: 0.0871539413929
velocity: 0.0
doppler_bin: 8
bearing: -38.9909973145
intensity: 30.141002655
---
header: 
  seq: 320823
  stamp: 
    secs: 1561864028
    nsecs: 789934661
  frame_id: "ti_mmwave"
point_id: 22
x: 0.052734375
y: -0.04296875
z: 0.103515625
range: 0.130730912089
velocity: 0.0
doppler_bin: 8
bearing: -39.1736602783
intensity: 29.0091304779
---
header: 
  seq: 320824
  stamp: 
    secs: 1561864028
    nsecs: 848228948
  frame_id: "ti_mmwave"
point_id: 0
x: 0.01171875
y: -0.0390625
z: -0.0078125
range: 0.0435769706964
velocity: 0.0
doppler_bin: 8
bearing: -73.3007583618
intensity: 30.7445068359
---
header: 
  seq: 320825
  stamp: 
    secs: 1561864028
    nsecs: 848284145
  frame_id: "ti_mmwave"
point_id: 1
x: 0.017578125
y: -0.080078125
z: -0.009765625
range: 0.0871539413929
velocity: 0.0
doppler_bin: 8
bearing: -77.6192398071
intensity: 31.9755630493
---
header: 
  seq: 320826
  stamp: 
    secs: 1561864028
    nsecs: 848291544
  frame_id: "ti_mmwave"
point_id: 2
x: 0.029296875
y: -0.119140625
z: -0.005859375
range: 0.130730912089
velocity: 0.0
doppler_bin: 8
bearing: -76.1849746704
intensity: 30.2407493591
---
header: 
  seq: 320827
  stamp: 
    secs: 1561864028
    nsecs: 848298395
  frame_id: "ti_mmwave"
point_id: 3
x: 0.056640625
y: -0.154296875
z: 0.005859375
range: 0.174307882786
velocity: 0.0
doppler_bin: 8
bearing: -69.8423843384
intensity: 25.5022830963
---
header: 
  seq: 320828
  stamp: 
    secs: 1561864028
    nsecs: 848303948
  frame_id: "ti_mmwave"
point_id: 4
x: 0.1328125
y: -0.080078125
z: 1.2578125
range: 1.35088610649
velocity: 0.0
doppler_bin: 8
bearing: -31.0875034332
intensity: 23.1175384521
---
header: 
  seq: 320829
  stamp: 
    secs: 1561864028
    nsecs: 848309279
  frame_id: "ti_mmwave"
point_id: 5
x: 0.0546875
y: -0.08203125
z: 1.3046875
range: 1.39446306229
velocity: 0.0
doppler_bin: 8
bearing: -56.3099327087
intensity: 24.6089782715
---
header: 
  seq: 320830
  stamp: 
    secs: 1561864028
    nsecs: 848314626
  frame_id: "ti_mmwave"
point_id: 6
x: 0.421875
y: -0.083984375
z: -1.279296875
range: 1.43804001808
velocity: 0.0
doppler_bin: 8
bearing: -11.2589120865
intensity: 23.0102996826
---
header: 
  seq: 320831
  stamp: 
    secs: 1561864028
    nsecs: 848319693
  frame_id: "ti_mmwave"
point_id: 7
x: 0.560546875
y: -0.04296875
z: -1.271484375
range: 1.48161697388
velocity: 0.0
doppler_bin: 8
bearing: -4.38343858719
intensity: 21.5836257935
---
header: 
  seq: 320832
  stamp: 
    secs: 1561864028
    nsecs: 848325598
  frame_id: "ti_mmwave"
point_id: 8
x: 2.46484375
y: 0.724609375
z: -0.19140625
range: 2.74534916878
velocity: 0.0
doppler_bin: 8
bearing: 16.3821659088
intensity: 27.466342926
---
header: 
  seq: 320833
  stamp: 
    secs: 1561864028
    nsecs: 848331070
  frame_id: "ti_mmwave"
point_id: 9
x: 2.505859375
y: 0.736328125
z: -0.181640625
range: 2.78892612457
velocity: 0.0
doppler_bin: 8
bearing: 16.3750324249
intensity: 28.4509811401
---
header: 
  seq: 320834
  stamp: 
    secs: 1561864028
    nsecs: 848336031
  frame_id: "ti_mmwave"
point_id: 10
x: 2.56640625
y: 0.6640625
z: -0.21484375
range: 2.83250308037
velocity: 0.0
doppler_bin: 8
bearing: 14.5072126389
intensity: 28.1023254395
---
header: 
  seq: 320835
  stamp: 
    secs: 1561864028
    nsecs: 848342289
  frame_id: "ti_mmwave"
point_id: 11
x: 2.640625
y: -0.17578125
z: 0.98046875
range: 3.00681090355
velocity: 0.0
doppler_bin: 8
bearing: -3.80844950676
intensity: 28.9982051849
---
header: 
  seq: 320836
  stamp: 
    secs: 1561864028
    nsecs: 848347520
  frame_id: "ti_mmwave"
point_id: 12
x: 2.66796875
y: -0.1796875
z: 1.0234375
range: 3.05038785934
velocity: 0.0
doppler_bin: 8
bearing: -3.85304760933
intensity: 32.2788658142
---
header: 
  seq: 320837
  stamp: 
    secs: 1561864028
    nsecs: 848352954
  frame_id: "ti_mmwave"
point_id: 13
x: 2.759765625
y: -0.08984375
z: 0.8984375
range: 3.09396481514
velocity: 0.0
doppler_bin: 8
bearing: -1.86459684372
intensity: 31.2968997955
---
header: 
  seq: 320838
  stamp: 
    secs: 1561864028
    nsecs: 848359474
  frame_id: "ti_mmwave"
point_id: 14
x: 4.4140625
y: -0.142578125
z: 1.22265625
range: 4.88062095642
velocity: 0.0
doppler_bin: 8
bearing: -1.850061059
intensity: 31.4113616943
---
header: 
  seq: 320839
  stamp: 
    secs: 1561864028
    nsecs: 848367648
  frame_id: "ti_mmwave"
point_id: 15
x: 4.44140625
y: -0.14453125
z: 1.275390625
range: 4.9241976738
velocity: 0.0
doppler_bin: 8
bearing: -1.86384868622
intensity: 31.2839927673
---
header: 
  seq: 320840
  stamp: 
    secs: 1561864028
    nsecs: 848384529
  frame_id: "ti_mmwave"
point_id: 16
x: 4.748046875
y: -0.298828125
z: -0.529296875
range: 5.09850549698
velocity: 0.0
doppler_bin: 8
bearing: -3.60127830505
intensity: 33.3525733948
---
header: 
  seq: 320841
  stamp: 
    secs: 1561864028
    nsecs: 848511984
  frame_id: "ti_mmwave"
point_id: 17
x: 4.779296875
y: -0.30078125
z: -0.61328125
range: 5.14208269119
velocity: 0.0
doppler_bin: 8
bearing: -3.60111522675
intensity: 33.981136322
---
header: 
  seq: 320842
  stamp: 
    secs: 1561864028
    nsecs: 848527513
  frame_id: "ti_mmwave"
point_id: 18
x: 4.8046875
y: -0.15234375
z: -0.76953125
range: 5.18565940857
velocity: 0.0
doppler_bin: 8
bearing: -1.81608688831
intensity: 30.6220588684
---
header: 
  seq: 320843
  stamp: 
    secs: 1561864028
    nsecs: 848544577
  frame_id: "ti_mmwave"
point_id: 19
x: 4.88671875
y: -0.30859375
z: 0.724609375
range: 5.27281332016
velocity: 0.0
doppler_bin: 8
bearing: -3.61340069771
intensity: 31.1394329071
---
header: 
  seq: 320844
  stamp: 
    secs: 1561864028
    nsecs: 848561206
  frame_id: "ti_mmwave"
point_id: 20
x: 4.951171875
y: -0.623046875
z: 0.099609375
range: 5.31639051437
velocity: 0.0
doppler_bin: 8
bearing: -7.17230129242
intensity: 29.8855895996
---
header: 
  seq: 320845
  stamp: 
    secs: 1561864028
    nsecs: 848570989
  frame_id: "ti_mmwave"
point_id: 21
x: 0.01171875
y: 0.03125
z: 0.025390625
range: 0.0435769706964
velocity: 0.0
doppler_bin: 8
bearing: 69.4439544678
intensity: 29.3901977539
---
header: 
  seq: 320846
  stamp: 
    secs: 1561864028
    nsecs: 848583993
  frame_id: "ti_mmwave"
point_id: 22
x: 0.041015625
y: -0.033203125
z: 0.0625
range: 0.0871539413929
velocity: 0.0
doppler_bin: 8
bearing: -38.9909973145
intensity: 30.1367969513
---
header: 
  seq: 320847
  stamp: 
    secs: 1561864028
    nsecs: 848596869
  frame_id: "ti_mmwave"
point_id: 23
x: 0.052734375
y: -0.04296875
z: 0.103515625
range: 0.130730912089
velocity: 0.0
doppler_bin: 8
bearing: -39.1736602783
intensity: 28.9982051849
---
header: 
  seq: 320848
  stamp: 
    secs: 1561864028
    nsecs: 849162223
  frame_id: "ti_mmwave"
point_id: 0
x: 0.01171875
y: -0.0390625
z: -0.0078125
range: 0.0435769706964
velocity: 0.0
doppler_bin: 8
bearing: -73.3007583618
intensity: 30.7445068359
---
header: 
  seq: 320849
  stamp: 
    secs: 1561864028
    nsecs: 849201960
  frame_id: "ti_mmwave"
point_id: 1
x: 0.017578125
y: -0.080078125
z: -0.0078125
range: 0.0871539413929
velocity: 0.0
doppler_bin: 8
bearing: -77.6192398071
intensity: 31.9783172607
---
header: 
  seq: 320850
  stamp: 
    secs: 1561864028
    nsecs: 849212603
  frame_id: "ti_mmwave"
point_id: 2
x: 0.029296875
y: -0.119140625
z: -0.005859375
range: 0.130730912089
velocity: 0.0
doppler_bin: 8
bearing: -76.1849746704
intensity: 30.2366390228
---
header: 
  seq: 320851
  stamp: 
    secs: 1561864028
    nsecs: 849220046
  frame_id: "ti_mmwave"
point_id: 3
x: 0.056640625
y: -0.154296875
z: 0.005859375
range: 0.174307882786
velocity: 0.0
doppler_bin: 8
bearing: -69.8423843384
intensity: 25.490032196
---
header: 
  seq: 320852
  stamp: 
    secs: 1561864028
    nsecs: 849226607
  frame_id: "ti_mmwave"
point_id: 4
x: 0.146484375
y: -0.080078125
z: 1.2578125
range: 1.35088610649
velocity: 0.0
doppler_bin: 8
bearing: -28.6639575958
intensity: 23.1175384521
---
header: 
  seq: 320853
  stamp: 
    secs: 1561864028
    nsecs: 849232026
  frame_id: "ti_mmwave"
point_id: 5
x: 0.037109375
y: -0.08203125
z: 1.306640625
range: 1.39446306229
velocity: 0.0
doppler_bin: 8
bearing: -65.6589126587
intensity: 24.5939254761
---
header: 
  seq: 320854
  stamp: 
    secs: 1561864028
    nsecs: 849237390
  frame_id: "ti_mmwave"
point_id: 6
x: 0.408203125
y: -0.083984375
z: -1.283203125
range: 1.43804001808
velocity: 0.0
doppler_bin: 8
bearing: -11.6258993149
intensity: 22.9885311127
---
header: 
  seq: 320855
  stamp: 
    secs: 1561864028
    nsecs: 849242357
  frame_id: "ti_mmwave"
point_id: 7
x: 0.544921875
y: -0.04296875
z: -1.279296875
range: 1.48161697388
velocity: 0.0
doppler_bin: 8
bearing: -4.50861787796
intensity: 21.6136798859
---
header: 
  seq: 320856
  stamp: 
    secs: 1561864028
    nsecs: 849247831
  frame_id: "ti_mmwave"
point_id: 8
x: 2.630859375
y: -0.17578125
z: 1.005859375
range: 3.00681090355
velocity: 0.0
doppler_bin: 8
bearing: -3.82254433632
intensity: 28.9097957611
---
header: 
  seq: 320857
  stamp: 
    secs: 1561864028
    nsecs: 849256243
  frame_id: "ti_mmwave"
point_id: 9
x: 2.666015625
y: -0.1796875
z: 1.03125
range: 3.05038785934
velocity: 0.0
doppler_bin: 8
bearing: -3.85586214066
intensity: 32.2167510986
---
header: 
  seq: 320858
  stamp: 
    secs: 1561864028
    nsecs: 849263761
  frame_id: "ti_mmwave"
point_id: 10
x: 2.755859375
y: -0.08984375
z: 0.9140625
range: 3.09396481514
velocity: 0.0
doppler_bin: 8
bearing: -1.86723792553
intensity: 31.2807598114
---
header: 
  seq: 320859
  stamp: 
    secs: 1561864028
    nsecs: 849273781
  frame_id: "ti_mmwave"
point_id: 11
x: 4.412109375
y: -0.142578125
z: 1.224609375
range: 4.88062095642
velocity: 0.0
doppler_bin: 8
bearing: -1.85087943077
intensity: 31.4238948822
---
header: 
  seq: 320860
  stamp: 
    secs: 1561864028
    nsecs: 849281965
  frame_id: "ti_mmwave"
point_id: 12
x: 4.44140625
y: -0.14453125
z: 1.26953125
range: 4.9241976738
velocity: 0.0
doppler_bin: 8
bearing: -1.86384868622
intensity: 31.2839927673
---
header: 
  seq: 320861
  stamp: 
    secs: 1561864028
    nsecs: 849289723
  frame_id: "ti_mmwave"
point_id: 13
x: 4.740234375
y: -0.298828125
z: -0.591796875
range: 5.09850549698
velocity: 0.0
doppler_bin: 8
bearing: -3.60719799995
intensity: 33.3485565186
---
header: 
  seq: 320862
  stamp: 
    secs: 1561864028
    nsecs: 849297393
  frame_id: "ti_mmwave"
point_id: 14
x: 4.775390625
y: -0.30078125
z: -0.630859375
range: 5.14208269119
velocity: 0.0
doppler_bin: 8
bearing: -3.60405302048
intensity: 33.9637374878
---
header: 
  seq: 320863
  stamp: 
    secs: 1561864028
    nsecs: 849305062
  frame_id: "ti_mmwave"
point_id: 15
x: 4.80859375
y: -0.15234375
z: -0.736328125
range: 5.18565940857
velocity: 0.0
doppler_bin: 8
bearing: -1.81461262703
intensity: 30.6220588684
---
header: 
  seq: 320864
  stamp: 
    secs: 1561864028
    nsecs: 849311996
  frame_id: "ti_mmwave"
point_id: 16
x: 4.83984375
y: -0.306640625
z: 0.76171875
range: 5.22923660278
velocity: 0.0
doppler_bin: 8
bearing: -3.62527441978
intensity: 29.0145835876
---
header: 
  seq: 320865
  stamp: 
    secs: 1561864028
    nsecs: 849317487
  frame_id: "ti_mmwave"
point_id: 17
x: 4.892578125
y: -0.30859375
z: 0.685546875
range: 5.27281332016
velocity: 0.0
doppler_bin: 8
bearing: -3.60908436775
intensity: 31.0822658539
---
header: 
  seq: 320866
  stamp: 
    secs: 1561864028
    nsecs: 849323656
  frame_id: "ti_mmwave"
point_id: 18
x: 4.951171875
y: -0.623046875
z: 0.0546875
range: 5.31639051437
velocity: 0.0
doppler_bin: 8
bearing: -7.17230129242
intensity: 29.8587532043
---
header: 
  seq: 320867
  stamp: 
    secs: 1561864028
    nsecs: 849329499
  frame_id: "ti_mmwave"
point_id: 19
x: 0.01171875
y: 0.03125
z: 0.025390625
range: 0.0435769706964
velocity: 0.0
doppler_bin: 8
bearing: 69.4439544678
intensity: 29.3951931
---
header: 
  seq: 320868
  stamp: 
    secs: 1561864028
    nsecs: 849335461
  frame_id: "ti_mmwave"
point_id: 20
x: 0.041015625
y: -0.033203125
z: 0.0625
range: 0.0871539413929
velocity: 0.0
doppler_bin: 8
bearing: -38.9909973145
intensity: 30.1452045441
---
header: 
  seq: 320869
  stamp: 
    secs: 1561864028
    nsecs: 849341046
  frame_id: "ti_mmwave"
point_id: 21
x: 0.052734375
y: -0.04296875
z: 0.103515625
range: 0.130730912089
velocity: 0.0
doppler_bin: 8
bearing: -39.1736602783
intensity: 29.0091304779
---
header: 
  seq: 320870
  stamp: 
    secs: 1561864028
    nsecs: 908325604
  frame_id: "ti_mmwave"
point_id: 0
x: 0.01171875
y: -0.0390625
z: -0.0078125
range: 0.0435769706964
velocity: 0.0
doppler_bin: 8
bearing: -73.3007583618
intensity: 30.7481651306
---
header: 
  seq: 320871
  stamp: 
    secs: 1561864028
    nsecs: 908402017
  frame_id: "ti_mmwave"
point_id: 1
x: 0.017578125
y: -0.080078125
z: -0.009765625
range: 0.0871539413929
velocity: 0.0
doppler_bin: 8
bearing: -77.6192398071
intensity: 31.9783172607
---
header: 
  seq: 320872
  stamp: 
    secs: 1561864028
    nsecs: 908415433
  frame_id: "ti_mmwave"
point_id: 2
x: 0.029296875
y: -0.119140625
z: -0.005859375
range: 0.130730912089
velocity: 0.0
doppler_bin: 8
bearing: -76.1849746704
intensity: 30.2407493591
---
header: 
  seq: 320873
  stamp: 
    secs: 1561864028
    nsecs: 908424892
  frame_id: "ti_mmwave"
point_id: 3
x: 0.056640625
y: -0.154296875
z: 0.005859375
range: 0.174307882786
velocity: 0.0
doppler_bin: 8
bearing: -69.8423843384
intensity: 25.5022830963
---
header: 
  seq: 320874
  stamp: 
    secs: 1561864028
    nsecs: 908433544
  frame_id: "ti_mmwave"
point_id: 4
x: 0.15625
y: -0.080078125
z: 1.255859375
range: 1.35088610649
velocity: 0.0
doppler_bin: 8
bearing: -27.1351394653
intensity: 23.1175384521
---
header: 
  seq: 320875
  stamp: 
    secs: 1561864028
    nsecs: 908443246
  frame_id: "ti_mmwave"
point_id: 6
x: 0.42578125
y: -0.083984375
z: -1.279296875
range: 1.43804001808
velocity: 0.0
doppler_bin: 8
bearing: -11.1582231522
intensity: 23.0535144806
---
header: 
  seq: 320876
  stamp: 
    secs: 1561864028
    nsecs: 908451034
  frame_id: "ti_mmwave"
point_id: 7
x: 0.560546875
y: -0.04296875
z: -1.271484375
range: 1.48161697388
velocity: 0.0
doppler_bin: 8
bearing: -4.38343858719
intensity: 21.7318630219
---
header: 
  seq: 320877
  stamp: 
    secs: 1561864028
    nsecs: 908459229
  frame_id: "ti_mmwave"
point_id: 8
x: 2.515625
y: -0.263671875
z: 1.251953125
range: 3.00681090355
velocity: 0.0
doppler_bin: 8
bearing: -5.98353290558
intensity: 29.2941894531
---
header: 
  seq: 320878
  stamp: 
    secs: 1561864028
    nsecs: 908467690
  frame_id: "ti_mmwave"
point_id: 9
x: 2.640625
y: -0.1796875
z: 1.091796875
range: 3.05038785934
velocity: 0.0
doppler_bin: 8
bearing: -3.89282417297
intensity: 32.3451728821
---
header: 
  seq: 320879
  stamp: 
    secs: 1561864028
    nsecs: 908476918
  frame_id: "ti_mmwave"
point_id: 10
x: 2.75
y: -0.08984375
z: 0.927734375
range: 3.09396481514
velocity: 0.0
doppler_bin: 8
bearing: -1.87121355534
intensity: 31.332195282
---
header: 
  seq: 320880
  stamp: 
    secs: 1561864028
    nsecs: 908486600
  frame_id: "ti_mmwave"
point_id: 11
x: 4.416015625
y: -0.142578125
z: 1.2109375
range: 4.88062095642
velocity: 0.0
doppler_bin: 8
bearing: -1.84924340248
intensity: 31.4082221985
---
header: 
  seq: 320881
  stamp: 
    secs: 1561864028
    nsecs: 908496850
  frame_id: "ti_mmwave"
point_id: 12
x: 4.443359375
y: -0.14453125
z: 1.265625
range: 4.9241976738
velocity: 0.0
doppler_bin: 8
bearing: -1.86303019524
intensity: 31.2678050995
---
header: 
  seq: 320882
  stamp: 
    secs: 1561864028
    nsecs: 908505427
  frame_id: "ti_mmwave"
point_id: 13
x: 4.736328125
y: -0.298828125
z: -0.615234375
range: 5.09850549698
velocity: 0.0
doppler_bin: 8
bearing: -3.61016488075
intensity: 33.2817573547
---
header: 
  seq: 320883
  stamp: 
    secs: 1561864028
    nsecs: 908514005
  frame_id: "ti_mmwave"
point_id: 14
x: 4.77734375
y: -0.30078125
z: -0.625
range: 5.14208269119
velocity: 0.0
doppler_bin: 8
bearing: -3.60258316994
intensity: 33.988079071
---
header: 
  seq: 320884
  stamp: 
    secs: 1561864028
    nsecs: 908522267
  frame_id: "ti_mmwave"
point_id: 15
x: 4.810546875
y: -0.15234375
z: -0.724609375
range: 5.18565940857
velocity: 0.0
doppler_bin: 8
bearing: -1.81387650967
intensity: 30.6744289398
---
header: 
  seq: 320885
  stamp: 
    secs: 1561864028
    nsecs: 908530312
  frame_id: "ti_mmwave"
point_id: 16
x: 4.888671875
y: -0.30859375
z: 0.70703125
range: 5.27281332016
velocity: 0.0
doppler_bin: 8
bearing: -3.61196112633
intensity: 31.1226978302
---
header: 
  seq: 320886
  stamp: 
    secs: 1561864028
    nsecs: 908543296
  frame_id: "ti_mmwave"
point_id: 17
x: 4.94921875
y: -0.623046875
z: 0.1171875
range: 5.31639051437
velocity: 0.0
doppler_bin: 8
bearing: -7.17510271072
intensity: 29.8317508698
---
header: 
  seq: 320887
  stamp: 
    secs: 1561864028
    nsecs: 908713486
  frame_id: "ti_mmwave"
point_id: 18
x: 0.01171875
y: 0.03125
z: 0.025390625
range: 0.0435769706964
velocity: 0.0
doppler_bin: 8
bearing: 69.4439544678
intensity: 29.3951931
---
header: 
  seq: 320888
  stamp: 
    secs: 1561864028
    nsecs: 908743866
  frame_id: "ti_mmwave"
point_id: 19
x: 0.041015625
y: -0.033203125
z: 0.0625
range: 0.0871539413929
velocity: 0.0
doppler_bin: 8
bearing: -38.9909973145
intensity: 30.141002655
---
header: 
  seq: 320889
  stamp: 
    secs: 1561864028
    nsecs: 908756034
  frame_id: "ti_mmwave"
point_id: 20
x: 0.052734375
y: -0.04296875
z: 0.103515625
range: 0.130730912089
velocity: 0.0
doppler_bin: 8
bearing: -39.1736602783
intensity: 29.0091304779
---
header: 
  seq: 320890
  stamp: 
    secs: 1561864028
    nsecs: 909749131
  frame_id: "ti_mmwave"
point_id: 0
x: 0.01171875
y: -0.0390625
z: -0.0078125
range: 0.0435769706964
velocity: 0.0
doppler_bin: 8
bearing: -73.3007583618
intensity: 30.7591171265
---
header: 
  seq: 320891
  stamp: 
    secs: 1561864028
    nsecs: 909794047
  frame_id: "ti_mmwave"
point_id: 1
x: 0.017578125
y: -0.080078125
z: -0.009765625
range: 0.0871539413929
velocity: 0.0
doppler_bin: 8
bearing: -77.6192398071
intensity: 31.9810695648
---
header: 
  seq: 320892
  stamp: 
    secs: 1561864028
    nsecs: 909805784
  frame_id: "ti_mmwave"
point_id: 2
x: 0.029296875
y: -0.119140625
z: -0.005859375
range: 0.130730912089
velocity: 0.0
doppler_bin: 8
bearing: -76.1849746704
intensity: 30.2448558807
---
header: 
  seq: 320893
  stamp: 
    secs: 1561864028
    nsecs: 909813909
  frame_id: "ti_mmwave"
point_id: 3
x: 0.056640625
y: -0.154296875
z: 0.005859375
range: 0.174307882786
velocity: 0.0
doppler_bin: 8
bearing: -69.8423843384
intensity: 25.490032196
---
header: 
  seq: 320894
  stamp: 
    secs: 1561864028
    nsecs: 909822205
  frame_id: "ti_mmwave"
point_id: 4
x: 0.130859375
y: -0.080078125
z: 1.259765625
range: 1.35088610649
velocity: 0.0
doppler_bin: 8
bearing: -31.4641437531
intensity: 23.1806335449
---
header: 
  seq: 320895
  stamp: 
    secs: 1561864028
    nsecs: 909831921
  frame_id: "ti_mmwave"
point_id: 6
x: 0.42578125
y: -0.083984375
z: -1.27734375
range: 1.43804001808
velocity: 0.0
doppler_bin: 8
bearing: -11.1582231522
intensity: 23.0102996826
---
header: 
  seq: 320896
  stamp: 
    secs: 1561864028
    nsecs: 909839585
  frame_id: "ti_mmwave"
point_id: 7
x: 2.53515625
y: 0.654296875
z: -0.05078125
range: 2.78892612457
velocity: 0.0
doppler_bin: 8
bearing: 14.4716291428
intensity: 26.1172332764
---
header: 
  seq: 320897
  stamp: 
    secs: 1561864028
    nsecs: 909848195
  frame_id: "ti_mmwave"
point_id: 8
x: 2.572265625
y: 0.6640625
z: -0.099609375
range: 2.83250308037
velocity: 0.0
doppler_bin: 8
bearing: 14.4755582809
intensity: 27.283536911
---
header: 
  seq: 320898
  stamp: 
    secs: 1561864028
    nsecs: 909856279
  frame_id: "ti_mmwave"
point_id: 9
x: 2.68359375
y: -0.087890625
z: 0.87109375
range: 3.00681090355
velocity: 0.0
doppler_bin: 8
bearing: -1.87582886219
intensity: 28.9376182556
---
header: 
  seq: 320899
  stamp: 
    secs: 1561864028
    nsecs: 909865455
  frame_id: "ti_mmwave"
point_id: 10
x: 2.669921875
y: -0.1796875
z: 1.021484375
range: 3.05038785934
velocity: 0.0
doppler_bin: 8
bearing: -3.85023736954
intensity: 32.2530937195
---
header: 
  seq: 320900
  stamp: 
    secs: 1561864028
    nsecs: 909873009
  frame_id: "ti_mmwave"
point_id: 11
x: 2.763671875
y: -0.08984375
z: 0.884765625
range: 3.09396481514
velocity: 0.0
doppler_bin: 8
bearing: -1.8619633913
intensity: 31.306552887
---
header: 
  seq: 320901
  stamp: 
    secs: 1561864028
    nsecs: 909881571
  frame_id: "ti_mmwave"
point_id: 12
x: 4.412109375
y: -0.142578125
z: 1.22265625
range: 4.88062095642
velocity: 0.0
doppler_bin: 8
bearing: -1.85087943077
intensity: 31.4113616943
---
header: 
  seq: 320902
  stamp: 
    secs: 1561864028
    nsecs: 909889961
  frame_id: "ti_mmwave"
point_id: 13
x: 4.44140625
y: -0.14453125
z: 1.26953125
range: 4.9241976738
velocity: 0.0
doppler_bin: 8
bearing: -1.86384868622
intensity: 31.2710475922
---
header: 
  seq: 320903
  stamp: 
    secs: 1561864028
    nsecs: 909897710
  frame_id: "ti_mmwave"
point_id: 14
x: 4.73828125
y: -0.298828125
z: -0.60546875
range: 5.09850549698
velocity: 0.0
doppler_bin: 8
bearing: -3.60868048668
intensity: 33.4123649597
---
header: 
  seq: 320904
  stamp: 
    secs: 1561864028
    nsecs: 909905492
  frame_id: "ti_mmwave"
point_id: 15
x: 4.775390625
y: -0.30078125
z: -0.638671875
range: 5.14208269119
velocity: 0.0
doppler_bin: 8
bearing: -3.60405302048
intensity: 34.0363502502
---
header: 
  seq: 320905
  stamp: 
    secs: 1561864028
    nsecs: 909914899
  frame_id: "ti_mmwave"
point_id: 16
x: 4.798828125
y: -0.15234375
z: -0.802734375
range: 5.18565940857
velocity: 0.0
doppler_bin: 8
bearing: -1.81830310822
intensity: 30.5690479279
---
header: 
  seq: 320906
  stamp: 
    secs: 1561864028
    nsecs: 909923689
  frame_id: "ti_mmwave"
point_id: 17
x: 4.88671875
y: -0.30859375
z: 0.720703125
range: 5.27281332016
velocity: 0.0
doppler_bin: 8
bearing: -3.61340069771
intensity: 31.1693973541
---
header: 
  seq: 320907
  stamp: 
    secs: 1561864028
    nsecs: 909931555
  frame_id: "ti_mmwave"
point_id: 18
x: 4.951171875
y: -0.623046875
z: 0.05078125
range: 5.31639051437
velocity: 0.0
doppler_bin: 8
bearing: -7.17230129242
intensity: 29.9122600555
---
header: 
  seq: 320908
  stamp: 
    secs: 1561864028
    nsecs: 909949975
  frame_id: "ti_mmwave"
point_id: 19
x: 0.01171875
y: 0.03125
z: 0.025390625
range: 0.0435769706964
velocity: 0.0
doppler_bin: 8
bearing: 69.4439544678
intensity: 29.3901977539
---
header: 
  seq: 320909
  stamp: 
    secs: 1561864028
    nsecs: 909961501
  frame_id: "ti_mmwave"
point_id: 20
x: 0.041015625
y: -0.033203125
z: 0.0625
range: 0.0871539413929
velocity: 0.0
doppler_bin: 8
bearing: -38.9909973145
intensity: 30.141002655
---
header: 
  seq: 320910
  stamp: 
    secs: 1561864028
    nsecs: 910026896
  frame_id: "ti_mmwave"
point_id: 21
x: 0.052734375
y: -0.04296875
z: 0.103515625
range: 0.130730912089
velocity: 0.0
doppler_bin: 8
bearing: -39.1736602783
intensity: 29.0036716461
---
header: 
  seq: 320911
  stamp: 
    secs: 1561864028
    nsecs: 910037142
  frame_id: "ti_mmwave"
point_id: 23
x: 1.767578125
y: -0.24609375
z: 1.916015625
range: 2.78892612457
velocity: 0.0
doppler_bin: 8
bearing: -7.92614078522
intensity: 23.5218257904
---
header: 
  seq: 320912
  stamp: 
    secs: 1561864028
    nsecs: 968321590
  frame_id: "ti_mmwave"
point_id: 0
x: 0.01171875
y: -0.0390625
z: -0.0078125
range: 0.0435769706964
velocity: 0.0
doppler_bin: 8
bearing: -73.3007583618
intensity: 30.7554702759
---
header: 
  seq: 320913
  stamp: 
    secs: 1561864028
    nsecs: 968398147
  frame_id: "ti_mmwave"
point_id: 1
x: 0.017578125
y: -0.080078125
z: -0.009765625
range: 0.0871539413929
velocity: 0.0
doppler_bin: 8
bearing: -77.6192398071
intensity: 31.9838218689
---
header: 
  seq: 320914
  stamp: 
    secs: 1561864028
    nsecs: 968408877
  frame_id: "ti_mmwave"
point_id: 2
x: 0.029296875
y: -0.119140625
z: -0.005859375
range: 0.130730912089
velocity: 0.0
doppler_bin: 8
bearing: -76.1849746704
intensity: 30.248960495
---
header: 
  seq: 320915
  stamp: 
    secs: 1561864028
    nsecs: 968417299
  frame_id: "ti_mmwave"
point_id: 3
x: 0.056640625
y: -0.154296875
z: 0.005859375
range: 0.174307882786
velocity: 0.0
doppler_bin: 8
bearing: -69.8423843384
intensity: 25.5144996643
---
header: 
  seq: 320916
  stamp: 
    secs: 1561864028
    nsecs: 968427132
  frame_id: "ti_mmwave"
point_id: 4
x: 0.0546875
y: -0.080078125
z: 1.263671875
range: 1.35088610649
velocity: 0.0
doppler_bin: 8
bearing: -55.6697845459
intensity: 23.1175384521
---
header: 
  seq: 320917
  stamp: 
    secs: 1561864028
    nsecs: 968435372
  frame_id: "ti_mmwave"
point_id: 5
x: 0.04296875
y: -0.08203125
z: -1.306640625
range: 1.39446306229
velocity: 0.0
doppler_bin: 8
bearing: -62.3540267944
intensity: 24.6089782715
---
header: 
  seq: 320918
  stamp: 
    secs: 1561864028
    nsecs: 968443277
  frame_id: "ti_mmwave"
point_id: 6
x: 0.439453125
y: -0.083984375
z: -1.2734375
range: 1.43804001808
velocity: 0.0
doppler_bin: 8
bearing: -10.81939888
intensity: 23.0102996826
---
header: 
  seq: 320919
  stamp: 
    secs: 1561864028
    nsecs: 968452213
  frame_id: "ti_mmwave"
point_id: 7
x: 0.568359375
y: -0.04296875
z: -1.26953125
range: 1.48161697388
velocity: 0.0
doppler_bin: 8
bearing: -4.32341527939
intensity: 21.7026176453
---
header: 
  seq: 320920
  stamp: 
    secs: 1561864028
    nsecs: 968460382
  frame_id: "ti_mmwave"
point_id: 8
x: 2.6015625
y: -0.17578125
z: 1.080078125
range: 3.00681090355
velocity: 0.0
doppler_bin: 8
bearing: -3.86546111107
intensity: 29.0254669189
---
header: 
  seq: 320921
  stamp: 
    secs: 1561864028
    nsecs: 968472665
  frame_id: "ti_mmwave"
point_id: 9
x: 2.654296875
y: -0.1796875
z: 1.060546875
range: 3.05038785934
velocity: 0.0
doppler_bin: 8
bearing: -3.87283420563
intensity: 32.2530937195
---
header: 
  seq: 320922
  stamp: 
    secs: 1561864028
    nsecs: 968634885
  frame_id: "ti_mmwave"
point_id: 10
x: 2.744140625
y: -0.08984375
z: 0.947265625
range: 3.09396481514
velocity: 0.0
doppler_bin: 8
bearing: -1.87520623207
intensity: 31.2417812347
---
header: 
  seq: 320923
  stamp: 
    secs: 1561864028
    nsecs: 968664647
  frame_id: "ti_mmwave"
point_id: 11
x: 4.41015625
y: -0.142578125
z: 1.236328125
range: 4.88062095642
velocity: 0.0
doppler_bin: 8
bearing: -1.85169863701
intensity: 31.430147171
---
header: 
  seq: 320924
  stamp: 
    secs: 1561864028
    nsecs: 968675307
  frame_id: "ti_mmwave"
point_id: 12
x: 4.439453125
y: -0.14453125
z: 1.27734375
range: 4.9241976738
velocity: 0.0
doppler_bin: 8
bearing: -1.86466813087
intensity: 31.2968997955
---
header: 
  seq: 320925
  stamp: 
    secs: 1561864028
    nsecs: 968697915
  frame_id: "ti_mmwave"
point_id: 13
x: 4.73828125
y: -0.298828125
z: -0.60546875
range: 5.09850549698
velocity: 0.0
doppler_bin: 8
bearing: -3.60868048668
intensity: 33.3324584961
---
header: 
  seq: 320926
  stamp: 
    secs: 1561864028
    nsecs: 968706915
  frame_id: "ti_mmwave"
point_id: 14
x: 4.775390625
y: -0.30078125
z: -0.640625
range: 5.14208269119
velocity: 0.0
doppler_bin: 8
bearing: -3.60405302048
intensity: 33.988079071
---
header: 
  seq: 320927
  stamp: 
    secs: 1561864028
    nsecs: 968720492
  frame_id: "ti_mmwave"
point_id: 15
x: 4.80078125
y: -0.15234375
z: -0.787109375
range: 5.18565940857
velocity: 0.0
doppler_bin: 8
bearing: -1.81756365299
intensity: 30.588054657
---
header: 
  seq: 320928
  stamp: 
    secs: 1561864028
    nsecs: 968728939
  frame_id: "ti_mmwave"
point_id: 16
x: 4.845703125
y: -0.306640625
z: 0.724609375
range: 5.22923660278
velocity: 0.0
doppler_bin: 8
bearing: -3.62090229988
intensity: 28.9431610107
---
header: 
  seq: 320929
  stamp: 
    secs: 1561864028
    nsecs: 968800289
  frame_id: "ti_mmwave"
point_id: 17
x: 4.892578125
y: -0.30859375
z: 0.681640625
range: 5.27281332016
velocity: 0.0
doppler_bin: 8
bearing: -3.60908436775
intensity: 31.1159858704
---
header: 
  seq: 320930
  stamp: 
    secs: 1561864028
    nsecs: 968818678
  frame_id: "ti_mmwave"
point_id: 18
x: 4.951171875
y: -0.623046875
z: 0.083984375
range: 5.31639051437
velocity: 0.0
doppler_bin: 8
bearing: -7.17230129242
intensity: 29.8721923828
---
header: 
  seq: 320931
  stamp: 
    secs: 1561864028
    nsecs: 968833044
  frame_id: "ti_mmwave"
point_id: 19
x: 0.01171875
y: 0.03125
z: 0.025390625
range: 0.0435769706964
velocity: 0.0
doppler_bin: 8
bearing: 69.4439544678
intensity: 29.3951931
---
header: 
  seq: 320932
  stamp: 
    secs: 1561864028
    nsecs: 968845520
  frame_id: "ti_mmwave"
point_id: 20
x: 0.041015625
y: -0.033203125
z: 0.0625
range: 0.0871539413929
velocity: 0.0
doppler_bin: 8
bearing: -38.9909973145
intensity: 30.141002655
---
header: 
  seq: 320933
  stamp: 
    secs: 1561864028
    nsecs: 968852826
  frame_id: "ti_mmwave"
point_id: 21
x: 0.052734375
y: -0.04296875
z: 0.103515625
range: 0.130730912089
velocity: 0.0
doppler_bin: 8
bearing: -39.1736602783
intensity: 29.0036716461
---
header: 
  seq: 320934
  stamp: 
    secs: 1561864028
    nsecs: 969758223
  frame_id: "ti_mmwave"
point_id: 0
x: 0.01171875
y: -0.0390625
z: -0.0078125
range: 0.0435769706964
velocity: 0.0
doppler_bin: 8
bearing: -73.3007583618
intensity: 30.7445068359
---
header: 
  seq: 320935
  stamp: 
    secs: 1561864028
    nsecs: 969804170
  frame_id: "ti_mmwave"
point_id: 1
x: 0.017578125
y: -0.080078125
z: -0.009765625
range: 0.0871539413929
velocity: 0.0
doppler_bin: 8
bearing: -77.6192398071
intensity: 31.9810695648
---
header: 
  seq: 320936
  stamp: 
    secs: 1561864028
    nsecs: 969823735
  frame_id: "ti_mmwave"
point_id: 2
x: 0.029296875
y: -0.119140625
z: -0.005859375
range: 0.130730912089
velocity: 0.0
doppler_bin: 8
bearing: -76.1849746704
intensity: 30.2407493591
---
header: 
  seq: 320937
  stamp: 
    secs: 1561864028
    nsecs: 969839010
  frame_id: "ti_mmwave"
point_id: 3
x: 0.056640625
y: -0.154296875
z: 0.005859375
range: 0.174307882786
velocity: 0.0
doppler_bin: 8
bearing: -69.8423843384
intensity: 25.490032196
---
header: 
  seq: 320938
  stamp: 
    secs: 1561864028
    nsecs: 969860867
  frame_id: "ti_mmwave"
point_id: 4
x: 0.158203125
y: -0.080078125
z: 1.255859375
range: 1.35088610649
velocity: 0.0
doppler_bin: 8
bearing: -26.8472938538
intensity: 23.1597042084
---
header: 
  seq: 320939
  stamp: 
    secs: 1561864028
    nsecs: 969887118
  frame_id: "ti_mmwave"
point_id: 6
x: 0.419921875
y: -0.083984375
z: -1.279296875
range: 1.43804001808
velocity: 0.0
doppler_bin: 8
bearing: -11.3099327087
intensity: 23.0102996826
---
header: 
  seq: 320940
  stamp: 
    secs: 1561864028
    nsecs: 969902819
  frame_id: "ti_mmwave"
point_id: 7
x: 0.560546875
y: -0.04296875
z: -1.2734375
range: 1.48161697388
velocity: 0.0
doppler_bin: 8
bearing: -4.38343858719
intensity: 21.6435279846
---
header: 
  seq: 320941
  stamp: 
    secs: 1561864028
    nsecs: 969964039
  frame_id: "ti_mmwave"
point_id: 8
x: 2.640625
y: -0.17578125
z: 0.978515625
range: 3.00681090355
velocity: 0.0
doppler_bin: 8
bearing: -3.80844950676
intensity: 28.9376182556
---
header: 
  seq: 320942
  stamp: 
    secs: 1561864028
    nsecs: 969975303
  frame_id: "ti_mmwave"
point_id: 9
x: 2.6640625
y: -0.1796875
z: 1.03125
range: 3.05038785934
velocity: 0.0
doppler_bin: 8
bearing: -3.85868024826
intensity: 32.24792099
---
header: 
  seq: 320943
  stamp: 
    secs: 1561864028
    nsecs: 969991235
  frame_id: "ti_mmwave"
point_id: 10
x: 2.76953125
y: -0.08984375
z: 0.873046875
range: 3.09396481514
velocity: 0.0
doppler_bin: 8
bearing: -1.85802662373
intensity: 31.2904510498
---
header: 
  seq: 320944
  stamp: 
    secs: 1561864028
    nsecs: 970003811
  frame_id: "ti_mmwave"
point_id: 11
x: 4.408203125
y: -0.142578125
z: 1.23828125
range: 4.88062095642
velocity: 0.0
doppler_bin: 8
bearing: -1.85251843929
intensity: 31.4332714081
---
header: 
  seq: 320945
  stamp: 
    secs: 1561864028
    nsecs: 970017113
  frame_id: "ti_mmwave"
point_id: 12
x: 4.435546875
y: -0.14453125
z: 1.294921875
range: 4.9241976738
velocity: 0.0
doppler_bin: 8
bearing: -1.86630904675
intensity: 31.2904510498
---
header: 
  seq: 320946
  stamp: 
    secs: 1561864028
    nsecs: 970029414
  frame_id: "ti_mmwave"
point_id: 13
x: 4.7421875
y: -0.298828125
z: -0.568359375
range: 5.09850549698
velocity: 0.0
doppler_bin: 8
bearing: -3.60571622849
intensity: 33.2756309509
---
header: 
  seq: 320947
  stamp: 
    secs: 1561864028
    nsecs: 970059780
  frame_id: "ti_mmwave"
point_id: 14
x: 4.779296875
y: -0.30078125
z: -0.609375
range: 5.14208269119
velocity: 0.0
doppler_bin: 8
bearing: -3.60111522675
intensity: 34.0053787231
---
header: 
  seq: 320948
  stamp: 
    secs: 1561864028
    nsecs: 970074814
  frame_id: "ti_mmwave"
point_id: 15
x: 4.8125
y: -0.15234375
z: -0.72265625
range: 5.18565940857
velocity: 0.0
doppler_bin: 8
bearing: -1.81314074993
intensity: 30.8671569824
---
header: 
  seq: 320949
  stamp: 
    secs: 1561864028
    nsecs: 970087481
  frame_id: "ti_mmwave"
point_id: 16
x: 4.876953125
y: -0.30859375
z: 0.78125
range: 5.27281332016
velocity: 0.0
doppler_bin: 8
bearing: -3.62061715126
intensity: 31.0243377686
---
header: 
  seq: 320950
  stamp: 
    secs: 1561864028
    nsecs: 970112170
  frame_id: "ti_mmwave"
point_id: 17
x: 4.94921875
y: -0.623046875
z: 0.16015625
range: 5.31639051437
velocity: 0.0
doppler_bin: 8
bearing: -7.17510271072
intensity: 29.8317508698
---
header: 
  seq: 320951
  stamp: 
    secs: 1561864028
    nsecs: 970161613
  frame_id: "ti_mmwave"
point_id: 18
x: 0.01171875
y: 0.03125
z: 0.025390625
range: 0.0435769706964
velocity: 0.0
doppler_bin: 8
bearing: 69.4439544678
intensity: 29.3951931
---
header: 
  seq: 320952
  stamp: 
    secs: 1561864028
    nsecs: 970170856
  frame_id: "ti_mmwave"
point_id: 19
x: 0.041015625
y: -0.033203125
z: 0.0625
range: 0.0871539413929
velocity: 0.0
doppler_bin: 8
bearing: -38.9909973145
intensity: 30.141002655
---
