header: 
  seq: 384452
  stamp: 
    secs: 1561864125
    nsecs:  88135957
  frame_id: "ti_mmwave"
point_id: 0
x: 0.01171875
y: -0.0390625
z: -0.0078125
range: 0.0435769706964
velocity: 0.0
doppler_bin: 8
bearing: -73.3007583618
intensity: 30.7261753082
---
header: 
  seq: 384453
  stamp: 
    secs: 1561864125
    nsecs:  88198205
  frame_id: "ti_mmwave"
point_id: 1
x: 0.017578125
y: -0.080078125
z: -0.0078125
range: 0.0871539413929
velocity: 0.0
doppler_bin: 8
bearing: -77.6192398071
intensity: 31.9506893158
---
header: 
  seq: 384454
  stamp: 
    secs: 1561864125
    nsecs:  88209489
  frame_id: "ti_mmwave"
point_id: 2
x: 0.029296875
y: -0.119140625
z: -0.005859375
range: 0.130730912089
velocity: 0.0
doppler_bin: 8
bearing: -76.1849746704
intensity: 30.2118930817
---
header: 
  seq: 384455
  stamp: 
    secs: 1561864125
    nsecs:  88216895
  frame_id: "ti_mmwave"
point_id: 3
x: 0.056640625
y: -0.154296875
z: 0.005859375
range: 0.174307882786
velocity: 0.0
doppler_bin: 8
bearing: -69.8423843384
intensity: 25.4654273987
---
header: 
  seq: 384456
  stamp: 
    secs: 1561864125
    nsecs:  88224467
  frame_id: "ti_mmwave"
point_id: 4
x: 0.125
y: -0.080078125
z: 1.259765625
range: 1.35088610649
velocity: 0.0
doppler_bin: 8
bearing: -32.6446380615
intensity: 23.0749607086
---
header: 
  seq: 384457
  stamp: 
    secs: 1561864125
    nsecs:  88234981
  frame_id: "ti_mmwave"
point_id: 6
x: 0.423828125
y: -0.083984375
z: -1.279296875
range: 1.43804001808
velocity: 0.0
doppler_bin: 8
bearing: -11.2083444595
intensity: 22.9666519165
---
header: 
  seq: 384458
  stamp: 
    secs: 1561864125
    nsecs:  88242220
  frame_id: "ti_mmwave"
point_id: 7
x: 2.654296875
y: -0.1796875
z: 1.05859375
range: 3.05038785934
velocity: 0.0
doppler_bin: 8
bearing: -3.87283420563
intensity: 32.1984634399
---
header: 
  seq: 384459
  stamp: 
    secs: 1561864125
    nsecs:  88249110
  frame_id: "ti_mmwave"
point_id: 8
x: 2.751953125
y: -0.08984375
z: 0.92578125
range: 3.09396481514
velocity: 0.0
doppler_bin: 8
bearing: -1.86988639832
intensity: 31.2188796997
---
header: 
  seq: 384460
  stamp: 
    secs: 1561864125
    nsecs:  88256182
  frame_id: "ti_mmwave"
point_id: 9
x: 4.41015625
y: -0.142578125
z: 1.0703125
range: 4.83704376221
velocity: 0.0
doppler_bin: 8
bearing: -1.85169863701
intensity: 28.1756534576
---
header: 
  seq: 384461
  stamp: 
    secs: 1561864125
    nsecs:  88263360
  frame_id: "ti_mmwave"
point_id: 10
x: 4.408203125
y: -0.142578125
z: 1.2421875
range: 4.88062095642
velocity: 0.0
doppler_bin: 8
bearing: -1.85251843929
intensity: 31.4363918304
---
header: 
  seq: 384462
  stamp: 
    secs: 1561864125
    nsecs:  88271265
  frame_id: "ti_mmwave"
point_id: 11
x: 4.4375
y: -0.14453125
z: 1.283203125
range: 4.9241976738
velocity: 0.0
doppler_bin: 8
bearing: -1.86548817158
intensity: 31.0311927795
---
header: 
  seq: 384463
  stamp: 
    secs: 1561864125
    nsecs:  88280776
  frame_id: "ti_mmwave"
point_id: 12
x: 4.88671875
y: -0.30859375
z: 0.728515625
range: 5.27281332016
velocity: 0.0
doppler_bin: 8
bearing: -3.61340069771
intensity: 30.8884449005
---
header: 
  seq: 384464
  stamp: 
    secs: 1561864125
    nsecs:  88289633
  frame_id: "ti_mmwave"
point_id: 13
x: 4.951171875
y: -0.623046875
z: 0.056640625
range: 5.31639051437
velocity: 0.0
doppler_bin: 8
bearing: -7.17230129242
intensity: 29.5712814331
---
header: 
  seq: 384465
  stamp: 
    secs: 1561864125
    nsecs:  88297187
  frame_id: "ti_mmwave"
point_id: 14
x: 2.3828125
y: -0.0
z: -0.5859375
range: 2.61461830139
velocity: -0.614668667316
doppler_bin: 7
bearing: -0.0
intensity: 26.2531242371
---
header: 
  seq: 384466
  stamp: 
    secs: 1561864125
    nsecs:  88305073
  frame_id: "ti_mmwave"
point_id: 15
x: 2.427734375
y: -0.078125
z: -0.568359375
range: 2.65819525719
velocity: -0.614668667316
doppler_bin: 7
bearing: -1.84315407276
intensity: 26.294095993
---
header: 
  seq: 384467
  stamp: 
    secs: 1561864125
    nsecs:  88312425
  frame_id: "ti_mmwave"
point_id: 16
x: 0.01171875
y: 0.03125
z: 0.025390625
range: 0.0435769706964
velocity: 0.0
doppler_bin: 8
bearing: 69.4439544678
intensity: 29.3701610565
---
header: 
  seq: 384468
  stamp: 
    secs: 1561864125
    nsecs:  88319761
  frame_id: "ti_mmwave"
point_id: 17
x: 0.041015625
y: -0.033203125
z: 0.0625
range: 0.0871539413929
velocity: 0.0
doppler_bin: 8
bearing: -38.9909973145
intensity: 30.1199302673
---
header: 
  seq: 384469
  stamp: 
    secs: 1561864125
    nsecs:  88327031
  frame_id: "ti_mmwave"
point_id: 18
x: 0.052734375
y: -0.04296875
z: 0.103515625
range: 0.130730912089
velocity: 0.0
doppler_bin: 8
bearing: -39.1736602783
intensity: 28.9872512817
---
header: 
  seq: 384470
  stamp: 
    secs: 1561864125
    nsecs:  89238938
  frame_id: "ti_mmwave"
point_id: 0
x: 0.01171875
y: -0.0390625
z: -0.0078125
range: 0.0435769706964
velocity: 0.0
doppler_bin: 8
bearing: -73.3007583618
intensity: 30.7298469543
---
header: 
  seq: 384471
  stamp: 
    secs: 1561864125
    nsecs:  89290080
  frame_id: "ti_mmwave"
point_id: 1
x: 0.017578125
y: -0.080078125
z: -0.009765625
range: 0.0871539413929
velocity: 0.0
doppler_bin: 8
bearing: -77.6192398071
intensity: 31.9589958191
---
header: 
  seq: 384472
  stamp: 
    secs: 1561864125
    nsecs:  89304531
  frame_id: "ti_mmwave"
point_id: 2
x: 0.029296875
y: -0.119140625
z: -0.005859375
range: 0.130730912089
velocity: 0.0
doppler_bin: 8
bearing: -76.1849746704
intensity: 30.2201576233
---
header: 
  seq: 384473
  stamp: 
    secs: 1561864125
    nsecs:  89316502
  frame_id: "ti_mmwave"
point_id: 3
x: 0.056640625
y: -0.154296875
z: 0.005859375
range: 0.174307882786
velocity: 0.0
doppler_bin: 8
bearing: -69.8423843384
intensity: 25.490032196
---
header: 
  seq: 384474
  stamp: 
    secs: 1561864125
    nsecs:  89328127
  frame_id: "ti_mmwave"
point_id: 4
x: 0.095703125
y: -0.080078125
z: 1.26171875
range: 1.35088610649
velocity: 0.0
doppler_bin: 8
bearing: -39.9203910828
intensity: 23.1175384521
---
header: 
  seq: 384475
  stamp: 
    secs: 1561864125
    nsecs:  89342241
  frame_id: "ti_mmwave"
point_id: 5
x: 0.046875
y: -0.08203125
z: -1.3046875
range: 1.39446306229
velocity: 0.0
doppler_bin: 8
bearing: -60.255115509
intensity: 24.5939254761
---
header: 
  seq: 384476
  stamp: 
    secs: 1561864125
    nsecs:  89354320
  frame_id: "ti_mmwave"
point_id: 6
x: 0.447265625
y: -0.083984375
z: -1.271484375
range: 1.43804001808
velocity: 0.0
doppler_bin: 8
bearing: -10.6347608566
intensity: 22.9885311127
---
header: 
  seq: 384477
  stamp: 
    secs: 1561864125
    nsecs:  89415246
  frame_id: "ti_mmwave"
point_id: 7
x: 0.576171875
y: -0.04296875
z: -1.265625
range: 1.48161697388
velocity: 0.0
doppler_bin: 8
bearing: -4.2650103569
intensity: 21.5836257935
---
header: 
  seq: 384478
  stamp: 
    secs: 1561864125
    nsecs:  89427349
  frame_id: "ti_mmwave"
point_id: 8
x: 2.6015625
y: -0.17578125
z: 1.078125
range: 3.00681090355
velocity: 0.0
doppler_bin: 8
bearing: -3.86546111107
intensity: 28.9431610107
---
header: 
  seq: 384479
  stamp: 
    secs: 1561864125
    nsecs:  89437658
  frame_id: "ti_mmwave"
point_id: 9
x: 2.6484375
y: -0.1796875
z: 1.072265625
range: 3.05038785934
velocity: 0.0
doppler_bin: 8
bearing: -3.88137626648
intensity: 32.1879806519
---
header: 
  seq: 384480
  stamp: 
    secs: 1561864125
    nsecs:  89447620
  frame_id: "ti_mmwave"
point_id: 10
x: 2.744140625
y: -0.08984375
z: 0.947265625
range: 3.09396481514
velocity: 0.0
doppler_bin: 8
bearing: -1.87520623207
intensity: 31.1561050415
---
header: 
  seq: 384481
  stamp: 
    secs: 1561864125
    nsecs:  89457663
  frame_id: "ti_mmwave"
point_id: 11
x: 4.4140625
y: -0.142578125
z: 1.052734375
range: 4.83704376221
velocity: 0.0
doppler_bin: 8
bearing: -1.850061059
intensity: 28.2151355743
---
header: 
  seq: 384482
  stamp: 
    secs: 1561864125
    nsecs:  89467920
  frame_id: "ti_mmwave"
point_id: 12
x: 4.416015625
y: -0.142578125
z: 1.208984375
range: 4.88062095642
velocity: 0.0
doppler_bin: 8
bearing: -1.84924340248
intensity: 31.4488544464
---
header: 
  seq: 384483
  stamp: 
    secs: 1561864125
    nsecs:  89478432
  frame_id: "ti_mmwave"
point_id: 13
x: 4.443359375
y: -0.14453125
z: 1.263671875
range: 4.9241976738
velocity: 0.0
doppler_bin: 8
bearing: -1.86303019524
intensity: 30.9516925812
---
header: 
  seq: 384484
  stamp: 
    secs: 1561864125
    nsecs:  89491457
  frame_id: "ti_mmwave"
point_id: 14
x: 4.890625
y: -0.30859375
z: 0.69921875
range: 5.27281332016
velocity: 0.0
doppler_bin: 8
bearing: -3.61052203178
intensity: 30.9447116852
---
header: 
  seq: 384485
  stamp: 
    secs: 1561864125
    nsecs:  89503557
  frame_id: "ti_mmwave"
point_id: 15
x: 4.951171875
y: -0.623046875
z: 0.013671875
range: 5.31639051437
velocity: 0.0
doppler_bin: 8
bearing: -7.17230129242
intensity: 29.6047077179
---
header: 
  seq: 384486
  stamp: 
    secs: 1561864125
    nsecs:  89531823
  frame_id: "ti_mmwave"
point_id: 16
x: 0.01171875
y: 0.03125
z: 0.025390625
range: 0.0435769706964
velocity: 0.0
doppler_bin: 8
bearing: 69.4439544678
intensity: 29.3751792908
---
header: 
  seq: 384487
  stamp: 
    secs: 1561864125
    nsecs:  89552515
  frame_id: "ti_mmwave"
point_id: 17
x: 0.041015625
y: -0.033203125
z: 0.0625
range: 0.0871539413929
velocity: 0.0
doppler_bin: 8
bearing: -38.9909973145
intensity: 30.1199302673
---
header: 
  seq: 384488
  stamp: 
    secs: 1561864125
    nsecs:  89633801
  frame_id: "ti_mmwave"
point_id: 18
x: 0.052734375
y: -0.04296875
z: 0.103515625
range: 0.130730912089
velocity: 0.0
doppler_bin: 8
bearing: -39.1736602783
intensity: 28.9927310944
---
header: 
  seq: 384489
  stamp: 
    secs: 1561864125
    nsecs: 148222131
  frame_id: "ti_mmwave"
point_id: 0
x: 0.01171875
y: -0.0390625
z: -0.0078125
range: 0.0435769706964
velocity: 0.0
doppler_bin: 8
bearing: -73.3007583618
intensity: 30.7224998474
---
header: 
  seq: 384490
  stamp: 
    secs: 1561864125
    nsecs: 148319662
  frame_id: "ti_mmwave"
point_id: 1
x: 0.017578125
y: -0.080078125
z: -0.0078125
range: 0.0871539413929
velocity: 0.0
doppler_bin: 8
bearing: -77.6192398071
intensity: 31.9534606934
---
header: 
  seq: 384491
  stamp: 
    secs: 1561864125
    nsecs: 148333004
  frame_id: "ti_mmwave"
point_id: 2
x: 0.029296875
y: -0.119140625
z: -0.005859375
range: 0.130730912089
velocity: 0.0
doppler_bin: 8
bearing: -76.1849746704
intensity: 30.2118930817
---
header: 
  seq: 384492
  stamp: 
    secs: 1561864125
    nsecs: 148341464
  frame_id: "ti_mmwave"
point_id: 3
x: 0.056640625
y: -0.154296875
z: 0.005859375
range: 0.174307882786
velocity: 0.0
doppler_bin: 8
bearing: -69.8423843384
intensity: 25.4654273987
---
header: 
  seq: 384493
  stamp: 
    secs: 1561864125
    nsecs: 148352037
  frame_id: "ti_mmwave"
point_id: 4
x: 0.046875
y: -0.080078125
z: 1.265625
range: 1.35088610649
velocity: 0.0
doppler_bin: 8
bearing: -59.6567497253
intensity: 23.0963020325
---
header: 
  seq: 384494
  stamp: 
    secs: 1561864125
    nsecs: 148360433
  frame_id: "ti_mmwave"
point_id: 5
x: 0.0625
y: -0.08203125
z: -1.3046875
range: 1.39446306229
velocity: 0.0
doppler_bin: 8
bearing: -52.6960487366
intensity: 24.5788192749
---
header: 
  seq: 384495
  stamp: 
    secs: 1561864125
    nsecs: 148369094
  frame_id: "ti_mmwave"
point_id: 6
x: 0.451171875
y: -0.083984375
z: -1.26953125
range: 1.43804001808
velocity: 0.0
doppler_bin: 8
bearing: -10.5447587967
intensity: 22.9885311127
---
header: 
  seq: 384496
  stamp: 
    secs: 1561864125
    nsecs: 148376923
  frame_id: "ti_mmwave"
point_id: 7
x: 2.658203125
y: -0.1796875
z: 1.048828125
range: 3.05038785934
velocity: 0.0
doppler_bin: 8
bearing: -3.86716008186
intensity: 32.1984634399
---
header: 
  seq: 384497
  stamp: 
    secs: 1561864125
    nsecs: 148388117
  frame_id: "ti_mmwave"
point_id: 8
x: 2.76171875
y: -0.08984375
z: 0.896484375
range: 3.09396481514
velocity: 0.0
doppler_bin: 8
bearing: -1.86327898502
intensity: 31.209028244
---
header: 
  seq: 384498
  stamp: 
    secs: 1561864125
    nsecs: 148396146
  frame_id: "ti_mmwave"
point_id: 9
x: 4.4140625
y: -0.142578125
z: 1.220703125
range: 4.88062095642
velocity: 0.0
doppler_bin: 8
bearing: -1.850061059
intensity: 31.3097667694
---
header: 
  seq: 384499
  stamp: 
    secs: 1561864125
    nsecs: 148404267
  frame_id: "ti_mmwave"
point_id: 10
x: 4.435546875
y: -0.14453125
z: 1.291015625
range: 4.9241976738
velocity: 0.0
doppler_bin: 8
bearing: -1.86630904675
intensity: 30.7077655792
---
header: 
  seq: 384500
  stamp: 
    secs: 1561864125
    nsecs: 148412772
  frame_id: "ti_mmwave"
point_id: 11
x: 4.884765625
y: -0.30859375
z: 0.73828125
range: 5.27281332016
velocity: 0.0
doppler_bin: 8
bearing: -3.6148416996
intensity: 30.8386077881
---
header: 
  seq: 384501
  stamp: 
    secs: 1561864125
    nsecs: 148424279
  frame_id: "ti_mmwave"
point_id: 12
x: 4.951171875
y: -0.623046875
z: 0.072265625
range: 5.31639051437
velocity: 0.0
doppler_bin: 8
bearing: -7.17230129242
intensity: 29.5664863586
---
header: 
  seq: 384502
  stamp: 
    secs: 1561864125
    nsecs: 148435506
  frame_id: "ti_mmwave"
point_id: 13
x: 2.419921875
y: -0.0
z: -0.404296875
range: 2.61461830139
velocity: -0.614668667316
doppler_bin: 7
bearing: -0.0
intensity: 26.4048137665
---
header: 
  seq: 384503
  stamp: 
    secs: 1561864125
    nsecs: 148625675
  frame_id: "ti_mmwave"
point_id: 14
x: 0.01171875
y: 0.03125
z: 0.025390625
range: 0.0435769706964
velocity: 0.0
doppler_bin: 8
bearing: 69.4439544678
intensity: 29.3701610565
---
header: 
  seq: 384504
  stamp: 
    secs: 1561864125
    nsecs: 148649250
  frame_id: "ti_mmwave"
point_id: 15
x: 0.041015625
y: -0.033203125
z: 0.0625
range: 0.0871539413929
velocity: 0.0
doppler_bin: 8
bearing: -38.9909973145
intensity: 30.1199302673
---
header: 
  seq: 384505
  stamp: 
    secs: 1561864125
    nsecs: 148658124
  frame_id: "ti_mmwave"
point_id: 16
x: 0.052734375
y: -0.04296875
z: 0.1015625
range: 0.130730912089
velocity: 0.0
doppler_bin: 8
bearing: -39.1736602783
intensity: 28.9872512817
---
header: 
  seq: 384506
  stamp: 
    secs: 1561864125
    nsecs: 149632787
  frame_id: "ti_mmwave"
point_id: 0
x: 0.01171875
y: -0.0390625
z: -0.0078125
range: 0.0435769706964
velocity: 0.0
doppler_bin: 8
bearing: -73.3007583618
intensity: 30.7261753082
---
header: 
  seq: 384507
  stamp: 
    secs: 1561864125
    nsecs: 149676767
  frame_id: "ti_mmwave"
point_id: 1
x: 0.017578125
y: -0.080078125
z: -0.0078125
range: 0.0871539413929
velocity: 0.0
doppler_bin: 8
bearing: -77.6192398071
intensity: 31.9534606934
---
header: 
  seq: 384508
  stamp: 
    secs: 1561864125
    nsecs: 149691605
  frame_id: "ti_mmwave"
point_id: 2
x: 0.029296875
y: -0.119140625
z: -0.005859375
range: 0.130730912089
velocity: 0.0
doppler_bin: 8
bearing: -76.1849746704
intensity: 30.2160263062
---
header: 
  seq: 384509
  stamp: 
    secs: 1561864125
    nsecs: 149705851
  frame_id: "ti_mmwave"
point_id: 3
x: 0.056640625
y: -0.154296875
z: 0.005859375
range: 0.174307882786
velocity: 0.0
doppler_bin: 8
bearing: -69.8423843384
intensity: 25.490032196
---
header: 
  seq: 384510
  stamp: 
    secs: 1561864125
    nsecs: 149762757
  frame_id: "ti_mmwave"
point_id: 4
x: 0.09375
y: -0.080078125
z: 1.26171875
range: 1.35088610649
velocity: 0.0
doppler_bin: 8
bearing: -40.5028457642
intensity: 23.0963020325
---
header: 
  seq: 384511
  stamp: 
    secs: 1561864125
    nsecs: 149775650
  frame_id: "ti_mmwave"
point_id: 5
x: 0.046875
y: -0.08203125
z: -1.3046875
range: 1.39446306229
velocity: 0.0
doppler_bin: 8
bearing: -60.255115509
intensity: 24.5788192749
---
header: 
  seq: 384512
  stamp: 
    secs: 1561864125
    nsecs: 149786912
  frame_id: "ti_mmwave"
point_id: 6
x: 0.43359375
y: -0.083984375
z: -1.275390625
range: 1.43804001808
velocity: 0.0
doppler_bin: 8
bearing: -10.9620876312
intensity: 22.9885311127
---
header: 
  seq: 384513
  stamp: 
    secs: 1561864125
    nsecs: 149797897
  frame_id: "ti_mmwave"
point_id: 7
x: 0.55078125
y: -0.04296875
z: -1.27734375
range: 1.48161697388
velocity: 0.0
doppler_bin: 8
bearing: -4.46084880829
intensity: 21.6136798859
---
header: 
  seq: 384514
  stamp: 
    secs: 1561864125
    nsecs: 149810245
  frame_id: "ti_mmwave"
point_id: 8
x: 2.6640625
y: -0.1796875
z: 1.037109375
range: 3.05038785934
velocity: 0.0
doppler_bin: 8
bearing: -3.85868024826
intensity: 32.2193565369
---
header: 
  seq: 384515
  stamp: 
    secs: 1561864125
    nsecs: 149820683
  frame_id: "ti_mmwave"
point_id: 9
x: 2.763671875
y: -0.08984375
z: 0.888671875
range: 3.09396481514
velocity: 0.0
doppler_bin: 8
bearing: -1.8619633913
intensity: 31.2710475922
---
header: 
  seq: 384516
  stamp: 
    secs: 1561864125
    nsecs: 149833738
  frame_id: "ti_mmwave"
point_id: 10
x: 4.3984375
y: -0.142578125
z: 1.119140625
range: 4.83704376221
velocity: 0.0
doppler_bin: 8
bearing: -1.8566287756
intensity: 28.0550079346
---
header: 
  seq: 384517
  stamp: 
    secs: 1561864125
    nsecs: 149851256
  frame_id: "ti_mmwave"
point_id: 11
x: 4.41015625
y: -0.142578125
z: 1.232421875
range: 4.88062095642
velocity: 0.0
doppler_bin: 8
bearing: -1.85169863701
intensity: 31.3576850891
---
header: 
  seq: 384518
  stamp: 
    secs: 1561864125
    nsecs: 149895037
  frame_id: "ti_mmwave"
point_id: 12
x: 4.439453125
y: -0.14453125
z: 1.28125
range: 4.9241976738
velocity: 0.0
doppler_bin: 8
bearing: -1.86466813087
intensity: 30.7918128967
---
header: 
  seq: 384519
  stamp: 
    secs: 1561864125
    nsecs: 149910137
  frame_id: "ti_mmwave"
point_id: 13
x: 4.70703125
y: -0.44921875
z: -0.736328125
range: 5.09850549698
velocity: 0.0
doppler_bin: 8
bearing: -5.45155143738
intensity: 30.7990455627
---
header: 
  seq: 384520
  stamp: 
    secs: 1561864125
    nsecs: 149923953
  frame_id: "ti_mmwave"
point_id: 14
x: 4.740234375
y: -0.30078125
z: -0.857421875
range: 5.14208269119
velocity: 0.0
doppler_bin: 8
bearing: -3.6307117939
intensity: 31.4643821716
---
header: 
  seq: 384521
  stamp: 
    secs: 1561864125
    nsecs: 149935017
  frame_id: "ti_mmwave"
point_id: 15
x: 4.884765625
y: -0.30859375
z: 0.73046875
range: 5.27281332016
velocity: 0.0
doppler_bin: 8
bearing: -3.6148416996
intensity: 30.9482040405
---
header: 
  seq: 384522
  stamp: 
    secs: 1561864125
    nsecs: 149947679
  frame_id: "ti_mmwave"
point_id: 16
x: 4.951171875
y: -0.623046875
z: 0.033203125
range: 5.31639051437
velocity: 0.0
doppler_bin: 8
bearing: -7.17230129242
intensity: 29.6567192078
---
header: 
  seq: 384523
  stamp: 
    secs: 1561864125
    nsecs: 149960317
  frame_id: "ti_mmwave"
point_id: 17
x: 0.01171875
y: 0.03125
z: 0.025390625
range: 0.0435769706964
velocity: 0.0
doppler_bin: 8
bearing: 69.4439544678
intensity: 29.3701610565
---
header: 
  seq: 384524
  stamp: 
    secs: 1561864125
    nsecs: 149972714
  frame_id: "ti_mmwave"
point_id: 18
x: 0.041015625
y: -0.033203125
z: 0.0625
range: 0.0871539413929
velocity: 0.0
doppler_bin: 8
bearing: -38.9909973145
intensity: 30.1199302673
---
header: 
  seq: 384525
  stamp: 
    secs: 1561864125
    nsecs: 149984021
  frame_id: "ti_mmwave"
point_id: 19
x: 0.052734375
y: -0.04296875
z: 0.1015625
range: 0.130730912089
velocity: 0.0
doppler_bin: 8
bearing: -39.1736602783
intensity: 28.9872512817
---
header: 
  seq: 384526
  stamp: 
    secs: 1561864125
    nsecs: 208222213
  frame_id: "ti_mmwave"
point_id: 0
x: 0.01171875
y: -0.0390625
z: -0.0078125
range: 0.0435769706964
velocity: 0.0
doppler_bin: 8
bearing: -73.3007583618
intensity: 30.7298469543
---
header: 
  seq: 384527
  stamp: 
    secs: 1561864125
    nsecs: 208288027
  frame_id: "ti_mmwave"
point_id: 1
x: 0.017578125
y: -0.080078125
z: -0.009765625
range: 0.0871539413929
velocity: 0.0
doppler_bin: 8
bearing: -77.6192398071
intensity: 31.9534606934
---
header: 
  seq: 384528
  stamp: 
    secs: 1561864125
    nsecs: 208303751
  frame_id: "ti_mmwave"
point_id: 2
x: 0.029296875
y: -0.119140625
z: -0.005859375
range: 0.130730912089
velocity: 0.0
doppler_bin: 8
bearing: -76.1849746704
intensity: 30.2118930817
---
header: 
  seq: 384529
  stamp: 
    secs: 1561864125
    nsecs: 208316417
  frame_id: "ti_mmwave"
point_id: 3
x: 0.056640625
y: -0.154296875
z: 0.005859375
range: 0.174307882786
velocity: 0.0
doppler_bin: 8
bearing: -69.8423843384
intensity: 25.4777469635
---
header: 
  seq: 384530
  stamp: 
    secs: 1561864125
    nsecs: 208331449
  frame_id: "ti_mmwave"
point_id: 4
x: 0.146484375
y: -0.080078125
z: 1.2578125
range: 1.35088610649
velocity: 0.0
doppler_bin: 8
bearing: -28.6639575958
intensity: 23.1175384521
---
header: 
  seq: 384531
  stamp: 
    secs: 1561864125
    nsecs: 208401190
  frame_id: "ti_mmwave"
point_id: 6
x: 0.416015625
y: -0.083984375
z: -1.28125
range: 1.43804001808
velocity: 0.0
doppler_bin: 8
bearing: -11.4133548737
intensity: 22.9666519165
---
header: 
  seq: 384532
  stamp: 
    secs: 1561864125
    nsecs: 208414630
  frame_id: "ti_mmwave"
point_id: 7
x: 0.548828125
y: -0.04296875
z: -1.27734375
range: 1.48161697388
velocity: 0.0
doppler_bin: 8
bearing: -4.47665882111
intensity: 21.6136798859
---
header: 
  seq: 384533
  stamp: 
    secs: 1561864125
    nsecs: 208428292
  frame_id: "ti_mmwave"
point_id: 8
x: 2.65625
y: -0.1796875
z: 1.052734375
range: 3.05038785934
velocity: 0.0
doppler_bin: 8
bearing: -3.86999511719
intensity: 32.2115325928
---
header: 
  seq: 384534
  stamp: 
    secs: 1561864125
    nsecs: 208439235
  frame_id: "ti_mmwave"
point_id: 9
x: 2.7421875
y: -0.08984375
z: 0.953125
range: 3.09396481514
velocity: 0.0
doppler_bin: 8
bearing: -1.87654089928
intensity: 31.2024478912
---
header: 
  seq: 384535
  stamp: 
    secs: 1561864125
    nsecs: 208450880
  frame_id: "ti_mmwave"
point_id: 10
x: 4.412109375
y: -0.142578125
z: 1.060546875
range: 4.83704376221
velocity: 0.0
doppler_bin: 8
bearing: -1.85087943077
intensity: 27.9239177704
---
header: 
  seq: 384536
  stamp: 
    secs: 1561864125
    nsecs: 208461444
  frame_id: "ti_mmwave"
point_id: 11
x: 4.416015625
y: -0.142578125
z: 1.208984375
range: 4.88062095642
velocity: 0.0
doppler_bin: 8
bearing: -1.84924340248
intensity: 31.2710475922
---
header: 
  seq: 384537
  stamp: 
    secs: 1561864125
    nsecs: 208475697
  frame_id: "ti_mmwave"
point_id: 12
x: 4.44921875
y: -0.14453125
z: 1.24609375
range: 4.9241976738
velocity: 0.0
doppler_bin: 8
bearing: -1.86057829857
intensity: 30.7371826172
---
header: 
  seq: 384538
  stamp: 
    secs: 1561864125
    nsecs: 208489089
  frame_id: "ti_mmwave"
point_id: 13
x: 4.732421875
y: -0.298828125
z: -0.654296875
range: 5.09850549698
velocity: 0.0
doppler_bin: 8
bearing: -3.61313724518
intensity: 32.4353408813
---
header: 
  seq: 384539
  stamp: 
    secs: 1561864125
    nsecs: 208513101
  frame_id: "ti_mmwave"
point_id: 14
x: 4.763671875
y: -0.30078125
z: -0.72265625
range: 5.14208269119
velocity: 0.0
doppler_bin: 8
bearing: -3.61289548874
intensity: 32.9666519165
---
header: 
  seq: 384540
  stamp: 
    secs: 1561864125
    nsecs: 208575492
  frame_id: "ti_mmwave"
point_id: 15
x: 4.88671875
y: -0.30859375
z: 0.724609375
range: 5.27281332016
velocity: 0.0
doppler_bin: 8
bearing: -3.61340069771
intensity: 30.8990516663
---
header: 
  seq: 384541
  stamp: 
    secs: 1561864125
    nsecs: 208592144
  frame_id: "ti_mmwave"
point_id: 16
x: 4.951171875
y: -0.623046875
z: 0.03125
range: 5.31639051437
velocity: 0.0
doppler_bin: 8
bearing: -7.17230129242
intensity: 29.5616836548
---
header: 
  seq: 384542
  stamp: 
    secs: 1561864125
    nsecs: 208603463
  frame_id: "ti_mmwave"
point_id: 17
x: 2.5703125
y: 0.16015625
z: 0.06640625
range: 2.74534916878
velocity: -0.614668667316
doppler_bin: 7
bearing: 3.56549215317
intensity: 25.490032196
---
header: 
  seq: 384543
  stamp: 
    secs: 1561864125
    nsecs: 208615398
  frame_id: "ti_mmwave"
point_id: 18
x: 2.611328125
y: 0.1640625
z: 0.083984375
range: 2.78892612457
velocity: -0.614668667316
doppler_bin: 7
bearing: 3.59500956535
intensity: 26.7302093506
---
header: 
  seq: 384544
  stamp: 
    secs: 1561864125
    nsecs: 208630189
  frame_id: "ti_mmwave"
point_id: 19
x: 0.01171875
y: 0.03125
z: 0.0234375
range: 0.0435769706964
velocity: 0.0
doppler_bin: 8
bearing: 69.4439544678
intensity: 29.3701610565
---
header: 
  seq: 384545
  stamp: 
    secs: 1561864125
    nsecs: 208643078
  frame_id: "ti_mmwave"
point_id: 20
x: 0.041015625
y: -0.033203125
z: 0.0625
range: 0.0871539413929
velocity: 0.0
doppler_bin: 8
bearing: -38.9909973145
intensity: 30.1199302673
---
header: 
  seq: 384546
  stamp: 
    secs: 1561864125
    nsecs: 208655716
  frame_id: "ti_mmwave"
point_id: 21
x: 0.052734375
y: -0.04296875
z: 0.1015625
range: 0.130730912089
velocity: 0.0
doppler_bin: 8
bearing: -39.1736602783
intensity: 28.9872512817
---
header: 
  seq: 384547
  stamp: 
    secs: 1561864125
    nsecs: 209409220
  frame_id: "ti_mmwave"
point_id: 0
x: 0.01171875
y: -0.0390625
z: -0.0078125
range: 0.0435769706964
velocity: 0.0
doppler_bin: 8
bearing: -73.3007583618
intensity: 30.7261753082
---
header: 
  seq: 384548
  stamp: 
    secs: 1561864125
    nsecs: 209458588
  frame_id: "ti_mmwave"
point_id: 1
x: 0.017578125
y: -0.080078125
z: -0.0078125
range: 0.0871539413929
velocity: 0.0
doppler_bin: 8
bearing: -77.6192398071
intensity: 31.9562301636
---
header: 
  seq: 384549
  stamp: 
    secs: 1561864125
    nsecs: 209478131
  frame_id: "ti_mmwave"
point_id: 2
x: 0.029296875
y: -0.119140625
z: -0.005859375
range: 0.130730912089
velocity: 0.0
doppler_bin: 8
bearing: -76.1849746704
intensity: 30.2160263062
---
header: 
  seq: 384550
  stamp: 
    secs: 1561864125
    nsecs: 209501588
  frame_id: "ti_mmwave"
point_id: 3
x: 0.056640625
y: -0.154296875
z: 0.005859375
range: 0.174307882786
velocity: 0.0
doppler_bin: 8
bearing: -69.8423843384
intensity: 25.490032196
---
header: 
  seq: 384551
  stamp: 
    secs: 1561864125
    nsecs: 209522394
  frame_id: "ti_mmwave"
point_id: 4
x: 0.109375
y: -0.080078125
z: 1.26171875
range: 1.35088610649
velocity: 0.0
doppler_bin: 8
bearing: -36.2094573975
intensity: 23.138671875
---
header: 
  seq: 384552
  stamp: 
    secs: 1561864125
    nsecs: 209541778
  frame_id: "ti_mmwave"
point_id: 6
x: 0.431640625
y: -0.083984375
z: -1.275390625
range: 1.43804001808
velocity: 0.0
doppler_bin: 8
bearing: -11.0104799271
intensity: 22.9666519165
---
header: 
  seq: 384553
  stamp: 
    secs: 1561864125
    nsecs: 209606751
  frame_id: "ti_mmwave"
point_id: 7
x: 2.669921875
y: -0.1796875
z: 1.017578125
range: 3.05038785934
velocity: 0.0
doppler_bin: 8
bearing: -3.85023736954
intensity: 32.2788658142
---
header: 
  seq: 384554
  stamp: 
    secs: 1561864125
    nsecs: 209620726
  frame_id: "ti_mmwave"
point_id: 8
x: 2.787109375
y: -0.08984375
z: 0.810546875
range: 3.09396481514
velocity: 0.0
doppler_bin: 8
bearing: -1.84631645679
intensity: 31.4674797058
---
header: 
  seq: 384555
  stamp: 
    secs: 1561864125
    nsecs: 209631648
  frame_id: "ti_mmwave"
point_id: 9
x: 4.412109375
y: -0.142578125
z: 1.2265625
range: 4.88062095642
velocity: 0.0
doppler_bin: 8
bearing: -1.85087943077
intensity: 31.2807598114
---
header: 
  seq: 384556
  stamp: 
    secs: 1561864125
    nsecs: 209642911
  frame_id: "ti_mmwave"
point_id: 10
x: 4.439453125
y: -0.14453125
z: 1.275390625
range: 4.9241976738
velocity: 0.0
doppler_bin: 8
bearing: -1.86466813087
intensity: 30.7151374817
---
header: 
  seq: 384557
  stamp: 
    secs: 1561864125
    nsecs: 209656968
  frame_id: "ti_mmwave"
point_id: 11
x: 4.734375
y: -0.298828125
z: -0.638671875
range: 5.09850549698
velocity: 0.0
doppler_bin: 8
bearing: -3.61165046692
intensity: 33.1428871155
---
header: 
  seq: 384558
  stamp: 
    secs: 1561864125
    nsecs: 209670198
  frame_id: "ti_mmwave"
point_id: 12
x: 4.76953125
y: -0.30078125
z: -0.6796875
range: 5.14208269119
velocity: 0.0
doppler_bin: 8
bearing: -3.60846877098
intensity: 33.4123649597
---
header: 
  seq: 384559
  stamp: 
    secs: 1561864125
    nsecs: 209726591
  frame_id: "ti_mmwave"
point_id: 13
x: 4.89453125
y: -0.30859375
z: 0.673828125
range: 5.27281332016
velocity: 0.0
doppler_bin: 8
bearing: -3.60764837265
intensity: 31.0140342712
---
header: 
  seq: 384560
  stamp: 
    secs: 1561864125
    nsecs: 209737756
  frame_id: "ti_mmwave"
point_id: 14
x: 4.951171875
y: -0.623046875
z: -0.01171875
range: 5.31639051437
velocity: 0.0
doppler_bin: 8
bearing: -7.17230129242
intensity: 29.4939002991
---
header: 
  seq: 384561
  stamp: 
    secs: 1561864125
    nsecs: 209749588
  frame_id: "ti_mmwave"
point_id: 15
x: 0.01171875
y: 0.03125
z: 0.025390625
range: 0.0435769706964
velocity: 0.0
doppler_bin: 8
bearing: 69.4439544678
intensity: 29.3701610565
---
header: 
  seq: 384562
  stamp: 
    secs: 1561864125
    nsecs: 209762618
  frame_id: "ti_mmwave"
point_id: 16
x: 0.041015625
y: -0.033203125
z: 0.0625
range: 0.0871539413929
velocity: 0.0
doppler_bin: 8
bearing: -38.9909973145
intensity: 30.1157035828
---
header: 
  seq: 384563
  stamp: 
    secs: 1561864125
    nsecs: 209775131
  frame_id: "ti_mmwave"
point_id: 17
x: 0.052734375
y: -0.04296875
z: 0.103515625
range: 0.130730912089
velocity: 0.0
doppler_bin: 8
bearing: -39.1736602783
intensity: 28.9817657471
---
header: 
  seq: 384564
  stamp: 
    secs: 1561864125
    nsecs: 268461694
  frame_id: "ti_mmwave"
point_id: 0
x: 0.01171875
y: -0.0390625
z: -0.0078125
range: 0.0435769706964
velocity: 0.0
doppler_bin: 8
bearing: -73.3007583618
intensity: 30.7261753082
---
header: 
  seq: 384565
  stamp: 
    secs: 1561864125
    nsecs: 268536670
  frame_id: "ti_mmwave"
point_id: 1
x: 0.017578125
y: -0.080078125
z: -0.009765625
range: 0.0871539413929
velocity: 0.0
doppler_bin: 8
bearing: -77.6192398071
intensity: 31.9562301636
---
header: 
  seq: 384566
  stamp: 
    secs: 1561864125
    nsecs: 268547612
  frame_id: "ti_mmwave"
point_id: 2
x: 0.029296875
y: -0.119140625
z: -0.005859375
range: 0.130730912089
velocity: 0.0
doppler_bin: 8
bearing: -76.1849746704
intensity: 30.2160263062
---
header: 
  seq: 384567
  stamp: 
    secs: 1561864125
    nsecs: 268555999
  frame_id: "ti_mmwave"
point_id: 3
x: 0.056640625
y: -0.154296875
z: 0.005859375
range: 0.174307882786
velocity: 0.0
doppler_bin: 8
bearing: -69.8423843384
intensity: 25.4777469635
---
header: 
  seq: 384568
  stamp: 
    secs: 1561864125
    nsecs: 268564794
  frame_id: "ti_mmwave"
point_id: 4
x: 0.046875
y: -0.080078125
z: 1.265625
range: 1.35088610649
velocity: 0.0
doppler_bin: 8
bearing: -59.6567497253
intensity: 23.0749607086
---
header: 
  seq: 384569
  stamp: 
    secs: 1561864125
    nsecs: 268575357
  frame_id: "ti_mmwave"
point_id: 6
x: 0.416015625
y: -0.083984375
z: -1.28125
range: 1.43804001808
velocity: 0.0
doppler_bin: 8
bearing: -11.4133548737
intensity: 22.9666519165
---
header: 
  seq: 384570
  stamp: 
    secs: 1561864125
    nsecs: 268585445
  frame_id: "ti_mmwave"
point_id: 7
x: 0.55078125
y: -0.04296875
z: -1.27734375
range: 1.48161697388
velocity: 0.0
doppler_bin: 8
bearing: -4.46084880829
intensity: 21.6136798859
---
header: 
  seq: 384571
  stamp: 
    secs: 1561864125
    nsecs: 268594215
  frame_id: "ti_mmwave"
point_id: 8
x: 2.41015625
y: 0.076171875
z: -0.12109375
range: 2.5710413456
velocity: 0.0
doppler_bin: 8
bearing: 1.81020414829
intensity: 26.9284687042
---
header: 
  seq: 384572
  stamp: 
    secs: 1561864125
    nsecs: 268602367
  frame_id: "ti_mmwave"
point_id: 9
x: 2.6640625
y: -0.1796875
z: 1.03515625
range: 3.05038785934
velocity: 0.0
doppler_bin: 8
bearing: -3.85868024826
intensity: 32.240146637
---
header: 
  seq: 384573
  stamp: 
    secs: 1561864125
    nsecs: 268612034
  frame_id: "ti_mmwave"
point_id: 10
x: 2.7734375
y: -0.08984375
z: 0.859375
range: 3.09396481514
velocity: 0.0
doppler_bin: 8
bearing: -1.85541152954
intensity: 31.3353881836
---
header: 
  seq: 384574
  stamp: 
    secs: 1561864125
    nsecs: 268623661
  frame_id: "ti_mmwave"
point_id: 11
x: 4.404296875
y: -0.142578125
z: 1.099609375
range: 4.83704376221
velocity: 0.0
doppler_bin: 8
bearing: -1.85416030884
intensity: 28.0685806274
---
header: 
  seq: 384575
  stamp: 
    secs: 1561864125
    nsecs: 268631873
  frame_id: "ti_mmwave"
point_id: 12
x: 4.416015625
y: -0.142578125
z: 1.208984375
range: 4.88062095642
velocity: 0.0
doppler_bin: 8
bearing: -1.84924340248
intensity: 31.344959259
---
header: 
  seq: 384576
  stamp: 
    secs: 1561864125
    nsecs: 268639757
  frame_id: "ti_mmwave"
point_id: 13
x: 4.4453125
y: -0.14453125
z: 1.26171875
range: 4.9241976738
velocity: 0.0
doppler_bin: 8
bearing: -1.86221218109
intensity: 30.7627620697
---
header: 
  seq: 384577
  stamp: 
    secs: 1561864125
    nsecs: 268649417
  frame_id: "ti_mmwave"
point_id: 14
x: 4.73828125
y: -0.298828125
z: -0.609375
range: 5.09850549698
velocity: 0.0
doppler_bin: 8
bearing: -3.60868048668
intensity: 33.384563446
---
header: 
  seq: 384578
  stamp: 
    secs: 1561864125
    nsecs: 268657400
  frame_id: "ti_mmwave"
point_id: 15
x: 4.775390625
y: -0.30078125
z: -0.634765625
range: 5.14208269119
velocity: 0.0
doppler_bin: 8
bearing: -3.60405302048
intensity: 33.7529792786
---
header: 
  seq: 384579
  stamp: 
    secs: 1561864125
    nsecs: 268666024
  frame_id: "ti_mmwave"
point_id: 16
x: 4.892578125
y: -0.30859375
z: 0.685546875
range: 5.27281332016
velocity: 0.0
doppler_bin: 8
bearing: -3.60908436775
intensity: 31.0174713135
---
header: 
  seq: 384580
  stamp: 
    secs: 1561864125
    nsecs: 268674391
  frame_id: "ti_mmwave"
point_id: 17
x: 4.951171875
y: -0.623046875
z: 0.025390625
range: 5.31639051437
velocity: 0.0
doppler_bin: 8
bearing: -7.17230129242
intensity: 29.5999488831
---
header: 
  seq: 384581
  stamp: 
    secs: 1561864125
    nsecs: 268818712
  frame_id: "ti_mmwave"
point_id: 18
x: 2.572265625
y: 0.16015625
z: 0.015625
range: 2.74534916878
velocity: -0.614668667316
doppler_bin: 7
bearing: 3.56279182434
intensity: 25.4654273987
---
header: 
  seq: 384582
  stamp: 
    secs: 1561864125
    nsecs: 268838036
  frame_id: "ti_mmwave"
point_id: 19
x: 0.01171875
y: 0.03125
z: 0.025390625
range: 0.0435769706964
velocity: 0.0
doppler_bin: 8
bearing: 69.4439544678
intensity: 29.3651371002
---
header: 
  seq: 384583
  stamp: 
    secs: 1561864125
    nsecs: 268847018
  frame_id: "ti_mmwave"
point_id: 20
x: 0.041015625
y: -0.033203125
z: 0.0625
range: 0.0871539413929
velocity: 0.0
doppler_bin: 8
bearing: -38.9909973145
intensity: 30.1241531372
---
header: 
  seq: 384584
  stamp: 
    secs: 1561864125
    nsecs: 268858111
  frame_id: "ti_mmwave"
point_id: 21
x: 0.052734375
y: -0.04296875
z: 0.103515625
range: 0.130730912089
velocity: 0.0
doppler_bin: 8
bearing: -39.1736602783
intensity: 28.9872512817
---
header: 
  seq: 384585
  stamp: 
    secs: 1561864125
    nsecs: 269929991
  frame_id: "ti_mmwave"
point_id: 0
x: 0.01171875
y: -0.0390625
z: -0.0078125
range: 0.0435769706964
velocity: 0.0
doppler_bin: 8
bearing: -73.3007583618
intensity: 30.7298469543
---
header: 
  seq: 384586
  stamp: 
    secs: 1561864125
    nsecs: 269996570
  frame_id: "ti_mmwave"
point_id: 1
x: 0.017578125
y: -0.080078125
z: -0.009765625
range: 0.0871539413929
velocity: 0.0
doppler_bin: 8
bearing: -77.6192398071
intensity: 31.9534606934
---
header: 
  seq: 384587
  stamp: 
    secs: 1561864125
    nsecs: 270017136
  frame_id: "ti_mmwave"
point_id: 2
x: 0.029296875
y: -0.119140625
z: -0.005859375
range: 0.130730912089
velocity: 0.0
doppler_bin: 8
bearing: -76.1849746704
intensity: 30.2118930817
---
header: 
  seq: 384588
  stamp: 
    secs: 1561864125
    nsecs: 270031132
  frame_id: "ti_mmwave"
point_id: 3
x: 0.056640625
y: -0.154296875
z: 0.005859375
range: 0.174307882786
velocity: 0.0
doppler_bin: 8
bearing: -69.8423843384
intensity: 25.4654273987
---
header: 
  seq: 384589
  stamp: 
    secs: 1561864125
    nsecs: 270044324
  frame_id: "ti_mmwave"
point_id: 4
x: 0.16796875
y: -0.080078125
z: 1.25390625
range: 1.35088610649
velocity: 0.0
doppler_bin: 8
bearing: -25.489200592
intensity: 23.1175384521
---
header: 
  seq: 384590
  stamp: 
    secs: 1561864125
    nsecs: 270338612
  frame_id: "ti_mmwave"
point_id: 5
x: 0.03515625
y: -0.08203125
z: 1.306640625
range: 1.39446306229
velocity: 0.0
doppler_bin: 8
bearing: -66.8014068604
intensity: 24.5788192749
---
header: 
  seq: 384591
  stamp: 
    secs: 1561864125
    nsecs: 270385102
  frame_id: "ti_mmwave"
point_id: 6
x: 0.41015625
y: -0.083984375
z: -1.283203125
range: 1.43804001808
velocity: 0.0
doppler_bin: 8
bearing: -11.5720338821
intensity: 22.9666519165
---
header: 
  seq: 384592
  stamp: 
    secs: 1561864125
    nsecs: 270505921
  frame_id: "ti_mmwave"
point_id: 7
x: 2.654296875
y: -0.1796875
z: 1.056640625
range: 3.05038785934
velocity: 0.0
doppler_bin: 8
bearing: -3.87283420563
intensity: 32.2271652222
---
header: 
  seq: 384593
  stamp: 
    secs: 1561864125
    nsecs: 270536853
  frame_id: "ti_mmwave"
point_id: 8
x: 2.751953125
y: -0.08984375
z: 0.923828125
range: 3.09396481514
velocity: 0.0
doppler_bin: 8
bearing: -1.86988639832
intensity: 31.2742881775
---
header: 
  seq: 384594
  stamp: 
    secs: 1561864125
    nsecs: 270604829
  frame_id: "ti_mmwave"
point_id: 9
x: 4.40625
y: -0.142578125
z: 1.08984375
range: 4.83704376221
velocity: 0.0
doppler_bin: 8
bearing: -1.85333895683
intensity: 27.9448795319
---
header: 
  seq: 384595
  stamp: 
    secs: 1561864125
    nsecs: 270639107
  frame_id: "ti_mmwave"
point_id: 10
x: 4.416015625
y: -0.142578125
z: 1.2109375
range: 4.88062095642
velocity: 0.0
doppler_bin: 8
bearing: -1.84924340248
intensity: 31.319393158
---
header: 
  seq: 384596
  stamp: 
    secs: 1561864125
    nsecs: 270665057
  frame_id: "ti_mmwave"
point_id: 11
x: 4.451171875
y: -0.14453125
z: 1.23828125
range: 4.9241976738
velocity: 0.0
doppler_bin: 8
bearing: -1.8597625494
intensity: 30.8635978699
---
header: 
  seq: 384597
  stamp: 
    secs: 1561864125
    nsecs: 270762927
  frame_id: "ti_mmwave"
point_id: 12
x: 4.73828125
y: -0.298828125
z: -0.599609375
range: 5.09850549698
velocity: 0.0
doppler_bin: 8
bearing: -3.60868048668
intensity: 33.2076911926
---
header: 
  seq: 384598
  stamp: 
    secs: 1561864125
    nsecs: 270789715
  frame_id: "ti_mmwave"
point_id: 13
x: 4.77734375
y: -0.30078125
z: -0.6171875
range: 5.14208269119
velocity: 0.0
doppler_bin: 8
bearing: -3.60258316994
intensity: 33.679145813
---
header: 
  seq: 384599
  stamp: 
    secs: 1561864125
    nsecs: 270803311
  frame_id: "ti_mmwave"
point_id: 14
x: 4.892578125
y: -0.30859375
z: 0.681640625
range: 5.27281332016
velocity: 0.0
doppler_bin: 8
bearing: -3.60908436775
intensity: 31.0140342712
---
header: 
  seq: 384600
  stamp: 
    secs: 1561864125
    nsecs: 270816399
  frame_id: "ti_mmwave"
point_id: 15
x: 4.951171875
y: -0.623046875
z: 0.02734375
range: 5.31639051437
velocity: 0.0
doppler_bin: 8
bearing: -7.17230129242
intensity: 29.6236934662
---
header: 
  seq: 384601
  stamp: 
    secs: 1561864125
    nsecs: 270861708
  frame_id: "ti_mmwave"
point_id: 16
x: 2.52734375
y: 0.080078125
z: 0.20703125
range: 2.70177221298
velocity: -0.614668667316
doppler_bin: 7
bearing: 1.81479239464
intensity: 26.3447723389
---
header: 
  seq: 384602
  stamp: 
    secs: 1561864125
    nsecs: 270876075
  frame_id: "ti_mmwave"
point_id: 17
x: 2.5703125
y: 0.080078125
z: 0.16796875
range: 2.74534916878
velocity: -0.614668667316
doppler_bin: 7
bearing: 1.7844735384
intensity: 28.0140361786
---
header: 
  seq: 384603
  stamp: 
    secs: 1561864125
    nsecs: 270889136
  frame_id: "ti_mmwave"
point_id: 18
x: 2.607421875
y: 0.1640625
z: 0.162109375
range: 2.78892612457
velocity: -0.614668667316
doppler_bin: 7
bearing: 3.60038089752
intensity: 26.4443855286
---
header: 
  seq: 384604
  stamp: 
    secs: 1561864125
    nsecs: 270906295
  frame_id: "ti_mmwave"
point_id: 19
x: 0.01171875
y: 0.03125
z: 0.025390625
range: 0.0435769706964
velocity: 0.0
doppler_bin: 8
bearing: 69.4439544678
intensity: 29.3651371002
---
header: 
  seq: 384605
  stamp: 
    secs: 1561864125
    nsecs: 270925796
  frame_id: "ti_mmwave"
point_id: 20
x: 0.041015625
y: -0.033203125
z: 0.0625
range: 0.0871539413929
velocity: 0.0
doppler_bin: 8
bearing: -38.9909973145
intensity: 30.1241531372
---
header: 
  seq: 384606
  stamp: 
    secs: 1561864125
    nsecs: 271014684
  frame_id: "ti_mmwave"
point_id: 21
x: 0.052734375
y: -0.04296875
z: 0.1015625
range: 0.130730912089
velocity: 0.0
doppler_bin: 8
bearing: -39.1736602783
intensity: 28.9872512817
---
header: 
  seq: 384607
  stamp: 
    secs: 1561864125
    nsecs: 328161033
  frame_id: "ti_mmwave"
point_id: 0
x: 0.01171875
y: -0.0390625
z: -0.0078125
range: 0.0435769706964
velocity: 0.0
doppler_bin: 8
bearing: -73.3007583618
intensity: 30.7408466339
---
header: 
  seq: 384608
  stamp: 
    secs: 1561864125
    nsecs: 328237983
  frame_id: "ti_mmwave"
point_id: 1
x: 0.017578125
y: -0.080078125
z: -0.0078125
range: 0.0871539413929
velocity: 0.0
doppler_bin: 8
bearing: -77.6192398071
intensity: 31.9589958191
---
header: 
  seq: 384609
  stamp: 
    secs: 1561864125
    nsecs: 328249009
  frame_id: "ti_mmwave"
point_id: 2
x: 0.029296875
y: -0.119140625
z: -0.005859375
range: 0.130730912089
velocity: 0.0
doppler_bin: 8
bearing: -76.1849746704
intensity: 30.2118930817
---
header: 
  seq: 384610
  stamp: 
    secs: 1561864125
    nsecs: 328259674
  frame_id: "ti_mmwave"
point_id: 3
x: 0.056640625
y: -0.154296875
z: 0.005859375
range: 0.174307882786
velocity: 0.0
doppler_bin: 8
bearing: -69.8423843384
intensity: 25.4777469635
---
header: 
  seq: 384611
  stamp: 
    secs: 1561864125
    nsecs: 328268289
  frame_id: "ti_mmwave"
point_id: 4
x: 0.13671875
y: -0.080078125
z: 1.2578125
range: 1.35088610649
velocity: 0.0
doppler_bin: 8
bearing: -30.3581142426
intensity: 23.0749607086
---
header: 
  seq: 384612
  stamp: 
    secs: 1561864125
    nsecs: 328279934
  frame_id: "ti_mmwave"
point_id: 6
x: 0.431640625
y: -0.083984375
z: -1.275390625
range: 1.43804001808
velocity: 0.0
doppler_bin: 8
bearing: -11.0104799271
intensity: 22.9225616455
---
header: 
  seq: 384613
  stamp: 
    secs: 1561864125
    nsecs: 328288233
  frame_id: "ti_mmwave"
point_id: 7
x: 0.560546875
y: -0.04296875
z: -1.271484375
range: 1.48161697388
velocity: 0.0
doppler_bin: 8
bearing: -4.38343858719
intensity: 21.5228843689
---
header: 
  seq: 384614
  stamp: 
    secs: 1561864125
    nsecs: 328296571
  frame_id: "ti_mmwave"
point_id: 8
x: 2.66015625
y: -0.1796875
z: 1.044921875
range: 3.05038785934
velocity: 0.0
doppler_bin: 8
bearing: -3.86432933807
intensity: 32.240146637
---
header: 
  seq: 384615
  stamp: 
    secs: 1561864125
    nsecs: 328304280
  frame_id: "ti_mmwave"
point_id: 9
x: 2.751953125
y: -0.08984375
z: 0.921875
range: 3.09396481514
velocity: 0.0
doppler_bin: 8
bearing: -1.86988639832
intensity: 31.2645606995
---
header: 
  seq: 384616
  stamp: 
    secs: 1561864125
    nsecs: 328314811
  frame_id: "ti_mmwave"
point_id: 10
x: 4.412109375
y: -0.142578125
z: 1.224609375
range: 4.88062095642
velocity: 0.0
doppler_bin: 8
bearing: -1.85087943077
intensity: 31.3033370972
---
header: 
  seq: 384617
  stamp: 
    secs: 1561864125
    nsecs: 328324262
  frame_id: "ti_mmwave"
point_id: 11
x: 4.45703125
y: -0.14453125
z: 1.21484375
range: 4.9241976738
velocity: 0.0
doppler_bin: 8
bearing: -1.8573192358
intensity: 30.9586639404
---
header: 
  seq: 384618
  stamp: 
    secs: 1561864125
    nsecs: 328333080
  frame_id: "ti_mmwave"
point_id: 12
x: 4.7421875
y: -0.298828125
z: -0.578125
range: 5.09850549698
velocity: 0.0
doppler_bin: 8
bearing: -3.60571622849
intensity: 33.1005592346
---
header: 
  seq: 384619
  stamp: 
    secs: 1561864125
    nsecs: 328341381
  frame_id: "ti_mmwave"
point_id: 13
x: 4.779296875
y: -0.30078125
z: -0.603515625
range: 5.14208269119
velocity: 0.0
doppler_bin: 8
bearing: -3.60111522675
intensity: 33.5410842896
---
header: 
  seq: 384620
  stamp: 
    secs: 1561864125
    nsecs: 328350644
  frame_id: "ti_mmwave"
point_id: 14
x: 4.896484375
y: -0.30859375
z: 0.654296875
range: 5.27281332016
velocity: 0.0
doppler_bin: 8
bearing: -3.6062130928
intensity: 30.934217453
---
header: 
  seq: 384621
  stamp: 
    secs: 1561864125
    nsecs: 328359580
  frame_id: "ti_mmwave"
point_id: 15
x: 4.951171875
y: -0.623046875
z: -0.015625
range: 5.31639051437
velocity: 0.0
doppler_bin: 8
bearing: -7.17230129242
intensity: 29.5712814331
---
header: 
  seq: 384622
  stamp: 
    secs: 1561864125
    nsecs: 328370468
  frame_id: "ti_mmwave"
point_id: 16
x: 0.01171875
y: 0.03125
z: 0.025390625
range: 0.0435769706964
velocity: 0.0
doppler_bin: 8
bearing: 69.4439544678
intensity: 29.3751792908
---
header: 
  seq: 384623
  stamp: 
    secs: 1561864125
    nsecs: 328522137
  frame_id: "ti_mmwave"
point_id: 17
x: 0.041015625
y: -0.033203125
z: 0.0625
range: 0.0871539413929
velocity: 0.0
doppler_bin: 8
bearing: -38.9909973145
intensity: 30.1241531372
---
header: 
  seq: 384624
  stamp: 
    secs: 1561864125
    nsecs: 328543587
  frame_id: "ti_mmwave"
point_id: 18
x: 0.052734375
y: -0.04296875
z: 0.1015625
range: 0.130730912089
velocity: 0.0
doppler_bin: 8
bearing: -39.1736602783
intensity: 28.9817657471
---
header: 
  seq: 384625
  stamp: 
    secs: 1561864125
    nsecs: 388332122
  frame_id: "ti_mmwave"
point_id: 0
x: 0.01171875
y: -0.0390625
z: -0.0078125
range: 0.0435769706964
velocity: 0.0
doppler_bin: 8
bearing: -73.3007583618
intensity: 30.7261753082
---
header: 
  seq: 384626
  stamp: 
    secs: 1561864125
    nsecs: 388404555
  frame_id: "ti_mmwave"
point_id: 1
x: 0.017578125
y: -0.080078125
z: -0.009765625
range: 0.0871539413929
velocity: 0.0
doppler_bin: 8
bearing: -77.6192398071
intensity: 31.9534606934
---
header: 
  seq: 384627
  stamp: 
    secs: 1561864125
    nsecs: 388416027
  frame_id: "ti_mmwave"
point_id: 2
x: 0.029296875
y: -0.119140625
z: -0.005859375
range: 0.130730912089
velocity: 0.0
doppler_bin: 8
bearing: -76.1849746704
intensity: 30.2160263062
---
header: 
  seq: 384628
  stamp: 
    secs: 1561864125
    nsecs: 388426476
  frame_id: "ti_mmwave"
point_id: 3
x: 0.056640625
y: -0.154296875
z: 0.005859375
range: 0.174307882786
velocity: 0.0
doppler_bin: 8
bearing: -69.8423843384
intensity: 25.4777469635
---
header: 
  seq: 384629
  stamp: 
    secs: 1561864125
    nsecs: 388434980
  frame_id: "ti_mmwave"
point_id: 4
x: 0.16015625
y: -0.080078125
z: 1.255859375
range: 1.35088610649
velocity: 0.0
doppler_bin: 8
bearing: -26.5650501251
intensity: 23.0963020325
---
header: 
  seq: 384630
  stamp: 
    secs: 1561864125
    nsecs: 388446677
  frame_id: "ti_mmwave"
point_id: 6
x: 0.43359375
y: -0.083984375
z: -1.275390625
range: 1.43804001808
velocity: 0.0
doppler_bin: 8
bearing: -10.9620876312
intensity: 23.0102996826
---
header: 
  seq: 384631
  stamp: 
    secs: 1561864125
    nsecs: 388454612
  frame_id: "ti_mmwave"
point_id: 7
x: 0.556640625
y: -0.04296875
z: -1.2734375
range: 1.48161697388
velocity: 0.0
doppler_bin: 8
bearing: -4.41407871246
intensity: 21.6435279846
---
header: 
  seq: 384632
  stamp: 
    secs: 1561864125
    nsecs: 388462572
  frame_id: "ti_mmwave"
point_id: 8
x: 2.658203125
y: -0.1796875
z: 1.046875
range: 3.05038785934
velocity: 0.0
doppler_bin: 8
bearing: -3.86716008186
intensity: 32.2556762695
---
header: 
  seq: 384633
  stamp: 
    secs: 1561864125
    nsecs: 388470641
  frame_id: "ti_mmwave"
point_id: 9
x: 2.755859375
y: -0.08984375
z: 0.9140625
range: 3.09396481514
velocity: 0.0
doppler_bin: 8
bearing: -1.86723792553
intensity: 31.2872219086
---
header: 
  seq: 384634
  stamp: 
    secs: 1561864125
    nsecs: 388478468
  frame_id: "ti_mmwave"
point_id: 10
x: 4.416015625
y: -0.142578125
z: 1.2109375
range: 4.88062095642
velocity: 0.0
doppler_bin: 8
bearing: -1.84924340248
intensity: 31.3129787445
---
header: 
  seq: 384635
  stamp: 
    secs: 1561864125
    nsecs: 388485956
  frame_id: "ti_mmwave"
point_id: 11
x: 4.46875
y: -0.14453125
z: 1.171875
range: 4.9241976738
velocity: 0.0
doppler_bin: 8
bearing: -1.85245215893
intensity: 31.0720996857
---
header: 
  seq: 384636
  stamp: 
    secs: 1561864125
    nsecs: 388494631
  frame_id: "ti_mmwave"
point_id: 12
x: 4.697265625
y: -0.4453125
z: -0.5
range: 5.0549287796
velocity: 0.0
doppler_bin: 8
bearing: -5.41559743881
intensity: 29.127532959
---
header: 
  seq: 384637
  stamp: 
    secs: 1561864125
    nsecs: 388503665
  frame_id: "ti_mmwave"
point_id: 13
x: 4.73828125
y: -0.298828125
z: -0.599609375
range: 5.09850549698
velocity: 0.0
doppler_bin: 8
bearing: -3.60868048668
intensity: 33.2159843445
---
header: 
  seq: 384638
  stamp: 
    secs: 1561864125
    nsecs: 388511897
  frame_id: "ti_mmwave"
point_id: 14
x: 4.77734375
y: -0.30078125
z: -0.626953125
range: 5.14208269119
velocity: 0.0
doppler_bin: 8
bearing: -3.60258316994
intensity: 33.6134986877
---
header: 
  seq: 384639
  stamp: 
    secs: 1561864125
    nsecs: 388519785
  frame_id: "ti_mmwave"
point_id: 15
x: 4.89453125
y: -0.30859375
z: 0.662109375
range: 5.27281332016
velocity: 0.0
doppler_bin: 8
bearing: -3.60764837265
intensity: 31.0448703766
---
header: 
  seq: 384640
  stamp: 
    secs: 1561864125
    nsecs: 388528578
  frame_id: "ti_mmwave"
point_id: 16
x: 4.951171875
y: -0.623046875
z: 0.025390625
range: 5.31639051437
velocity: 0.0
doppler_bin: 8
bearing: -7.17230129242
intensity: 29.7543182373
---
header: 
  seq: 384641
  stamp: 
    secs: 1561864125
    nsecs: 388536764
  frame_id: "ti_mmwave"
point_id: 17
x: 0.01171875
y: 0.03125
z: 0.025390625
range: 0.0435769706964
velocity: 0.0
doppler_bin: 8
bearing: 69.4439544678
intensity: 29.3651371002
---
header: 
  seq: 384642
  stamp: 
    secs: 1561864125
    nsecs: 388544593
  frame_id: "ti_mmwave"
point_id: 18
x: 0.041015625
y: -0.033203125
z: 0.0625
range: 0.0871539413929
velocity: 0.0
doppler_bin: 8
bearing: -38.9909973145
intensity: 30.1157035828
---
header: 
  seq: 384643
  stamp: 
    secs: 1561864125
    nsecs: 388552810
  frame_id: "ti_mmwave"
point_id: 19
x: 0.052734375
y: -0.04296875
z: 0.1015625
range: 0.130730912089
velocity: 0.0
doppler_bin: 8
bearing: -39.1736602783
intensity: 28.9817657471
---
header: 
  seq: 384644
  stamp: 
    secs: 1561864125
    nsecs: 389656785
  frame_id: "ti_mmwave"
point_id: 0
x: 0.01171875
y: -0.0390625
z: -0.0078125
range: 0.0435769706964
velocity: 0.0
doppler_bin: 8
bearing: -73.3007583618
intensity: 30.7298469543
---
header: 
  seq: 384645
  stamp: 
    secs: 1561864125
    nsecs: 389722469
  frame_id: "ti_mmwave"
point_id: 1
x: 0.017578125
y: -0.080078125
z: -0.0078125
range: 0.0871539413929
velocity: 0.0
doppler_bin: 8
bearing: -77.6192398071
intensity: 31.9534606934
---
header: 
  seq: 384646
  stamp: 
    secs: 1561864125
    nsecs: 389740994
  frame_id: "ti_mmwave"
point_id: 2
x: 0.029296875
y: -0.119140625
z: -0.005859375
range: 0.130730912089
velocity: 0.0
doppler_bin: 8
bearing: -76.1849746704
intensity: 30.2118930817
---
header: 
  seq: 384647
  stamp: 
    secs: 1561864125
    nsecs: 389755107
  frame_id: "ti_mmwave"
point_id: 3
x: 0.056640625
y: -0.154296875
z: 0.005859375
range: 0.174307882786
velocity: 0.0
doppler_bin: 8
bearing: -69.8423843384
intensity: 25.4777469635
---
header: 
  seq: 384648
  stamp: 
    secs: 1561864125
    nsecs: 389849665
  frame_id: "ti_mmwave"
point_id: 4
x: 0.138671875
y: -0.080078125
z: 1.2578125
range: 1.35088610649
velocity: 0.0
doppler_bin: 8
bearing: -30.0049190521
intensity: 23.0963020325
---
header: 
  seq: 384649
  stamp: 
    secs: 1561864125
    nsecs: 389885989
  frame_id: "ti_mmwave"
point_id: 6
x: 0.41015625
y: -0.083984375
z: -1.283203125
range: 1.43804001808
velocity: 0.0
doppler_bin: 8
bearing: -11.5720338821
intensity: 22.9446620941
---
header: 
  seq: 384650
  stamp: 
    secs: 1561864125
    nsecs: 389948431
  frame_id: "ti_mmwave"
point_id: 7
x: 0.53515625
y: -0.04296875
z: -1.283203125
range: 1.48161697388
velocity: 0.0
doppler_bin: 8
bearing: -4.59054327011
intensity: 21.5836257935
---
header: 
  seq: 384651
  stamp: 
    secs: 1561864125
    nsecs: 389963154
  frame_id: "ti_mmwave"
point_id: 8
x: 2.6640625
y: -0.1796875
z: 1.033203125
range: 3.05038785934
velocity: 0.0
doppler_bin: 8
bearing: -3.85868024826
intensity: 32.2659988403
---
header: 
  seq: 384652
  stamp: 
    secs: 1561864125
    nsecs: 389979232
  frame_id: "ti_mmwave"
point_id: 9
x: 2.763671875
y: -0.08984375
z: 0.890625
range: 3.09396481514
velocity: 0.0
doppler_bin: 8
bearing: -1.8619633913
intensity: 31.3513259888
---
header: 
  seq: 384653
  stamp: 
    secs: 1561864125
    nsecs: 390027836
  frame_id: "ti_mmwave"
point_id: 10
x: 4.419921875
y: -0.142578125
z: 1.201171875
range: 4.88062095642
velocity: 0.0
doppler_bin: 8
bearing: -1.847610116
intensity: 31.319393158
---
header: 
  seq: 384654
  stamp: 
    secs: 1561864125
    nsecs: 390040170
  frame_id: "ti_mmwave"
point_id: 11
x: 4.478515625
y: -0.14453125
z: 1.134765625
range: 4.9241976738
velocity: 0.0
doppler_bin: 8
bearing: -1.84841549397
intensity: 31.1660766602
---
header: 
  seq: 384655
  stamp: 
    secs: 1561864125
    nsecs: 390052817
  frame_id: "ti_mmwave"
point_id: 12
x: 4.708984375
y: -0.296875
z: -0.498046875
range: 5.0549287796
velocity: 0.0
doppler_bin: 8
bearing: -3.60740232468
intensity: 29.4101428986
---
header: 
  seq: 384656
  stamp: 
    secs: 1561864125
    nsecs: 390066435
  frame_id: "ti_mmwave"
point_id: 13
x: 4.740234375
y: -0.298828125
z: -0.59375
range: 5.09850549698
velocity: 0.0
doppler_bin: 8
bearing: -3.60719799995
intensity: 33.4163246155
---
header: 
  seq: 384657
  stamp: 
    secs: 1561864125
    nsecs: 390077154
  frame_id: "ti_mmwave"
point_id: 14
x: 4.779296875
y: -0.30078125
z: -0.611328125
range: 5.14208269119
velocity: 0.0
doppler_bin: 8
bearing: -3.60111522675
intensity: 33.8934326172
---
header: 
  seq: 384658
  stamp: 
    secs: 1561864125
    nsecs: 390103427
  frame_id: "ti_mmwave"
point_id: 15
x: 4.79296875
y: -0.3046875
z: -0.791015625
range: 5.18565940857
velocity: 0.0
doppler_bin: 8
bearing: -3.63738012314
intensity: 29.9166908264
---
header: 
  seq: 384659
  stamp: 
    secs: 1561864125
    nsecs: 390117529
  frame_id: "ti_mmwave"
point_id: 16
x: 4.8828125
y: -0.30859375
z: 0.751953125
range: 5.27281332016
velocity: 0.0
doppler_bin: 8
bearing: -3.61628341675
intensity: 30.9096298218
---
header: 
  seq: 384660
  stamp: 
    secs: 1561864125
    nsecs: 390129129
  frame_id: "ti_mmwave"
point_id: 17
x: 4.951171875
y: -0.623046875
z: 0.08203125
range: 5.31639051437
velocity: 0.0
doppler_bin: 8
bearing: -7.17230129242
intensity: 29.6331558228
---
header: 
  seq: 384661
  stamp: 
    secs: 1561864125
    nsecs: 390140224
  frame_id: "ti_mmwave"
point_id: 18
x: 0.01171875
y: 0.03125
z: 0.0234375
range: 0.0435769706964
velocity: 0.0
doppler_bin: 8
bearing: 69.4439544678
intensity: 29.3651371002
---
header: 
  seq: 384662
  stamp: 
    secs: 1561864125
    nsecs: 390151964
  frame_id: "ti_mmwave"
point_id: 19
x: 0.041015625
y: -0.033203125
z: 0.0625
range: 0.0871539413929
velocity: 0.0
doppler_bin: 8
bearing: -38.9909973145
intensity: 30.1241531372
---
header: 
  seq: 384663
  stamp: 
    secs: 1561864125
    nsecs: 390264552
  frame_id: "ti_mmwave"
point_id: 20
x: 0.052734375
y: -0.04296875
z: 0.103515625
range: 0.130730912089
velocity: 0.0
doppler_bin: 8
bearing: -39.1736602783
intensity: 28.9872512817
---
header: 
  seq: 384664
  stamp: 
    secs: 1561864125
    nsecs: 448251695
  frame_id: "ti_mmwave"
point_id: 0
x: 0.01171875
y: -0.0390625
z: -0.0078125
range: 0.0435769706964
velocity: 0.0
doppler_bin: 8
bearing: -73.3007583618
intensity: 30.7261753082
---
header: 
  seq: 384665
  stamp: 
    secs: 1561864125
    nsecs: 448345801
  frame_id: "ti_mmwave"
point_id: 1
x: 0.017578125
y: -0.080078125
z: -0.0078125
range: 0.0871539413929
velocity: 0.0
doppler_bin: 8
bearing: -77.6192398071
intensity: 31.9506893158
---
header: 
  seq: 384666
  stamp: 
    secs: 1561864125
    nsecs: 448358441
  frame_id: "ti_mmwave"
point_id: 2
x: 0.029296875
y: -0.119140625
z: -0.005859375
range: 0.130730912089
velocity: 0.0
doppler_bin: 8
bearing: -76.1849746704
intensity: 30.2077541351
---
header: 
  seq: 384667
  stamp: 
    secs: 1561864125
    nsecs: 448366991
  frame_id: "ti_mmwave"
point_id: 3
x: 0.056640625
y: -0.154296875
z: 0.005859375
range: 0.174307882786
velocity: 0.0
doppler_bin: 8
bearing: -69.8423843384
intensity: 25.4777469635
---
header: 
  seq: 384668
  stamp: 
    secs: 1561864125
    nsecs: 448375883
  frame_id: "ti_mmwave"
point_id: 4
x: 0.142578125
y: -0.080078125
z: 1.2578125
range: 1.35088610649
velocity: 0.0
doppler_bin: 8
bearing: -29.3204746246
intensity: 23.0535144806
---
header: 
  seq: 384669
  stamp: 
    secs: 1561864125
    nsecs: 448386582
  frame_id: "ti_mmwave"
point_id: 5
x: 0.029296875
y: -0.08203125
z: -1.306640625
range: 1.39446306229
velocity: 0.0
doppler_bin: 8
bearing: -70.3461761475
intensity: 24.563659668
---
header: 
  seq: 384670
  stamp: 
    secs: 1561864125
    nsecs: 448395053
  frame_id: "ti_mmwave"
point_id: 6
x: 0.4453125
y: -0.083984375
z: -1.271484375
range: 1.43804001808
velocity: 0.0
doppler_bin: 8
bearing: -10.6803331375
intensity: 22.9885311127
---
header: 
  seq: 384671
  stamp: 
    secs: 1561864125
    nsecs: 448403531
  frame_id: "ti_mmwave"
point_id: 7
x: 0.560546875
y: -0.04296875
z: -1.271484375
range: 1.48161697388
velocity: 0.0
doppler_bin: 8
bearing: -4.38343858719
intensity: 21.6136798859
---
header: 
  seq: 384672
  stamp: 
    secs: 1561864125
    nsecs: 448411641
  frame_id: "ti_mmwave"
point_id: 8
x: 2.349609375
y: 0.07421875
z: -0.3203125
range: 2.5274643898
velocity: 0.0
doppler_bin: 8
bearing: 1.80924022198
intensity: 26.4048137665
---
header: 
  seq: 384673
  stamp: 
    secs: 1561864125
    nsecs: 448509798
  frame_id: "ti_mmwave"
point_id: 9
x: 2.517578125
y: 0.158203125
z: 0.2578125
range: 2.70177221298
velocity: 0.0
doppler_bin: 8
bearing: 3.59570527077
intensity: 26.7486114502
---
header: 
  seq: 384674
  stamp: 
    secs: 1561864125
    nsecs: 448521816
  frame_id: "ti_mmwave"
point_id: 10
x: 2.658203125
y: -0.1796875
z: 1.05078125
range: 3.05038785934
velocity: 0.0
doppler_bin: 8
bearing: -3.86716008186
intensity: 32.24792099
---
header: 
  seq: 384675
  stamp: 
    secs: 1561864125
    nsecs: 448529726
  frame_id: "ti_mmwave"
point_id: 11
x: 2.755859375
y: -0.08984375
z: 0.912109375
range: 3.09396481514
velocity: 0.0
doppler_bin: 8
bearing: -1.86723792553
intensity: 31.2839927673
---
header: 
  seq: 384676
  stamp: 
    secs: 1561864125
    nsecs: 448539446
  frame_id: "ti_mmwave"
point_id: 12
x: 4.419921875
y: -0.142578125
z: 1.1953125
range: 4.88062095642
velocity: 0.0
doppler_bin: 8
bearing: -1.847610116
intensity: 31.3385810852
---
header: 
  seq: 384677
  stamp: 
    secs: 1561864125
    nsecs: 448547071
  frame_id: "ti_mmwave"
point_id: 13
x: 4.486328125
y: -0.14453125
z: 1.107421875
range: 4.9241976738
velocity: 0.0
doppler_bin: 8
bearing: -1.84519886971
intensity: 31.235250473
---
header: 
  seq: 384678
  stamp: 
    secs: 1561864125
    nsecs: 448554765
  frame_id: "ti_mmwave"
point_id: 14
x: 4.62109375
y: -0.0
z: 0.625
range: 4.96777486801
velocity: 0.0
doppler_bin: 8
bearing: -0.0
intensity: 29.3348731995
---
header: 
  seq: 384679
  stamp: 
    secs: 1561864125
    nsecs: 448577236
  frame_id: "ti_mmwave"
point_id: 15
x: 4.712890625
y: -0.296875
z: -0.474609375
range: 5.0549287796
velocity: 0.0
doppler_bin: 8
bearing: -3.60442066193
intensity: 29.6142101288
---
header: 
  seq: 384680
  stamp: 
    secs: 1561864125
    nsecs: 448586100
  frame_id: "ti_mmwave"
point_id: 16
x: 4.73828125
y: -0.298828125
z: -0.59765625
range: 5.09850549698
velocity: 0.0
doppler_bin: 8
bearing: -3.60868048668
intensity: 33.4596138
---
header: 
  seq: 384681
  stamp: 
    secs: 1561864125
    nsecs: 448594795
  frame_id: "ti_mmwave"
point_id: 17
x: 4.775390625
y: -0.30078125
z: -0.63671875
range: 5.14208269119
velocity: 0.0
doppler_bin: 8
bearing: -3.60405302048
intensity: 34.0088310242
---
header: 
  seq: 384682
  stamp: 
    secs: 1561864125
    nsecs: 448602259
  frame_id: "ti_mmwave"
point_id: 18
x: 4.798828125
y: -0.15234375
z: -0.8046875
range: 5.18565940857
velocity: 0.0
doppler_bin: 8
bearing: -1.81830310822
intensity: 30.2694168091
---
header: 
  seq: 384683
  stamp: 
    secs: 1561864125
    nsecs: 448610979
  frame_id: "ti_mmwave"
point_id: 19
x: 4.88671875
y: -0.30859375
z: 0.7265625
range: 5.27281332016
velocity: 0.0
doppler_bin: 8
bearing: -3.61340069771
