header: 
  seq: 245063
  stamp: 
    secs: 1561863914
    nsecs: 668382047
  frame_id: "ti_mmwave"
point_id: 0
x: 0.01171875
y: -0.0390625
z: -0.0078125
range: 0.0435769706964
velocity: 0.0
doppler_bin: 8
bearing: -73.3007583618
intensity: 30.7773113251
---
header: 
  seq: 245064
  stamp: 
    secs: 1561863914
    nsecs: 668487452
  frame_id: "ti_mmwave"
point_id: 1
x: 0.017578125
y: -0.080078125
z: -0.009765625
range: 0.0871539413929
velocity: 0.0
doppler_bin: 8
bearing: -77.6192398071
intensity: 32.0030326843
---
header: 
  seq: 245065
  stamp: 
    secs: 1561863914
    nsecs: 668503976
  frame_id: "ti_mmwave"
point_id: 2
x: 0.029296875
y: -0.119140625
z: -0.005859375
range: 0.130730912089
velocity: 0.0
doppler_bin: 8
bearing: -76.1849746704
intensity: 30.2694168091
---
header: 
  seq: 245066
  stamp: 
    secs: 1561863914
    nsecs: 668513721
  frame_id: "ti_mmwave"
point_id: 3
x: 0.056640625
y: -0.154296875
z: 0.005859375
range: 0.174307882786
velocity: 0.0
doppler_bin: 8
bearing: -69.8423843384
intensity: 25.5144996643
---
header: 
  seq: 245067
  stamp: 
    secs: 1561863914
    nsecs: 668522880
  frame_id: "ti_mmwave"
point_id: 4
x: 0.193359375
y: -0.080078125
z: 1.25
range: 1.35088610649
velocity: 0.0
doppler_bin: 8
bearing: -22.496471405
intensity: 23.1806335449
---
header: 
  seq: 245068
  stamp: 
    secs: 1561863914
    nsecs: 668532774
  frame_id: "ti_mmwave"
point_id: 5
x: 0.064453125
y: -0.08203125
z: 1.3046875
range: 1.39446306229
velocity: 0.0
doppler_bin: 8
bearing: -51.8427734375
intensity: 24.6239795685
---
header: 
  seq: 245069
  stamp: 
    secs: 1561863914
    nsecs: 668541672
  frame_id: "ti_mmwave"
point_id: 6
x: 0.421875
y: -0.083984375
z: -1.279296875
range: 1.43804001808
velocity: 0.0
doppler_bin: 8
bearing: -11.2589120865
intensity: 23.031961441
---
header: 
  seq: 245070
  stamp: 
    secs: 1561863914
    nsecs: 668550971
  frame_id: "ti_mmwave"
point_id: 7
x: 0.5625
y: -0.04296875
z: -1.271484375
range: 1.48161697388
velocity: 0.0
doppler_bin: 8
bearing: -4.36827754974
intensity: 21.7026176453
---
header: 
  seq: 245071
  stamp: 
    secs: 1561863914
    nsecs: 668560209
  frame_id: "ti_mmwave"
point_id: 8
x: 2.59375
y: -0.17578125
z: 1.099609375
range: 3.00681090355
velocity: 0.0
doppler_bin: 8
bearing: -3.87706851959
intensity: 29.127532959
---
header: 
  seq: 245072
  stamp: 
    secs: 1561863914
    nsecs: 668745732
  frame_id: "ti_mmwave"
point_id: 9
x: 2.658203125
y: -0.1796875
z: 1.048828125
range: 3.05038785934
velocity: 0.0
doppler_bin: 8
bearing: -3.86716008186
intensity: 32.2659988403
---
header: 
  seq: 245073
  stamp: 
    secs: 1561863914
    nsecs: 668767422
  frame_id: "ti_mmwave"
point_id: 10
x: 2.75390625
y: -0.08984375
z: 0.916015625
range: 3.09396481514
velocity: 0.0
doppler_bin: 8
bearing: -1.86856126785
intensity: 31.2548122406
---
header: 
  seq: 245074
  stamp: 
    secs: 1561863914
    nsecs: 668777412
  frame_id: "ti_mmwave"
point_id: 11
x: 4.40234375
y: -0.142578125
z: 1.2578125
range: 4.88062095642
velocity: 0.0
doppler_bin: 8
bearing: -1.85498249531
intensity: 31.4363918304
---
header: 
  seq: 245075
  stamp: 
    secs: 1561863914
    nsecs: 668785877
  frame_id: "ti_mmwave"
point_id: 12
x: 4.423828125
y: -0.14453125
z: 1.33203125
range: 4.9241976738
velocity: 0.0
doppler_bin: 8
bearing: -1.87124967575
intensity: 30.8493366241
---
header: 
  seq: 245076
  stamp: 
    secs: 1561863914
    nsecs: 668795500
  frame_id: "ti_mmwave"
point_id: 13
x: 4.814453125
y: -0.306640625
z: 0.90625
range: 5.22923660278
velocity: 0.0
doppler_bin: 8
bearing: -3.64434218407
intensity: 30.1367969513
---
header: 
  seq: 245077
  stamp: 
    secs: 1561863914
    nsecs: 668804113
  frame_id: "ti_mmwave"
point_id: 14
x: 4.888671875
y: -0.30859375
z: 0.712890625
range: 5.27281332016
velocity: 0.0
doppler_bin: 8
bearing: -3.61196112633
intensity: 31.1693973541
---
header: 
  seq: 245078
  stamp: 
    secs: 1561863914
    nsecs: 668813414
  frame_id: "ti_mmwave"
point_id: 15
x: 4.951171875
y: -0.623046875
z: 0.041015625
range: 5.31639051437
velocity: 0.0
doppler_bin: 8
bearing: -7.17230129242
intensity: 29.7312793732
---
header: 
  seq: 245079
  stamp: 
    secs: 1561863914
    nsecs: 668822196
  frame_id: "ti_mmwave"
point_id: 16
x: 0.01171875
y: 0.03125
z: 0.0234375
range: 0.0435769706964
velocity: 0.0
doppler_bin: 8
bearing: 69.4439544678
intensity: 29.4151134491
---
header: 
  seq: 245080
  stamp: 
    secs: 1561863914
    nsecs: 668831497
  frame_id: "ti_mmwave"
point_id: 17
x: 0.041015625
y: -0.033203125
z: 0.0625
range: 0.0871539413929
velocity: 0.0
doppler_bin: 8
bearing: -38.9909973145
intensity: 30.1535968781
---
header: 
  seq: 245081
  stamp: 
    secs: 1561863914
    nsecs: 668840142
  frame_id: "ti_mmwave"
point_id: 18
x: 0.052734375
y: -0.04296875
z: 0.103515625
range: 0.130730912089
velocity: 0.0
doppler_bin: 8
bearing: -39.1736602783
intensity: 29.0254669189
---
header: 
  seq: 245082
  stamp: 
    secs: 1561863914
    nsecs: 669746150
  frame_id: "ti_mmwave"
point_id: 0
x: 0.01171875
y: -0.0390625
z: -0.0078125
range: 0.0435769706964
velocity: 0.0
doppler_bin: 8
bearing: -73.3007583618
intensity: 30.7845687866
---
header: 
  seq: 245083
  stamp: 
    secs: 1561863914
    nsecs: 669819943
  frame_id: "ti_mmwave"
point_id: 1
x: 0.017578125
y: -0.080078125
z: -0.009765625
range: 0.0871539413929
velocity: 0.0
doppler_bin: 8
bearing: -77.6192398071
intensity: 32.0085067749
---
header: 
  seq: 245084
  stamp: 
    secs: 1561863914
    nsecs: 669838518
  frame_id: "ti_mmwave"
point_id: 2
x: 0.029296875
y: -0.119140625
z: -0.005859375
range: 0.130730912089
velocity: 0.0
doppler_bin: 8
bearing: -76.1849746704
intensity: 30.2734966278
---
header: 
  seq: 245085
  stamp: 
    secs: 1561863914
    nsecs: 669852667
  frame_id: "ti_mmwave"
point_id: 3
x: 0.056640625
y: -0.154296875
z: 0.005859375
range: 0.174307882786
velocity: 0.0
doppler_bin: 8
bearing: -69.8423843384
intensity: 25.5266819
---
header: 
  seq: 245086
  stamp: 
    secs: 1561863914
    nsecs: 669930430
  frame_id: "ti_mmwave"
point_id: 4
x: 0.158203125
y: -0.080078125
z: 1.255859375
range: 1.35088610649
velocity: 0.0
doppler_bin: 8
bearing: -26.8472938538
intensity: 23.1597042084
---
header: 
  seq: 245087
  stamp: 
    secs: 1561863914
    nsecs: 669947088
  frame_id: "ti_mmwave"
point_id: 6
x: 0.419921875
y: -0.083984375
z: -1.279296875
range: 1.43804001808
velocity: 0.0
doppler_bin: 8
bearing: -11.3099327087
intensity: 23.0102996826
---
header: 
  seq: 245088
  stamp: 
    secs: 1561863914
    nsecs: 669959209
  frame_id: "ti_mmwave"
point_id: 7
x: 0.53125
y: -0.04296875
z: -1.28515625
range: 1.48161697388
velocity: 0.0
doppler_bin: 8
bearing: -4.6241517067
intensity: 21.6435279846
---
header: 
  seq: 245089
  stamp: 
    secs: 1561863914
    nsecs: 669971130
  frame_id: "ti_mmwave"
point_id: 8
x: 2.677734375
y: -0.17578125
z: 0.875
range: 3.00681090355
velocity: 0.0
doppler_bin: 8
bearing: -3.75582194328
intensity: 29.8497714996
---
header: 
  seq: 245090
  stamp: 
    secs: 1561863914
    nsecs: 669985177
  frame_id: "ti_mmwave"
point_id: 9
x: 2.66796875
y: -0.1796875
z: 1.025390625
range: 3.05038785934
velocity: 0.0
doppler_bin: 8
bearing: -3.85304760933
intensity: 32.3401069641
---
header: 
  seq: 245091
  stamp: 
    secs: 1561863914
    nsecs: 669996490
  frame_id: "ti_mmwave"
point_id: 10
x: 2.74609375
y: -0.08984375
z: 0.939453125
range: 3.09396481514
velocity: 0.0
doppler_bin: 8
bearing: -1.8738732338
intensity: 31.25806427
---
header: 
  seq: 245092
  stamp: 
    secs: 1561863914
    nsecs: 670028209
  frame_id: "ti_mmwave"
point_id: 11
x: 4.3984375
y: -0.142578125
z: 1.115234375
range: 4.83704376221
velocity: 0.0
doppler_bin: 8
bearing: -1.8566287756
intensity: 28.1557769775
---
header: 
  seq: 245093
  stamp: 
    secs: 1561863914
    nsecs: 670051184
  frame_id: "ti_mmwave"
point_id: 12
x: 4.3984375
y: -0.142578125
z: 1.275390625
range: 4.88062095642
velocity: 0.0
doppler_bin: 8
bearing: -1.8566287756
intensity: 31.3417701721
---
header: 
  seq: 245094
  stamp: 
    secs: 1561863914
    nsecs: 670075003
  frame_id: "ti_mmwave"
point_id: 13
x: 4.419921875
y: -0.14453125
z: 1.34375
range: 4.9241976738
velocity: 0.0
doppler_bin: 8
bearing: -1.87290215492
intensity: 30.7591171265
---
header: 
  seq: 245095
  stamp: 
    secs: 1561863914
    nsecs: 670088864
  frame_id: "ti_mmwave"
point_id: 14
x: 4.890625
y: -0.30859375
z: 0.693359375
range: 5.27281332016
velocity: 0.0
doppler_bin: 8
bearing: -3.61052203178
intensity: 30.8778133392
---
header: 
  seq: 245096
  stamp: 
    secs: 1561863914
    nsecs: 670149630
  frame_id: "ti_mmwave"
point_id: 15
x: 4.951171875
y: -0.623046875
z: -0.01171875
range: 5.31639051437
velocity: 0.0
doppler_bin: 8
bearing: -7.17230129242
intensity: 29.609462738
---
header: 
  seq: 245097
  stamp: 
    secs: 1561863914
    nsecs: 670165814
  frame_id: "ti_mmwave"
point_id: 16
x: 2.765625
y: -0.0
z: 0.296875
range: 2.96323394775
velocity: 0.614668667316
doppler_bin: 9
bearing: -0.0
intensity: 26.8841991425
---
header: 
  seq: 245098
  stamp: 
    secs: 1561863914
    nsecs: 670180263
  frame_id: "ti_mmwave"
point_id: 17
x: 0.01171875
y: 0.03125
z: 0.025390625
range: 0.0435769706964
velocity: 0.0
doppler_bin: 8
bearing: 69.4439544678
intensity: 29.4101428986
---
header: 
  seq: 245099
  stamp: 
    secs: 1561863914
    nsecs: 670196235
  frame_id: "ti_mmwave"
point_id: 18
x: 0.041015625
y: -0.033203125
z: 0.0625
range: 0.0871539413929
velocity: 0.0
doppler_bin: 8
bearing: -38.9909973145
intensity: 30.1619739532
---
header: 
  seq: 245100
  stamp: 
    secs: 1561863914
    nsecs: 670210689
  frame_id: "ti_mmwave"
point_id: 19
x: 0.052734375
y: -0.04296875
z: 0.103515625
range: 0.130730912089
velocity: 0.0
doppler_bin: 8
bearing: -39.1736602783
intensity: 29.0254669189
---
header: 
  seq: 245101
  stamp: 
    secs: 1561863914
    nsecs: 728330644
  frame_id: "ti_mmwave"
point_id: 0
x: 0.01171875
y: -0.0390625
z: -0.0078125
range: 0.0435769706964
velocity: 0.0
doppler_bin: 8
bearing: -73.3007583618
intensity: 30.788192749
---
header: 
  seq: 245102
  stamp: 
    secs: 1561863914
    nsecs: 728396760
  frame_id: "ti_mmwave"
point_id: 1
x: 0.017578125
y: -0.080078125
z: -0.009765625
range: 0.0871539413929
velocity: 0.0
doppler_bin: 8
bearing: -77.6192398071
intensity: 32.0057678223
---
header: 
  seq: 245103
  stamp: 
    secs: 1561863914
    nsecs: 728409416
  frame_id: "ti_mmwave"
point_id: 2
x: 0.029296875
y: -0.119140625
z: -0.005859375
range: 0.130730912089
velocity: 0.0
doppler_bin: 8
bearing: -76.1849746704
intensity: 30.2694168091
---
header: 
  seq: 245104
  stamp: 
    secs: 1561863914
    nsecs: 728419606
  frame_id: "ti_mmwave"
point_id: 3
x: 0.056640625
y: -0.154296875
z: 0.005859375
range: 0.174307882786
velocity: 0.0
doppler_bin: 8
bearing: -69.8423843384
intensity: 25.5144996643
---
header: 
  seq: 245105
  stamp: 
    secs: 1561863914
    nsecs: 728428090
  frame_id: "ti_mmwave"
point_id: 4
x: 0.1484375
y: -0.080078125
z: 1.2578125
range: 1.35088610649
velocity: 0.0
doppler_bin: 8
bearing: -28.3456954956
intensity: 23.1597042084
---
header: 
  seq: 245106
  stamp: 
    secs: 1561863914
    nsecs: 728436094
  frame_id: "ti_mmwave"
point_id: 5
x: 0.2734375
y: -0.041015625
z: -1.279296875
range: 1.39446306229
velocity: 0.0
doppler_bin: 8
bearing: -8.53076648712
intensity: 24.6239795685
---
header: 
  seq: 245107
  stamp: 
    secs: 1561863914
    nsecs: 728444207
  frame_id: "ti_mmwave"
point_id: 6
x: 0.5078125
y: -0.04296875
z: -1.25
range: 1.43804001808
velocity: 0.0
doppler_bin: 8
bearing: -4.83658361435
intensity: 23.0535144806
---
header: 
  seq: 245108
  stamp: 
    secs: 1561863914
    nsecs: 728452046
  frame_id: "ti_mmwave"
point_id: 7
x: 0.53125
y: -0.04296875
z: -1.28515625
range: 1.48161697388
velocity: 0.0
doppler_bin: 8
bearing: -4.6241517067
intensity: 21.7026176453
---
header: 
  seq: 245109
  stamp: 
    secs: 1561863914
    nsecs: 728460536
  frame_id: "ti_mmwave"
point_id: 8
x: 2.65625
y: -0.1796875
z: 1.052734375
range: 3.05038785934
velocity: 0.0
doppler_bin: 8
bearing: -3.86999511719
intensity: 32.166934967
---
header: 
  seq: 245110
  stamp: 
    secs: 1561863914
    nsecs: 728470031
  frame_id: "ti_mmwave"
point_id: 9
x: 2.7578125
y: -0.08984375
z: 0.904296875
range: 3.09396481514
velocity: 0.0
doppler_bin: 8
bearing: -1.86591637135
intensity: 31.2710475922
---
header: 
  seq: 245111
  stamp: 
    secs: 1561863914
    nsecs: 728479276
  frame_id: "ti_mmwave"
point_id: 10
x: 4.412109375
y: -0.142578125
z: 1.0625
range: 4.83704376221
velocity: 0.0
doppler_bin: 8
bearing: -1.85087943077
intensity: 28.2347431183
---
header: 
  seq: 245112
  stamp: 
    secs: 1561863914
    nsecs: 728488615
  frame_id: "ti_mmwave"
point_id: 11
x: 4.41796875
y: -0.142578125
z: 1.205078125
range: 4.88062095642
velocity: 0.0
doppler_bin: 8
bearing: -1.84842634201
intensity: 31.5986785889
---
header: 
  seq: 245113
  stamp: 
    secs: 1561863914
    nsecs: 728496928
  frame_id: "ti_mmwave"
point_id: 12
x: 4.455078125
y: -0.14453125
z: 1.220703125
range: 4.9241976738
velocity: 0.0
doppler_bin: 8
bearing: -1.85813295841
intensity: 31.3257980347
---
header: 
  seq: 245114
  stamp: 
    secs: 1561863914
    nsecs: 728516285
  frame_id: "ti_mmwave"
point_id: 13
x: 4.890625
y: -0.30859375
z: 0.697265625
range: 5.27281332016
velocity: 0.0
doppler_bin: 8
bearing: -3.61052203178
intensity: 31.0482845306
---
header: 
  seq: 245115
  stamp: 
    secs: 1561863914
    nsecs: 728532227
  frame_id: "ti_mmwave"
point_id: 14
x: 4.951171875
y: -0.623046875
z: 0.009765625
range: 5.31639051437
velocity: 0.0
doppler_bin: 8
bearing: -7.17230129242
intensity: 29.5999488831
---
header: 
  seq: 245116
  stamp: 
    secs: 1561863914
    nsecs: 728546653
  frame_id: "ti_mmwave"
point_id: 15
x: 0.01171875
y: 0.03125
z: 0.025390625
range: 0.0435769706964
velocity: 0.0
doppler_bin: 8
bearing: 69.4439544678
intensity: 29.4151134491
---
header: 
  seq: 245117
  stamp: 
    secs: 1561863914
    nsecs: 728563636
  frame_id: "ti_mmwave"
point_id: 16
x: 0.041015625
y: -0.033203125
z: 0.0625
range: 0.0871539413929
velocity: 0.0
doppler_bin: 8
bearing: -38.9909973145
intensity: 30.157787323
---
header: 
  seq: 245118
  stamp: 
    secs: 1561863914
    nsecs: 728708378
  frame_id: "ti_mmwave"
point_id: 17
x: 0.052734375
y: -0.04296875
z: 0.103515625
range: 0.130730912089
velocity: 0.0
doppler_bin: 8
bearing: -39.1736602783
intensity: 29.0254669189
---
header: 
  seq: 245119
  stamp: 
    secs: 1561863914
    nsecs: 729419128
  frame_id: "ti_mmwave"
point_id: 0
x: 0.01171875
y: -0.0390625
z: -0.0078125
range: 0.0435769706964
velocity: 0.0
doppler_bin: 8
bearing: -73.3007583618
intensity: 30.7954292297
---
header: 
  seq: 245120
  stamp: 
    secs: 1561863914
    nsecs: 729487256
  frame_id: "ti_mmwave"
point_id: 1
x: 0.017578125
y: -0.080078125
z: -0.009765625
range: 0.0871539413929
velocity: 0.0
doppler_bin: 8
bearing: -77.6192398071
intensity: 32.0085067749
---
header: 
  seq: 245121
  stamp: 
    secs: 1561863914
    nsecs: 729506166
  frame_id: "ti_mmwave"
point_id: 2
x: 0.029296875
y: -0.119140625
z: -0.005859375
range: 0.130730912089
velocity: 0.0
doppler_bin: 8
bearing: -76.1849746704
intensity: 30.2694168091
---
header: 
  seq: 245122
  stamp: 
    secs: 1561863914
    nsecs: 729519832
  frame_id: "ti_mmwave"
point_id: 3
x: 0.056640625
y: -0.154296875
z: 0.005859375
range: 0.174307882786
velocity: 0.0
doppler_bin: 8
bearing: -69.8423843384
intensity: 25.5144996643
---
header: 
  seq: 245123
  stamp: 
    secs: 1561863914
    nsecs: 729532561
  frame_id: "ti_mmwave"
point_id: 4
x: 0.154296875
y: -0.080078125
z: 1.255859375
range: 1.35088610649
velocity: 0.0
doppler_bin: 8
bearing: -27.4287414551
intensity: 23.1597042084
---
header: 
  seq: 245124
  stamp: 
    secs: 1561863914
    nsecs: 729642686
  frame_id: "ti_mmwave"
point_id: 6
x: 0.419921875
y: -0.083984375
z: -1.28125
range: 1.43804001808
velocity: 0.0
doppler_bin: 8
bearing: -11.3099327087
intensity: 23.0102996826
---
header: 
  seq: 245125
  stamp: 
    secs: 1561863914
    nsecs: 729664303
  frame_id: "ti_mmwave"
point_id: 7
x: 0.53515625
y: -0.04296875
z: -1.283203125
range: 1.48161697388
velocity: 0.0
doppler_bin: 8
bearing: -4.59054327011
intensity: 21.6435279846
---
header: 
  seq: 245126
  stamp: 
    secs: 1561863914
    nsecs: 729692849
  frame_id: "ti_mmwave"
point_id: 8
x: 2.615234375
y: -0.17578125
z: 1.048828125
range: 3.00681090355
velocity: 0.0
doppler_bin: 8
bearing: -3.84531402588
intensity: 28.656961441
---
header: 
  seq: 245127
  stamp: 
    secs: 1561863914
    nsecs: 729703970
  frame_id: "ti_mmwave"
point_id: 9
x: 2.6640625
y: -0.1796875
z: 1.03515625
range: 3.05038785934
velocity: 0.0
doppler_bin: 8
bearing: -3.85868024826
intensity: 32.2427406311
---
header: 
  seq: 245128
  stamp: 
    secs: 1561863914
    nsecs: 729802133
  frame_id: "ti_mmwave"
point_id: 10
x: 2.7578125
y: -0.08984375
z: 0.904296875
range: 3.09396481514
velocity: 0.0
doppler_bin: 8
bearing: -1.86591637135
intensity: 31.3417701721
---
header: 
  seq: 245129
  stamp: 
    secs: 1561863914
    nsecs: 729812545
  frame_id: "ti_mmwave"
point_id: 11
x: 4.39453125
y: -0.142578125
z: 1.2890625
range: 4.88062095642
velocity: 0.0
doppler_bin: 8
bearing: -1.8582777977
intensity: 31.3001194
---
header: 
  seq: 245130
  stamp: 
    secs: 1561863914
    nsecs: 729820463
  frame_id: "ti_mmwave"
point_id: 12
x: 4.41015625
y: -0.14453125
z: 1.376953125
range: 4.9241976738
velocity: 0.0
doppler_bin: 8
bearing: -1.87704658508
intensity: 30.6744289398
---
header: 
  seq: 245131
  stamp: 
    secs: 1561863914
    nsecs: 729825504
  frame_id: "ti_mmwave"
point_id: 13
x: 4.8125
y: -0.306640625
z: 0.912109375
range: 5.22923660278
velocity: 0.0
doppler_bin: 8
bearing: -3.6458170414
intensity: 29.863237381
---
header: 
  seq: 245132
  stamp: 
    secs: 1561863914
    nsecs: 729848881
  frame_id: "ti_mmwave"
point_id: 14
x: 4.888671875
y: -0.30859375
z: 0.705078125
range: 5.27281332016
velocity: 0.0
doppler_bin: 8
bearing: -3.61196112633
intensity: 31.0482845306
---
header: 
  seq: 245133
  stamp: 
    secs: 1561863914
    nsecs: 729857028
  frame_id: "ti_mmwave"
point_id: 15
x: 4.951171875
y: -0.623046875
z: 0.01171875
range: 5.31639051437
velocity: 0.0
doppler_bin: 8
bearing: -7.17230129242
intensity: 29.6661090851
---
header: 
  seq: 245134
  stamp: 
    secs: 1561863914
    nsecs: 729864791
  frame_id: "ti_mmwave"
point_id: 16
x: 0.01171875
y: 0.03125
z: 0.025390625
range: 0.0435769706964
velocity: 0.0
doppler_bin: 8
bearing: 69.4439544678
intensity: 29.4151134491
---
header: 
  seq: 245135
  stamp: 
    secs: 1561863914
    nsecs: 729874077
  frame_id: "ti_mmwave"
point_id: 17
x: 0.041015625
y: -0.033203125
z: 0.0625
range: 0.0871539413929
velocity: 0.0
doppler_bin: 8
bearing: -38.9909973145
intensity: 30.157787323
---
header: 
  seq: 245136
  stamp: 
    secs: 1561863914
    nsecs: 729881494
  frame_id: "ti_mmwave"
point_id: 18
x: 0.05078125
y: -0.04296875
z: 0.103515625
range: 0.130730912089
velocity: 0.0
doppler_bin: 8
bearing: -40.2363586426
intensity: 29.0308990479
---
header: 
  seq: 245137
  stamp: 
    secs: 1561863914
    nsecs: 789094112
  frame_id: "ti_mmwave"
point_id: 0
x: 0.01171875
y: -0.0390625
z: -0.0078125
range: 0.0435769706964
velocity: 0.0
doppler_bin: 8
bearing: -73.3007583618
intensity: 30.7845687866
---
header: 
  seq: 245138
  stamp: 
    secs: 1561863914
    nsecs: 789165342
  frame_id: "ti_mmwave"
point_id: 1
x: 0.017578125
y: -0.080078125
z: -0.009765625
range: 0.0871539413929
velocity: 0.0
doppler_bin: 8
bearing: -77.6192398071
intensity: 32.0085067749
---
header: 
  seq: 245139
  stamp: 
    secs: 1561863914
    nsecs: 789176066
  frame_id: "ti_mmwave"
point_id: 2
x: 0.041015625
y: -0.115234375
z: -0.009765625
range: 0.130730912089
velocity: 0.0
doppler_bin: 8
bearing: -70.4077224731
intensity: 30.2734966278
---
header: 
  seq: 245140
  stamp: 
    secs: 1561863914
    nsecs: 789185865
  frame_id: "ti_mmwave"
point_id: 3
x: 0.056640625
y: -0.154296875
z: 0.00390625
range: 0.174307882786
velocity: 0.0
doppler_bin: 8
bearing: -69.8423843384
intensity: 25.5266819
---
header: 
  seq: 245141
  stamp: 
    secs: 1561863914
    nsecs: 789196179
  frame_id: "ti_mmwave"
point_id: 4
x: 0.181640625
y: -0.080078125
z: 1.251953125
range: 1.35088610649
velocity: 0.0
doppler_bin: 8
bearing: -23.7907733917
intensity: 23.138671875
---
header: 
  seq: 245142
  stamp: 
    secs: 1561863914
    nsecs: 789204310
  frame_id: "ti_mmwave"
point_id: 5
x: 0.0625
y: -0.08203125
z: 1.3046875
range: 1.39446306229
velocity: 0.0
doppler_bin: 8
bearing: -52.6960487366
intensity: 24.6089782715
---
header: 
  seq: 245143
  stamp: 
    secs: 1561863914
    nsecs: 789212380
  frame_id: "ti_mmwave"
point_id: 6
x: 0.39453125
y: -0.083984375
z: -1.2890625
range: 1.43804001808
velocity: 0.0
doppler_bin: 8
bearing: -12.0172519684
intensity: 23.0102996826
---
header: 
  seq: 245144
  stamp: 
    secs: 1561863914
    nsecs: 789220172
  frame_id: "ti_mmwave"
point_id: 7
x: 0.5390625
y: -0.04296875
z: -1.28125
range: 1.48161697388
velocity: 0.0
doppler_bin: 8
bearing: -4.55741930008
intensity: 21.6731739044
---
header: 
  seq: 245145
  stamp: 
    secs: 1561863914
    nsecs: 789228099
  frame_id: "ti_mmwave"
point_id: 8
x: 2.69140625
y: -0.17578125
z: 0.830078125
range: 3.00681090355
velocity: 0.0
doppler_bin: 8
bearing: -3.73679685593
intensity: 29.9299507141
---
header: 
  seq: 245146
  stamp: 
    secs: 1561863914
    nsecs: 789236321
  frame_id: "ti_mmwave"
point_id: 9
x: 2.689453125
y: -0.1796875
z: 0.96875
range: 3.05038785934
velocity: 0.0
doppler_bin: 8
bearing: -3.82236003876
intensity: 32.5188140869
---
header: 
  seq: 245147
  stamp: 
    secs: 1561863914
    nsecs: 789244208
  frame_id: "ti_mmwave"
point_id: 10
x: 2.767578125
y: -0.08984375
z: 0.875
range: 3.09396481514
velocity: 0.0
doppler_bin: 8
bearing: -1.85933709145
intensity: 31.3703746796
---
header: 
  seq: 245148
  stamp: 
    secs: 1561863914
    nsecs: 789256046
  frame_id: "ti_mmwave"
point_id: 11
x: 4.419921875
y: -0.142578125
z: 1.033203125
range: 4.83704376221
velocity: 0.0
doppler_bin: 8
bearing: -1.847610116
intensity: 28.1888542175
---
header: 
  seq: 245149
  stamp: 
    secs: 1561863914
    nsecs: 789264438
  frame_id: "ti_mmwave"
point_id: 12
x: 4.412109375
y: -0.142578125
z: 1.22265625
range: 4.88062095642
velocity: 0.0
doppler_bin: 8
bearing: -1.85087943077
intensity: 31.4519634247
---
header: 
  seq: 245150
  stamp: 
    secs: 1561863914
    nsecs: 789272871
  frame_id: "ti_mmwave"
point_id: 13
x: 4.431640625
y: -0.14453125
z: 1.3046875
range: 4.9241976738
velocity: 0.0
doppler_bin: 8
bearing: -1.86795306206
intensity: 30.9516925812
---
header: 
  seq: 245151
  stamp: 
    secs: 1561863914
    nsecs: 789281042
  frame_id: "ti_mmwave"
point_id: 14
x: 4.892578125
y: -0.30859375
z: 0.685546875
range: 5.27281332016
velocity: 0.0
doppler_bin: 8
bearing: -3.60908436775
intensity: 30.8849048615
---
header: 
  seq: 245152
  stamp: 
    secs: 1561863914
    nsecs: 789289117
  frame_id: "ti_mmwave"
point_id: 15
x: 4.951171875
y: -0.623046875
z: 0.01953125
range: 5.31639051437
velocity: 0.0
doppler_bin: 8
bearing: -7.17230129242
intensity: 29.5375976562
---
header: 
  seq: 245153
  stamp: 
    secs: 1561863914
    nsecs: 789297267
  frame_id: "ti_mmwave"
point_id: 16
x: 0.01171875
y: 0.03125
z: 0.0234375
range: 0.0435769706964
velocity: 0.0
doppler_bin: 8
bearing: 69.4439544678
intensity: 29.4151134491
---
header: 
  seq: 245154
  stamp: 
    secs: 1561863914
    nsecs: 789308079
  frame_id: "ti_mmwave"
point_id: 17
x: 0.041015625
y: -0.033203125
z: 0.0625
range: 0.0871539413929
velocity: 0.0
doppler_bin: 8
bearing: -38.9909973145
intensity: 30.1619739532
---
header: 
  seq: 245155
  stamp: 
    secs: 1561863914
    nsecs: 789479233
  frame_id: "ti_mmwave"
point_id: 18
x: 0.052734375
y: -0.04296875
z: 0.103515625
range: 0.130730912089
velocity: 0.0
doppler_bin: 8
bearing: -39.1736602783
intensity: 29.0308990479
---
header: 
  seq: 245156
  stamp: 
    secs: 1561863914
    nsecs: 848399807
  frame_id: "ti_mmwave"
point_id: 0
x: 0.01171875
y: -0.0390625
z: -0.0078125
range: 0.0435769706964
velocity: 0.0
doppler_bin: 8
bearing: -73.3007583618
intensity: 30.7845687866
---
header: 
  seq: 245157
  stamp: 
    secs: 1561863914
    nsecs: 848478399
  frame_id: "ti_mmwave"
point_id: 1
x: 0.017578125
y: -0.080078125
z: -0.009765625
range: 0.0871539413929
velocity: 0.0
doppler_bin: 8
bearing: -77.6192398071
intensity: 32.0057678223
---
header: 
  seq: 245158
  stamp: 
    secs: 1561863914
    nsecs: 848489594
  frame_id: "ti_mmwave"
point_id: 2
x: 0.029296875
y: -0.119140625
z: -0.005859375
range: 0.130730912089
velocity: 0.0
doppler_bin: 8
bearing: -76.1849746704
intensity: 30.2694168091
---
header: 
  seq: 245159
  stamp: 
    secs: 1561863914
    nsecs: 848497666
  frame_id: "ti_mmwave"
point_id: 3
x: 0.056640625
y: -0.154296875
z: 0.005859375
range: 0.174307882786
velocity: 0.0
doppler_bin: 8
bearing: -69.8423843384
intensity: 25.5266819
---
header: 
  seq: 245160
  stamp: 
    secs: 1561863914
    nsecs: 848506236
  frame_id: "ti_mmwave"
point_id: 4
x: 0.12109375
y: -0.080078125
z: 1.259765625
range: 1.35088610649
velocity: 0.0
doppler_bin: 8
bearing: -33.4762802124
intensity: 23.138671875
---
header: 
  seq: 245161
  stamp: 
    secs: 1561863914
    nsecs: 848516768
  frame_id: "ti_mmwave"
point_id: 5
x: 0.064453125
y: -0.08203125
z: -1.3046875
range: 1.39446306229
velocity: 0.0
doppler_bin: 8
bearing: -51.8427734375
intensity: 24.6089782715
---
header: 
  seq: 245162
  stamp: 
    secs: 1561863914
    nsecs: 848526019
  frame_id: "ti_mmwave"
point_id: 6
x: 0.4453125
y: -0.083984375
z: -1.271484375
range: 1.43804001808
velocity: 0.0
doppler_bin: 8
bearing: -10.6803331375
intensity: 23.0102996826
---
header: 
  seq: 245163
  stamp: 
    secs: 1561863914
    nsecs: 848534272
  frame_id: "ti_mmwave"
point_id: 7
x: 0.556640625
y: -0.04296875
z: -1.2734375
range: 1.48161697388
velocity: 0.0
doppler_bin: 8
bearing: -4.41407871246
intensity: 21.6731739044
---
header: 
  seq: 245164
  stamp: 
    secs: 1561863914
    nsecs: 848543905
  frame_id: "ti_mmwave"
point_id: 8
x: 2.66015625
y: -0.17578125
z: 0.92578125
range: 3.00681090355
velocity: 0.0
doppler_bin: 8
bearing: -3.7805685997
intensity: 29.5133743286
---
header: 
  seq: 245165
  stamp: 
    secs: 1561863914
    nsecs: 848717968
  frame_id: "ti_mmwave"
point_id: 9
x: 2.673828125
y: -0.1796875
z: 1.0078125
range: 3.05038785934
velocity: 0.0
doppler_bin: 8
bearing: -3.84462928772
intensity: 32.4204406738
---
header: 
  seq: 245166
  stamp: 
    secs: 1561863914
    nsecs: 848737297
  frame_id: "ti_mmwave"
point_id: 10
x: 2.76171875
y: -0.08984375
z: 0.896484375
range: 3.09396481514
velocity: 0.0
doppler_bin: 8
bearing: -1.86327898502
intensity: 31.3576850891
---
header: 
  seq: 245167
  stamp: 
    secs: 1561863914
    nsecs: 848745601
  frame_id: "ti_mmwave"
point_id: 11
x: 4.421875
y: -0.142578125
z: 1.0234375
range: 4.83704376221
velocity: 0.0
doppler_bin: 8
bearing: -1.84679484367
intensity: 28.1954402924
---
header: 
  seq: 245168
  stamp: 
    secs: 1561863914
    nsecs: 848756076
  frame_id: "ti_mmwave"
point_id: 12
x: 4.421875
y: -0.142578125
z: 1.19140625
range: 4.88062095642
velocity: 0.0
doppler_bin: 8
bearing: -1.84679484367
intensity: 31.5563964844
---
header: 
  seq: 245169
  stamp: 
    secs: 1561863914
    nsecs: 848761434
  frame_id: "ti_mmwave"
point_id: 13
x: 4.4453125
y: -0.14453125
z: 1.2578125
range: 4.9241976738
velocity: 0.0
doppler_bin: 8
bearing: -1.86221218109
intensity: 31.05169487
---
header: 
  seq: 245170
  stamp: 
    secs: 1561863914
    nsecs: 848766143
  frame_id: "ti_mmwave"
point_id: 14
x: 4.890625
y: -0.30859375
z: 0.697265625
range: 5.27281332016
velocity: 0.0
doppler_bin: 8
bearing: -3.61052203178
intensity: 30.9166698456
---
header: 
  seq: 245171
  stamp: 
    secs: 1561863914
    nsecs: 848777535
  frame_id: "ti_mmwave"
point_id: 15
x: 4.951171875
y: -0.623046875
z: 0.0390625
range: 5.31639051437
velocity: 0.0
doppler_bin: 8
bearing: -7.17230129242
intensity: 29.5520648956
---
header: 
  seq: 245172
  stamp: 
    secs: 1561863914
    nsecs: 848835541
  frame_id: "ti_mmwave"
point_id: 16
x: 0.01171875
y: 0.03125
z: 0.025390625
range: 0.0435769706964
velocity: 0.0
doppler_bin: 8
bearing: 69.4439544678
intensity: 29.4151134491
---
header: 
  seq: 245173
  stamp: 
    secs: 1561863914
    nsecs: 848846260
  frame_id: "ti_mmwave"
point_id: 17
x: 0.041015625
y: -0.033203125
z: 0.0625
range: 0.0871539413929
velocity: 0.0
doppler_bin: 8
bearing: -38.9909973145
intensity: 30.1619739532
---
header: 
  seq: 245174
  stamp: 
    secs: 1561863914
    nsecs: 848854431
  frame_id: "ti_mmwave"
point_id: 18
x: 0.052734375
y: -0.04296875
z: 0.103515625
range: 0.130730912089
velocity: 0.0
doppler_bin: 8
bearing: -39.1736602783
intensity: 29.0308990479
---
header: 
  seq: 245175
  stamp: 
    secs: 1561863914
    nsecs: 849483659
  frame_id: "ti_mmwave"
point_id: 0
x: 0.01171875
y: -0.0390625
z: -0.0078125
range: 0.0435769706964
velocity: 0.0
doppler_bin: 8
bearing: -73.3007583618
intensity: 30.7845687866
---
header: 
  seq: 245176
  stamp: 
    secs: 1561863914
    nsecs: 849550697
  frame_id: "ti_mmwave"
point_id: 1
x: 0.017578125
y: -0.080078125
z: -0.009765625
range: 0.0871539413929
velocity: 0.0
doppler_bin: 8
bearing: -77.6192398071
intensity: 32.0057678223
---
header: 
  seq: 245177
  stamp: 
    secs: 1561863914
    nsecs: 849572244
  frame_id: "ti_mmwave"
point_id: 2
x: 0.029296875
y: -0.119140625
z: -0.005859375
range: 0.130730912089
velocity: 0.0
doppler_bin: 8
bearing: -76.1849746704
intensity: 30.2734966278
---
header: 
  seq: 245178
  stamp: 
    secs: 1561863914
    nsecs: 849590452
  frame_id: "ti_mmwave"
point_id: 3
x: 0.056640625
y: -0.154296875
z: 0.005859375
range: 0.174307882786
velocity: 0.0
doppler_bin: 8
bearing: -69.8423843384
intensity: 25.5266819
---
header: 
  seq: 245179
  stamp: 
    secs: 1561863914
    nsecs: 849660361
  frame_id: "ti_mmwave"
point_id: 4
x: 0.130859375
y: -0.080078125
z: 1.259765625
range: 1.35088610649
velocity: 0.0
doppler_bin: 8
bearing: -31.4641437531
intensity: 23.1597042084
---
header: 
  seq: 245180
  stamp: 
    secs: 1561863914
    nsecs: 849679898
  frame_id: "ti_mmwave"
point_id: 5
x: 0.283203125
y: -0.041015625
z: -1.27734375
range: 1.39446306229
velocity: 0.0
doppler_bin: 8
bearing: -8.24071216583
intensity: 24.6239795685
---
header: 
  seq: 245181
  stamp: 
    secs: 1561863914
    nsecs: 849694368
  frame_id: "ti_mmwave"
point_id: 6
x: 0.52734375
y: -0.04296875
z: -1.2421875
range: 1.43804001808
velocity: 0.0
doppler_bin: 8
bearing: -4.65825366974
intensity: 23.0535144806
---
header: 
  seq: 245182
  stamp: 
    secs: 1561863914
    nsecs: 849706230
  frame_id: "ti_mmwave"
point_id: 7
x: 0.576171875
y: -0.04296875
z: -1.265625
range: 1.48161697388
velocity: 0.0
doppler_bin: 8
bearing: -4.2650103569
intensity: 21.7318630219
---
header: 
  seq: 245183
  stamp: 
    secs: 1561863914
    nsecs: 849718046
  frame_id: "ti_mmwave"
point_id: 8
x: 2.671875
y: -0.087890625
z: 0.908203125
range: 3.00681090355
velocity: 0.0
doppler_bin: 8
bearing: -1.88405025005
intensity: 29.2788333893
---
header: 
  seq: 245184
  stamp: 
    secs: 1561863914
    nsecs: 849730197
  frame_id: "ti_mmwave"
point_id: 9
x: 2.66796875
y: -0.1796875
z: 1.0234375
range: 3.05038785934
velocity: 0.0
doppler_bin: 8
bearing: -3.85304760933
intensity: 32.3678894043
---
header: 
  seq: 245185
  stamp: 
    secs: 1561863914
    nsecs: 849742773
  frame_id: "ti_mmwave"
point_id: 10
x: 2.767578125
y: -0.08984375
z: 0.87890625
range: 3.09396481514
velocity: 0.0
doppler_bin: 8
bearing: -1.85933709145
intensity: 31.3767051697
---
header: 
  seq: 245186
  stamp: 
    secs: 1561863914
    nsecs: 849819380
  frame_id: "ti_mmwave"
point_id: 11
x: 4.40234375
y: -0.142578125
z: 1.1015625
range: 4.83704376221
velocity: 0.0
doppler_bin: 8
bearing: -1.85498249531
intensity: 28.1756534576
---
header: 
  seq: 245187
  stamp: 
    secs: 1561863914
    nsecs: 849836898
  frame_id: "ti_mmwave"
point_id: 12
x: 4.416015625
y: -0.142578125
z: 1.212890625
range: 4.88062095642
velocity: 0.0
doppler_bin: 8
bearing: -1.84924340248
intensity: 31.5044937134
---
header: 
  seq: 245188
  stamp: 
    secs: 1561863914
    nsecs: 849854774
  frame_id: "ti_mmwave"
point_id: 13
x: 4.44921875
y: -0.14453125
z: 1.248046875
range: 4.9241976738
velocity: 0.0
doppler_bin: 8
bearing: -1.86057829857
intensity: 31.0174713135
---
header: 
  seq: 245189
  stamp: 
    secs: 1561863914
    nsecs: 849867155
  frame_id: "ti_mmwave"
point_id: 14
x: 4.890625
y: -0.30859375
z: 0.693359375
range: 5.27281332016
velocity: 0.0
doppler_bin: 8
bearing: -3.61052203178
intensity: 30.9201850891
---
header: 
  seq: 245190
  stamp: 
    secs: 1561863914
    nsecs: 849875385
  frame_id: "ti_mmwave"
point_id: 15
x: 4.951171875
y: -0.623046875
z: 0.05078125
range: 5.31639051437
velocity: 0.0
doppler_bin: 8
bearing: -7.17230129242
intensity: 29.5999488831
---
header: 
  seq: 245191
  stamp: 
    secs: 1561863914
    nsecs: 849971864
  frame_id: "ti_mmwave"
point_id: 16
x: 0.01171875
y: 0.03125
z: 0.025390625
range: 0.0435769706964
velocity: 0.0
doppler_bin: 8
bearing: 69.4439544678
intensity: 29.4101428986
---
header: 
  seq: 245192
  stamp: 
    secs: 1561863914
    nsecs: 850016376
  frame_id: "ti_mmwave"
point_id: 17
x: 0.041015625
y: -0.033203125
z: 0.0625
range: 0.0871539413929
velocity: 0.0
doppler_bin: 8
bearing: -38.9909973145
intensity: 30.157787323
---
header: 
  seq: 245193
  stamp: 
    secs: 1561863914
    nsecs: 850034528
  frame_id: "ti_mmwave"
point_id: 18
x: 0.052734375
y: -0.04296875
z: 0.103515625
range: 0.130730912089
velocity: 0.0
doppler_bin: 8
bearing: -39.1736602783
intensity: 29.0308990479
---
header: 
  seq: 245194
  stamp: 
    secs: 1561863914
    nsecs: 908454335
  frame_id: "ti_mmwave"
point_id: 0
x: 0.01171875
y: -0.0390625
z: -0.0078125
range: 0.0435769706964
velocity: 0.0
doppler_bin: 8
bearing: -73.3007583618
intensity: 30.788192749
---
header: 
  seq: 245195
  stamp: 
    secs: 1561863914
    nsecs: 908550225
  frame_id: "ti_mmwave"
point_id: 1
x: 0.017578125
y: -0.080078125
z: -0.009765625
range: 0.0871539413929
velocity: 0.0
doppler_bin: 8
bearing: -77.6192398071
intensity: 32.0085067749
---
header: 
  seq: 245196
  stamp: 
    secs: 1561863914
    nsecs: 908569887
  frame_id: "ti_mmwave"
point_id: 2
x: 0.029296875
y: -0.119140625
z: -0.005859375
range: 0.130730912089
velocity: 0.0
doppler_bin: 8
bearing: -76.1849746704
intensity: 30.2694168091
---
header: 
  seq: 245197
  stamp: 
    secs: 1561863914
    nsecs: 908584290
  frame_id: "ti_mmwave"
point_id: 3
x: 0.056640625
y: -0.154296875
z: 0.005859375
range: 0.174307882786
velocity: 0.0
doppler_bin: 8
bearing: -69.8423843384
intensity: 25.5144996643
---
header: 
  seq: 245198
  stamp: 
    secs: 1561863914
    nsecs: 908598511
  frame_id: "ti_mmwave"
point_id: 4
x: 0.177734375
y: -0.080078125
z: 1.25390625
range: 1.35088610649
velocity: 0.0
doppler_bin: 8
bearing: -24.2539196014
intensity: 23.2014636993
---
header: 
  seq: 245199
  stamp: 
    secs: 1561863914
    nsecs: 908619303
  frame_id: "ti_mmwave"
point_id: 6
x: 0.443359375
y: -0.083984375
z: -1.271484375
range: 1.43804001808
velocity: 0.0
doppler_bin: 8
bearing: -10.7262945175
intensity: 23.0963020325
---
header: 
  seq: 245200
  stamp: 
    secs: 1561863914
    nsecs: 908698964
  frame_id: "ti_mmwave"
point_id: 7
x: 0.576171875
y: -0.04296875
z: -1.265625
range: 1.48161697388
velocity: 0.0
doppler_bin: 8
bearing: -4.2650103569
intensity: 21.7318630219
---
header: 
  seq: 245201
  stamp: 
    secs: 1561863914
    nsecs: 908717427
  frame_id: "ti_mmwave"
point_id: 8
x: 2.69921875
y: -0.087890625
z: 0.818359375
range: 3.00681090355
velocity: 0.0
doppler_bin: 8
bearing: -1.86497783661
intensity: 29.380191803
---
header: 
  seq: 245202
  stamp: 
    secs: 1561863914
    nsecs: 908731095
  frame_id: "ti_mmwave"
point_id: 9
x: 2.689453125
y: -0.1796875
z: 0.96484375
range: 3.05038785934
velocity: 0.0
doppler_bin: 8
bearing: -3.82236003876
intensity: 32.4797325134
---
header: 
  seq: 245203
  stamp: 
    secs: 1561863914
    nsecs: 908744407
  frame_id: "ti_mmwave"
point_id: 10
x: 2.76953125
y: -0.08984375
z: 0.869140625
range: 3.09396481514
velocity: 0.0
doppler_bin: 8
bearing: -1.85802662373
intensity: 31.5044937134
---
header: 
  seq: 245204
  stamp: 
    secs: 1561863914
    nsecs: 908759638
  frame_id: "ti_mmwave"
point_id: 11
x: 4.41015625
y: -0.142578125
z: 1.0703125
range: 4.83704376221
velocity: 0.0
doppler_bin: 8
bearing: -1.85169863701
intensity: 28.1090431213
---
header: 
  seq: 245205
  stamp: 
    secs: 1561863914
    nsecs: 908773457
  frame_id: "ti_mmwave"
point_id: 12
x: 4.416015625
y: -0.142578125
z: 1.2109375
range: 4.88062095642
velocity: 0.0
doppler_bin: 8
bearing: -1.84924340248
intensity: 31.4363918304
---
header: 
  seq: 245206
  stamp: 
    secs: 1561863914
    nsecs: 908786812
  frame_id: "ti_mmwave"
point_id: 13
x: 4.4453125
y: -0.14453125
z: 1.259765625
range: 4.9241976738
velocity: 0.0
doppler_bin: 8
bearing: -1.86221218109
intensity: 30.9201850891
---
header: 
  seq: 245207
  stamp: 
    secs: 1561863914
    nsecs: 908801053
  frame_id: "ti_mmwave"
point_id: 14
x: 4.890625
y: -0.30859375
z: 0.701171875
range: 5.27281332016
velocity: 0.0
doppler_bin: 8
bearing: -3.61052203178
intensity: 30.9131507874
---
header: 
  seq: 245208
  stamp: 
    secs: 1561863914
    nsecs: 908837582
  frame_id: "ti_mmwave"
point_id: 15
x: 4.951171875
y: -0.623046875
z: 0.0234375
range: 5.31639051437
velocity: 0.0
doppler_bin: 8
bearing: -7.17230129242
intensity: 29.5808582306
---
header: 
  seq: 245209
  stamp: 
    secs: 1561863914
    nsecs: 908861123
  frame_id: "ti_mmwave"
point_id: 16
x: 0.01171875
y: 0.03125
z: 0.025390625
range: 0.0435769706964
velocity: 0.0
doppler_bin: 8
bearing: 69.4439544678
intensity: 29.4101428986
---
header: 
  seq: 245210
  stamp: 
    secs: 1561863914
    nsecs: 908884453
  frame_id: "ti_mmwave"
point_id: 17
x: 0.041015625
y: -0.033203125
z: 0.0625
range: 0.0871539413929
velocity: 0.0
doppler_bin: 8
bearing: -38.9909973145
intensity: 30.1619739532
---
header: 
  seq: 245211
  stamp: 
    secs: 1561863914
    nsecs: 908906540
  frame_id: "ti_mmwave"
point_id: 18
x: 0.052734375
y: -0.04296875
z: 0.103515625
range: 0.130730912089
velocity: 0.0
doppler_bin: 8
bearing: -39.1736602783
intensity: 29.0308990479
---
header: 
  seq: 245212
  stamp: 
    secs: 1561863914
    nsecs: 909746879
  frame_id: "ti_mmwave"
point_id: 0
x: 0.01171875
y: -0.0390625
z: -0.0078125
range: 0.0435769706964
velocity: 0.0
doppler_bin: 8
bearing: -73.3007583618
intensity: 30.788192749
---
header: 
  seq: 245213
  stamp: 
    secs: 1561863914
    nsecs: 909808262
  frame_id: "ti_mmwave"
point_id: 1
x: 0.017578125
y: -0.080078125
z: -0.009765625
range: 0.0871539413929
velocity: 0.0
doppler_bin: 8
bearing: -77.6192398071
intensity: 32.0057678223
---
header: 
  seq: 245214
  stamp: 
    secs: 1561863914
    nsecs: 909827203
  frame_id: "ti_mmwave"
point_id: 2
x: 0.041015625
y: -0.115234375
z: -0.009765625
range: 0.130730912089
velocity: 0.0
doppler_bin: 8
bearing: -70.4077224731
intensity: 30.2653331757
---
header: 
  seq: 245215
  stamp: 
    secs: 1561863914
    nsecs: 909845194
  frame_id: "ti_mmwave"
point_id: 3
x: 0.056640625
y: -0.154296875
z: 0.005859375
range: 0.174307882786
velocity: 0.0
doppler_bin: 8
bearing: -69.8423843384
intensity: 25.5266819
---
header: 
  seq: 245216
  stamp: 
    secs: 1561863914
    nsecs: 909859703
  frame_id: "ti_mmwave"
point_id: 4
x: 0.107421875
y: -0.080078125
z: 1.26171875
range: 1.35088610649
velocity: 0.0
doppler_bin: 8
bearing: -36.7028541565
intensity: 23.1597042084
---
header: 
  seq: 245217
  stamp: 
    secs: 1561863914
    nsecs: 909875495
  frame_id: "ti_mmwave"
point_id: 5
x: 0.279296875
y: -0.041015625
z: -1.27734375
range: 1.39446306229
velocity: 0.0
doppler_bin: 8
bearing: -8.3543510437
intensity: 24.6239795685
---
header: 
  seq: 245218
  stamp: 
    secs: 1561863914
    nsecs: 909893216
  frame_id: "ti_mmwave"
point_id: 6
x: 0.52734375
y: -0.04296875
z: -1.2421875
range: 1.43804001808
velocity: 0.0
doppler_bin: 8
bearing: -4.65825366974
intensity: 23.031961441
---
header: 
  seq: 245219
  stamp: 
    secs: 1561863914
    nsecs: 909907995
  frame_id: "ti_mmwave"
point_id: 7
x: 0.556640625
y: -0.04296875
z: -1.2734375
range: 1.48161697388
velocity: 0.0
doppler_bin: 8
bearing: -4.41407871246
intensity: 21.7026176453
---
header: 
  seq: 245220
  stamp: 
    secs: 1561863914
    nsecs: 909923112
  frame_id: "ti_mmwave"
point_id: 8
x: 2.640625
y: -0.1796875
z: 1.091796875
range: 3.05038785934
velocity: 0.0
doppler_bin: 8
bearing: -3.89282417297
intensity: 32.1351776123
---
header: 
  seq: 245221
  stamp: 
    secs: 1561863914
    nsecs: 909939017
  frame_id: "ti_mmwave"
point_id: 9
x: 2.75
y: -0.08984375
z: 0.931640625
range: 3.09396481514
velocity: 0.0
doppler_bin: 8
bearing: -1.87121355534
intensity: 31.3289985657
---
header: 
  seq: 245222
  stamp: 
    secs: 1561863914
    nsecs: 909958920
  frame_id: "ti_mmwave"
point_id: 10
x: 4.41015625
y: -0.142578125
z: 1.0703125
range: 4.83704376221
velocity: 0.0
doppler_bin: 8
bearing: -1.85169863701
intensity: 28.0002937317
---
header: 
  seq: 245223
  stamp: 
    secs: 1561863914
    nsecs: 910086346
  frame_id: "ti_mmwave"
point_id: 11
x: 4.416015625
y: -0.142578125
z: 1.212890625
range: 4.88062095642
velocity: 0.0
doppler_bin: 8
bearing: -1.84924340248
intensity: 31.3289985657
---
header: 
  seq: 245224
  stamp: 
    secs: 1561863914
    nsecs: 910155120
  frame_id: "ti_mmwave"
point_id: 12
x: 4.4453125
y: -0.14453125
z: 1.2578125
range: 4.9241976738
velocity: 0.0
doppler_bin: 8
bearing: -1.86221218109
intensity: 30.8314418793
---
header: 
  seq: 245225
  stamp: 
    secs: 1561863914
    nsecs: 910167638
  frame_id: "ti_mmwave"
point_id: 13
x: 4.896484375
y: -0.30859375
z: 0.66015625
range: 5.27281332016
velocity: 0.0
doppler_bin: 8
bearing: -3.6062130928
intensity: 30.9656238556
---
header: 
  seq: 245226
  stamp: 
    secs: 1561863914
    nsecs: 910182345
  frame_id: "ti_mmwave"
point_id: 14
x: 4.951171875
y: -0.623046875
z: 0.01953125
range: 5.31639051437
velocity: 0.0
doppler_bin: 8
bearing: -7.17230129242
intensity: 29.6047077179
---
header: 
  seq: 245227
  stamp: 
    secs: 1561863914
    nsecs: 910197111
  frame_id: "ti_mmwave"
point_id: 15
x: 0.01171875
y: 0.03125
z: 0.025390625
range: 0.0435769706964
velocity: 0.0
doppler_bin: 8
bearing: 69.4439544678
intensity: 29.4051647186
---
header: 
  seq: 245228
  stamp: 
    secs: 1561863914
    nsecs: 910211915
  frame_id: "ti_mmwave"
point_id: 16
x: 0.041015625
y: -0.033203125
z: 0.0625
range: 0.0871539413929
velocity: 0.0
doppler_bin: 8
bearing: -38.9909973145
intensity: 30.1535968781
---
header: 
  seq: 245229
  stamp: 
    secs: 1561863914
    nsecs: 910225262
  frame_id: "ti_mmwave"
point_id: 17
x: 0.052734375
y: -0.04296875
z: 0.103515625
range: 0.130730912089
velocity: 0.0
doppler_bin: 8
bearing: -39.1736602783
intensity: 29.0254669189
---
header: 
  seq: 245230
  stamp: 
    secs: 1561863914
    nsecs: 968443667
  frame_id: "ti_mmwave"
point_id: 0
x: 0.01171875
y: -0.0390625
z: -0.0078125
range: 0.0435769706964
velocity: 0.0
doppler_bin: 8
bearing: -73.3007583618
intensity: 30.7845687866
---
header: 
  seq: 245231
  stamp: 
    secs: 1561863914
    nsecs: 968516934
  frame_id: "ti_mmwave"
point_id: 1
x: 0.017578125
y: -0.080078125
z: -0.009765625
range: 0.0871539413929
velocity: 0.0
doppler_bin: 8
bearing: -77.6192398071
intensity: 32.0057678223
---
header: 
  seq: 245232
  stamp: 
    secs: 1561863914
    nsecs: 968532033
  frame_id: "ti_mmwave"
point_id: 2
x: 0.029296875
y: -0.119140625
z: -0.005859375
range: 0.130730912089
velocity: 0.0
doppler_bin: 8
bearing: -76.1849746704
intensity: 30.2694168091
---
header: 
  seq: 245233
  stamp: 
    secs: 1561863914
    nsecs: 968542511
  frame_id: "ti_mmwave"
point_id: 3
x: 0.056640625
y: -0.154296875
z: 0.005859375
range: 0.174307882786
velocity: 0.0
doppler_bin: 8
bearing: -69.8423843384
intensity: 25.5266819
---
header: 
  seq: 245234
  stamp: 
    secs: 1561863914
    nsecs: 968550944
  frame_id: "ti_mmwave"
point_id: 4
x: 0.1875
y: -0.080078125
z: 1.251953125
range: 1.35088610649
velocity: 0.0
doppler_bin: 8
bearing: -23.1265201569
intensity: 23.1597042084
---
header: 
  seq: 245235
  stamp: 
    secs: 1561863914
    nsecs: 968559408
  frame_id: "ti_mmwave"
point_id: 5
x: 0.09765625
y: -0.08203125
z: 1.302734375
range: 1.39446306229
velocity: 0.0
doppler_bin: 8
bearing: -40.0302581787
intensity: 24.6389293671
---
header: 
  seq: 245236
  stamp: 
    secs: 1561863914
    nsecs: 968567147
  frame_id: "ti_mmwave"
point_id: 6
x: 0.40625
y: -0.083984375
z: -1.28515625
range: 1.43804001808
velocity: 0.0
doppler_bin: 8
bearing: -11.6802606583
intensity: 23.031961441
---
header: 
  seq: 245237
  stamp: 
    secs: 1561863914
    nsecs: 968575568
  frame_id: "ti_mmwave"
point_id: 7
x: 0.5390625
y: -0.04296875
z: -1.28125
range: 1.48161697388
velocity: 0.0
doppler_bin: 8
bearing: -4.55741930008
intensity: 21.7026176453
---
header: 
  seq: 245238
  stamp: 
    secs: 1561863914
    nsecs: 968755803
  frame_id: "ti_mmwave"
point_id: 8
x: 2.626953125
y: -0.17578125
z: 1.01953125
range: 3.00681090355
velocity: 0.0
doppler_bin: 8
bearing: -3.82821130753
intensity: 29.2582759857
---
header: 
  seq: 245239
  stamp: 
    secs: 1561863914
    nsecs: 968798017
  frame_id: "ti_mmwave"
point_id: 9
x: 2.669921875
y: -0.1796875
z: 1.01953125
range: 3.05038785934
velocity: 0.0
doppler_bin: 8
bearing: -3.85023736954
intensity: 32.3729248047
---
header: 
  seq: 245240
  stamp: 
    secs: 1561863914
    nsecs: 968815102
  frame_id: "ti_mmwave"
point_id: 10
x: 2.767578125
y: -0.08984375
z: 0.876953125
range: 3.09396481514
velocity: 0.0
doppler_bin: 8
bearing: -1.85933709145
intensity: 31.4674797058
---
header: 
  seq: 245241
  stamp: 
    secs: 1561863914
    nsecs: 968823632
  frame_id: "ti_mmwave"
point_id: 11
x: 4.41015625
y: -0.142578125
z: 1.072265625
range: 4.83704376221
velocity: 0.0
doppler_bin: 8
bearing: -1.85169863701
intensity: 28.0888595581
---
header: 
  seq: 245242
  stamp: 
    secs: 1561863914
    nsecs: 968836500
  frame_id: "ti_mmwave"
point_id: 12
x: 4.416015625
y: -0.142578125
z: 1.208984375
range: 4.88062095642
velocity: 0.0
doppler_bin: 8
bearing: -1.84924340248
intensity: 31.4332714081
---
header: 
  seq: 245243
  stamp: 
    secs: 1561863914
    nsecs: 968846897
  frame_id: "ti_mmwave"
point_id: 13
x: 4.4453125
y: -0.14453125
z: 1.26171875
range: 4.9241976738
velocity: 0.0
doppler_bin: 8
bearing: -1.86221218109
intensity: 30.8671569824
---
header: 
  seq: 245244
  stamp: 
    secs: 1561863914
    nsecs: 969200906
  frame_id: "ti_mmwave"
point_id: 14
x: 4.890625
y: -0.30859375
z: 0.6953125
range: 5.27281332016
velocity: 0.0
doppler_bin: 8
bearing: -3.61052203178
intensity: 31.176027298
---
header: 
  seq: 245245
  stamp: 
    secs: 1561863914
    nsecs: 969242944
  frame_id: "ti_mmwave"
point_id: 15
x: 4.951171875
y: -0.623046875
z: 0.083984375
range: 5.31639051437
velocity: 0.0
doppler_bin: 8
bearing: -7.17230129242
intensity: 29.8227119446
---
header: 
  seq: 245246
  stamp: 
    secs: 1561863914
    nsecs: 969312308
  frame_id: "ti_mmwave"
point_id: 16
x: 0.01171875
y: 0.03125
z: 0.025390625
range: 0.0435769706964
velocity: 0.0
doppler_bin: 8
bearing: 69.4439544678
intensity: 29.4151134491
---
header: 
  seq: 245247
  stamp: 
    secs: 1561863914
    nsecs: 969334738
  frame_id: "ti_mmwave"
point_id: 17
x: 0.041015625
y: -0.033203125
z: 0.0625
range: 0.0871539413929
velocity: 0.0
doppler_bin: 8
bearing: -38.9909973145
intensity: 30.1619739532
---
header: 
  seq: 245248
  stamp: 
    secs: 1561863914
    nsecs: 969348654
  frame_id: "ti_mmwave"
point_id: 18
x: 0.05078125
y: -0.04296875
z: 0.103515625
range: 0.130730912089
velocity: 0.0
doppler_bin: 8
bearing: -40.2363586426
intensity: 29.0308990479
---
header: 
  seq: 245249
  stamp: 
    secs: 1561863914
    nsecs: 969725184
  frame_id: "ti_mmwave"
point_id: 0
x: 0.01171875
y: -0.0390625
z: -0.0078125
range: 0.0435769706964
velocity: 0.0
doppler_bin: 8
bearing: -73.3007583618
intensity: 30.7918128967
---
header: 
  seq: 245250
  stamp: 
    secs: 1561863914
    nsecs: 969789879
  frame_id: "ti_mmwave"
point_id: 1
x: 0.017578125
y: -0.080078125
z: -0.009765625
range: 0.0871539413929
velocity: 0.0
doppler_bin: 8
bearing: -77.6192398071
intensity: 32.0085067749
---
header: 
  seq: 245251
  stamp: 
    secs: 1561863914
    nsecs: 969807319
  frame_id: "ti_mmwave"
point_id: 2
x: 0.041015625
y: -0.115234375
z: -0.009765625
range: 0.130730912089
velocity: 0.0
doppler_bin: 8
bearing: -70.4077224731
intensity: 30.2694168091
---
header: 
  seq: 245252
  stamp: 
    secs: 1561863914
    nsecs: 969820255
  frame_id: "ti_mmwave"
point_id: 3
x: 0.056640625
y: -0.154296875
z: 0.005859375
range: 0.174307882786
velocity: 0.0
doppler_bin: 8
bearing: -69.8423843384
intensity: 25.5266819
---
header: 
  seq: 245253
  stamp: 
    secs: 1561863914
    nsecs: 969934667
  frame_id: "ti_mmwave"
point_id: 4
x: 0.126953125
y: -0.080078125
z: 1.259765625
range: 1.35088610649
velocity: 0.0
doppler_bin: 8
bearing: -32.2424697876
intensity: 23.0963020325
---
header: 
  seq: 245254
  stamp: 
    secs: 1561863914
    nsecs: 969958504
  frame_id: "ti_mmwave"
point_id: 6
x: 0.435546875
y: -0.083984375
z: -1.275390625
range: 1.43804001808
velocity: 0.0
doppler_bin: 8
bearing: -10.9141130447
intensity: 23.031961441
---
header: 
  seq: 245255
  stamp: 
    secs: 1561863914
    nsecs: 969969007
  frame_id: "ti_mmwave"
point_id: 7
x: 0.56640625
y: -0.04296875
z: -1.26953125
range: 1.48161697388
velocity: 0.0
doppler_bin: 8
bearing: -4.33826684952
intensity: 21.7026176453
---
header: 
  seq: 245256
  stamp: 
    secs: 1561863914
    nsecs: 969976767
  frame_id: "ti_mmwave"
point_id: 8
x: 2.681640625
y: -0.17578125
z: 0.861328125
range: 3.00681090355
velocity: 0.0
doppler_bin: 8
bearing: -3.75036644936
intensity: 29.6754798889
---
header: 
  seq: 245257
  stamp: 
    secs: 1561863914
    nsecs: 969984504
  frame_id: "ti_mmwave"
point_id: 9
x: 2.708984375
y: -0.08984375
z: 0.92578125
range: 3.05038785934
velocity: 0.0
doppler_bin: 8
bearing: -1.89952433109
intensity: 32.4501876831
---
header: 
  seq: 245258
  stamp: 
    secs: 1561863914
    nsecs: 969990018
  frame_id: "ti_mmwave"
point_id: 10
x: 2.76953125
y: -0.08984375
z: 0.8671875
range: 3.09396481514
velocity: 0.0
doppler_bin: 8
bearing: -1.85802662373
intensity: 31.3987903595
---
header: 
  seq: 245259
  stamp: 
    secs: 1561863914
    nsecs: 970001689
  frame_id: "ti_mmwave"
point_id: 11
x: 4.4140625
y: -0.142578125
z: 1.220703125
range: 4.88062095642
velocity: 0.0
doppler_bin: 8
bearing: -1.850061059
intensity: 31.3767051697
---
header: 
  seq: 245260
  stamp: 
    secs: 1561863914
    nsecs: 970060452
  frame_id: "ti_mmwave"
point_id: 12
x: 4.4453125
y: -0.14453125
z: 1.2578125
range: 4.9241976738
velocity: 0.0
doppler_bin: 8
bearing: -1.86221218109
intensity: 30.934217453
---
header: 
  seq: 245261
  stamp: 
    secs: 1561863914
    nsecs: 970072799
  frame_id: "ti_mmwave"
point_id: 13
x: 4.89453125
y: -0.30859375
z: 0.6640625
range: 5.27281332016
velocity: 0.0
doppler_bin: 8
bearing: -3.60764837265
intensity: 31.1126251221
---
header: 
  seq: 245262
  stamp: 
    secs: 1561863914
    nsecs: 970087430
  frame_id: "ti_mmwave"
point_id: 14
x: 4.951171875
y: -0.623046875
z: 0.0078125
range: 5.31639051437
velocity: 0.0
doppler_bin: 8
bearing: -7.17230129242
intensity: 29.6988162994
---
header: 
  seq: 245263
  stamp: 
    secs: 1561863914
    nsecs: 970101167
  frame_id: "ti_mmwave"
point_id: 15
x: 0.01171875
y: 0.03125
z: 0.0234375
range: 0.0435769706964
velocity: 0.0
doppler_bin: 8
bearing: 69.4439544678
intensity: 29.4151134491
---
header: 
  seq: 245264
  stamp: 
    secs: 1561863914
    nsecs: 970113658
  frame_id: "ti_mmwave"
point_id: 16
x: 0.041015625
y: -0.033203125
z: 0.0625
range: 0.0871539413929
velocity: 0.0
doppler_bin: 8
bearing: -38.9909973145
intensity: 30.157787323
---
header: 
  seq: 245265
  stamp: 
    secs: 1561863914
    nsecs: 970122314
  frame_id: "ti_mmwave"
point_id: 17
x: 0.052734375
y: -0.04296875
z: 0.103515625
range: 0.130730912089
velocity: 0.0
doppler_bin: 8
bearing: -39.1736602783
intensity: 29.020029068
---
header: 
  seq: 245266
  stamp: 
    secs: 1561863915
    nsecs:  28523457
  frame_id: "ti_mmwave"
point_id: 0
x: 0.01171875
y: -0.0390625
z: -0.0078125
range: 0.0435769706964
velocity: 0.0
doppler_bin: 8
bearing: -73.3007583618
intensity: 30.7809410095
---
header: 
  seq: 245267
  stamp: 
    secs: 1561863915
    nsecs:  28595261
  frame_id: "ti_mmwave"
point_id: 1
x: 0.017578125
y: -0.080078125
z: -0.009765625
range: 0.0871539413929
velocity: 0.0
doppler_bin: 8
bearing: -77.6192398071
intensity: 32.0057678223
---
header: 
  seq: 245268
  stamp: 
    secs: 1561863915
    nsecs:  28606226
  frame_id: "ti_mmwave"
point_id: 2
x: 0.029296875
y: -0.119140625
z: -0.005859375
range: 0.130730912089
velocity: 0.0
doppler_bin: 8
bearing: -76.1849746704
intensity: 30.2694168091
---
header: 
  seq: 245269
  stamp: 
    secs: 1561863915
    nsecs:  28614782
  frame_id: "ti_mmwave"
point_id: 3
x: 0.056640625
y: -0.154296875
z: 0.005859375
range: 0.174307882786
velocity: 0.0
doppler_bin: 8
bearing: -69.8423843384
intensity: 25.5266819
---
header: 
  seq: 245270
  stamp: 
    secs: 1561863915
    nsecs:  28623184
  frame_id: "ti_mmwave"
point_id: 4
x: 0.181640625
y: -0.080078125
z: 1.251953125
range: 1.35088610649
velocity: 0.0
doppler_bin: 8
bearing: -23.7907733917
intensity: 23.1806335449
---
header: 
  seq: 245271
  stamp: 
    secs: 1561863915
    nsecs:  28636096
  frame_id: "ti_mmwave"
point_id: 6
x: 0.439453125
y: -0.083984375
z: -1.2734375
range: 1.43804001808
velocity: 0.0
doppler_bin: 8
bearing: -10.81939888
intensity: 23.0535144806
---
header: 
  seq: 245272
  stamp: 
    secs: 1561863915
    nsecs:  28645831
  frame_id: "ti_mmwave"
point_id: 7
x: 0.580078125
y: -0.04296875
z: -1.263671875
range: 1.48161697388
velocity: 0.0
doppler_bin: 8
bearing: -4.2363948822
intensity: 21.6731739044
---
header: 
  seq: 245273
  stamp: 
    secs: 1561863915
    nsecs:  28653903
  frame_id: "ti_mmwave"
point_id: 8
x: 2.53515625
y: -0.17578125
z: 1.2265625
range: 3.00681090355
velocity: 0.0
doppler_bin: 8
bearing: -3.96639466286
intensity: 28.6093654633
---
header: 
  seq: 245274
  stamp: 
    secs: 1561863915
    nsecs:  28661843
  frame_id: "ti_mmwave"
point_id: 9
x: 2.625
y: -0.1796875
z: 1.12890625
range: 3.05038785934
velocity: 0.0
doppler_bin: 8
bearing: -3.91592383385
intensity: 32.0112380981
---
header: 
  seq: 245275
  stamp: 
    secs: 1561863915
    nsecs:  28669928
  frame_id: "ti_mmwave"
point_id: 10
x: 2.736328125
y: -0.08984375
z: 0.96875
range: 3.09396481514
velocity: 0.0
doppler_bin: 8
bearing: -1.8805564642
intensity: 31.1126251221
---
header: 
  seq: 245276
  stamp: 
    secs: 1561863915
    nsecs:  28677832
  frame_id: "ti_mmwave"
point_id: 11
x: 4.412109375
y: -0.142578125
z: 1.224609375
range: 4.88062095642
velocity: 0.0
doppler_bin: 8
bearing: -1.85087943077
intensity: 31.3417701721
---
header: 
  seq: 245277
  stamp: 
    secs: 1561863915
    nsecs:  28686423
  frame_id: "ti_mmwave"
point_id: 12
x: 4.44140625
y: -0.14453125
z: 1.271484375
range: 4.9241976738
velocity: 0.0
doppler_bin: 8
bearing: -1.86384868622
intensity: 30.6892757416
---
header: 
  seq: 245278
  stamp: 
    secs: 1561863915
    nsecs:  28694287
  frame_id: "ti_mmwave"
point_id: 13
x: 4.712890625
y: -0.44921875
z: -0.69921875
range: 5.09850549698
velocity: 0.0
doppler_bin: 8
bearing: -5.44481420517
intensity: 30.678144455
---
header: 
  seq: 245279
  stamp: 
    secs: 1561863915
    nsecs:  28718795
  frame_id: "ti_mmwave"
point_id: 14
x: 4.740234375
y: -0.30078125
z: -0.861328125
range: 5.14208269119
velocity: 0.0
doppler_bin: 8
bearing: -3.6307117939
intensity: 31.1327476501
---
header: 
  seq: 245280
  stamp: 
    secs: 1561863915
    nsecs:  28735105
  frame_id: "ti_mmwave"
point_id: 15
x: 4.888671875
y: -0.30859375
z: 0.712890625
range: 5.27281332016
velocity: 0.0
doppler_bin: 8
bearing: -3.61196112633
intensity: 31.020904541
---
header: 
  seq: 245281
  stamp: 
    secs: 1561863915
    nsecs:  28748324
  frame_id: "ti_mmwave"
point_id: 16
x: 4.951171875
y: -0.623046875
z: 0.0546875
range: 5.31639051437
velocity: 0.0
doppler_bin: 8
bearing: -7.17230129242
intensity: 29.6236934662
---
header: 
  seq: 245282
  stamp: 
    secs: 1561863915
    nsecs:  28756475
  frame_id: "ti_mmwave"
point_id: 17
x: 0.01171875
y: 0.03125
z: 0.025390625
range: 0.0435769706964
velocity: 0.0
doppler_bin: 8
bearing: 69.4439544678
intensity: 29.4151134491
---
header: 
  seq: 245283
  stamp: 
    secs: 1561863915
    nsecs:  28908686
  frame_id: "ti_mmwave"
point_id: 18
x: 0.041015625
y: -0.033203125
z: 0.0625
range: 0.0871539413929
velocity: 0.0
doppler_bin: 8
bearing: -38.9909973145
intensity: 30.1535968781
---
header: 
  seq: 245284
  stamp: 
    secs: 1561863915
    nsecs:  28927541
  frame_id: "ti_mmwave"
point_id: 19
x: 0.052734375
y: -0.04296875
z: 0.103515625
range: 0.130730912089
velocity: 0.0
doppler_bin: 8
bearing: -39.1736602783
intensity: 29.0254669189
---
header: 
  seq: 245285
  stamp: 
    secs: 1561863915
    nsecs:  29772702
  frame_id: "ti_mmwave"
point_id: 0
x: 0.01171875
y: -0.0390625
z: -0.0078125
range: 0.0435769706964
velocity: 0.0
doppler_bin: 8
bearing: -73.3007583618
intensity: 30.788192749
---
header: 
  seq: 245286
  stamp: 
    secs: 1561863915
    nsecs:  29877315
  frame_id: "ti_mmwave"
point_id: 1
x: 0.017578125
y: -0.080078125
z: -0.009765625
range: 0.0871539413929
velocity: 0.0
doppler_bin: 8
bearing: -77.6192398071
intensity: 32.0085067749
---
header: 
  seq: 245287
  stamp: 
    secs: 1561863915
    nsecs:  29893964
  frame_id: "ti_mmwave"
point_id: 2
x: 0.029296875
y: -0.119140625
z: -0.005859375
range: 0.130730912089
velocity: 0.0
doppler_bin: 8
bearing: -76.1849746704
intensity: 30.2734966278
---
header: 
  seq: 245288
  stamp: 
    secs: 1561863915
    nsecs:  29904739
  frame_id: "ti_mmwave"
point_id: 3
x: 0.056640625
y: -0.154296875
z: 0.005859375
range: 0.174307882786
velocity: 0.0
doppler_bin: 8
bearing: -69.8423843384
intensity: 25.5266819
---
header: 
  seq: 245289
  stamp: 
    secs: 1561863915
    nsecs:  29913456
  frame_id: "ti_mmwave"
point_id: 4
x: 0.169921875
y: -0.080078125
z: 1.25390625
range: 1.35088610649
velocity: 0.0
doppler_bin: 8
bearing: -25.232831955
intensity: 23.138671875
---
header: 
  seq: 245290
  stamp: 
    secs: 1561863915
    nsecs:  29921673
  frame_id: "ti_mmwave"
point_id: 5
x: 0.25
y: -0.041015625
z: -1.28515625
range: 1.39446306229
velocity: 0.0
doppler_bin: 8
bearing: -9.31708621979
intensity: 24.6089782715
---
header: 
  seq: 245291
  stamp: 
    secs: 1561863915
    nsecs:  30017177
  frame_id: "ti_mmwave"
point_id: 6
x: 0.49609375
y: -0.04296875
z: -1.25390625
range: 1.43804001808
velocity: 0.0
doppler_bin: 8
bearing: -4.95027208328
intensity: 23.0102996826
---
header: 
  seq: 245292
  stamp: 
    secs: 1561863915
    nsecs:  30050856
  frame_id: "ti_mmwave"
point_id: 7
x: 0.544921875
y: -0.04296875
z: -1.279296875
range: 1.48161697388
velocity: 0.0
doppler_bin: 8
bearing: -4.50861787796
intensity: 21.7026176453
---
header: 
  seq: 245293
  stamp: 
    secs: 1561863915
    nsecs:  30074856
  frame_id: "ti_mmwave"
point_id: 8
x: 2.615234375
y: -0.17578125
z: 1.048828125
range: 3.00681090355
velocity: 0.0
doppler_bin: 8
bearing: -3.84531402588
intensity: 29.122220993
---
header: 
  seq: 245294
  stamp: 
    secs: 1561863915
    nsecs:  30088767
  frame_id: "ti_mmwave"
point_id: 9
x: 2.658203125
y: -0.1796875
z: 1.048828125
range: 3.05038785934
velocity: 0.0
doppler_bin: 8
bearing: -3.86716008186
intensity: 32.2916984558
---
header: 
  seq: 245295
  stamp: 
    secs: 1561863915
    nsecs:  30109825
  frame_id: "ti_mmwave"
