header: 
  seq: 259895
  stamp: 
    secs: 1561863936
    nsecs: 989347401
  frame_id: "ti_mmwave"
point_id: 0
x: 0.01171875
y: -0.0390625
z: -0.0078125
range: 0.0435769706964
velocity: 0.0
doppler_bin: 8
bearing: -73.3007583618
intensity: 30.7736797333
---
header: 
  seq: 259896
  stamp: 
    secs: 1561863936
    nsecs: 989441163
  frame_id: "ti_mmwave"
point_id: 1
x: 0.017578125
y: -0.080078125
z: -0.009765625
range: 0.0871539413929
velocity: 0.0
doppler_bin: 8
bearing: -77.6192398071
intensity: 31.9975509644
---
header: 
  seq: 259897
  stamp: 
    secs: 1561863936
    nsecs: 989454310
  frame_id: "ti_mmwave"
point_id: 2
x: 0.029296875
y: -0.119140625
z: -0.005859375
range: 0.130730912089
velocity: 0.0
doppler_bin: 8
bearing: -76.1849746704
intensity: 30.2612457275
---
header: 
  seq: 259898
  stamp: 
    secs: 1561863936
    nsecs: 989462913
  frame_id: "ti_mmwave"
point_id: 3
x: 0.056640625
y: -0.154296875
z: 0.005859375
range: 0.174307882786
velocity: 0.0
doppler_bin: 8
bearing: -69.8423843384
intensity: 25.5022830963
---
header: 
  seq: 259899
  stamp: 
    secs: 1561863936
    nsecs: 989472080
  frame_id: "ti_mmwave"
point_id: 4
x: 0.16796875
y: -0.080078125
z: 1.25390625
range: 1.35088610649
velocity: 0.0
doppler_bin: 8
bearing: -25.489200592
intensity: 23.1597042084
---
header: 
  seq: 259900
  stamp: 
    secs: 1561863936
    nsecs: 989483643
  frame_id: "ti_mmwave"
point_id: 6
x: 0.412109375
y: -0.083984375
z: -1.283203125
range: 1.43804001808
velocity: 0.0
doppler_bin: 8
bearing: -11.518658638
intensity: 23.031961441
---
header: 
  seq: 259901
  stamp: 
    secs: 1561863936
    nsecs: 989491738
  frame_id: "ti_mmwave"
point_id: 7
x: 0.53515625
y: -0.04296875
z: -1.283203125
range: 1.48161697388
velocity: 0.0
doppler_bin: 8
bearing: -4.59054327011
intensity: 21.6731739044
---
header: 
  seq: 259902
  stamp: 
    secs: 1561863936
    nsecs: 989499684
  frame_id: "ti_mmwave"
point_id: 8
x: 2.662109375
y: -0.1796875
z: 1.041015625
range: 3.05038785934
velocity: 0.0
doppler_bin: 8
bearing: -3.86150240898
intensity: 32.2427406311
---
header: 
  seq: 259903
  stamp: 
    secs: 1561863936
    nsecs: 989507656
  frame_id: "ti_mmwave"
point_id: 9
x: 2.755859375
y: -0.08984375
z: 0.916015625
range: 3.09396481514
velocity: 0.0
doppler_bin: 8
bearing: -1.86723792553
intensity: 31.2839927673
---
header: 
  seq: 259904
  stamp: 
    secs: 1561863936
    nsecs: 989515805
  frame_id: "ti_mmwave"
point_id: 10
x: 4.408203125
y: -0.142578125
z: 1.23828125
range: 4.88062095642
velocity: 0.0
doppler_bin: 8
bearing: -1.85251843929
intensity: 31.4643821716
---
header: 
  seq: 259905
  stamp: 
    secs: 1561863936
    nsecs: 989524772
  frame_id: "ti_mmwave"
point_id: 11
x: 4.43359375
y: -0.14453125
z: 1.298828125
range: 4.9241976738
velocity: 0.0
doppler_bin: 8
bearing: -1.86713063717
intensity: 31.3161869049
---
header: 
  seq: 259906
  stamp: 
    secs: 1561863936
    nsecs: 989532721
  frame_id: "ti_mmwave"
point_id: 12
x: 4.744140625
y: -0.298828125
z: -0.564453125
range: 5.09850549698
velocity: 0.0
doppler_bin: 8
bearing: -3.60423564911
intensity: 33.3705978394
---
header: 
  seq: 259907
  stamp: 
    secs: 1561863936
    nsecs: 989543376
  frame_id: "ti_mmwave"
point_id: 13
x: 4.779296875
y: -0.30078125
z: -0.611328125
range: 5.14208269119
velocity: 0.0
doppler_bin: 8
bearing: -3.60111522675
intensity: 33.9759254456
---
header: 
  seq: 259908
  stamp: 
    secs: 1561863936
    nsecs: 989551799
  frame_id: "ti_mmwave"
point_id: 14
x: 4.8046875
y: -0.15234375
z: -0.763671875
range: 5.18565940857
velocity: 0.0
doppler_bin: 8
bearing: -1.81608688831
intensity: 30.6408348083
---
header: 
  seq: 259909
  stamp: 
    secs: 1561863936
    nsecs: 989559721
  frame_id: "ti_mmwave"
point_id: 15
x: 4.900390625
y: -0.30859375
z: 0.626953125
range: 5.27281332016
velocity: 0.0
doppler_bin: 8
bearing: -3.60334610939
intensity: 31.1627559662
---
header: 
  seq: 259910
  stamp: 
    secs: 1561863936
    nsecs: 989568193
  frame_id: "ti_mmwave"
point_id: 16
x: 4.951171875
y: -0.623046875
z: 0.04296875
range: 5.31639051437
velocity: 0.0
doppler_bin: 8
bearing: -7.17230129242
intensity: 30.0389118195
---
header: 
  seq: 259911
  stamp: 
    secs: 1561863936
    nsecs: 989576357
  frame_id: "ti_mmwave"
point_id: 17
x: 0.01171875
y: 0.03125
z: 0.025390625
range: 0.0435769706964
velocity: 0.0
doppler_bin: 8
bearing: 69.4439544678
intensity: 29.4051647186
---
header: 
  seq: 259912
  stamp: 
    secs: 1561863936
    nsecs: 989588310
  frame_id: "ti_mmwave"
point_id: 18
x: 0.041015625
y: -0.033203125
z: 0.0625
range: 0.0871539413929
velocity: 0.0
doppler_bin: 8
bearing: -38.9909973145
intensity: 30.1494026184
---
header: 
  seq: 259913
  stamp: 
    secs: 1561863936
    nsecs: 989680876
  frame_id: "ti_mmwave"
point_id: 19
x: 0.052734375
y: -0.04296875
z: 0.103515625
range: 0.130730912089
velocity: 0.0
doppler_bin: 8
bearing: -39.1736602783
intensity: 29.020029068
---
header: 
  seq: 259914
  stamp: 
    secs: 1561863937
    nsecs:  48392727
  frame_id: "ti_mmwave"
point_id: 0
x: 0.01171875
y: -0.0390625
z: -0.0078125
range: 0.0435769706964
velocity: 0.0
doppler_bin: 8
bearing: -73.3007583618
intensity: 30.7736797333
---
header: 
  seq: 259915
  stamp: 
    secs: 1561863937
    nsecs:  48475715
  frame_id: "ti_mmwave"
point_id: 1
x: 0.017578125
y: -0.080078125
z: -0.009765625
range: 0.0871539413929
velocity: 0.0
doppler_bin: 8
bearing: -77.6192398071
intensity: 31.9975509644
---
header: 
  seq: 259916
  stamp: 
    secs: 1561863937
    nsecs:  48487703
  frame_id: "ti_mmwave"
point_id: 2
x: 0.029296875
y: -0.119140625
z: -0.005859375
range: 0.130730912089
velocity: 0.0
doppler_bin: 8
bearing: -76.1849746704
intensity: 30.2612457275
---
header: 
  seq: 259917
  stamp: 
    secs: 1561863937
    nsecs:  48496007
  frame_id: "ti_mmwave"
point_id: 3
x: 0.056640625
y: -0.154296875
z: 0.005859375
range: 0.174307882786
velocity: 0.0
doppler_bin: 8
bearing: -69.8423843384
intensity: 25.5144996643
---
header: 
  seq: 259918
  stamp: 
    secs: 1561863937
    nsecs:  48506786
  frame_id: "ti_mmwave"
point_id: 4
x: 0.15234375
y: -0.080078125
z: 1.255859375
range: 1.35088610649
velocity: 0.0
doppler_bin: 8
bearing: -27.7282581329
intensity: 23.138671875
---
header: 
  seq: 259919
  stamp: 
    secs: 1561863937
    nsecs:  48518156
  frame_id: "ti_mmwave"
point_id: 6
x: 0.3984375
y: -0.083984375
z: -1.287109375
range: 1.43804001808
velocity: 0.0
doppler_bin: 8
bearing: -11.9028120041
intensity: 23.031961441
---
header: 
  seq: 259920
  stamp: 
    secs: 1561863937
    nsecs:  48526044
  frame_id: "ti_mmwave"
point_id: 7
x: 0.54296875
y: -0.04296875
z: -1.279296875
range: 1.48161697388
velocity: 0.0
doppler_bin: 8
bearing: -4.52476835251
intensity: 21.7026176453
---
header: 
  seq: 259921
  stamp: 
    secs: 1561863937
    nsecs:  48533874
  frame_id: "ti_mmwave"
point_id: 8
x: 2.6171875
y: -0.17578125
z: 1.04296875
range: 3.00681090355
velocity: 0.0
doppler_bin: 8
bearing: -3.84245300293
intensity: 29.0525608063
---
header: 
  seq: 259922
  stamp: 
    secs: 1561863937
    nsecs:  48541833
  frame_id: "ti_mmwave"
point_id: 9
x: 2.66015625
y: -0.1796875
z: 1.04296875
range: 3.05038785934
velocity: 0.0
doppler_bin: 8
bearing: -3.86432933807
intensity: 32.2582588196
---
header: 
  seq: 259923
  stamp: 
    secs: 1561863937
    nsecs:  48549680
  frame_id: "ti_mmwave"
point_id: 10
x: 2.755859375
y: -0.08984375
z: 0.91015625
range: 3.09396481514
velocity: 0.0
doppler_bin: 8
bearing: -1.86723792553
intensity: 31.2645606995
---
header: 
  seq: 259924
  stamp: 
    secs: 1561863937
    nsecs:  48557239
  frame_id: "ti_mmwave"
point_id: 11
x: 4.41796875
y: -0.142578125
z: 1.203125
range: 4.88062095642
velocity: 0.0
doppler_bin: 8
bearing: -1.84842634201
intensity: 31.4363918304
---
header: 
  seq: 259925
  stamp: 
    secs: 1561863937
    nsecs:  48567615
  frame_id: "ti_mmwave"
point_id: 12
x: 4.4453125
y: -0.14453125
z: 1.2578125
range: 4.9241976738
velocity: 0.0
doppler_bin: 8
bearing: -1.86221218109
intensity: 31.2872219086
---
header: 
  seq: 259926
  stamp: 
    secs: 1561863937
    nsecs:  48582551
  frame_id: "ti_mmwave"
point_id: 13
x: 4.736328125
y: -0.298828125
z: -0.6171875
range: 5.09850549698
velocity: 0.0
doppler_bin: 8
bearing: -3.61016488075
intensity: 33.3705978394
---
header: 
  seq: 259927
  stamp: 
    secs: 1561863937
    nsecs:  48595648
  frame_id: "ti_mmwave"
point_id: 14
x: 4.775390625
y: -0.30078125
z: -0.640625
range: 5.14208269119
velocity: 0.0
doppler_bin: 8
bearing: -3.60405302048
intensity: 33.9863433838
---
header: 
  seq: 259928
  stamp: 
    secs: 1561863937
    nsecs:  48605555
  frame_id: "ti_mmwave"
point_id: 15
x: 4.802734375
y: -0.15234375
z: -0.77734375
range: 5.18565940857
velocity: 0.0
doppler_bin: 8
bearing: -1.81682503223
intensity: 30.7040729523
---
header: 
  seq: 259929
  stamp: 
    secs: 1561863937
    nsecs:  48613786
  frame_id: "ti_mmwave"
point_id: 16
x: 4.8984375
y: -0.30859375
z: 0.640625
range: 5.27281332016
velocity: 0.0
doppler_bin: 8
bearing: -3.60477876663
intensity: 31.0890312195
---
header: 
  seq: 259930
  stamp: 
    secs: 1561863937
    nsecs:  48622664
  frame_id: "ti_mmwave"
point_id: 17
x: 4.951171875
y: -0.623046875
z: 0.076171875
range: 5.31639051437
velocity: 0.0
doppler_bin: 8
bearing: -7.17230129242
intensity: 29.8855895996
---
header: 
  seq: 259931
  stamp: 
    secs: 1561863937
    nsecs:  48806198
  frame_id: "ti_mmwave"
point_id: 18
x: 0.01171875
y: 0.03125
z: 0.025390625
range: 0.0435769706964
velocity: 0.0
doppler_bin: 8
bearing: 69.4439544678
intensity: 29.4101428986
---
header: 
  seq: 259932
  stamp: 
    secs: 1561863937
    nsecs:  48825710
  frame_id: "ti_mmwave"
point_id: 19
x: 0.041015625
y: -0.033203125
z: 0.0625
range: 0.0871539413929
velocity: 0.0
doppler_bin: 8
bearing: -38.9909973145
intensity: 30.1535968781
---
header: 
  seq: 259933
  stamp: 
    secs: 1561863937
    nsecs:  48836430
  frame_id: "ti_mmwave"
point_id: 20
x: 0.052734375
y: -0.04296875
z: 0.103515625
range: 0.130730912089
velocity: 0.0
doppler_bin: 8
bearing: -39.1736602783
intensity: 29.020029068
---
header: 
  seq: 259934
  stamp: 
    secs: 1561863937
    nsecs:  49716331
  frame_id: "ti_mmwave"
point_id: 0
x: 0.01171875
y: -0.0390625
z: -0.0078125
range: 0.0435769706964
velocity: 0.0
doppler_bin: 8
bearing: -73.3007583618
intensity: 30.7773113251
---
header: 
  seq: 259935
  stamp: 
    secs: 1561863937
    nsecs:  49777424
  frame_id: "ti_mmwave"
point_id: 1
x: 0.017578125
y: -0.080078125
z: -0.009765625
range: 0.0871539413929
velocity: 0.0
doppler_bin: 8
bearing: -77.6192398071
intensity: 31.9975509644
---
header: 
  seq: 259936
  stamp: 
    secs: 1561863937
    nsecs:  49797773
  frame_id: "ti_mmwave"
point_id: 2
x: 0.029296875
y: -0.119140625
z: -0.005859375
range: 0.130730912089
velocity: 0.0
doppler_bin: 8
bearing: -76.1849746704
intensity: 30.2612457275
---
header: 
  seq: 259937
  stamp: 
    secs: 1561863937
    nsecs:  49807384
  frame_id: "ti_mmwave"
point_id: 3
x: 0.056640625
y: -0.154296875
z: 0.005859375
range: 0.174307882786
velocity: 0.0
doppler_bin: 8
bearing: -69.8423843384
intensity: 25.5144996643
---
header: 
  seq: 259938
  stamp: 
    secs: 1561863937
    nsecs:  49816310
  frame_id: "ti_mmwave"
point_id: 4
x: 0.1484375
y: -0.080078125
z: 1.2578125
range: 1.35088610649
velocity: 0.0
doppler_bin: 8
bearing: -28.3456954956
intensity: 23.1806335449
---
header: 
  seq: 259939
  stamp: 
    secs: 1561863937
    nsecs:  49826340
  frame_id: "ti_mmwave"
point_id: 5
x: 0.0546875
y: -0.08203125
z: 1.3046875
range: 1.39446306229
velocity: 0.0
doppler_bin: 8
bearing: -56.3099327087
intensity: 24.6389293671
---
header: 
  seq: 259940
  stamp: 
    secs: 1561863937
    nsecs:  49835506
  frame_id: "ti_mmwave"
point_id: 6
x: 0.41015625
y: -0.083984375
z: -1.283203125
range: 1.43804001808
velocity: 0.0
doppler_bin: 8
bearing: -11.5720338821
intensity: 23.031961441
---
header: 
  seq: 259941
  stamp: 
    secs: 1561863937
    nsecs:  49843548
  frame_id: "ti_mmwave"
point_id: 7
x: 0.548828125
y: -0.04296875
z: -1.27734375
range: 1.48161697388
velocity: 0.0
doppler_bin: 8
bearing: -4.47665882111
intensity: 21.7026176453
---
header: 
  seq: 259942
  stamp: 
    secs: 1561863937
    nsecs:  50037061
  frame_id: "ti_mmwave"
point_id: 8
x: 2.658203125
y: -0.1796875
z: 1.048828125
range: 3.05038785934
velocity: 0.0
doppler_bin: 8
bearing: -3.86716008186
intensity: 32.2659988403
---
header: 
  seq: 259943
  stamp: 
    secs: 1561863937
    nsecs:  50100745
  frame_id: "ti_mmwave"
point_id: 9
x: 2.7578125
y: -0.08984375
z: 0.908203125
range: 3.09396481514
velocity: 0.0
doppler_bin: 8
bearing: -1.86591637135
intensity: 31.2678050995
---
header: 
  seq: 259944
  stamp: 
    secs: 1561863937
    nsecs:  50111373
  frame_id: "ti_mmwave"
point_id: 10
x: 4.416015625
y: -0.142578125
z: 1.2109375
range: 4.88062095642
velocity: 0.0
doppler_bin: 8
bearing: -1.84924340248
intensity: 31.4176330566
---
header: 
  seq: 259945
  stamp: 
    secs: 1561863937
    nsecs:  50119649
  frame_id: "ti_mmwave"
point_id: 11
x: 4.443359375
y: -0.14453125
z: 1.265625
range: 4.9241976738
velocity: 0.0
doppler_bin: 8
bearing: -1.86303019524
intensity: 31.2645606995
---
header: 
  seq: 259946
  stamp: 
    secs: 1561863937
    nsecs:  50126882
  frame_id: "ti_mmwave"
point_id: 12
x: 4.7421875
y: -0.298828125
z: -0.578125
range: 5.09850549698
velocity: 0.0
doppler_bin: 8
bearing: -3.60571622849
intensity: 33.3825721741
---
header: 
  seq: 259947
  stamp: 
    secs: 1561863937
    nsecs:  50146853
  frame_id: "ti_mmwave"
point_id: 13
x: 4.779296875
y: -0.30078125
z: -0.611328125
range: 5.14208269119
velocity: 0.0
doppler_bin: 8
bearing: -3.60111522675
intensity: 33.9863433838
---
header: 
  seq: 259948
  stamp: 
    secs: 1561863937
    nsecs:  50163831
  frame_id: "ti_mmwave"
point_id: 14
x: 4.80859375
y: -0.15234375
z: -0.744140625
range: 5.18565940857
velocity: 0.0
doppler_bin: 8
bearing: -1.81461262703
intensity: 30.7040729523
---
header: 
  seq: 259949
  stamp: 
    secs: 1561863937
    nsecs:  50179458
  frame_id: "ti_mmwave"
point_id: 15
x: 4.8984375
y: -0.30859375
z: 0.6328125
range: 5.27281332016
velocity: 0.0
doppler_bin: 8
bearing: -3.60477876663
intensity: 31.1627559662
---
header: 
  seq: 259950
  stamp: 
    secs: 1561863937
    nsecs:  50200315
  frame_id: "ti_mmwave"
point_id: 16
x: 4.951171875
y: -0.623046875
z: 0.044921875
range: 5.31639051437
velocity: 0.0
doppler_bin: 8
bearing: -7.17230129242
intensity: 29.9563522339
---
header: 
  seq: 259951
  stamp: 
    secs: 1561863937
    nsecs:  50214127
  frame_id: "ti_mmwave"
point_id: 17
x: 0.01171875
y: 0.03125
z: 0.025390625
range: 0.0435769706964
velocity: 0.0
doppler_bin: 8
bearing: 69.4439544678
intensity: 29.4051647186
---
header: 
  seq: 259952
  stamp: 
    secs: 1561863937
    nsecs:  50226460
  frame_id: "ti_mmwave"
point_id: 18
x: 0.041015625
y: -0.033203125
z: 0.0625
range: 0.0871539413929
velocity: 0.0
doppler_bin: 8
bearing: -38.9909973145
intensity: 30.1494026184
---
header: 
  seq: 259953
  stamp: 
    secs: 1561863937
    nsecs:  50249561
  frame_id: "ti_mmwave"
point_id: 19
x: 0.052734375
y: -0.04296875
z: 0.103515625
range: 0.130730912089
velocity: 0.0
doppler_bin: 8
bearing: -39.1736602783
intensity: 29.0145835876
---
header: 
  seq: 259954
  stamp: 
    secs: 1561863937
    nsecs: 108499983
  frame_id: "ti_mmwave"
point_id: 0
x: 0.01171875
y: -0.0390625
z: -0.0078125
range: 0.0435769706964
velocity: 0.0
doppler_bin: 8
bearing: -73.3007583618
intensity: 30.7736797333
---
header: 
  seq: 259955
  stamp: 
    secs: 1561863937
    nsecs: 108583799
  frame_id: "ti_mmwave"
point_id: 1
x: 0.017578125
y: -0.080078125
z: -0.009765625
range: 0.0871539413929
velocity: 0.0
doppler_bin: 8
bearing: -77.6192398071
intensity: 31.9975509644
---
header: 
  seq: 259956
  stamp: 
    secs: 1561863937
    nsecs: 108596338
  frame_id: "ti_mmwave"
point_id: 2
x: 0.029296875
y: -0.119140625
z: -0.005859375
range: 0.130730912089
velocity: 0.0
doppler_bin: 8
bearing: -76.1849746704
intensity: 30.2612457275
---
header: 
  seq: 259957
  stamp: 
    secs: 1561863937
    nsecs: 108604963
  frame_id: "ti_mmwave"
point_id: 3
x: 0.056640625
y: -0.154296875
z: 0.005859375
range: 0.174307882786
velocity: 0.0
doppler_bin: 8
bearing: -69.8423843384
intensity: 25.5144996643
---
header: 
  seq: 259958
  stamp: 
    secs: 1561863937
    nsecs: 108615818
  frame_id: "ti_mmwave"
point_id: 4
x: 0.10546875
y: -0.080078125
z: 1.26171875
range: 1.35088610649
velocity: 0.0
doppler_bin: 8
bearing: -37.2079238892
intensity: 23.1175384521
---
header: 
  seq: 259959
  stamp: 
    secs: 1561863937
    nsecs: 108641546
  frame_id: "ti_mmwave"
point_id: 6
x: 0.41015625
y: -0.083984375
z: -1.283203125
range: 1.43804001808
velocity: 0.0
doppler_bin: 8
bearing: -11.5720338821
intensity: 22.9885311127
---
header: 
  seq: 259960
  stamp: 
    secs: 1561863937
    nsecs: 108650584
  frame_id: "ti_mmwave"
point_id: 7
x: 0.5546875
y: -0.04296875
z: -1.275390625
range: 1.48161697388
velocity: 0.0
doppler_bin: 8
bearing: -4.42955970764
intensity: 21.6731739044
---
header: 
  seq: 259961
  stamp: 
    secs: 1561863937
    nsecs: 108659233
  frame_id: "ti_mmwave"
point_id: 8
x: 2.197265625
y: 0.98046875
z: -0.177734375
range: 2.5710413456
velocity: 0.0
doppler_bin: 8
bearing: 24.0474910736
intensity: 26.637008667
---
header: 
  seq: 259962
  stamp: 
    secs: 1561863937
    nsecs: 108667387
  frame_id: "ti_mmwave"
point_id: 9
x: 2.1875
y: 1.07421875
z: -0.294921875
range: 2.61461830139
velocity: 0.0
doppler_bin: 8
bearing: 26.1543369293
intensity: 26.3748970032
---
header: 
  seq: 259963
  stamp: 
    secs: 1561863937
    nsecs: 108676049
  frame_id: "ti_mmwave"
point_id: 10
x: 2.662109375
y: -0.1796875
z: 1.041015625
range: 3.05038785934
velocity: 0.0
doppler_bin: 8
bearing: -3.86150240898
intensity: 32.2556762695
---
header: 
  seq: 259964
  stamp: 
    secs: 1561863937
    nsecs: 108686792
  frame_id: "ti_mmwave"
point_id: 11
x: 2.755859375
y: -0.08984375
z: 0.912109375
range: 3.09396481514
velocity: 0.0
doppler_bin: 8
bearing: -1.86723792553
intensity: 31.2807598114
---
header: 
  seq: 259965
  stamp: 
    secs: 1561863937
    nsecs: 108858138
  frame_id: "ti_mmwave"
point_id: 12
x: 4.41015625
y: -0.142578125
z: 1.234375
range: 4.88062095642
velocity: 0.0
doppler_bin: 8
bearing: -1.85169863701
intensity: 31.4426269531
---
header: 
  seq: 259966
  stamp: 
    secs: 1561863937
    nsecs: 108908459
  frame_id: "ti_mmwave"
point_id: 13
x: 4.42578125
y: -0.14453125
z: 1.32421875
range: 4.9241976738
velocity: 0.0
doppler_bin: 8
bearing: -1.87042427063
intensity: 31.319393158
---
header: 
  seq: 259967
  stamp: 
    secs: 1561863937
    nsecs: 108933834
  frame_id: "ti_mmwave"
point_id: 14
x: 4.736328125
y: -0.298828125
z: -0.62109375
range: 5.09850549698
velocity: 0.0
doppler_bin: 8
bearing: -3.61016488075
intensity: 33.390537262
---
header: 
  seq: 259968
  stamp: 
    secs: 1561863937
    nsecs: 108949378
  frame_id: "ti_mmwave"
point_id: 15
x: 4.771484375
y: -0.30078125
z: -0.658203125
range: 5.14208269119
velocity: 0.0
doppler_bin: 8
bearing: -3.60699558258
intensity: 33.981136322
---
header: 
  seq: 259969
  stamp: 
    secs: 1561863937
    nsecs: 109007774
  frame_id: "ti_mmwave"
point_id: 16
x: 4.80078125
y: -0.15234375
z: -0.78515625
range: 5.18565940857
velocity: 0.0
doppler_bin: 8
bearing: -1.81756365299
intensity: 30.6220588684
---
header: 
  seq: 259970
  stamp: 
    secs: 1561863937
    nsecs: 109023138
  frame_id: "ti_mmwave"
point_id: 17
x: 4.890625
y: -0.30859375
z: 0.689453125
range: 5.27281332016
velocity: 0.0
doppler_bin: 8
bearing: -3.61052203178
intensity: 31.0856494904
---
header: 
  seq: 259971
  stamp: 
    secs: 1561863937
    nsecs: 109035942
  frame_id: "ti_mmwave"
point_id: 18
x: 4.94921875
y: -0.623046875
z: 0.1328125
range: 5.31639051437
velocity: 0.0
doppler_bin: 8
bearing: -7.17510271072
intensity: 29.8497714996
---
header: 
  seq: 259972
  stamp: 
    secs: 1561863937
    nsecs: 109049416
  frame_id: "ti_mmwave"
point_id: 19
x: 0.01171875
y: 0.03125
z: 0.025390625
range: 0.0435769706964
velocity: 0.0
doppler_bin: 8
bearing: 69.4439544678
intensity: 29.4051647186
---
header: 
  seq: 259973
  stamp: 
    secs: 1561863937
    nsecs: 109064973
  frame_id: "ti_mmwave"
point_id: 20
x: 0.041015625
y: -0.033203125
z: 0.0625
range: 0.0871539413929
velocity: 0.0
doppler_bin: 8
bearing: -38.9909973145
intensity: 30.1494026184
---
header: 
  seq: 259974
  stamp: 
    secs: 1561863937
    nsecs: 109128383
  frame_id: "ti_mmwave"
point_id: 21
x: 0.052734375
y: -0.04296875
z: 0.103515625
range: 0.130730912089
velocity: 0.0
doppler_bin: 8
bearing: -39.1736602783
intensity: 29.020029068
---
header: 
  seq: 259975
  stamp: 
    secs: 1561863937
    nsecs: 109801017
  frame_id: "ti_mmwave"
point_id: 0
x: 0.01171875
y: -0.0390625
z: -0.0078125
range: 0.0435769706964
velocity: 0.0
doppler_bin: 8
bearing: -73.3007583618
intensity: 30.7664051056
---
header: 
  seq: 259976
  stamp: 
    secs: 1561863937
    nsecs: 109847659
  frame_id: "ti_mmwave"
point_id: 1
x: 0.017578125
y: -0.080078125
z: -0.009765625
range: 0.0871539413929
velocity: 0.0
doppler_bin: 8
bearing: -77.6192398071
intensity: 31.9975509644
---
header: 
  seq: 259977
  stamp: 
    secs: 1561863937
    nsecs: 109863554
  frame_id: "ti_mmwave"
point_id: 2
x: 0.029296875
y: -0.119140625
z: -0.005859375
range: 0.130730912089
velocity: 0.0
doppler_bin: 8
bearing: -76.1849746704
intensity: 30.2653331757
---
header: 
  seq: 259978
  stamp: 
    secs: 1561863937
    nsecs: 109876443
  frame_id: "ti_mmwave"
point_id: 3
x: 0.056640625
y: -0.154296875
z: 0.005859375
range: 0.174307882786
velocity: 0.0
doppler_bin: 8
bearing: -69.8423843384
intensity: 25.5266819
---
header: 
  seq: 259979
  stamp: 
    secs: 1561863937
    nsecs: 109891633
  frame_id: "ti_mmwave"
point_id: 4
x: 0.103515625
y: -0.080078125
z: 1.26171875
range: 1.35088610649
velocity: 0.0
doppler_bin: 8
bearing: -37.7249946594
intensity: 23.1806335449
---
header: 
  seq: 259980
  stamp: 
    secs: 1561863937
    nsecs: 109941466
  frame_id: "ti_mmwave"
point_id: 5
x: 0.265625
y: -0.041015625
z: -1.28125
range: 1.39446306229
velocity: 0.0
doppler_bin: 8
bearing: -8.77781772614
intensity: 24.6389293671
---
header: 
  seq: 259981
  stamp: 
    secs: 1561863937
    nsecs: 109953133
  frame_id: "ti_mmwave"
point_id: 6
x: 0.517578125
y: -0.04296875
z: -1.24609375
range: 1.43804001808
velocity: 0.0
doppler_bin: 8
bearing: -4.74574804306
intensity: 23.0749607086
---
header: 
  seq: 259982
  stamp: 
    secs: 1561863937
    nsecs: 109965887
  frame_id: "ti_mmwave"
point_id: 7
x: 0.5703125
y: -0.04296875
z: -1.267578125
range: 1.48161697388
velocity: 0.0
doppler_bin: 8
bearing: -4.30866527557
intensity: 21.7318630219
---
header: 
  seq: 259983
  stamp: 
    secs: 1561863937
    nsecs: 109974883
  frame_id: "ti_mmwave"
point_id: 8
x: 2.66015625
y: -0.1796875
z: 1.044921875
range: 3.05038785934
velocity: 0.0
doppler_bin: 8
bearing: -3.86432933807
intensity: 32.263420105
---
header: 
  seq: 259984
  stamp: 
    secs: 1561863937
    nsecs: 109985087
  frame_id: "ti_mmwave"
point_id: 9
x: 2.755859375
y: -0.08984375
z: 0.912109375
range: 3.09396481514
velocity: 0.0
doppler_bin: 8
bearing: -1.86723792553
intensity: 31.2968997955
---
header: 
  seq: 259985
  stamp: 
    secs: 1561863937
    nsecs: 109997187
  frame_id: "ti_mmwave"
point_id: 10
x: 4.408203125
y: -0.142578125
z: 1.236328125
range: 4.88062095642
velocity: 0.0
doppler_bin: 8
bearing: -1.85251843929
intensity: 31.4395103455
---
header: 
  seq: 259986
  stamp: 
    secs: 1561863937
    nsecs: 110011483
  frame_id: "ti_mmwave"
point_id: 11
x: 4.43359375
y: -0.14453125
z: 1.298828125
range: 4.9241976738
velocity: 0.0
doppler_bin: 8
bearing: -1.86713063717
intensity: 31.3225975037
---
header: 
  seq: 259987
  stamp: 
    secs: 1561863937
    nsecs: 110023358
  frame_id: "ti_mmwave"
point_id: 12
x: 4.7421875
y: -0.298828125
z: -0.572265625
range: 5.09850549698
velocity: 0.0
doppler_bin: 8
bearing: -3.60571622849
intensity: 33.3625946045
---
header: 
  seq: 259988
  stamp: 
    secs: 1561863937
    nsecs: 110036775
  frame_id: "ti_mmwave"
point_id: 13
x: 4.77734375
y: -0.30078125
z: -0.625
range: 5.14208269119
velocity: 0.0
doppler_bin: 8
bearing: -3.60258316994
intensity: 33.9654808044
---
header: 
  seq: 259989
  stamp: 
    secs: 1561863937
    nsecs: 110048300
  frame_id: "ti_mmwave"
point_id: 14
x: 4.796875
y: -0.15234375
z: -0.80859375
range: 5.18565940857
velocity: 0.0
doppler_bin: 8
bearing: -1.81904268265
intensity: 30.6595306396
---
header: 
  seq: 259990
  stamp: 
    secs: 1561863937
    nsecs: 110060149
  frame_id: "ti_mmwave"
point_id: 15
x: 4.900390625
y: -0.30859375
z: 0.626953125
range: 5.27281332016
velocity: 0.0
doppler_bin: 8
bearing: -3.60334610939
intensity: 31.027765274
---
header: 
  seq: 259991
  stamp: 
    secs: 1561863937
    nsecs: 110071442
  frame_id: "ti_mmwave"
point_id: 16
x: 4.951171875
y: -0.623046875
z: 0.03125
range: 5.31639051437
velocity: 0.0
doppler_bin: 8
bearing: -7.17230129242
intensity: 29.8497714996
---
header: 
  seq: 259992
  stamp: 
    secs: 1561863937
    nsecs: 110083137
  frame_id: "ti_mmwave"
point_id: 17
x: 0.01171875
y: 0.03125
z: 0.025390625
range: 0.0435769706964
velocity: 0.0
doppler_bin: 8
bearing: 69.4439544678
intensity: 29.4051647186
---
header: 
  seq: 259993
  stamp: 
    secs: 1561863937
    nsecs: 110092269
  frame_id: "ti_mmwave"
point_id: 18
x: 0.041015625
y: -0.033203125
z: 0.0625
range: 0.0871539413929
velocity: 0.0
doppler_bin: 8
bearing: -38.9909973145
intensity: 30.1452045441
---
header: 
  seq: 259994
  stamp: 
    secs: 1561863937
    nsecs: 110100451
  frame_id: "ti_mmwave"
point_id: 19
x: 0.052734375
y: -0.04296875
z: 0.103515625
range: 0.130730912089
velocity: 0.0
doppler_bin: 8
bearing: -39.1736602783
intensity: 29.0145835876
---
header: 
  seq: 259995
  stamp: 
    secs: 1561863937
    nsecs: 168595776
  frame_id: "ti_mmwave"
point_id: 0
x: 0.01171875
y: -0.0390625
z: -0.0078125
range: 0.0435769706964
velocity: 0.0
doppler_bin: 8
bearing: -73.3007583618
intensity: 30.7773113251
---
header: 
  seq: 259996
  stamp: 
    secs: 1561863937
    nsecs: 168669101
  frame_id: "ti_mmwave"
point_id: 1
x: 0.017578125
y: -0.080078125
z: -0.009765625
range: 0.0871539413929
velocity: 0.0
doppler_bin: 8
bearing: -77.6192398071
intensity: 32.0002937317
---
header: 
  seq: 259997
  stamp: 
    secs: 1561863937
    nsecs: 168681935
  frame_id: "ti_mmwave"
point_id: 2
x: 0.029296875
y: -0.119140625
z: -0.005859375
range: 0.130730912089
velocity: 0.0
doppler_bin: 8
bearing: -76.1849746704
intensity: 30.2653331757
---
header: 
  seq: 259998
  stamp: 
    secs: 1561863937
    nsecs: 168691873
  frame_id: "ti_mmwave"
point_id: 3
x: 0.056640625
y: -0.154296875
z: 0.005859375
range: 0.174307882786
velocity: 0.0
doppler_bin: 8
bearing: -69.8423843384
intensity: 25.5266819
---
header: 
  seq: 259999
  stamp: 
    secs: 1561863937
    nsecs: 168700077
  frame_id: "ti_mmwave"
point_id: 4
x: 0.138671875
y: -0.080078125
z: 1.2578125
range: 1.35088610649
velocity: 0.0
doppler_bin: 8
bearing: -30.0049190521
intensity: 23.1806335449
---
header: 
  seq: 260000
  stamp: 
    secs: 1561863937
    nsecs: 168709889
  frame_id: "ti_mmwave"
point_id: 6
x: 0.517578125
y: -0.04296875
z: -1.24609375
range: 1.43804001808
velocity: 0.0
doppler_bin: 8
bearing: -4.74574804306
intensity: 23.0102996826
---
header: 
  seq: 260001
  stamp: 
    secs: 1561863937
    nsecs: 168717906
  frame_id: "ti_mmwave"
point_id: 7
x: 0.56640625
y: -0.04296875
z: -1.26953125
range: 1.48161697388
velocity: 0.0
doppler_bin: 8
bearing: -4.33826684952
intensity: 21.6731739044
---
header: 
  seq: 260002
  stamp: 
    secs: 1561863937
    nsecs: 168725873
  frame_id: "ti_mmwave"
point_id: 8
x: 2.2421875
y: 0.998046875
z: -0.06640625
range: 2.61461830139
velocity: 0.0
doppler_bin: 8
bearing: 23.9948959351
intensity: 26.1595001221
---
header: 
  seq: 260003
  stamp: 
    secs: 1561863937
    nsecs: 168733457
  frame_id: "ti_mmwave"
point_id: 9
x: 2.619140625
y: -0.17578125
z: 1.0390625
range: 3.00681090355
velocity: 0.0
doppler_bin: 8
bearing: -3.83959650993
intensity: 29.0091304779
---
header: 
  seq: 260004
  stamp: 
    secs: 1561863937
    nsecs: 168741040
  frame_id: "ti_mmwave"
point_id: 10
x: 2.658203125
y: -0.1796875
z: 1.048828125
range: 3.05038785934
velocity: 0.0
doppler_bin: 8
bearing: -3.86716008186
intensity: 32.2530937195
---
header: 
  seq: 260005
  stamp: 
    secs: 1561863937
    nsecs: 168751134
  frame_id: "ti_mmwave"
point_id: 11
x: 2.751953125
y: -0.08984375
z: 0.923828125
range: 3.09396481514
velocity: 0.0
doppler_bin: 8
bearing: -1.86988639832
intensity: 31.2710475922
---
header: 
  seq: 260006
  stamp: 
    secs: 1561863937
    nsecs: 168759467
  frame_id: "ti_mmwave"
point_id: 12
x: 4.41796875
y: -0.142578125
z: 1.205078125
range: 4.88062095642
velocity: 0.0
doppler_bin: 8
bearing: -1.84842634201
intensity: 31.4207649231
---
header: 
  seq: 260007
  stamp: 
    secs: 1561863937
    nsecs: 168767680
  frame_id: "ti_mmwave"
point_id: 13
x: 4.4453125
y: -0.14453125
z: 1.259765625
range: 4.9241976738
velocity: 0.0
doppler_bin: 8
bearing: -1.86221218109
intensity: 31.2775249481
---
header: 
  seq: 260008
  stamp: 
    secs: 1561863937
    nsecs: 168775588
  frame_id: "ti_mmwave"
point_id: 14
x: 4.73828125
y: -0.298828125
z: -0.60546875
range: 5.09850549698
velocity: 0.0
doppler_bin: 8
bearing: -3.60868048668
intensity: 33.3545799255
---
header: 
  seq: 260009
  stamp: 
    secs: 1561863937
    nsecs: 168782793
  frame_id: "ti_mmwave"
point_id: 15
x: 4.775390625
y: -0.30078125
z: -0.642578125
range: 5.14208269119
velocity: 0.0
doppler_bin: 8
bearing: -3.60405302048
intensity: 33.9567565918
---
header: 
  seq: 260010
  stamp: 
    secs: 1561863937
    nsecs: 168790525
  frame_id: "ti_mmwave"
point_id: 16
x: 4.806640625
y: -0.15234375
z: -0.75390625
range: 5.18565940857
velocity: 0.0
doppler_bin: 8
bearing: -1.81534969807
intensity: 30.5766601562
---
header: 
  seq: 260011
  stamp: 
    secs: 1561863937
    nsecs: 168798373
  frame_id: "ti_mmwave"
point_id: 17
x: 4.896484375
y: -0.30859375
z: 0.65625
range: 5.27281332016
velocity: 0.0
doppler_bin: 8
bearing: -3.6062130928
intensity: 31.1394329071
---
header: 
  seq: 260012
  stamp: 
    secs: 1561863937
    nsecs: 168807869
  frame_id: "ti_mmwave"
point_id: 18
x: 4.951171875
y: -0.623046875
z: 0.068359375
range: 5.31639051437
velocity: 0.0
doppler_bin: 8
bearing: -7.17230129242
intensity: 29.9913063049
---
header: 
  seq: 260013
  stamp: 
    secs: 1561863937
    nsecs: 168817249
  frame_id: "ti_mmwave"
point_id: 19
x: 0.01171875
y: 0.03125
z: 0.025390625
range: 0.0435769706964
velocity: 0.0
doppler_bin: 8
bearing: 69.4439544678
intensity: 29.4051647186
---
header: 
  seq: 260014
  stamp: 
    secs: 1561863937
    nsecs: 168826226
  frame_id: "ti_mmwave"
point_id: 20
x: 0.041015625
y: -0.033203125
z: 0.0625
range: 0.0871539413929
velocity: 0.0
doppler_bin: 8
bearing: -38.9909973145
intensity: 30.1494026184
---
header: 
  seq: 260015
  stamp: 
    secs: 1561863937
    nsecs: 168834618
  frame_id: "ti_mmwave"
point_id: 21
x: 0.052734375
y: -0.04296875
z: 0.103515625
range: 0.130730912089
velocity: 0.0
doppler_bin: 8
bearing: -39.1736602783
intensity: 29.020029068
---
header: 
  seq: 260016
  stamp: 
    secs: 1561863937
    nsecs: 170062229
  frame_id: "ti_mmwave"
point_id: 0
x: 0.01171875
y: -0.0390625
z: -0.0078125
range: 0.0435769706964
velocity: 0.0
doppler_bin: 8
bearing: -73.3007583618
intensity: 30.7736797333
---
header: 
  seq: 260017
  stamp: 
    secs: 1561863937
    nsecs: 170126305
  frame_id: "ti_mmwave"
point_id: 1
x: 0.017578125
y: -0.080078125
z: -0.009765625
range: 0.0871539413929
velocity: 0.0
doppler_bin: 8
bearing: -77.6192398071
intensity: 31.9975509644
---
header: 
  seq: 260018
  stamp: 
    secs: 1561863937
    nsecs: 170144461
  frame_id: "ti_mmwave"
point_id: 2
x: 0.029296875
y: -0.119140625
z: -0.005859375
range: 0.130730912089
velocity: 0.0
doppler_bin: 8
bearing: -76.1849746704
intensity: 30.2612457275
---
header: 
  seq: 260019
  stamp: 
    secs: 1561863937
    nsecs: 170156415
  frame_id: "ti_mmwave"
point_id: 3
x: 0.056640625
y: -0.154296875
z: 0.005859375
range: 0.174307882786
velocity: 0.0
doppler_bin: 8
bearing: -69.8423843384
intensity: 25.5266819
---
header: 
  seq: 260020
  stamp: 
    secs: 1561863937
    nsecs: 170214269
  frame_id: "ti_mmwave"
point_id: 4
x: 0.16015625
y: -0.080078125
z: 1.255859375
range: 1.35088610649
velocity: 0.0
doppler_bin: 8
bearing: -26.5650501251
intensity: 23.138671875
---
header: 
  seq: 260021
  stamp: 
    secs: 1561863937
    nsecs: 170226264
  frame_id: "ti_mmwave"
point_id: 6
x: 0.427734375
y: -0.083984375
z: -1.27734375
range: 1.43804001808
velocity: 0.0
doppler_bin: 8
bearing: -11.1085424423
intensity: 23.031961441
---
header: 
  seq: 260022
  stamp: 
    secs: 1561863937
    nsecs: 170234048
  frame_id: "ti_mmwave"
point_id: 7
x: 0.56640625
y: -0.04296875
z: -1.26953125
range: 1.48161697388
velocity: 0.0
doppler_bin: 8
bearing: -4.33826684952
intensity: 21.7318630219
---
header: 
  seq: 260023
  stamp: 
    secs: 1561863937
    nsecs: 170241711
  frame_id: "ti_mmwave"
point_id: 8
x: 2.2421875
y: 0.998046875
z: -0.07421875
range: 2.61461830139
velocity: 0.0
doppler_bin: 8
bearing: 23.9948959351
intensity: 26.6745300293
---
header: 
  seq: 260024
  stamp: 
    secs: 1561863937
    nsecs: 170249790
  frame_id: "ti_mmwave"
point_id: 9
x: 2.2734375
y: 1.013671875
z: -0.17578125
range: 2.65819525719
velocity: 0.0
doppler_bin: 8
bearing: 24.030960083
intensity: 27.1516742706
---
header: 
  seq: 260025
  stamp: 
    secs: 1561863937
    nsecs: 170261472
  frame_id: "ti_mmwave"
point_id: 10
x: 2.62109375
y: -0.17578125
z: 1.033203125
range: 3.00681090355
velocity: 0.0
doppler_bin: 8
bearing: -3.83674383163
intensity: 28.9927310944
---
header: 
  seq: 260026
  stamp: 
    secs: 1561863937
    nsecs: 170312764
  frame_id: "ti_mmwave"
point_id: 11
x: 2.66015625
y: -0.1796875
z: 1.046875
range: 3.05038785934
velocity: 0.0
doppler_bin: 8
bearing: -3.86432933807
intensity: 32.263420105
---
header: 
  seq: 260027
  stamp: 
    secs: 1561863937
    nsecs: 170328680
  frame_id: "ti_mmwave"
point_id: 12
x: 2.751953125
y: -0.08984375
z: 0.92578125
range: 3.09396481514
velocity: 0.0
doppler_bin: 8
bearing: -1.86988639832
intensity: 31.3097667694
---
header: 
  seq: 260028
  stamp: 
    secs: 1561863937
    nsecs: 170343082
  frame_id: "ti_mmwave"
point_id: 13
x: 4.4140625
y: -0.142578125
z: 1.216796875
range: 4.88062095642
velocity: 0.0
doppler_bin: 8
bearing: -1.850061059
intensity: 31.430147171
---
header: 
  seq: 260029
  stamp: 
    secs: 1561863937
    nsecs: 170380347
  frame_id: "ti_mmwave"
point_id: 14
x: 4.4453125
y: -0.14453125
z: 1.26171875
range: 4.9241976738
velocity: 0.0
doppler_bin: 8
bearing: -1.86221218109
intensity: 31.2613143921
---
header: 
  seq: 260030
  stamp: 
    secs: 1561863937
    nsecs: 170393351
  frame_id: "ti_mmwave"
point_id: 15
x: 4.740234375
y: -0.298828125
z: -0.5859375
range: 5.09850549698
velocity: 0.0
doppler_bin: 8
bearing: -3.60719799995
intensity: 33.3965034485
---
header: 
  seq: 260031
  stamp: 
    secs: 1561863937
    nsecs: 170401966
  frame_id: "ti_mmwave"
point_id: 16
x: 4.77734375
y: -0.30078125
z: -0.619140625
range: 5.14208269119
velocity: 0.0
doppler_bin: 8
bearing: -3.60258316994
intensity: 33.9741859436
---
header: 
  seq: 260032
  stamp: 
    secs: 1561863937
    nsecs: 170409180
  frame_id: "ti_mmwave"
point_id: 17
x: 4.814453125
y: -0.15234375
z: -0.705078125
range: 5.18565940857
velocity: 0.0
doppler_bin: 8
bearing: -1.81240582466
intensity: 30.561422348
---
header: 
  seq: 260033
  stamp: 
    secs: 1561863937
    nsecs: 170434657
  frame_id: "ti_mmwave"
point_id: 18
x: 4.896484375
y: -0.30859375
z: 0.662109375
range: 5.27281332016
velocity: 0.0
doppler_bin: 8
bearing: -3.6062130928
intensity: 31.1693973541
---
header: 
  seq: 260034
  stamp: 
    secs: 1561863937
    nsecs: 170454377
  frame_id: "ti_mmwave"
point_id: 19
x: 4.94921875
y: -0.623046875
z: 0.15234375
range: 5.31639051437
velocity: 0.0
doppler_bin: 8
bearing: -7.17510271072
intensity: 29.8855895996
---
header: 
  seq: 260035
  stamp: 
    secs: 1561863937
    nsecs: 170462514
  frame_id: "ti_mmwave"
point_id: 20
x: 0.01171875
y: 0.03125
z: 0.0234375
range: 0.0435769706964
velocity: 0.0
doppler_bin: 8
bearing: 69.4439544678
intensity: 29.4051647186
---
header: 
  seq: 260036
  stamp: 
    secs: 1561863937
    nsecs: 170480934
  frame_id: "ti_mmwave"
point_id: 21
x: 0.041015625
y: -0.033203125
z: 0.0625
range: 0.0871539413929
velocity: 0.0
doppler_bin: 8
bearing: -38.9909973145
intensity: 30.1535968781
---
header: 
  seq: 260037
  stamp: 
    secs: 1561863937
    nsecs: 170495764
  frame_id: "ti_mmwave"
point_id: 22
x: 0.052734375
y: -0.04296875
z: 0.103515625
range: 0.130730912089
velocity: 0.0
doppler_bin: 8
bearing: -39.1736602783
intensity: 29.0254669189
---
header: 
  seq: 260038
  stamp: 
    secs: 1561863937
    nsecs: 170514248
  frame_id: "ti_mmwave"
point_id: 24
x: 1.177734375
y: 0.15625
z: 2.1953125
range: 2.65819525719
velocity: 0.0
doppler_bin: 8
bearing: 7.55729675293
intensity: 24.9415454865
---
header: 
  seq: 260039
  stamp: 
    secs: 1561863937
    nsecs: 228386905
  frame_id: "ti_mmwave"
point_id: 0
x: 0.01171875
y: -0.0390625
z: -0.0078125
range: 0.0435769706964
velocity: 0.0
doppler_bin: 8
bearing: -73.3007583618
intensity: 30.7736797333
---
header: 
  seq: 260040
  stamp: 
    secs: 1561863937
    nsecs: 228459717
  frame_id: "ti_mmwave"
point_id: 1
x: 0.017578125
y: -0.080078125
z: -0.009765625
range: 0.0871539413929
velocity: 0.0
doppler_bin: 8
bearing: -77.6192398071
intensity: 31.994808197
---
header: 
  seq: 260041
  stamp: 
    secs: 1561863937
    nsecs: 228472370
  frame_id: "ti_mmwave"
point_id: 2
x: 0.029296875
y: -0.119140625
z: -0.005859375
range: 0.130730912089
velocity: 0.0
doppler_bin: 8
bearing: -76.1849746704
intensity: 30.2571544647
---
header: 
  seq: 260042
  stamp: 
    secs: 1561863937
    nsecs: 228481041
  frame_id: "ti_mmwave"
point_id: 3
x: 0.056640625
y: -0.154296875
z: 0.005859375
range: 0.174307882786
velocity: 0.0
doppler_bin: 8
bearing: -69.8423843384
intensity: 25.5022830963
---
header: 
  seq: 260043
  stamp: 
    secs: 1561863937
    nsecs: 228489594
  frame_id: "ti_mmwave"
point_id: 4
x: 0.138671875
y: -0.080078125
z: 1.2578125
range: 1.35088610649
velocity: 0.0
doppler_bin: 8
bearing: -30.0049190521
intensity: 23.1806335449
---
header: 
  seq: 260044
  stamp: 
    secs: 1561863937
    nsecs: 228499815
  frame_id: "ti_mmwave"
point_id: 6
x: 0.412109375
y: -0.083984375
z: -1.283203125
range: 1.43804001808
velocity: 0.0
doppler_bin: 8
bearing: -11.518658638
intensity: 23.031961441
---
header: 
  seq: 260045
  stamp: 
    secs: 1561863937
    nsecs: 228509962
  frame_id: "ti_mmwave"
point_id: 7
x: 0.556640625
y: -0.04296875
z: -1.2734375
range: 1.48161697388
velocity: 0.0
doppler_bin: 8
bearing: -4.41407871246
intensity: 21.7026176453
---
header: 
  seq: 260046
  stamp: 
    secs: 1561863937
    nsecs: 228517765
  frame_id: "ti_mmwave"
point_id: 8
x: 2.2421875
y: 0.998046875
z: -0.06640625
range: 2.61461830139
velocity: 0.0
doppler_bin: 8
bearing: 23.9948959351
intensity: 28.5672893524
---
header: 
  seq: 260047
  stamp: 
    secs: 1561863937
    nsecs: 228525732
  frame_id: "ti_mmwave"
point_id: 9
x: 2.2734375
y: 1.013671875
z: -0.1796875
range: 2.65819525719
velocity: 0.0
doppler_bin: 8
bearing: 24.030960083
intensity: 28.5308952332
---
header: 
  seq: 260048
  stamp: 
    secs: 1561863937
    nsecs: 228534418
  frame_id: "ti_mmwave"
point_id: 10
x: 2.658203125
y: -0.1796875
z: 1.048828125
range: 3.05038785934
velocity: 0.0
doppler_bin: 8
bearing: -3.86716008186
intensity: 32.2711524963
---
header: 
  seq: 260049
  stamp: 
    secs: 1561863937
    nsecs: 228544057
  frame_id: "ti_mmwave"
point_id: 11
x: 2.755859375
y: -0.08984375
z: 0.91015625
range: 3.09396481514
velocity: 0.0
doppler_bin: 8
bearing: -1.86723792553
intensity: 31.2678050995
---
header: 
  seq: 260050
  stamp: 
    secs: 1561863937
    nsecs: 228552423
  frame_id: "ti_mmwave"
point_id: 12
x: 4.412109375
y: -0.142578125
z: 1.22265625
range: 4.88062095642
velocity: 0.0
doppler_bin: 8
bearing: -1.85087943077
intensity: 31.4207649231
---
header: 
  seq: 260051
  stamp: 
    secs: 1561863937
    nsecs: 228561431
  frame_id: "ti_mmwave"
point_id: 13
x: 4.435546875
y: -0.14453125
z: 1.291015625
range: 4.9241976738
velocity: 0.0
doppler_bin: 8
bearing: -1.86630904675
intensity: 31.2904510498
---
header: 
  seq: 260052
  stamp: 
    secs: 1561863937
    nsecs: 228570653
  frame_id: "ti_mmwave"
point_id: 14
x: 4.744140625
y: -0.298828125
z: -0.5625
range: 5.09850549698
velocity: 0.0
doppler_bin: 8
bearing: -3.60423564911
intensity: 33.368598938
---
header: 
  seq: 260053
  stamp: 
    secs: 1561863937
    nsecs: 228590546
  frame_id: "ti_mmwave"
point_id: 15
x: 4.779296875
y: -0.30078125
z: -0.609375
range: 5.14208269119
velocity: 0.0
doppler_bin: 8
bearing: -3.60111522675
intensity: 33.9741859436
---
header: 
  seq: 260054
  stamp: 
    secs: 1561863937
    nsecs: 228598384
  frame_id: "ti_mmwave"
point_id: 16
x: 4.80859375
y: -0.15234375
z: -0.74609375
range: 5.18565940857
velocity: 0.0
doppler_bin: 8
bearing: -1.81461262703
intensity: 30.6483230591
---
header: 
  seq: 260055
  stamp: 
    secs: 1561863937
    nsecs: 228739806
  frame_id: "ti_mmwave"
point_id: 17
x: 4.900390625
y: -0.30859375
z: 0.623046875
range: 5.27281332016
velocity: 0.0
doppler_bin: 8
bearing: -3.60334610939
intensity: 31.0788803101
---
header: 
  seq: 260056
  stamp: 
    secs: 1561863937
    nsecs: 228759030
  frame_id: "ti_mmwave"
point_id: 18
x: 4.951171875
y: -0.623046875
z: 0.1015625
range: 5.31639051437
velocity: 0.0
doppler_bin: 8
bearing: -7.17230129242
intensity: 29.7451171875
---
header: 
  seq: 260057
  stamp: 
    secs: 1561863937
    nsecs: 228769886
  frame_id: "ti_mmwave"
point_id: 19
x: 0.01171875
y: 0.03125
z: 0.025390625
range: 0.0435769706964
velocity: 0.0
doppler_bin: 8
bearing: 69.4439544678
intensity: 29.4001808167
---
header: 
  seq: 260058
  stamp: 
    secs: 1561863937
    nsecs: 228778502
  frame_id: "ti_mmwave"
point_id: 20
x: 0.041015625
y: -0.033203125
z: 0.0625
range: 0.0871539413929
velocity: 0.0
doppler_bin: 8
bearing: -38.9909973145
intensity: 30.1494026184
---
header: 
  seq: 260059
  stamp: 
    secs: 1561863937
    nsecs: 228789166
  frame_id: "ti_mmwave"
point_id: 21
x: 0.052734375
y: -0.04296875
z: 0.103515625
range: 0.130730912089
velocity: 0.0
doppler_bin: 8
bearing: -39.1736602783
intensity: 29.0254669189
---
header: 
  seq: 260060
  stamp: 
    secs: 1561863937
    nsecs: 228799023
  frame_id: "ti_mmwave"
point_id: 23
x: 1.521484375
y: 0.078125
z: 1.9765625
range: 2.65819525719
velocity: 0.0
doppler_bin: 8
bearing: 2.93943524361
intensity: 25.9549617767
---
header: 
  seq: 260061
  stamp: 
    secs: 1561863937
    nsecs: 229752941
  frame_id: "ti_mmwave"
point_id: 0
x: 0.01171875
y: -0.0390625
z: -0.0078125
range: 0.0435769706964
velocity: 0.0
doppler_bin: 8
bearing: -73.3007583618
intensity: 30.7736797333
---
header: 
  seq: 260062
  stamp: 
    secs: 1561863937
    nsecs: 229804828
  frame_id: "ti_mmwave"
point_id: 1
x: 0.017578125
y: -0.080078125
z: -0.009765625
range: 0.0871539413929
velocity: 0.0
doppler_bin: 8
bearing: -77.6192398071
intensity: 31.9975509644
---
header: 
  seq: 260063
  stamp: 
    secs: 1561863937
    nsecs: 229816186
  frame_id: "ti_mmwave"
point_id: 2
x: 0.041015625
y: -0.115234375
z: -0.0078125
range: 0.130730912089
velocity: 0.0
doppler_bin: 8
bearing: -70.4077224731
intensity: 30.2571544647
---
header: 
  seq: 260064
  stamp: 
    secs: 1561863937
    nsecs: 229829898
  frame_id: "ti_mmwave"
point_id: 3
x: 0.056640625
y: -0.154296875
z: 0.005859375
range: 0.174307882786
velocity: 0.0
doppler_bin: 8
bearing: -69.8423843384
intensity: 25.5022830963
---
header: 
  seq: 260065
  stamp: 
    secs: 1561863937
    nsecs: 229847028
  frame_id: "ti_mmwave"
point_id: 4
x: 0.119140625
y: -0.080078125
z: 1.259765625
range: 1.35088610649
velocity: 0.0
doppler_bin: 8
bearing: -33.9062767029
intensity: 23.1175384521
---
header: 
  seq: 260066
  stamp: 
    secs: 1561863937
    nsecs: 229882210
  frame_id: "ti_mmwave"
point_id: 6
x: 0.427734375
y: -0.083984375
z: -1.27734375
range: 1.43804001808
velocity: 0.0
doppler_bin: 8
bearing: -11.1085424423
intensity: 22.9885311127
---
header: 
  seq: 260067
  stamp: 
    secs: 1561863937
    nsecs: 229903115
  frame_id: "ti_mmwave"
point_id: 7
x: 0.580078125
y: -0.04296875
z: -1.263671875
range: 1.48161697388
velocity: 0.0
doppler_bin: 8
bearing: -4.2363948822
intensity: 21.6435279846
---
header: 
  seq: 260068
  stamp: 
    secs: 1561863937
    nsecs: 229914883
  frame_id: "ti_mmwave"
point_id: 8
x: 2.658203125
y: -0.1796875
z: 1.048828125
range: 3.05038785934
velocity: 0.0
doppler_bin: 8
bearing: -3.86716008186
intensity: 32.2814369202
---
header: 
  seq: 260069
  stamp: 
    secs: 1561863937
    nsecs: 229995019
  frame_id: "ti_mmwave"
point_id: 9
x: 2.751953125
y: -0.08984375
z: 0.923828125
range: 3.09396481514
velocity: 0.0
doppler_bin: 8
bearing: -1.86988639832
intensity: 31.3161869049
---
header: 
  seq: 260070
  stamp: 
    secs: 1561863937
    nsecs: 230005607
  frame_id: "ti_mmwave"
point_id: 10
x: 4.4140625
y: -0.142578125
z: 1.21875
range: 4.88062095642
velocity: 0.0
doppler_bin: 8
bearing: -1.850061059
intensity: 31.4395103455
---
header: 
  seq: 260071
  stamp: 
    secs: 1561863937
    nsecs: 230013130
  frame_id: "ti_mmwave"
point_id: 11
x: 4.44140625
y: -0.14453125
z: 1.2734375
range: 4.9241976738
velocity: 0.0
doppler_bin: 8
bearing: -1.86384868622
intensity: 31.2904510498
---
header: 
  seq: 260072
  stamp: 
    secs: 1561863937
    nsecs: 230022267
  frame_id: "ti_mmwave"
point_id: 12
x: 4.740234375
y: -0.298828125
z: -0.58984375
range: 5.09850549698
velocity: 0.0
doppler_bin: 8
bearing: -3.60719799995
intensity: 33.318321228
---
header: 
  seq: 260073
  stamp: 
    secs: 1561863937
    nsecs: 230031172
  frame_id: "ti_mmwave"
point_id: 13
x: 4.77734375
y: -0.30078125
z: -0.62109375
range: 5.14208269119
velocity: 0.0
doppler_bin: 8
bearing: -3.60258316994
intensity: 33.9128799438
---
header: 
  seq: 260074
  stamp: 
    secs: 1561863937
    nsecs: 230038752
  frame_id: "ti_mmwave"
point_id: 14
x: 4.810546875
y: -0.15234375
z: -0.73046875
range: 5.18565940857
velocity: 0.0
doppler_bin: 8
bearing: -1.81387650967
intensity: 30.5346260071
---
header: 
  seq: 260075
  stamp: 
    secs: 1561863937
    nsecs: 230046114
  frame_id: "ti_mmwave"
point_id: 15
x: 4.89453125
y: -0.30859375
z: 0.666015625
range: 5.27281332016
velocity: 0.0
doppler_bin: 8
bearing: -3.60764837265
intensity: 31.119342804
---
header: 
  seq: 260076
  stamp: 
    secs: 1561863937
    nsecs: 230053537
  frame_id: "ti_mmwave"
point_id: 16
x: 4.94921875
y: -0.623046875
z: 0.1171875
range: 5.31639051437
velocity: 0.0
doppler_bin: 8
bearing: -7.17510271072
intensity: 29.7726612091
---
header: 
  seq: 260077
  stamp: 
    secs: 1561863937
    nsecs: 230060870
  frame_id: "ti_mmwave"
point_id: 17
x: 0.01171875
y: 0.03125
z: 0.025390625
range: 0.0435769706964
velocity: 0.0
doppler_bin: 8
bearing: 69.4439544678
intensity: 29.4051647186
---
header: 
  seq: 260078
  stamp: 
    secs: 1561863937
    nsecs: 230068782
  frame_id: "ti_mmwave"
point_id: 18
x: 0.041015625
y: -0.033203125
z: 0.0625
range: 0.0871539413929
velocity: 0.0
doppler_bin: 8
bearing: -38.9909973145
intensity: 30.1452045441
---
header: 
  seq: 260079
  stamp: 
    secs: 1561863937
    nsecs: 230078542
  frame_id: "ti_mmwave"
point_id: 19
x: 0.052734375
y: -0.04296875
z: 0.103515625
range: 0.130730912089
velocity: 0.0
doppler_bin: 8
bearing: -39.1736602783
intensity: 29.0145835876
---
header: 
  seq: 260080
  stamp: 
    secs: 1561863937
    nsecs: 289450398
  frame_id: "ti_mmwave"
point_id: 0
x: 0.01171875
y: -0.0390625
z: -0.0078125
range: 0.0435769706964
velocity: 0.0
doppler_bin: 8
bearing: -73.3007583618
intensity: 30.7773113251
---
header: 
  seq: 260081
  stamp: 
    secs: 1561863937
    nsecs: 289517963
  frame_id: "ti_mmwave"
point_id: 1
x: 0.017578125
y: -0.080078125
z: -0.009765625
range: 0.0871539413929
velocity: 0.0
doppler_bin: 8
bearing: -77.6192398071
intensity: 31.9975509644
---
header: 
  seq: 260082
  stamp: 
    secs: 1561863937
    nsecs: 289528525
  frame_id: "ti_mmwave"
point_id: 2
x: 0.029296875
y: -0.119140625
z: -0.005859375
range: 0.130730912089
velocity: 0.0
doppler_bin: 8
bearing: -76.1849746704
intensity: 30.2653331757
---
header: 
  seq: 260083
  stamp: 
    secs: 1561863937
    nsecs: 289537338
  frame_id: "ti_mmwave"
point_id: 3
x: 0.056640625
y: -0.154296875
z: 0.005859375
range: 0.174307882786
velocity: 0.0
doppler_bin: 8
bearing: -69.8423843384
intensity: 25.5266819
---
header: 
  seq: 260084
  stamp: 
    secs: 1561863937
    nsecs: 289545726
  frame_id: "ti_mmwave"
point_id: 4
x: 0.111328125
y: -0.080078125
z: 1.259765625
range: 1.35088610649
velocity: 0.0
doppler_bin: 8
bearing: -35.7273979187
intensity: 23.1806335449
---
header: 
  seq: 260085
  stamp: 
    secs: 1561863937
    nsecs: 289555463
  frame_id: "ti_mmwave"
point_id: 5
x: 0.291015625
y: -0.041015625
z: -1.275390625
range: 1.39446306229
velocity: 0.0
doppler_bin: 8
bearing: -8.02240371704
intensity: 24.6239795685
---
header: 
  seq: 260086
  stamp: 
    secs: 1561863937
    nsecs: 289565376
  frame_id: "ti_mmwave"
point_id: 6
x: 0.521484375
y: -0.04296875
z: -1.244140625
range: 1.43804001808
velocity: 0.0
doppler_bin: 8
bearing: -4.7103600502
intensity: 23.031961441
---
header: 
  seq: 260087
  stamp: 
    secs: 1561863937
    nsecs: 289573635
  frame_id: "ti_mmwave"
point_id: 7
x: 0.560546875
y: -0.04296875
z: -1.271484375
range: 1.48161697388
velocity: 0.0
doppler_bin: 8
bearing: -4.38343858719
intensity: 21.7318630219
---
header: 
  seq: 260088
  stamp: 
    secs: 1561863937
    nsecs: 289584246
  frame_id: "ti_mmwave"
point_id: 8
x: 2.166015625
y: 1.056640625
z: -0.142578125
range: 2.5710413456
velocity: 0.0
doppler_bin: 8
bearing: 26.0043640137
intensity: 26.0314445496
---
header: 
  seq: 260089
  stamp: 
    secs: 1561863937
    nsecs: 289734171
  frame_id: "ti_mmwave"
point_id: 9
x: 2.658203125
y: -0.1796875
z: 1.046875
range: 3.05038785934
velocity: 0.0
doppler_bin: 8
bearing: -3.86716008186
intensity: 32.2659988403
---
header: 
  seq: 260090
  stamp: 
    secs: 1561863937
    nsecs: 289753072
  frame_id: "ti_mmwave"
point_id: 10
x: 2.755859375
y: -0.08984375
z: 0.9140625
range: 3.09396481514
velocity: 0.0
doppler_bin: 8
bearing: -1.86723792553
intensity: 31.2968997955
---
header: 
  seq: 260091
  stamp: 
    secs: 1561863937
    nsecs: 289761376
  frame_id: "ti_mmwave"
point_id: 11
x: 4.408203125
y: -0.142578125
z: 1.2421875
range: 4.88062095642
velocity: 0.0
doppler_bin: 8
bearing: -1.85251843929
intensity: 31.4457416534
---
header: 
  seq: 260092
  stamp: 
    secs: 1561863937
    nsecs: 289771793
  frame_id: "ti_mmwave"
point_id: 12
x: 4.43359375
y: -0.14453125
z: 1.302734375
range: 4.9241976738
velocity: 0.0
doppler_bin: 8
bearing: -1.86713063717
intensity: 31.3033370972
---
header: 
  seq: 260093
  stamp: 
    secs: 1561863937
    nsecs: 289777214
  frame_id: "ti_mmwave"
point_id: 13
x: 4.736328125
y: -0.298828125
z: -0.61328125
range: 5.09850549698
velocity: 0.0
doppler_bin: 8
bearing: -3.61016488075
intensity: 33.318321228
---
header: 
  seq: 260094
  stamp: 
    secs: 1561863937
    nsecs: 289781626
  frame_id: "ti_mmwave"
point_id: 14
x: 4.7734375
y: -0.30078125
z: -0.6484375
range: 5.14208269119
velocity: 0.0
doppler_bin: 8
bearing: -3.60552406311
intensity: 33.9040527344
---
header: 
  seq: 260095
  stamp: 
    secs: 1561863937
    nsecs: 289810981
  frame_id: "ti_mmwave"
point_id: 15
x: 4.8125
y: -0.15234375
z: -0.72265625
range: 5.18565940857
velocity: 0.0
doppler_bin: 8
bearing: -1.81314074993
intensity: 30.4493160248
---
header: 
  seq: 260096
  stamp: 
    secs: 1561863937
    nsecs: 289821589
  frame_id: "ti_mmwave"
point_id: 16
x: 4.884765625
y: -0.30859375
z: 0.734375
range: 5.27281332016
velocity: 0.0
doppler_bin: 8
bearing: -3.6148416996
intensity: 31.1527767181
---
header: 
  seq: 260097
  stamp: 
    secs: 1561863937
    nsecs: 289899078
  frame_id: "ti_mmwave"
point_id: 17
x: 4.947265625
y: -0.623046875
z: 0.19921875
range: 5.31639051437
velocity: 0.0
doppler_bin: 8
bearing: -7.17790555954
intensity: 29.7266559601
---
header: 
  seq: 260098
  stamp: 
    secs: 1561863937
    nsecs: 289909411
  frame_id: "ti_mmwave"
point_id: 18
x: 0.01171875
y: 0.03125
z: 0.025390625
range: 0.0435769706964
velocity: 0.0
doppler_bin: 8
bearing: 69.4439544678
intensity: 29.4051647186
---
header: 
  seq: 260099
  stamp: 
    secs: 1561863937
    nsecs: 289919196
  frame_id: "ti_mmwave"
point_id: 19
x: 0.041015625
y: -0.033203125
z: 0.0625
range: 0.0871539413929
velocity: 0.0
doppler_bin: 8
bearing: -38.9909973145
intensity: 30.1452045441
---
header: 
  seq: 260100
  stamp: 
    secs: 1561863937
    nsecs: 289927126
  frame_id: "ti_mmwave"
point_id: 20
x: 0.052734375
y: -0.04296875
z: 0.103515625
range: 0.130730912089
velocity: 0.0
doppler_bin: 8
bearing: -39.1736602783
intensity: 29.0145835876
---
header: 
  seq: 260101
  stamp: 
    secs: 1561863937
    nsecs: 289936942
  frame_id: "ti_mmwave"
point_id: 22
x: 1.5
y: 0.150390625
z: 1.884765625
range: 2.5710413456
velocity: 0.0
doppler_bin: 8
bearing: 5.72536563873
intensity: 23.3243846893
---
header: 
  seq: 260102
  stamp: 
    secs: 1561863937
    nsecs: 348530393
  frame_id: "ti_mmwave"
point_id: 0
x: 0.01171875
y: -0.0390625
z: -0.0078125
range: 0.0435769706964
velocity: 0.0
doppler_bin: 8
bearing: -73.3007583618
intensity: 30.7700424194
---
header: 
  seq: 260103
  stamp: 
    secs: 1561863937
    nsecs: 348609427
  frame_id: "ti_mmwave"
point_id: 1
x: 0.017578125
y: -0.080078125
z: -0.009765625
range: 0.0871539413929
velocity: 0.0
doppler_bin: 8
bearing: -77.6192398071
intensity: 31.994808197
---
header: 
  seq: 260104
  stamp: 
    secs: 1561863937
    nsecs: 348620439
  frame_id: "ti_mmwave"
point_id: 2
x: 0.041015625
y: -0.115234375
z: -0.0078125
range: 0.130730912089
velocity: 0.0
doppler_bin: 8
bearing: -70.4077224731
intensity: 30.2571544647
---
header: 
  seq: 260105
  stamp: 
    secs: 1561863937
    nsecs: 348632803
  frame_id: "ti_mmwave"
point_id: 3
x: 0.056640625
y: -0.154296875
z: 0.005859375
range: 0.174307882786
velocity: 0.0
doppler_bin: 8
bearing: -69.8423843384
intensity: 25.5144996643
---
header: 
  seq: 260106
  stamp: 
    secs: 1561863937
    nsecs: 348641810
  frame_id: "ti_mmwave"
point_id: 4
x: 0.162109375
y: -0.080078125
z: 1.255859375
range: 1.35088610649
velocity: 0.0
doppler_bin: 8
bearing: -26.2882633209
intensity: 23.2014636993
---
header: 
  seq: 260107
  stamp: 
    secs: 1561863937
    nsecs: 348651444
  frame_id: "ti_mmwave"
point_id: 6
x: 0.42578125
y: -0.083984375
z: -1.27734375
range: 1.43804001808
velocity: 0.0
doppler_bin: 8
bearing: -11.1582231522
intensity: 23.0749607086
---
header: 
  seq: 260108
  stamp: 
    secs: 1561863937
    nsecs: 348659371
  frame_id: "ti_mmwave"
point_id: 7
x: 0.560546875
y: -0.04296875
z: -1.271484375
range: 1.48161697388
velocity: 0.0
doppler_bin: 8
bearing: -4.38343858719
intensity: 21.6731739044
---
header: 
  seq: 260109
  stamp: 
    secs: 1561863937
    nsecs: 348668089
  frame_id: "ti_mmwave"
point_id: 8
x: 2.173828125
y: 0.98046875
z: -0.3671875
range: 2.5710413456
velocity: 0.0
doppler_bin: 8
bearing: 24.2769565582
intensity: 26.3748970032
---
header: 
  seq: 260110
  stamp: 
    secs: 1561863937
    nsecs: 348676489
  frame_id: "ti_mmwave"
point_id: 9
x: 2.228515625
y: 0.998046875
z: -0.255859375
range: 2.61461830139
velocity: 0.0
doppler_bin: 8
bearing: 24.1253528595
intensity: 26.6651802063
---
header: 
  seq: 260111
  stamp: 
    secs: 1561863937
    nsecs: 348684205
  frame_id: "ti_mmwave"
point_id: 10
x: 2.62109375
y: -0.17578125
z: 1.03125
range: 3.00681090355
velocity: 0.0
doppler_bin: 8
bearing: -3.83674383163
intensity: 29.020029068
---
header: 
  seq: 260112
  stamp: 
    secs: 1561863937
    nsecs: 348693918
  frame_id: "ti_mmwave"
point_id: 11
x: 2.66015625
y: -0.1796875
z: 1.04296875
range: 3.05038785934
velocity: 0.0
doppler_bin: 8
bearing: -3.86432933807
intensity: 32.2659988403
---
header: 
  seq: 260113
  stamp: 
    secs: 1561863937
    nsecs: 348703292
  frame_id: "ti_mmwave"
point_id: 12
x: 2.7578125
y: -0.08984375
z: 0.908203125
range: 3.09396481514
velocity: 0.0
doppler_bin: 8
bearing: -1.86591637135
intensity: 31.2872219086
---
header: 
  seq: 260114
  stamp: 
    secs: 1561863937
    nsecs: 348711224
  frame_id: "ti_mmwave"
point_id: 13
x: 4.41015625
y: -0.142578125
z: 1.234375
range: 4.88062095642
velocity: 0.0
doppler_bin: 8
bearing: -1.85169863701
intensity: 31.4581775665
---
header: 
  seq: 260115
  stamp: 
    secs: 1561863937
    nsecs: 348719149
  frame_id: "ti_mmwave"
point_id: 14
x: 4.435546875
y: -0.14453125
z: 1.29296875
range: 4.9241976738
velocity: 0.0
doppler_bin: 8
bearing: -1.86630904675
intensity: 31.3289985657
---
header: 
  seq: 260116
  stamp: 
    secs: 1561863937
    nsecs: 348726955
  frame_id: "ti_mmwave"
point_id: 15
x: 4.73828125
y: -0.298828125
z: -0.60546875
range: 5.09850549698
velocity: 0.0
doppler_bin: 8
bearing: -3.60868048668
intensity: 33.3304405212
---
header: 
  seq: 260117
  stamp: 
    secs: 1561863937
    nsecs: 348735632
  frame_id: "ti_mmwave"
point_id: 16
x: 4.775390625
y: -0.30078125
z: -0.63671875
range: 5.14208269119
velocity: 0.0
doppler_bin: 8
bearing: -3.60405302048
intensity: 33.9199295044
---
header: 
  seq: 260118
  stamp: 
    secs: 1561863937
    nsecs: 348757482
  frame_id: "ti_mmwave"
point_id: 17
x: 4.80859375
y: -0.15234375
z: -0.736328125
range: 5.18565940857
velocity: 0.0
doppler_bin: 8
bearing: -1.81461262703
intensity: 30.484418869
---
header: 
  seq: 260119
  stamp: 
    secs: 1561863937
    nsecs: 348769062
  frame_id: "ti_mmwave"
point_id: 18
x: 4.884765625
y: -0.30859375
z: 0.740234375
range: 5.27281332016
velocity: 0.0
doppler_bin: 8
bearing: -3.6148416996
intensity: 31.1660766602
---
header: 
  seq: 260120
  stamp: 
    secs: 1561863937
    nsecs: 348912531
  frame_id: "ti_mmwave"
point_id: 19
x: 4.947265625
y: -0.623046875
z: 0.22265625
range: 5.31639051437
velocity: 0.0
doppler_bin: 8
bearing: -7.17790555954
intensity: 29.8497714996
---
header: 
  seq: 260121
  stamp: 
    secs: 1561863937
    nsecs: 348933790
  frame_id: "ti_mmwave"
point_id: 20
x: 0.01171875
y: 0.03125
z: 0.025390625
range: 0.0435769706964
velocity: 0.0
doppler_bin: 8
bearing: 69.4439544678
intensity: 29.4001808167
---
header: 
  seq: 260122
  stamp: 
    secs: 1561863937
    nsecs: 348942744
  frame_id: "ti_mmwave"
point_id: 21
x: 0.041015625
y: -0.033203125
z: 0.0625
range: 0.0871539413929
velocity: 0.0
doppler_bin: 8
bearing: -38.9909973145
intensity: 30.1494026184
---
header: 
  seq: 260123
  stamp: 
    secs: 1561863937
    nsecs: 348950756
  frame_id: "ti_mmwave"
point_id: 22
x: 0.052734375
y: -0.04296875
z: 0.103515625
range: 0.130730912089
velocity: 0.0
doppler_bin: 8
bearing: -39.1736602783
intensity: 29.020029068
---
header: 
  seq: 260124
  stamp: 
    secs: 1561863937
    nsecs: 348960811
  frame_id: "ti_mmwave"
point_id: 24
x: 1.10546875
y: 0.154296875
z: 2.185546875
range: 2.61461830139
velocity: 0.0
doppler_bin: 8
bearing: 7.94578123093
intensity: 23.9269695282
---
header: 
  seq: 260125
  stamp: 
    secs: 1561863937
    nsecs: 349998667
  frame_id: "ti_mmwave"
point_id: 0
x: 0.01171875
y: -0.0390625
z: -0.0078125
range: 0.0435769706964
velocity: 0.0
doppler_bin: 8
bearing: -73.3007583618
intensity: 30.7700424194
---
header: 
  seq: 260126
  stamp: 
    secs: 1561863937
    nsecs: 350058353
  frame_id: "ti_mmwave"
point_id: 1
x: 0.017578125
y: -0.080078125
z: -0.009765625
range: 0.0871539413929
velocity: 0.0
doppler_bin: 8
bearing: -77.6192398071
intensity: 31.994808197
---
