header: 
  seq: 291028
  stamp: 
    secs: 1561863983
    nsecs: 968180922
  frame_id: "ti_mmwave"
point_id: 0
x: 0.01171875
y: -0.0390625
z: -0.0078125
range: 0.0435769706964
velocity: 0.0
doppler_bin: 8
bearing: -73.3007583618
intensity: 30.7664051056
---
header: 
  seq: 291029
  stamp: 
    secs: 1561863983
    nsecs: 968262877
  frame_id: "ti_mmwave"
point_id: 1
x: 0.017578125
y: -0.080078125
z: -0.009765625
range: 0.0871539413929
velocity: 0.0
doppler_bin: 8
bearing: -77.6192398071
intensity: 31.994808197
---
header: 
  seq: 291030
  stamp: 
    secs: 1561863983
    nsecs: 968285210
  frame_id: "ti_mmwave"
point_id: 2
x: 0.029296875
y: -0.119140625
z: -0.005859375
range: 0.130730912089
velocity: 0.0
doppler_bin: 8
bearing: -76.1849746704
intensity: 30.2571544647
---
header: 
  seq: 291031
  stamp: 
    secs: 1561863983
    nsecs: 968298675
  frame_id: "ti_mmwave"
point_id: 3
x: 0.056640625
y: -0.154296875
z: 0.005859375
range: 0.174307882786
velocity: 0.0
doppler_bin: 8
bearing: -69.8423843384
intensity: 25.5144996643
---
header: 
  seq: 291032
  stamp: 
    secs: 1561863983
    nsecs: 968310650
  frame_id: "ti_mmwave"
point_id: 4
x: 0.029296875
y: -0.080078125
z: 1.265625
range: 1.35088610649
velocity: 0.0
doppler_bin: 8
bearing: -69.9047698975
intensity: 23.1806335449
---
header: 
  seq: 291033
  stamp: 
    secs: 1561863983
    nsecs: 968322570
  frame_id: "ti_mmwave"
point_id: 5
x: 0.283203125
y: -0.08203125
z: 1.275390625
range: 1.39446306229
velocity: 0.0
doppler_bin: 8
bearing: -16.1539344788
intensity: 24.683473587
---
header: 
  seq: 291034
  stamp: 
    secs: 1561863983
    nsecs: 968334167
  frame_id: "ti_mmwave"
point_id: 6
x: 2.6171875
y: -0.17578125
z: 1.044921875
range: 3.00681090355
velocity: 0.0
doppler_bin: 8
bearing: -3.84245300293
intensity: 29.1697998047
---
header: 
  seq: 291035
  stamp: 
    secs: 1561863983
    nsecs: 968349996
  frame_id: "ti_mmwave"
point_id: 7
x: 2.658203125
y: -0.1796875
z: 1.048828125
range: 3.05038785934
velocity: 0.0
doppler_bin: 8
bearing: -3.86716008186
intensity: 32.3350372314
---
header: 
  seq: 291036
  stamp: 
    secs: 1561863983
    nsecs: 968362418
  frame_id: "ti_mmwave"
point_id: 8
x: 2.75390625
y: -0.08984375
z: 0.91796875
range: 3.09396481514
velocity: 0.0
doppler_bin: 8
bearing: -1.86856126785
intensity: 31.3672065735
---
header: 
  seq: 291037
  stamp: 
    secs: 1561863983
    nsecs: 968374247
  frame_id: "ti_mmwave"
point_id: 9
x: 4.41015625
y: -0.142578125
z: 1.072265625
range: 4.83704376221
velocity: 0.0
doppler_bin: 8
bearing: -1.85169863701
intensity: 28.1491317749
---
header: 
  seq: 291038
  stamp: 
    secs: 1561863983
    nsecs: 968400109
  frame_id: "ti_mmwave"
point_id: 10
x: 4.41796875
y: -0.142578125
z: 1.20703125
range: 4.88062095642
velocity: 0.0
doppler_bin: 8
bearing: -1.84842634201
intensity: 31.8440742493
---
header: 
  seq: 291039
  stamp: 
    secs: 1561863983
    nsecs: 968420210
  frame_id: "ti_mmwave"
point_id: 11
x: 4.45703125
y: -0.14453125
z: 1.21875
range: 4.9241976738
velocity: 0.0
doppler_bin: 8
bearing: -1.8573192358
intensity: 31.6761264801
---
header: 
  seq: 291040
  stamp: 
    secs: 1561863983
    nsecs: 968439908
  frame_id: "ti_mmwave"
point_id: 12
x: 1.32421875
y: -0.25390625
z: 0.0703125
range: 1.43804001808
velocity: -0.614668667316
doppler_bin: 7
bearing: -10.8541793823
intensity: 24.031206131
---
header: 
  seq: 291041
  stamp: 
    secs: 1561863983
    nsecs: 968459881
  frame_id: "ti_mmwave"
point_id: 13
x: 1.369140625
y: -0.216796875
z: -0.11328125
range: 1.48161697388
velocity: -0.614668667316
doppler_bin: 7
bearing: -8.99780750275
intensity: 27.5281639099
---
header: 
  seq: 291042
  stamp: 
    secs: 1561863983
    nsecs: 968473840
  frame_id: "ti_mmwave"
point_id: 14
x: 1.423828125
y: -0.134765625
z: -0.072265625
range: 1.52519392967
velocity: -0.614668667316
doppler_bin: 7
bearing: -5.40694952011
intensity: 29.1960105896
---
header: 
  seq: 291043
  stamp: 
    secs: 1561863983
    nsecs: 968493695
  frame_id: "ti_mmwave"
point_id: 15
x: 1.47265625
y: -0.046875
z: -0.021484375
range: 1.56877088547
velocity: -0.614668667316
doppler_bin: 7
bearing: -1.823122859
intensity: 30.0902576447
---
header: 
  seq: 291044
  stamp: 
    secs: 1561863983
    nsecs: 968512950
  frame_id: "ti_mmwave"
point_id: 16
x: 1.51171875
y: -0.046875
z: -0.02734375
range: 1.61234796047
velocity: -0.614668667316
doppler_bin: 7
bearing: -1.77604424953
intensity: 29.3196620941
---
header: 
  seq: 291045
  stamp: 
    secs: 1561863983
    nsecs: 968532241
  frame_id: "ti_mmwave"
point_id: 17
x: 1.55078125
y: -0.09765625
z: 0.044921875
range: 1.65592491627
velocity: -0.614668667316
doppler_bin: 7
bearing: -3.60328841209
intensity: 26.5801143646
---
header: 
  seq: 291046
  stamp: 
    secs: 1561863983
    nsecs: 968636817
  frame_id: "ti_mmwave"
point_id: 18
x: 0.01171875
y: 0.03125
z: 0.025390625
range: 0.0435769706964
velocity: 0.0
doppler_bin: 8
bearing: 69.4439544678
intensity: 29.4101428986
---
header: 
  seq: 291047
  stamp: 
    secs: 1561863983
    nsecs: 968657396
  frame_id: "ti_mmwave"
point_id: 19
x: 0.041015625
y: -0.033203125
z: 0.0625
range: 0.0871539413929
velocity: 0.0
doppler_bin: 8
bearing: -38.9909973145
intensity: 30.1535968781
---
header: 
  seq: 291048
  stamp: 
    secs: 1561863983
    nsecs: 968670568
  frame_id: "ti_mmwave"
point_id: 20
x: 0.052734375
y: -0.04296875
z: 0.103515625
range: 0.130730912089
velocity: 0.0
doppler_bin: 8
bearing: -39.1736602783
intensity: 29.0254669189
---
header: 
  seq: 291049
  stamp: 
    secs: 1561863983
    nsecs: 969561678
  frame_id: "ti_mmwave"
point_id: 0
x: 0.01171875
y: -0.0390625
z: -0.0078125
range: 0.0435769706964
velocity: 0.0
doppler_bin: 8
bearing: -73.3007583618
intensity: 30.7627620697
---
header: 
  seq: 291050
  stamp: 
    secs: 1561863983
    nsecs: 969616936
  frame_id: "ti_mmwave"
point_id: 1
x: 0.017578125
y: -0.080078125
z: -0.009765625
range: 0.0871539413929
velocity: 0.0
doppler_bin: 8
bearing: -77.6192398071
intensity: 31.994808197
---
header: 
  seq: 291051
  stamp: 
    secs: 1561863983
    nsecs: 969629089
  frame_id: "ti_mmwave"
point_id: 2
x: 0.029296875
y: -0.119140625
z: -0.005859375
range: 0.130730912089
velocity: 0.0
doppler_bin: 8
bearing: -76.1849746704
intensity: 30.2612457275
---
header: 
  seq: 291052
  stamp: 
    secs: 1561863983
    nsecs: 969637320
  frame_id: "ti_mmwave"
point_id: 3
x: 0.056640625
y: -0.154296875
z: 0.005859375
range: 0.174307882786
velocity: 0.0
doppler_bin: 8
bearing: -69.8423843384
intensity: 25.5144996643
---
header: 
  seq: 291053
  stamp: 
    secs: 1561863983
    nsecs: 969647105
  frame_id: "ti_mmwave"
point_id: 4
x: 0.203125
y: -0.080078125
z: 1.25
range: 1.35088610649
velocity: 0.0
doppler_bin: 8
bearing: -21.5158843994
intensity: 22.7875366211
---
header: 
  seq: 291054
  stamp: 
    secs: 1561863983
    nsecs: 969656117
  frame_id: "ti_mmwave"
point_id: 5
x: 0.734375
y: -0.041015625
z: 1.083984375
range: 1.39446306229
velocity: 0.0
doppler_bin: 8
bearing: -3.19670915604
intensity: 24.4247970581
---
header: 
  seq: 291055
  stamp: 
    secs: 1561863983
    nsecs: 969664842
  frame_id: "ti_mmwave"
point_id: 6
x: 2.611328125
y: -0.17578125
z: 1.056640625
range: 3.00681090355
velocity: 0.0
doppler_bin: 8
bearing: -3.85104894638
intensity: 29.0687351227
---
header: 
  seq: 291056
  stamp: 
    secs: 1561863983
    nsecs: 969672515
  frame_id: "ti_mmwave"
point_id: 7
x: 2.65625
y: -0.1796875
z: 1.052734375
range: 3.05038785934
velocity: 0.0
doppler_bin: 8
bearing: -3.86999511719
intensity: 32.3223342896
---
header: 
  seq: 291057
  stamp: 
    secs: 1561863983
    nsecs: 969785381
  frame_id: "ti_mmwave"
point_id: 8
x: 2.75390625
y: -0.08984375
z: 0.919921875
range: 3.09396481514
velocity: 0.0
doppler_bin: 8
bearing: -1.86856126785
intensity: 31.389339447
---
header: 
  seq: 291058
  stamp: 
    secs: 1561863983
    nsecs: 969796548
  frame_id: "ti_mmwave"
point_id: 9
x: 4.40234375
y: -0.142578125
z: 1.1015625
range: 4.83704376221
velocity: 0.0
doppler_bin: 8
bearing: -1.85498249531
intensity: 28.182258606
---
header: 
  seq: 291059
  stamp: 
    secs: 1561863983
    nsecs: 969805568
  frame_id: "ti_mmwave"
point_id: 10
x: 4.412109375
y: -0.142578125
z: 1.224609375
range: 4.88062095642
velocity: 0.0
doppler_bin: 8
bearing: -1.85087943077
intensity: 31.9340286255
---
header: 
  seq: 291060
  stamp: 
    secs: 1561863983
    nsecs: 969815006
  frame_id: "ti_mmwave"
point_id: 11
x: 4.447265625
y: -0.14453125
z: 1.251953125
range: 4.9241976738
velocity: 0.0
doppler_bin: 8
bearing: -1.86139500141
intensity: 31.6583766937
---
header: 
  seq: 291061
  stamp: 
    secs: 1561863983
    nsecs: 969822671
  frame_id: "ti_mmwave"
point_id: 12
x: 1.326171875
y: -0.2109375
z: -0.130859375
range: 1.43804001808
velocity: -0.614668667316
doppler_bin: 7
bearing: -9.03761196136
intensity: 28.2672252655
---
header: 
  seq: 291062
  stamp: 
    secs: 1561863983
    nsecs: 969830820
  frame_id: "ti_mmwave"
point_id: 13
x: 1.37109375
y: -0.173828125
z: -0.1484375
range: 1.48161697388
velocity: -0.614668667316
doppler_bin: 7
bearing: -7.22544717789
intensity: 28.864906311
---
header: 
  seq: 291063
  stamp: 
    secs: 1561863983
    nsecs: 969838329
  frame_id: "ti_mmwave"
point_id: 14
x: 1.421875
y: -0.0
z: 0.171875
range: 1.52519392967
velocity: -0.614668667316
doppler_bin: 7
bearing: -0.0
intensity: 29.6142101288
---
header: 
  seq: 291064
  stamp: 
    secs: 1561863983
    nsecs: 969846313
  frame_id: "ti_mmwave"
point_id: 15
x: 1.4453125
y: 0.046875
z: 0.283203125
range: 1.56877088547
velocity: -0.614668667316
doppler_bin: 7
bearing: 1.85759031773
intensity: 30.484418869
---
header: 
  seq: 291065
  stamp: 
    secs: 1561863983
    nsecs: 969853507
  frame_id: "ti_mmwave"
point_id: 16
x: 1.455078125
y: 0.09375
z: 0.40625
range: 1.61234796047
velocity: -0.614668667316
doppler_bin: 7
bearing: 3.68644475937
intensity: 27.8390350342
---
header: 
  seq: 291066
  stamp: 
    secs: 1561863983
    nsecs: 969861070
  frame_id: "ti_mmwave"
point_id: 17
x: 0.01171875
y: 0.03125
z: 0.025390625
range: 0.0435769706964
velocity: 0.0
doppler_bin: 8
bearing: 69.4439544678
intensity: 29.4051647186
---
header: 
  seq: 291067
  stamp: 
    secs: 1561863983
    nsecs: 969871597
  frame_id: "ti_mmwave"
point_id: 18
x: 0.041015625
y: -0.033203125
z: 0.0625
range: 0.0871539413929
velocity: 0.0
doppler_bin: 8
bearing: -38.9909973145
intensity: 30.1494026184
---
header: 
  seq: 291068
  stamp: 
    secs: 1561863983
    nsecs: 969879340
  frame_id: "ti_mmwave"
point_id: 19
x: 0.052734375
y: -0.04296875
z: 0.103515625
range: 0.130730912089
velocity: 0.0
doppler_bin: 8
bearing: -39.1736602783
intensity: 29.0145835876
---
header: 
  seq: 291069
  stamp: 
    secs: 1561863984
    nsecs:  28316985
  frame_id: "ti_mmwave"
point_id: 0
x: 0.01171875
y: -0.0390625
z: -0.0078125
range: 0.0435769706964
velocity: 0.0
doppler_bin: 8
bearing: -73.3007583618
intensity: 30.7627620697
---
header: 
  seq: 291070
  stamp: 
    secs: 1561863984
    nsecs:  28394360
  frame_id: "ti_mmwave"
point_id: 1
x: 0.017578125
y: -0.080078125
z: -0.009765625
range: 0.0871539413929
velocity: 0.0
doppler_bin: 8
bearing: -77.6192398071
intensity: 31.994808197
---
header: 
  seq: 291071
  stamp: 
    secs: 1561863984
    nsecs:  28406937
  frame_id: "ti_mmwave"
point_id: 2
x: 0.029296875
y: -0.119140625
z: -0.005859375
range: 0.130730912089
velocity: 0.0
doppler_bin: 8
bearing: -76.1849746704
intensity: 30.2612457275
---
header: 
  seq: 291072
  stamp: 
    secs: 1561863984
    nsecs:  28415211
  frame_id: "ti_mmwave"
point_id: 3
x: 0.056640625
y: -0.154296875
z: 0.005859375
range: 0.174307882786
velocity: 0.0
doppler_bin: 8
bearing: -69.8423843384
intensity: 25.5266819
---
header: 
  seq: 291073
  stamp: 
    secs: 1561863984
    nsecs:  28425448
  frame_id: "ti_mmwave"
point_id: 4
x: 0.78125
y: -0.119140625
z: 0.9921875
range: 1.35088610649
velocity: 0.0
doppler_bin: 8
bearing: -8.67080116272
intensity: 24.4247970581
---
header: 
  seq: 291074
  stamp: 
    secs: 1561863984
    nsecs:  28433915
  frame_id: "ti_mmwave"
point_id: 5
x: 2.62109375
y: -0.17578125
z: 1.03125
range: 3.00681090355
velocity: 0.0
doppler_bin: 8
bearing: -3.83674383163
intensity: 28.9652614594
---
header: 
  seq: 291075
  stamp: 
    secs: 1561863984
    nsecs:  28446538
  frame_id: "ti_mmwave"
point_id: 6
x: 2.66015625
y: -0.1796875
z: 1.04296875
range: 3.05038785934
velocity: 0.0
doppler_bin: 8
bearing: -3.86432933807
intensity: 32.2115325928
---
header: 
  seq: 291076
  stamp: 
    secs: 1561863984
    nsecs:  28459120
  frame_id: "ti_mmwave"
point_id: 7
x: 2.7578125
y: -0.08984375
z: 0.90625
range: 3.09396481514
velocity: 0.0
doppler_bin: 8
bearing: -1.86591637135
intensity: 31.1958580017
---
header: 
  seq: 291077
  stamp: 
    secs: 1561863984
    nsecs:  28548290
  frame_id: "ti_mmwave"
point_id: 8
x: 4.408203125
y: -0.142578125
z: 1.080078125
range: 4.83704376221
velocity: 0.0
doppler_bin: 8
bearing: -1.85251843929
intensity: 28.5913829803
---
header: 
  seq: 291078
  stamp: 
    secs: 1561863984
    nsecs:  28563711
  frame_id: "ti_mmwave"
point_id: 9
x: 4.419921875
y: -0.142578125
z: 1.1953125
range: 4.88062095642
velocity: 0.0
doppler_bin: 8
bearing: -1.847610116
intensity: 32.2167510986
---
header: 
  seq: 291079
  stamp: 
    secs: 1561863984
    nsecs:  28574569
  frame_id: "ti_mmwave"
point_id: 10
x: 4.458984375
y: -0.14453125
z: 1.208984375
range: 4.9241976738
velocity: 0.0
doppler_bin: 8
bearing: -1.85650622845
intensity: 31.9228858948
---
header: 
  seq: 291080
  stamp: 
    secs: 1561863984
    nsecs:  28588824
  frame_id: "ti_mmwave"
point_id: 11
x: 1.28515625
y: -0.205078125
z: -0.13671875
range: 1.39446306229
velocity: -0.614668667316
doppler_bin: 7
bearing: -9.06650257111
intensity: 30.561422348
---
header: 
  seq: 291081
  stamp: 
    secs: 1561863984
    nsecs:  28600812
  frame_id: "ti_mmwave"
point_id: 12
x: 1.328125
y: -0.16796875
z: -0.1796875
range: 1.43804001808
velocity: -0.614668667316
doppler_bin: 7
bearing: -7.20796346664
intensity: 32.5791854858
---
header: 
  seq: 291082
  stamp: 
    secs: 1561863984
    nsecs:  28612740
  frame_id: "ti_mmwave"
point_id: 13
x: 1.375
y: -0.130859375
z: -0.16015625
range: 1.48161697388
velocity: -0.614668667316
doppler_bin: 7
bearing: -5.43649101257
intensity: 31.9340286255
---
header: 
  seq: 291083
  stamp: 
    secs: 1561863984
    nsecs:  28626493
  frame_id: "ti_mmwave"
point_id: 14
x: 1.431640625
y: -0.044921875
z: 0.015625
range: 1.52519392967
velocity: -0.614668667316
doppler_bin: 7
bearing: -1.79723155499
intensity: 32.0897865295
---
header: 
  seq: 291084
  stamp: 
    secs: 1561863984
    nsecs:  28638102
  frame_id: "ti_mmwave"
point_id: 15
x: 1.46875
y: -0.0
z: 0.099609375
range: 1.56877088547
velocity: -0.614668667316
doppler_bin: 7
bearing: -0.0
intensity: 32.3070449829
---
header: 
  seq: 291085
  stamp: 
    secs: 1561863984
    nsecs:  28650554
  frame_id: "ti_mmwave"
point_id: 16
x: 1.509765625
y: -0.0
z: 0.1171875
range: 1.61234796047
velocity: -0.614668667316
doppler_bin: 7
bearing: -0.0
intensity: 29.9913063049
---
header: 
  seq: 291086
  stamp: 
    secs: 1561863984
    nsecs:  28661602
  frame_id: "ti_mmwave"
point_id: 17
x: 0.01171875
y: 0.03125
z: 0.025390625
range: 0.0435769706964
velocity: 0.0
doppler_bin: 8
bearing: 69.4439544678
intensity: 29.4001808167
---
header: 
  seq: 291087
  stamp: 
    secs: 1561863984
    nsecs:  28671948
  frame_id: "ti_mmwave"
point_id: 18
x: 0.041015625
y: -0.033203125
z: 0.0625
range: 0.0871539413929
velocity: 0.0
doppler_bin: 8
bearing: -38.9909973145
intensity: 30.1494026184
---
header: 
  seq: 291088
  stamp: 
    secs: 1561863984
    nsecs:  28702883
  frame_id: "ti_mmwave"
point_id: 19
x: 0.052734375
y: -0.04296875
z: 0.103515625
range: 0.130730912089
velocity: 0.0
doppler_bin: 8
bearing: -39.1736602783
intensity: 29.020029068
---
header: 
  seq: 291089
  stamp: 
    secs: 1561863984
    nsecs:  88278033
  frame_id: "ti_mmwave"
point_id: 0
x: 0.01171875
y: -0.0390625
z: -0.0078125
range: 0.0435769706964
velocity: 0.0
doppler_bin: 8
bearing: -73.3007583618
intensity: 30.7700424194
---
header: 
  seq: 291090
  stamp: 
    secs: 1561863984
    nsecs:  88358712
  frame_id: "ti_mmwave"
point_id: 1
x: 0.017578125
y: -0.080078125
z: -0.009765625
range: 0.0871539413929
velocity: 0.0
doppler_bin: 8
bearing: -77.6192398071
intensity: 31.994808197
---
header: 
  seq: 291091
  stamp: 
    secs: 1561863984
    nsecs:  88378658
  frame_id: "ti_mmwave"
point_id: 2
x: 0.029296875
y: -0.119140625
z: -0.005859375
range: 0.130730912089
velocity: 0.0
doppler_bin: 8
bearing: -76.1849746704
intensity: 30.2571544647
---
header: 
  seq: 291092
  stamp: 
    secs: 1561863984
    nsecs:  88391075
  frame_id: "ti_mmwave"
point_id: 3
x: 0.056640625
y: -0.154296875
z: 0.005859375
range: 0.174307882786
velocity: 0.0
doppler_bin: 8
bearing: -69.8423843384
intensity: 25.5144996643
---
header: 
  seq: 291093
  stamp: 
    secs: 1561863984
    nsecs:  88405378
  frame_id: "ti_mmwave"
point_id: 4
x: 2.611328125
y: -0.17578125
z: 1.05859375
range: 3.00681090355
velocity: 0.0
doppler_bin: 8
bearing: -3.85104894638
intensity: 29.020029068
---
header: 
  seq: 291094
  stamp: 
    secs: 1561863984
    nsecs:  88427132
  frame_id: "ti_mmwave"
point_id: 5
x: 2.65625
y: -0.1796875
z: 1.052734375
range: 3.05038785934
velocity: 0.0
doppler_bin: 8
bearing: -3.86999511719
intensity: 32.3019332886
---
header: 
  seq: 291095
  stamp: 
    secs: 1561863984
    nsecs:  88455851
  frame_id: "ti_mmwave"
point_id: 6
x: 2.751953125
y: -0.08984375
z: 0.921875
range: 3.09396481514
velocity: 0.0
doppler_bin: 8
bearing: -1.86988639832
intensity: 31.3672065735
---
header: 
  seq: 291096
  stamp: 
    secs: 1561863984
    nsecs:  88473087
  frame_id: "ti_mmwave"
point_id: 7
x: 4.4140625
y: -0.142578125
z: 1.052734375
range: 4.83704376221
velocity: 0.0
doppler_bin: 8
bearing: -1.850061059
intensity: 28.6033802032
---
header: 
  seq: 291097
  stamp: 
    secs: 1561863984
    nsecs:  88649767
  frame_id: "ti_mmwave"
point_id: 8
x: 4.421875
y: -0.142578125
z: 1.1875
range: 4.88062095642
velocity: 0.0
doppler_bin: 8
bearing: -1.84679484367
intensity: 32.1404876709
---
header: 
  seq: 291098
  stamp: 
    secs: 1561863984
    nsecs:  88676044
  frame_id: "ti_mmwave"
point_id: 9
x: 4.451171875
y: -0.14453125
z: 1.234375
range: 4.9241976738
velocity: 0.0
doppler_bin: 8
bearing: -1.8597625494
intensity: 31.6938056946
---
header: 
  seq: 291099
  stamp: 
    secs: 1561863984
    nsecs:  88709700
  frame_id: "ti_mmwave"
point_id: 10
x: 1.224609375
y: -0.197265625
z: 0.267578125
range: 1.35088610649
velocity: -0.614668667316
doppler_bin: 7
bearing: -9.15085411072
intensity: 23.7839794159
---
header: 
  seq: 291100
  stamp: 
    secs: 1561863984
    nsecs:  88733086
  frame_id: "ti_mmwave"
point_id: 11
x: 1.298828125
y: -0.1640625
z: 0.001953125
range: 1.39446306229
velocity: -0.614668667316
doppler_bin: 7
bearing: -7.19923353195
intensity: 28.3695678711
---
header: 
  seq: 291101
  stamp: 
    secs: 1561863984
    nsecs:  88754283
  frame_id: "ti_mmwave"
point_id: 12
x: 1.326171875
y: -0.2109375
z: -0.146484375
range: 1.43804001808
velocity: -0.614668667316
doppler_bin: 7
bearing: -9.03761196136
intensity: 28.8705444336
---
header: 
  seq: 291102
  stamp: 
    secs: 1561863984
    nsecs:  88773942
  frame_id: "ti_mmwave"
point_id: 13
x: 1.357421875
y: -0.216796875
z: -0.21484375
range: 1.48161697388
velocity: -0.614668667316
doppler_bin: 7
bearing: -9.07419872284
intensity: 26.0314445496
---
header: 
  seq: 291103
  stamp: 
    secs: 1561863984
    nsecs:  88795676
  frame_id: "ti_mmwave"
point_id: 14
x: 1.41015625
y: -0.1796875
z: -0.169921875
range: 1.52519392967
velocity: -0.614668667316
doppler_bin: 7
bearing: -7.26171350479
intensity: 26.5896492004
---
header: 
  seq: 291104
  stamp: 
    secs: 1561863984
    nsecs:  88869287
  frame_id: "ti_mmwave"
point_id: 15
x: 1.46484375
y: -0.138671875
z: -0.076171875
range: 1.56877088547
velocity: -0.614668667316
doppler_bin: 7
bearing: -5.40788412094
intensity: 28.0955963135
---
header: 
  seq: 291105
  stamp: 
    secs: 1561863984
    nsecs:  88885601
  frame_id: "ti_mmwave"
point_id: 16
x: 1.509765625
y: -0.09375
z: 0.005859375
range: 1.61234796047
velocity: -0.614668667316
doppler_bin: 7
bearing: -3.55326104164
intensity: 25.7403125763
---
header: 
  seq: 291106
  stamp: 
    secs: 1561863984
    nsecs:  88899457
  frame_id: "ti_mmwave"
point_id: 17
x: 0.01171875
y: 0.03125
z: 0.025390625
range: 0.0435769706964
velocity: 0.0
doppler_bin: 8
bearing: 69.4439544678
intensity: 29.4001808167
---
header: 
  seq: 291107
  stamp: 
    secs: 1561863984
    nsecs:  88914632
  frame_id: "ti_mmwave"
point_id: 18
x: 0.041015625
y: -0.033203125
z: 0.0625
range: 0.0871539413929
velocity: 0.0
doppler_bin: 8
bearing: -38.9909973145
intensity: 30.1535968781
---
header: 
  seq: 291108
  stamp: 
    secs: 1561863984
    nsecs:  88926597
  frame_id: "ti_mmwave"
point_id: 19
x: 0.052734375
y: -0.04296875
z: 0.103515625
range: 0.130730912089
velocity: 0.0
doppler_bin: 8
bearing: -39.1736602783
intensity: 29.0254669189
---
header: 
  seq: 291109
  stamp: 
    secs: 1561863984
    nsecs:  88941045
  frame_id: "ti_mmwave"
point_id: 21
x: 1.26171875
y: 0.1796875
z: 0.65234375
range: 1.52519392967
velocity: -0.614668667316
doppler_bin: 7
bearing: 8.10526657104
intensity: 25.7054290771
---
header: 
  seq: 291110
  stamp: 
    secs: 1561863984
    nsecs:  88958116
  frame_id: "ti_mmwave"
point_id: 22
x: 0.462890625
y: 0.47265625
z: 1.361328125
range: 1.61234796047
velocity: -0.614668667316
doppler_bin: 7
bearing: 45.5980567932
intensity: 22.7875366211
---
header: 
  seq: 291111
  stamp: 
    secs: 1561863984
    nsecs:  89559498
  frame_id: "ti_mmwave"
point_id: 0
x: 0.01171875
y: -0.0390625
z: -0.0078125
range: 0.0435769706964
velocity: 0.0
doppler_bin: 8
bearing: -73.3007583618
intensity: 30.7700424194
---
header: 
  seq: 291112
  stamp: 
    secs: 1561863984
    nsecs:  89601579
  frame_id: "ti_mmwave"
point_id: 1
x: 0.017578125
y: -0.080078125
z: -0.009765625
range: 0.0871539413929
velocity: 0.0
doppler_bin: 8
bearing: -77.6192398071
intensity: 31.9975509644
---
header: 
  seq: 291113
  stamp: 
    secs: 1561863984
    nsecs:  89620018
  frame_id: "ti_mmwave"
point_id: 2
x: 0.041015625
y: -0.115234375
z: -0.0078125
range: 0.130730912089
velocity: 0.0
doppler_bin: 8
bearing: -70.4077224731
intensity: 30.2571544647
---
header: 
  seq: 291114
  stamp: 
    secs: 1561863984
    nsecs:  89635413
  frame_id: "ti_mmwave"
point_id: 3
x: 0.056640625
y: -0.154296875
z: 0.005859375
range: 0.174307882786
velocity: 0.0
doppler_bin: 8
bearing: -69.8423843384
intensity: 25.5266819
---
header: 
  seq: 291115
  stamp: 
    secs: 1561863984
    nsecs:  89658549
  frame_id: "ti_mmwave"
point_id: 4
x: 2.61328125
y: -0.17578125
z: 1.048828125
range: 3.00681090355
velocity: 0.0
doppler_bin: 8
bearing: -3.84817934036
intensity: 29.0525608063
---
header: 
  seq: 291116
  stamp: 
    secs: 1561863984
    nsecs:  89730776
  frame_id: "ti_mmwave"
point_id: 5
x: 2.66015625
y: -0.1796875
z: 1.046875
range: 3.05038785934
velocity: 0.0
doppler_bin: 8
bearing: -3.86432933807
intensity: 32.2993774414
---
header: 
  seq: 291117
  stamp: 
    secs: 1561863984
    nsecs:  89746893
  frame_id: "ti_mmwave"
point_id: 6
x: 2.751953125
y: -0.08984375
z: 0.923828125
range: 3.09396481514
velocity: 0.0
doppler_bin: 8
bearing: -1.86988639832
intensity: 31.383026123
---
header: 
  seq: 291118
  stamp: 
    secs: 1561863984
    nsecs:  89758670
  frame_id: "ti_mmwave"
point_id: 7
x: 4.404296875
y: -0.142578125
z: 1.091796875
range: 4.83704376221
velocity: 0.0
doppler_bin: 8
bearing: -1.85416030884
intensity: 28.7332057953
---
header: 
  seq: 291119
  stamp: 
    secs: 1561863984
    nsecs:  89770741
  frame_id: "ti_mmwave"
point_id: 8
x: 4.419921875
y: -0.142578125
z: 1.201171875
range: 4.88062095642
velocity: 0.0
doppler_bin: 8
bearing: -1.847610116
intensity: 32.1218757629
---
header: 
  seq: 291120
  stamp: 
    secs: 1561863984
    nsecs:  89820241
  frame_id: "ti_mmwave"
point_id: 9
x: 4.458984375
y: -0.14453125
z: 1.208984375
range: 4.9241976738
velocity: 0.0
doppler_bin: 8
bearing: -1.85650622845
intensity: 31.7897701263
---
header: 
  seq: 291121
  stamp: 
    secs: 1561863984
    nsecs:  89835968
  frame_id: "ti_mmwave"
point_id: 10
x: 4.88671875
y: -0.46484375
z: 0.638671875
range: 5.27281332016
velocity: 0.0
doppler_bin: 8
bearing: -5.43384790421
intensity: 29.7772369385
---
header: 
  seq: 291122
  stamp: 
    secs: 1561863984
    nsecs:  89849863
  frame_id: "ti_mmwave"
point_id: 11
x: 1.162109375
y: -0.19140625
z: -0.34375
range: 1.3073091507
velocity: -0.614668667316
doppler_bin: 7
bearing: -9.35297966003
intensity: 21.9312458038
---
header: 
  seq: 291123
  stamp: 
    secs: 1561863984
    nsecs:  89878485
  frame_id: "ti_mmwave"
point_id: 12
x: 1.189453125
y: -0.197265625
z: -0.390625
range: 1.35088610649
velocity: -0.614668667316
doppler_bin: 7
bearing: -9.41654586792
intensity: 27.4896278381
---
header: 
  seq: 291124
  stamp: 
    secs: 1561863984
    nsecs:  89935468
  frame_id: "ti_mmwave"
point_id: 13
x: 1.23046875
y: -0.205078125
z: -0.396484375
range: 1.39446306229
velocity: -0.614668667316
doppler_bin: 7
bearing: -9.46232223511
intensity: 28.9209461212
---
header: 
  seq: 291125
  stamp: 
    secs: 1561863984
    nsecs:  89951110
  frame_id: "ti_mmwave"
point_id: 14
x: 1.251953125
y: -0.2109375
z: -0.45703125
range: 1.43804001808
velocity: -0.614668667316
doppler_bin: 7
bearing: -9.56375598907
intensity: 27.0926990509
---
header: 
  seq: 291126
  stamp: 
    secs: 1561863984
    nsecs:  89963935
  frame_id: "ti_mmwave"
point_id: 15
x: 1.37890625
y: 0.04296875
z: 0.169921875
range: 1.48161697388
velocity: -0.614668667316
doppler_bin: 7
bearing: 1.78484320641
intensity: 26.9196510315
---
header: 
  seq: 291127
  stamp: 
    secs: 1561863984
    nsecs:  89978165
  frame_id: "ti_mmwave"
point_id: 16
x: 1.419921875
y: 0.044921875
z: 0.17578125
range: 1.52519392967
velocity: -0.614668667316
doppler_bin: 7
bearing: 1.81205427647
intensity: 28.3632411957
---
header: 
  seq: 291128
  stamp: 
    secs: 1561863984
    nsecs:  90000634
  frame_id: "ti_mmwave"
point_id: 17
x: 1.46875
y: 0.046875
z: 0.09375
range: 1.56877088547
velocity: -0.614668667316
doppler_bin: 7
bearing: 1.82796823978
intensity: 25.8883171082
---
header: 
  seq: 291129
  stamp: 
    secs: 1561863984
    nsecs:  90046692
  frame_id: "ti_mmwave"
point_id: 18
x: 0.01171875
y: 0.03125
z: 0.025390625
range: 0.0435769706964
velocity: 0.0
doppler_bin: 8
bearing: 69.4439544678
intensity: 29.4001808167
---
header: 
  seq: 291130
  stamp: 
    secs: 1561863984
    nsecs:  90057108
  frame_id: "ti_mmwave"
point_id: 19
x: 0.041015625
y: -0.033203125
z: 0.0625
range: 0.0871539413929
velocity: 0.0
doppler_bin: 8
bearing: -38.9909973145
intensity: 30.1535968781
---
header: 
  seq: 291131
  stamp: 
    secs: 1561863984
    nsecs:  90070825
  frame_id: "ti_mmwave"
point_id: 20
x: 0.052734375
y: -0.04296875
z: 0.103515625
range: 0.130730912089
velocity: 0.0
doppler_bin: 8
bearing: -39.1736602783
intensity: 29.0254669189
---
header: 
  seq: 291132
  stamp: 
    secs: 1561863984
    nsecs: 148517343
  frame_id: "ti_mmwave"
point_id: 0
x: 0.01171875
y: -0.0390625
z: -0.0078125
range: 0.0435769706964
velocity: 0.0
doppler_bin: 8
bearing: -73.3007583618
intensity: 30.7664051056
---
header: 
  seq: 291133
  stamp: 
    secs: 1561863984
    nsecs: 148611815
  frame_id: "ti_mmwave"
point_id: 1
x: 0.017578125
y: -0.080078125
z: -0.009765625
range: 0.0871539413929
velocity: 0.0
doppler_bin: 8
bearing: -77.6192398071
intensity: 31.994808197
---
header: 
  seq: 291134
  stamp: 
    secs: 1561863984
    nsecs: 148624502
  frame_id: "ti_mmwave"
point_id: 2
x: 0.029296875
y: -0.119140625
z: -0.005859375
range: 0.130730912089
velocity: 0.0
doppler_bin: 8
bearing: -76.1849746704
intensity: 30.2612457275
---
header: 
  seq: 291135
  stamp: 
    secs: 1561863984
    nsecs: 148633348
  frame_id: "ti_mmwave"
point_id: 3
x: 0.056640625
y: -0.154296875
z: 0.005859375
range: 0.174307882786
velocity: 0.0
doppler_bin: 8
bearing: -69.8423843384
intensity: 25.5144996643
---
header: 
  seq: 291136
  stamp: 
    secs: 1561863984
    nsecs: 148641747
  frame_id: "ti_mmwave"
point_id: 4
x: 2.619140625
y: -0.17578125
z: 1.03515625
range: 3.00681090355
velocity: 0.0
doppler_bin: 8
bearing: -3.83959650993
intensity: 29.0363254547
---
header: 
  seq: 291137
  stamp: 
    secs: 1561863984
    nsecs: 148649601
  frame_id: "ti_mmwave"
point_id: 5
x: 2.66015625
y: -0.1796875
z: 1.04296875
range: 3.05038785934
velocity: 0.0
doppler_bin: 8
bearing: -3.86432933807
intensity: 32.2916984558
---
header: 
  seq: 291138
  stamp: 
    secs: 1561863984
    nsecs: 148657592
  frame_id: "ti_mmwave"
point_id: 6
x: 2.755859375
y: -0.08984375
z: 0.9140625
range: 3.09396481514
velocity: 0.0
doppler_bin: 8
bearing: -1.86723792553
intensity: 31.2904510498
---
header: 
  seq: 291139
  stamp: 
    secs: 1561863984
    nsecs: 148667021
  frame_id: "ti_mmwave"
point_id: 7
x: 4.40234375
y: -0.142578125
z: 1.099609375
range: 4.83704376221
velocity: 0.0
doppler_bin: 8
bearing: -1.85498249531
intensity: 28.4509811401
---
header: 
  seq: 291140
  stamp: 
    secs: 1561863984
    nsecs: 148677019
  frame_id: "ti_mmwave"
point_id: 8
x: 4.412109375
y: -0.142578125
z: 1.228515625
range: 4.88062095642
velocity: 0.0
doppler_bin: 8
bearing: -1.85087943077
intensity: 31.6375751495
---
header: 
  seq: 291141
  stamp: 
    secs: 1561863984
    nsecs: 148685091
  frame_id: "ti_mmwave"
point_id: 9
x: 4.447265625
y: -0.14453125
z: 1.25390625
range: 4.9241976738
velocity: 0.0
doppler_bin: 8
bearing: -1.86139500141
intensity: 31.176027298
---
header: 
  seq: 291142
  stamp: 
    secs: 1561863984
    nsecs: 148693431
  frame_id: "ti_mmwave"
point_id: 10
x: 4.90625
y: -0.30859375
z: 0.57421875
range: 5.27281332016
velocity: 0.0
doppler_bin: 8
bearing: -3.59905409813
intensity: 31.9005146027
---
header: 
  seq: 291143
  stamp: 
    secs: 1561863984
    nsecs: 148701351
  frame_id: "ti_mmwave"
point_id: 11
x: 4.951171875
y: -0.623046875
z: 0.03125
range: 5.31639051437
velocity: 0.0
doppler_bin: 8
bearing: -7.17230129242
intensity: 30.8564720154
---
header: 
  seq: 291144
  stamp: 
    secs: 1561863984
    nsecs: 148709745
  frame_id: "ti_mmwave"
point_id: 12
x: 1.212890625
y: -0.115234375
z: -0.140625
range: 1.3073091507
velocity: -0.614668667316
doppler_bin: 7
bearing: -5.42726945877
intensity: 26.8663635254
---
header: 
  seq: 291145
  stamp: 
    secs: 1561863984
    nsecs: 148717627
  frame_id: "ti_mmwave"
point_id: 13
x: 1.255859375
y: -0.119140625
z: -0.12109375
range: 1.35088610649
velocity: -0.614668667316
doppler_bin: 7
bearing: -5.41930627823
intensity: 31.1925582886
---
header: 
  seq: 291146
  stamp: 
    secs: 1561863984
    nsecs: 148726019
  frame_id: "ti_mmwave"
point_id: 14
x: 1.296875
y: -0.123046875
z: -0.125
range: 1.39446306229
velocity: -0.614668667316
doppler_bin: 7
bearing: -5.41997098923
intensity: 31.7897701263
---
header: 
  seq: 291147
  stamp: 
    secs: 1561863984
    nsecs: 148737685
  frame_id: "ti_mmwave"
point_id: 15
x: 1.30078125
y: -0.16796875
z: -0.322265625
range: 1.43804001808
velocity: -0.614668667316
doppler_bin: 7
bearing: -7.35783815384
intensity: 28.312297821
---
header: 
  seq: 291148
  stamp: 
    secs: 1561863984
    nsecs: 148827837
  frame_id: "ti_mmwave"
point_id: 16
x: 1.31640625
y: 0.130859375
z: 0.4296875
range: 1.48161697388
velocity: -0.614668667316
doppler_bin: 7
bearing: 5.67692422867
intensity: 28.7332057953
---
header: 
  seq: 291149
  stamp: 
    secs: 1561863984
    nsecs: 148837962
  frame_id: "ti_mmwave"
point_id: 17
x: 1.40625
y: 0.044921875
z: 0.26171875
range: 1.52519392967
velocity: -0.614668667316
doppler_bin: 7
bearing: 1.8296598196
intensity: 29.1697998047
---
header: 
  seq: 291150
  stamp: 
    secs: 1561863984
    nsecs: 148846876
  frame_id: "ti_mmwave"
point_id: 18
x: 1.470703125
y: 0.046875
z: -0.033203125
range: 1.56877088547
velocity: -0.614668667316
doppler_bin: 7
bearing: 1.82554244995
intensity: 26.5224628448
---
header: 
  seq: 291151
  stamp: 
    secs: 1561863984
    nsecs: 148855175
  frame_id: "ti_mmwave"
point_id: 19
x: 0.01171875
y: 0.03125
z: 0.025390625
range: 0.0435769706964
velocity: 0.0
doppler_bin: 8
bearing: 69.4439544678
intensity: 29.4051647186
---
header: 
  seq: 291152
  stamp: 
    secs: 1561863984
    nsecs: 148863968
  frame_id: "ti_mmwave"
point_id: 20
x: 0.041015625
y: -0.033203125
z: 0.0625
range: 0.0871539413929
velocity: 0.0
doppler_bin: 8
bearing: -38.9909973145
intensity: 30.1494026184
---
header: 
  seq: 291153
  stamp: 
    secs: 1561863984
    nsecs: 148872155
  frame_id: "ti_mmwave"
point_id: 21
x: 0.052734375
y: -0.04296875
z: 0.103515625
range: 0.130730912089
velocity: 0.0
doppler_bin: 8
bearing: -39.1736602783
intensity: 29.020029068
---
header: 
  seq: 291154
  stamp: 
    secs: 1561863984
    nsecs: 150015081
  frame_id: "ti_mmwave"
point_id: 0
x: 0.01171875
y: -0.0390625
z: -0.0078125
range: 0.0435769706964
velocity: 0.0
doppler_bin: 8
bearing: -73.3007583618
intensity: 30.7700424194
---
header: 
  seq: 291155
  stamp: 
    secs: 1561863984
    nsecs: 150084278
  frame_id: "ti_mmwave"
point_id: 1
x: 0.017578125
y: -0.080078125
z: -0.009765625
range: 0.0871539413929
velocity: 0.0
doppler_bin: 8
bearing: -77.6192398071
intensity: 31.994808197
---
header: 
  seq: 291156
  stamp: 
    secs: 1561863984
    nsecs: 150098156
  frame_id: "ti_mmwave"
point_id: 2
x: 0.029296875
y: -0.119140625
z: -0.005859375
range: 0.130730912089
velocity: 0.0
doppler_bin: 8
bearing: -76.1849746704
intensity: 30.2612457275
---
header: 
  seq: 291157
  stamp: 
    secs: 1561863984
    nsecs: 150110203
  frame_id: "ti_mmwave"
point_id: 3
x: 0.056640625
y: -0.154296875
z: 0.005859375
range: 0.174307882786
velocity: 0.0
doppler_bin: 8
bearing: -69.8423843384
intensity: 25.5266819
---
header: 
  seq: 291158
  stamp: 
    secs: 1561863984
    nsecs: 150134473
  frame_id: "ti_mmwave"
point_id: 4
x: 2.611328125
y: -0.17578125
z: 1.05859375
range: 3.00681090355
velocity: 0.0
doppler_bin: 8
bearing: -3.85104894638
intensity: 29.0363254547
---
header: 
  seq: 291159
  stamp: 
    secs: 1561863984
    nsecs: 150159598
  frame_id: "ti_mmwave"
point_id: 5
x: 2.65625
y: -0.1796875
z: 1.056640625
range: 3.05038785934
velocity: 0.0
doppler_bin: 8
bearing: -3.86999511719
intensity: 32.2711524963
---
header: 
  seq: 291160
  stamp: 
    secs: 1561863984
    nsecs: 150255414
  frame_id: "ti_mmwave"
point_id: 6
x: 2.751953125
y: -0.08984375
z: 0.921875
range: 3.09396481514
velocity: 0.0
doppler_bin: 8
bearing: -1.86988639832
intensity: 31.2807598114
---
header: 
  seq: 291161
  stamp: 
    secs: 1561863984
    nsecs: 150271357
  frame_id: "ti_mmwave"
point_id: 7
x: 4.40625
y: -0.142578125
z: 1.24609375
range: 4.88062095642
velocity: 0.0
doppler_bin: 8
bearing: -1.85333895683
intensity: 30.8493366241
---
header: 
  seq: 291162
  stamp: 
    secs: 1561863984
    nsecs: 150280039
  frame_id: "ti_mmwave"
point_id: 8
x: 4.435546875
y: -0.14453125
z: 1.29296875
range: 4.9241976738
velocity: 0.0
doppler_bin: 8
bearing: -1.86630904675
intensity: 30.3382568359
---
header: 
  seq: 291163
  stamp: 
    secs: 1561863984
    nsecs: 150289177
  frame_id: "ti_mmwave"
point_id: 9
x: 4.830078125
y: -0.154296875
z: 0.865234375
range: 5.22923660278
velocity: 0.0
doppler_bin: 8
bearing: -1.82969176769
intensity: 31.1660766602
---
header: 
  seq: 291164
  stamp: 
    secs: 1561863984
    nsecs: 150298938
  frame_id: "ti_mmwave"
point_id: 10
x: 4.8828125
y: -0.30859375
z: 0.755859375
range: 5.27281332016
velocity: 0.0
doppler_bin: 8
bearing: -3.61628341675
intensity: 32.7137680054
---
header: 
  seq: 291165
  stamp: 
    secs: 1561863984
    nsecs: 150307403
  frame_id: "ti_mmwave"
point_id: 11
x: 4.97265625
y: -0.3125
z: 0.2734375
range: 5.31639051437
velocity: 0.0
doppler_bin: 8
bearing: -3.5959482193
intensity: 31.0002574921
---
header: 
  seq: 291166
  stamp: 
    secs: 1561863984
    nsecs: 150315185
  frame_id: "ti_mmwave"
point_id: 12
x: 1.15625
y: -0.111328125
z: -0.2421875
range: 1.2637321949
velocity: -0.614668667316
doppler_bin: 7
bearing: -5.4997010231
intensity: 23.3243846893
---
header: 
  seq: 291167
  stamp: 
    secs: 1561863984
    nsecs: 150322853
  frame_id: "ti_mmwave"
point_id: 13
x: 1.201171875
y: -0.115234375
z: -0.224609375
range: 1.3073091507
velocity: -0.614668667316
doppler_bin: 7
bearing: -5.47989797592
intensity: 28.8252449036
---
header: 
  seq: 291168
  stamp: 
    secs: 1561863984
    nsecs: 150330836
  frame_id: "ti_mmwave"
point_id: 14
x: 1.24609375
y: -0.080078125
z: -0.21875
range: 1.35088610649
velocity: -0.614668667316
doppler_bin: 7
bearing: -3.67696094513
intensity: 30.4060230255
---
header: 
  seq: 291169
  stamp: 
    secs: 1561863984
    nsecs: 150338421
  frame_id: "ti_mmwave"
point_id: 15
x: 1.275390625
y: -0.1640625
z: -0.244140625
range: 1.39446306229
velocity: -0.614668667316
doppler_bin: 7
bearing: -7.33010625839
intensity: 26.3447723389
---
header: 
  seq: 291170
  stamp: 
    secs: 1561863984
    nsecs: 150343331
  frame_id: "ti_mmwave"
point_id: 16
x: 1.326171875
y: 0.083984375
z: 0.232421875
range: 1.43804001808
velocity: -0.614668667316
doppler_bin: 7
bearing: 3.62361216545
intensity: 32.6007156372
---
header: 
  seq: 291171
  stamp: 
    secs: 1561863984
    nsecs: 150354938
  frame_id: "ti_mmwave"
point_id: 17
x: 1.373046875
y: 0.087890625
z: 0.19921875
range: 1.48161697388
velocity: -0.614668667316
doppler_bin: 7
bearing: 3.66258478165
intensity: 34.0534629822
---
header: 
  seq: 291172
  stamp: 
    secs: 1561863984
    nsecs: 150414963
  frame_id: "ti_mmwave"
point_id: 18
x: 1.412109375
y: 0.08984375
z: 0.22265625
range: 1.52519392967
velocity: -0.614668667316
doppler_bin: 7
bearing: 3.64046788216
intensity: 31.7318630219
---
header: 
  seq: 291173
  stamp: 
    secs: 1561863984
    nsecs: 150430546
  frame_id: "ti_mmwave"
point_id: 19
x: 0.01171875
y: 0.03125
z: 0.025390625
range: 0.0435769706964
velocity: 0.0
doppler_bin: 8
bearing: 69.4439544678
intensity: 29.4101428986
---
header: 
  seq: 291174
  stamp: 
    secs: 1561863984
    nsecs: 150443888
  frame_id: "ti_mmwave"
point_id: 20
x: 0.041015625
y: -0.033203125
z: 0.0625
range: 0.0871539413929
velocity: 0.0
doppler_bin: 8
bearing: -38.9909973145
intensity: 30.1535968781
---
header: 
  seq: 291175
  stamp: 
    secs: 1561863984
    nsecs: 150453898
  frame_id: "ti_mmwave"
point_id: 21
x: 0.052734375
y: -0.04296875
z: 0.103515625
range: 0.130730912089
velocity: 0.0
doppler_bin: 8
bearing: -39.1736602783
intensity: 29.020029068
---
header: 
  seq: 291176
  stamp: 
    secs: 1561863984
    nsecs: 150465949
  frame_id: "ti_mmwave"
point_id: 23
x: 1.091796875
y: 0.24609375
z: 0.6796875
range: 1.39446306229
velocity: -0.614668667316
doppler_bin: 7
bearing: 12.7023324966
intensity: 24.9136161804
---
header: 
  seq: 291177
  stamp: 
    secs: 1561863984
    nsecs: 208577574
  frame_id: "ti_mmwave"
point_id: 0
x: 0.01171875
y: -0.0390625
z: -0.0078125
range: 0.0435769706964
velocity: 0.0
doppler_bin: 8
bearing: -73.3007583618
intensity: 30.7736797333
---
header: 
  seq: 291178
  stamp: 
    secs: 1561863984
    nsecs: 208664062
  frame_id: "ti_mmwave"
point_id: 1
x: 0.017578125
y: -0.080078125
z: -0.009765625
range: 0.0871539413929
velocity: 0.0
doppler_bin: 8
bearing: -77.6192398071
intensity: 31.994808197
---
header: 
  seq: 291179
  stamp: 
    secs: 1561863984
    nsecs: 208678042
  frame_id: "ti_mmwave"
point_id: 2
x: 0.029296875
y: -0.119140625
z: -0.005859375
range: 0.130730912089
velocity: 0.0
doppler_bin: 8
bearing: -76.1849746704
intensity: 30.2571544647
---
header: 
  seq: 291180
  stamp: 
    secs: 1561863984
    nsecs: 208686420
  frame_id: "ti_mmwave"
point_id: 3
x: 0.056640625
y: -0.154296875
z: 0.005859375
range: 0.174307882786
velocity: 0.0
doppler_bin: 8
bearing: -69.8423843384
intensity: 25.5022830963
---
header: 
  seq: 291181
  stamp: 
    secs: 1561863984
    nsecs: 208695062
  frame_id: "ti_mmwave"
point_id: 4
x: 0.70703125
y: -0.119140625
z: 1.046875
range: 1.35088610649
velocity: 0.0
doppler_bin: 8
bearing: -9.56495666504
intensity: 23.8201713562
---
header: 
  seq: 291182
  stamp: 
    secs: 1561863984
    nsecs: 208704020
  frame_id: "ti_mmwave"
point_id: 5
x: 2.609375
y: -0.17578125
z: 1.060546875
range: 3.00681090355
velocity: 0.0
doppler_bin: 8
bearing: -3.85392260551
intensity: 29.1009063721
---
header: 
  seq: 291183
  stamp: 
    secs: 1561863984
    nsecs: 208712536
  frame_id: "ti_mmwave"
point_id: 6
x: 2.65625
y: -0.1796875
z: 1.0546875
range: 3.05038785934
velocity: 0.0
doppler_bin: 8
bearing: -3.86999511719
intensity: 32.2840042114
---
header: 
  seq: 291184
  stamp: 
    secs: 1561863984
    nsecs: 208732711
  frame_id: "ti_mmwave"
point_id: 7
x: 2.75390625
y: -0.08984375
z: 0.91796875
range: 3.09396481514
velocity: 0.0
doppler_bin: 8
bearing: -1.86856126785
intensity: 31.2904510498
---
header: 
  seq: 291185
  stamp: 
    secs: 1561863984
    nsecs: 208747014
  frame_id: "ti_mmwave"
point_id: 8
x: 4.39453125
y: -0.287109375
z: 1.265625
range: 4.88062095642
velocity: 0.0
doppler_bin: 8
bearing: -3.73801183701
intensity: 30.5076637268
---
header: 
  seq: 291186
  stamp: 
    secs: 1561863984
    nsecs: 208760329
  frame_id: "ti_mmwave"
point_id: 9
x: 4.44140625
y: -0.14453125
z: 1.26953125
range: 4.9241976738
velocity: 0.0
doppler_bin: 8
bearing: -1.86384868622
intensity: 30.2160263062
---
header: 
  seq: 291187
  stamp: 
    secs: 1561863984
    nsecs: 208774549
  frame_id: "ti_mmwave"
point_id: 10
x: 4.828125
y: -0.154296875
z: 0.875
range: 5.22923660278
velocity: 0.0
doppler_bin: 8
bearing: -1.83043134212
intensity: 30.8707122803
---
header: 
  seq: 291188
  stamp: 
    secs: 1561863984
    nsecs: 208787545
  frame_id: "ti_mmwave"
point_id: 11
x: 4.888671875
y: -0.154296875
z: 0.759765625
range: 5.27281332016
velocity: 0.0
doppler_bin: 8
bearing: -1.80777645111
intensity: 32.2375526428
---
header: 
  seq: 291189
  stamp: 
    secs: 1561863984
    nsecs: 208800718
  frame_id: "ti_mmwave"
point_id: 12
x: 4.96484375
y: -0.46875
z: 0.1953125
range: 5.31639051437
velocity: 0.0
doppler_bin: 8
bearing: -5.39352655411
intensity: 30.293838501
---
header: 
  seq: 291190
  stamp: 
    secs: 1561863984
    nsecs: 208813912
  frame_id: "ti_mmwave"
point_id: 13
x: 1.21875
y: -0.076171875
z: -0.1171875
range: 1.3073091507
velocity: -0.614668667316
doppler_bin: 7
bearing: -3.57633447647
intensity: 23.9445171356
---
header: 
  seq: 291191
  stamp: 
    secs: 1561863984
    nsecs: 208828307
  frame_id: "ti_mmwave"
point_id: 14
x: 1.291015625
y: 0.123046875
z: 0.17578125
range: 1.39446306229
velocity: -0.614668667316
doppler_bin: 7
bearing: 5.44442272186
intensity: 29.7680835724
---
header: 
  seq: 291192
  stamp: 
    secs: 1561863984
    nsecs: 208841288
  frame_id: "ti_mmwave"
point_id: 15
x: 1.326171875
y: 0.126953125
z: 0.216796875
range: 1.43804001808
velocity: -0.614668667316
doppler_bin: 7
bearing: 5.46820545197
intensity: 33.26745224
---
header: 
  seq: 291193
  stamp: 
    secs: 1561863984
    nsecs: 208855086
  frame_id: "ti_mmwave"
point_id: 16
x: 1.353515625
y: 0.130859375
z: 0.296875
range: 1.48161697388
velocity: -0.614668667316
doppler_bin: 7
bearing: 5.52225542068
intensity: 32.3552856445
---
header: 
  seq: 291194
  stamp: 
    secs: 1561863984
    nsecs: 208862652
  frame_id: "ti_mmwave"
point_id: 17
x: 1.359375
y: 0.224609375
z: 0.390625
range: 1.52519392967
velocity: -0.614668667316
doppler_bin: 7
bearing: 9.38220691681
intensity: 26.0422611237
---
header: 
  seq: 291195
  stamp: 
    secs: 1561863984
    nsecs: 208871286
  frame_id: "ti_mmwave"
point_id: 18
x: 0.01171875
y: 0.03125
z: 0.025390625
range: 0.0435769706964
velocity: 0.0
doppler_bin: 8
bearing: 69.4439544678
intensity: 29.4001808167
---
header: 
  seq: 291196
  stamp: 
    secs: 1561863984
    nsecs: 208884650
  frame_id: "ti_mmwave"
point_id: 19
x: 0.041015625
y: -0.033203125
z: 0.0625
range: 0.0871539413929
velocity: 0.0
doppler_bin: 8
bearing: -38.9909973145
intensity: 30.1535968781
---
header: 
  seq: 291197
  stamp: 
    secs: 1561863984
    nsecs: 208897737
  frame_id: "ti_mmwave"
point_id: 20
x: 0.052734375
y: -0.04296875
z: 0.103515625
range: 0.130730912089
velocity: 0.0
doppler_bin: 8
bearing: -39.1736602783
intensity: 29.0308990479
---
header: 
  seq: 291198
  stamp: 
    secs: 1561863984
    nsecs: 210048032
  frame_id: "ti_mmwave"
point_id: 0
x: 0.01171875
y: -0.0390625
z: -0.0078125
range: 0.0435769706964
velocity: 0.0
doppler_bin: 8
bearing: -73.3007583618
intensity: 30.7664051056
---
header: 
  seq: 291199
  stamp: 
    secs: 1561863984
    nsecs: 210105514
  frame_id: "ti_mmwave"
point_id: 1
x: 0.017578125
y: -0.080078125
z: -0.009765625
range: 0.0871539413929
velocity: 0.0
doppler_bin: 8
bearing: -77.6192398071
intensity: 31.994808197
---
header: 
  seq: 291200
  stamp: 
    secs: 1561863984
    nsecs: 210120737
  frame_id: "ti_mmwave"
point_id: 2
x: 0.029296875
y: -0.119140625
z: -0.005859375
range: 0.130730912089
velocity: 0.0
doppler_bin: 8
bearing: -76.1849746704
intensity: 30.2571544647
---
header: 
  seq: 291201
  stamp: 
    secs: 1561863984
    nsecs: 210136425
  frame_id: "ti_mmwave"
point_id: 3
x: 0.056640625
y: -0.154296875
z: 0.005859375
range: 0.174307882786
velocity: 0.0
doppler_bin: 8
bearing: -69.8423843384
intensity: 25.5144996643
---
header: 
  seq: 291202
  stamp: 
    secs: 1561863984
    nsecs: 210193503
  frame_id: "ti_mmwave"
point_id: 4
x: 0.8984375
y: -0.0
z: -0.89453125
range: 1.35088610649
velocity: 0.0
doppler_bin: 8
bearing: -0.0
intensity: 22.7875366211
---
header: 
  seq: 291203
  stamp: 
    secs: 1561863984
    nsecs: 210207061
  frame_id: "ti_mmwave"
point_id: 5
x: 1.138671875
y: -0.53125
z: 0.369140625
range: 1.39446306229
velocity: 0.0
doppler_bin: 8
bearing: -25.0115127563
intensity: 22.1748390198
---
header: 
  seq: 291204
  stamp: 
    secs: 1561863984
    nsecs: 210219082
  frame_id: "ti_mmwave"
point_id: 6
x: 2.6171875
y: -0.17578125
z: 1.04296875
range: 3.00681090355
velocity: 0.0
doppler_bin: 8
bearing: -3.84245300293
intensity: 29.0254669189
---
header: 
  seq: 291205
  stamp: 
    secs: 1561863984
    nsecs: 210230007
  frame_id: "ti_mmwave"
point_id: 7
x: 2.658203125
y: -0.1796875
z: 1.048828125
range: 3.05038785934
velocity: 0.0
doppler_bin: 8
bearing: -3.86716008186
intensity: 32.3044891357
---
header: 
  seq: 291206
  stamp: 
    secs: 1561863984
    nsecs: 210240812
  frame_id: "ti_mmwave"
point_id: 8
x: 2.755859375
y: -0.08984375
z: 0.9140625
range: 3.09396481514
velocity: 0.0
doppler_bin: 8
bearing: -1.86723792553
intensity: 31.3956432343
---
header: 
  seq: 291207
  stamp: 
    secs: 1561863984
    nsecs: 210252674
  frame_id: "ti_mmwave"
point_id: 9
x: 4.41796875
y: -0.142578125
z: 1.20703125
range: 4.88062095642
velocity: 0.0
doppler_bin: 8
bearing: -1.84842634201
intensity: 31.3640346527
---
header: 
  seq: 291208
  stamp: 
    secs: 1561863984
    nsecs: 210266800
  frame_id: "ti_mmwave"
point_id: 10
x: 4.462890625
y: -0.14453125
z: 1.197265625
range: 4.9241976738
velocity: 0.0
doppler_bin: 8
bearing: -1.85488259792
intensity: 31.1826477051
---
header: 
  seq: 291209
  stamp: 
    secs: 1561863984
    nsecs: 210279707
  frame_id: "ti_mmwave"
point_id: 11
x: 4.828125
y: -0.154296875
z: 0.875
range: 5.22923660278
velocity: 0.0
doppler_bin: 8
bearing: -1.83043134212
intensity: 30.1367969513
---
header: 
  seq: 291210
  stamp: 
    secs: 1561863984
    nsecs: 210327821
  frame_id: "ti_mmwave"
point_id: 12
x: 4.8984375
y: -0.30859375
z: 0.63671875
range: 5.27281332016
velocity: 0.0
doppler_bin: 8
bearing: -3.60477876663
intensity: 31.4332714081
---
header: 
  seq: 291211
  stamp: 
    secs: 1561863984
    nsecs: 210343905
  frame_id: "ti_mmwave"
point_id: 13
x: 4.951171875
y: -0.623046875
z: -0.041015625
range: 5.31639051437
velocity: 0.0
doppler_bin: 8
bearing: -7.17230129242
intensity: 30.1452045441
---
header: 
  seq: 291212
  stamp: 
    secs: 1561863984
    nsecs: 210356800
  frame_id: "ti_mmwave"
point_id: 14
x: 1.17578125
y: -0.111328125
z: -0.119140625
range: 1.2637321949
velocity: -0.614668667316
doppler_bin: 7
bearing: -5.40889024734
intensity: 24.4090900421
---
header: 
  seq: 291213
  stamp: 
    secs: 1561863984
    nsecs: 210368591
  frame_id: "ti_mmwave"
point_id: 15
x: 1.216796875
y: -0.115234375
z: -0.10546875
range: 1.3073091507
velocity: -0.614668667316
doppler_bin: 7
bearing: -5.40994977951
intensity: 24.1830120087
---
header: 
  seq: 291214
  stamp: 
    secs: 1561863984
    nsecs: 210381179
  frame_id: "ti_mmwave"
point_id: 16
x: 1.33203125
y: 0.083984375
z: 0.203125
range: 1.43804001808
velocity: -0.614668667316
doppler_bin: 7
bearing: 3.60771489143
intensity: 26.541765213
---
header: 
  seq: 291215
  stamp: 
    secs: 1561863984
    nsecs: 210395336
  frame_id: "ti_mmwave"
point_id: 17
x: 1.380859375
y: 0.04296875
z: 0.162109375
range: 1.48161697388
velocity: -0.614668667316
doppler_bin: 7
bearing: 1.78232049942
intensity: 28.767950058
---
header: 
  seq: 291216
  stamp: 
    secs: 1561863984
    nsecs: 210409211
  frame_id: "ti_mmwave"
point_id: 18
x: 1.419921875
y: 0.044921875
z: 0.177734375
range: 1.52519392967
velocity: -0.614668667316
doppler_bin: 7
bearing: 1.81205427647
intensity: 27.032913208
---
header: 
  seq: 291217
  stamp: 
    secs: 1561863984
    nsecs: 210438050
  frame_id: "ti_mmwave"
point_id: 19
x: 0.01171875
y: 0.03125
z: 0.025390625
range: 0.0435769706964
velocity: 0.0
doppler_bin: 8
bearing: 69.4439544678
intensity: 29.4051647186
---
header: 
  seq: 291218
  stamp: 
    secs: 1561863984
    nsecs: 210464765
  frame_id: "ti_mmwave"
point_id: 20
x: 0.041015625
y: -0.033203125
z: 0.0625
range: 0.0871539413929
velocity: 0.0
doppler_bin: 8
bearing: -38.9909973145
intensity: 30.1535968781
---
header: 
  seq: 291219
  stamp: 
    secs: 1561863984
    nsecs: 210551264
  frame_id: "ti_mmwave"
point_id: 21
x: 0.052734375
y: -0.04296875
z: 0.103515625
range: 0.130730912089
velocity: 0.0
doppler_bin: 8
bearing: -39.1736602783
intensity: 29.0254669189
---
header: 
  seq: 291220
  stamp: 
    secs: 1561863984
    nsecs: 210564067
  frame_id: "ti_mmwave"
point_id: 23
x: 1.119140625
y: -0.474609375
z: 0.359375
range: 1.35088610649
velocity: 0.0
doppler_bin: 8
bearing: -22.9810123444
intensity: 20.5690479279
---
header: 
  seq: 291221
  stamp: 
    secs: 1561863984
    nsecs: 210573728
  frame_id: "ti_mmwave"
point_id: 24
x: 0.423828125
y: -0.08203125
z: 1.236328125
range: 1.39446306229
velocity: 0.0
doppler_bin: 8
bearing: -10.9540624619
intensity: 21.9589958191
---
header: 
  seq: 291222
  stamp: 
    secs: 1561863984
    nsecs: 268275031
  frame_id: "ti_mmwave"
point_id: 0
x: 0.01171875
y: -0.0390625
z: -0.0078125
range: 0.0435769706964
velocity: 0.0
doppler_bin: 8
bearing: -73.3007583618
intensity: 30.7664051056
---
header: 
  seq: 291223
  stamp: 
    secs: 1561863984
    nsecs: 268350717
  frame_id: "ti_mmwave"
point_id: 1
x: 0.017578125
y: -0.080078125
z: -0.009765625
range: 0.0871539413929
velocity: 0.0
doppler_bin: 8
bearing: -77.6192398071
intensity: 31.994808197
---
header: 
  seq: 291224
  stamp: 
    secs: 1561863984
    nsecs: 268366692
  frame_id: "ti_mmwave"
point_id: 2
x: 0.029296875
y: -0.119140625
z: -0.005859375
range: 0.130730912089
velocity: 0.0
doppler_bin: 8
bearing: -76.1849746704
intensity: 30.2612457275
---
header: 
  seq: 291225
  stamp: 
    secs: 1561863984
    nsecs: 268382035
  frame_id: "ti_mmwave"
point_id: 3
x: 0.056640625
y: -0.154296875
z: 0.005859375
range: 0.174307882786
velocity: 0.0
doppler_bin: 8
bearing: -69.8423843384
intensity: 25.5144996643
---
header: 
  seq: 291226
  stamp: 
    secs: 1561863984
    nsecs: 268391373
  frame_id: "ti_mmwave"
point_id: 4
x: 1.1875
y: 0.123046875
z: 0.537109375
range: 1.39446306229
velocity: 0.0
doppler_bin: 8
bearing: 5.91578626633
intensity: 31.9893188477
---
header: 
  seq: 291227
  stamp: 
    secs: 1561863984
    nsecs: 268399613
  frame_id: "ti_mmwave"
point_id: 5
x: 1.283203125
y: 0.126953125
z: 0.400390625
range: 1.43804001808
velocity: 0.0
doppler_bin: 8
bearing: 5.6501455307
intensity: 33.3705978394
---
header: 
  seq: 291228
  stamp: 
    secs: 1561863984
    nsecs: 268408872
  frame_id: "ti_mmwave"
point_id: 6
x: 1.349609375
y: 0.044921875
z: 0.474609375
range: 1.52519392967
velocity: 0.0
doppler_bin: 8
bearing: 1.90639162064
intensity: 25.5266819
---
header: 
  seq: 291229
  stamp: 
    secs: 1561863984
    nsecs: 268417484
  frame_id: "ti_mmwave"
point_id: 7
x: 2.607421875
y: -0.17578125
z: 1.064453125
range: 3.00681090355
velocity: 0.0
doppler_bin: 8
bearing: -3.8568007946
intensity: 29.0036716461
---
header: 
  seq: 291230
  stamp: 
    secs: 1561863984
    nsecs: 268425846
  frame_id: "ti_mmwave"
point_id: 8
x: 2.654296875
y: -0.1796875
z: 1.060546875
range: 3.05038785934
velocity: 0.0
doppler_bin: 8
bearing: -3.87283420563
intensity: 32.2036972046
---
header: 
  seq: 291231
  stamp: 
    secs: 1561863984
    nsecs: 268434272
  frame_id: "ti_mmwave"
point_id: 9
x: 2.75
y: -0.08984375
z: 0.931640625
range: 3.09396481514
velocity: 0.0
doppler_bin: 8
bearing: -1.87121355534
intensity: 31.1826477051
---
header: 
  seq: 291232
  stamp: 
    secs: 1561863984
    nsecs: 268442229
  frame_id: "ti_mmwave"
point_id: 10
x: 4.404296875
y: -0.142578125
z: 1.095703125
range: 4.83704376221
velocity: 0.0
doppler_bin: 8
bearing: -1.85416030884
intensity: 28.6923179626
---
header: 
  seq: 291233
  stamp: 
    secs: 1561863984
    nsecs: 268451531
  frame_id: "ti_mmwave"
point_id: 11
x: 4.41796875
y: -0.142578125
z: 1.201171875
range: 4.88062095642
velocity: 0.0
doppler_bin: 8
bearing: -1.84842634201
intensity: 32.2453308105
---
header: 
  seq: 291234
  stamp: 
    secs: 1561863984
    nsecs: 268473634
  frame_id: "ti_mmwave"
point_id: 12
x: 4.4609375
y: -0.14453125
z: 1.201171875
range: 4.9241976738
velocity: 0.0
doppler_bin: 8
bearing: -1.85569405556
intensity: 31.8977088928
---
header: 
  seq: 291235
  stamp: 
    secs: 1561863984
    nsecs: 268490616
  frame_id: "ti_mmwave"
point_id: 13
x: 4.892578125
y: -0.30859375
z: 0.6796875
range: 5.27281332016
velocity: 0.0
doppler_bin: 8
bearing: -3.60908436775
intensity: 31.1793384552
---
header: 
  seq: 291236
  stamp: 
    secs: 1561863984
    nsecs: 268504156
  frame_id: "ti_mmwave"
point_id: 14
x: 4.951171875
y: -0.623046875
z: 0.001953125
range: 5.31639051437
velocity: 0.0
doppler_bin: 8
bearing: -7.17230129242
intensity: 29.8811283112
---
header: 
  seq: 291237
  stamp: 
    secs: 1561863984
    nsecs: 268517822
  frame_id: "ti_mmwave"
point_id: 15
x: 1.056640625
y: -0.072265625
z: -0.4375
range: 1.22015523911
velocity: -0.614668667316
doppler_bin: 7
bearing: -3.91247272491
intensity: 22.6951293945
---
header: 
  seq: 291238
  stamp: 
    secs: 1561863984
    nsecs: 268692326
  frame_id: "ti_mmwave"
point_id: 16
x: 1.150390625
y: -0.037109375
z: -0.291015625
range: 1.2637321949
velocity: -0.614668667316
doppler_bin: 7
bearing: -1.847610116
intensity: 27.4193916321
---
header: 
  seq: 291239
  stamp: 
    secs: 1561863984
    nsecs: 268720601
  frame_id: "ti_mmwave"
point_id: 17
x: 1.20703125
y: -0.0390625
z: -0.21875
range: 1.3073091507
velocity: -0.614668667316
doppler_bin: 7
bearing: -1.85358548164
intensity: 28.6510391235
---
header: 
  seq: 291240
  stamp: 
    secs: 1561863984
    nsecs: 268734599
  frame_id: "ti_mmwave"
point_id: 18
x: 1.267578125
y: 0.0390625
z: 0.02734375
range: 1.35088610649
velocity: -0.614668667316
doppler_bin: 7
bearing: 1.76510488987
intensity: 29.1855449677
---
header: 
  seq: 291241
  stamp: 
    secs: 1561863984
    nsecs: 268787217
  frame_id: "ti_mmwave"
point_id: 19
x: 1.365234375
y: 0.130859375
z: 0.234375
range: 1.48161697388
velocity: -0.614668667316
doppler_bin: 7
bearing: 5.47514343262
intensity: 31.4113616943
---
header: 
  seq: 291242
  stamp: 
    secs: 1561863984
    nsecs: 268805243
  frame_id: "ti_mmwave"
point_id: 20
x: 0.01171875
y: 0.03125
z: 0.025390625
range: 0.0435769706964
velocity: 0.0
doppler_bin: 8
bearing: 69.4439544678
intensity: 29.4051647186
---
header: 
  seq: 291243
  stamp: 
    secs: 1561863984
    nsecs: 268814871
  frame_id: "ti_mmwave"
point_id: 21
x: 0.041015625
y: -0.033203125
z: 0.0625
range: 0.0871539413929
velocity: 0.0
doppler_bin: 8
bearing: -38.9909973145
intensity: 30.1494026184
---
header: 
  seq: 291244
  stamp: 
    secs: 1561863984
    nsecs: 268856646
  frame_id: "ti_mmwave"
point_id: 22
x: 0.052734375
y: -0.04296875
z: 0.103515625
range: 0.130730912089
velocity: 0.0
doppler_bin: 8
bearing: -39.1736602783
intensity: 29.0254669189
---
header: 
  seq: 291245
  stamp: 
    secs: 1561863984
    nsecs: 268874831
  frame_id: "ti_mmwave"
point_id: 24
x: 1.072265625
y: -0.447265625
z: -0.8359375
range: 1.52519392967
velocity: 0.0
doppler_bin: 8
bearing: -22.6420917511
intensity: 22.5527248383
---
header: 
  seq: 291246
  stamp: 
    secs: 1561863984
    nsecs: 269809752
  frame_id: "ti_mmwave"
point_id: 0
x: 0.01171875
y: -0.0390625
z: -0.0078125
range: 0.0435769706964
velocity: 0.0
doppler_bin: 8
bearing: -73.3007583618
intensity: 30.7664051056
---
header: 
  seq: 291247
  stamp: 
    secs: 1561863984
    nsecs: 269874066
  frame_id: "ti_mmwave"
point_id: 1
x: 0.017578125
y: -0.080078125
z: -0.009765625
range: 0.0871539413929
velocity: 0.0
doppler_bin: 8
bearing: -77.6192398071
intensity: 31.994808197
---
header: 
  seq: 291248
  stamp: 
    secs: 1561863984
    nsecs: 269894145
  frame_id: "ti_mmwave"
point_id: 2
x: 0.029296875
y: -0.119140625
z: -0.005859375
range: 0.130730912089
velocity: 0.0
doppler_bin: 8
bearing: -76.1849746704
intensity: 30.2571544647
---
header: 
  seq: 291249
  stamp: 
    secs: 1561863984
    nsecs: 269909372
  frame_id: "ti_mmwave"
point_id: 3
x: 0.056640625
y: -0.154296875
z: 0.005859375
range: 0.174307882786
velocity: 0.0
doppler_bin: 8
bearing: -69.8423843384
intensity: 25.5144996643
---
header: 
  seq: 291250
  stamp: 
    secs: 1561863984
    nsecs: 270017179
  frame_id: "ti_mmwave"
point_id: 4
x: 1.27734375
y: 0.123046875
z: 0.25390625
range: 1.39446306229
velocity: 0.0
doppler_bin: 8
bearing: 5.50234079361
intensity: 29.5951843262
---
header: 
  seq: 291251
  stamp: 
    secs: 1561863984
    nsecs: 270045369
  frame_id: "ti_mmwave"
point_id: 5
x: 1.3125
y: 0.16796875
z: 0.267578125
range: 1.43804001808
velocity: 0.0
doppler_bin: 8
bearing: 7.29285430908
intensity: 29.7405090332
---
header: 
  seq: 291252
  stamp: 
    secs: 1561863984
    nsecs: 270055243
  frame_id: "ti_mmwave"
point_id: 6
x: 2.609375
y: -0.17578125
z: 1.0625
range: 3.00681090355
velocity: 0.0
doppler_bin: 8
bearing: -3.85392260551
intensity: 28.9376182556
---
header: 
  seq: 291253
  stamp: 
    secs: 1561863984
    nsecs: 270099211
  frame_id: "ti_mmwave"
point_id: 7
x: 2.654296875
y: -0.1796875
z: 1.05859375
range: 3.05038785934
velocity: 0.0
doppler_bin: 8
bearing: -3.87283420563
intensity: 32.2193565369
---
header: 
  seq: 291254
  stamp: 
    secs: 1561863984
    nsecs: 270114543
  frame_id: "ti_mmwave"
point_id: 8
x: 2.75
y: -0.08984375
z: 0.927734375
range: 3.09396481514
velocity: 0.0
doppler_bin: 8
bearing: -1.87121355534
intensity: 31.2515583038
---
header: 
  seq: 291255
  stamp: 
    secs: 1561863984
    nsecs: 270127751
  frame_id: "ti_mmwave"
point_id: 9
x: 4.40625
y: -0.142578125
z: 1.08984375
range: 4.83704376221
velocity: 0.0
doppler_bin: 8
bearing: -1.85333895683
intensity: 28.0482063293
---
header: 
  seq: 291256
  stamp: 
    secs: 1561863984
    nsecs: 270159000
  frame_id: "ti_mmwave"
point_id: 10
x: 4.423828125
y: -0.142578125
z: 1.185546875
range: 4.88062095642
velocity: 0.0
doppler_bin: 8
bearing: -1.84597980976
intensity: 31.2936763763
---
header: 
  seq: 291257
  stamp: 
    secs: 1561863984
    nsecs: 270185884
  frame_id: "ti_mmwave"
point_id: 11
x: 4.466796875
y: -0.14453125
z: 1.1796875
range: 4.9241976738
velocity: 0.0
doppler_bin: 8
bearing: -1.85326147079
intensity: 30.7809410095
---
header: 
  seq: 291258
