header: 
  seq: 353057
  stamp: 
    secs: 1561864077
    nsecs: 808265072
  frame_id: "ti_mmwave"
point_id: 0
x: 0.01171875
y: -0.0390625
z: -0.0078125
range: 0.0435769706964
velocity: 0.0
doppler_bin: 8
bearing: -73.3007583618
intensity: 30.7335166931
---
header: 
  seq: 353058
  stamp: 
    secs: 1561864077
    nsecs: 808381781
  frame_id: "ti_mmwave"
point_id: 1
x: 0.017578125
y: -0.080078125
z: -0.009765625
range: 0.0871539413929
velocity: 0.0
doppler_bin: 8
bearing: -77.6192398071
intensity: 31.9672870636
---
header: 
  seq: 353059
  stamp: 
    secs: 1561864077
    nsecs: 808401522
  frame_id: "ti_mmwave"
point_id: 2
x: 0.029296875
y: -0.119140625
z: -0.005859375
range: 0.130730912089
velocity: 0.0
doppler_bin: 8
bearing: -76.1849746704
intensity: 30.2284069061
---
header: 
  seq: 353060
  stamp: 
    secs: 1561864077
    nsecs: 808417053
  frame_id: "ti_mmwave"
point_id: 3
x: 0.056640625
y: -0.154296875
z: 0.005859375
range: 0.174307882786
velocity: 0.0
doppler_bin: 8
bearing: -69.8423843384
intensity: 25.5022830963
---
header: 
  seq: 353061
  stamp: 
    secs: 1561864077
    nsecs: 808433336
  frame_id: "ti_mmwave"
point_id: 4
x: 0.123046875
y: -0.080078125
z: 1.259765625
range: 1.35088610649
velocity: 0.0
doppler_bin: 8
bearing: -33.0558242798
intensity: 23.0749607086
---
header: 
  seq: 353062
  stamp: 
    secs: 1561864077
    nsecs: 808472781
  frame_id: "ti_mmwave"
point_id: 6
x: 0.427734375
y: -0.083984375
z: -1.27734375
range: 1.43804001808
velocity: 0.0
doppler_bin: 8
bearing: -11.1085424423
intensity: 23.031961441
---
header: 
  seq: 353063
  stamp: 
    secs: 1561864077
    nsecs: 808489548
  frame_id: "ti_mmwave"
point_id: 7
x: 0.576171875
y: -0.04296875
z: -1.265625
range: 1.48161697388
velocity: 0.0
doppler_bin: 8
bearing: -4.2650103569
intensity: 21.6731739044
---
header: 
  seq: 353064
  stamp: 
    secs: 1561864077
    nsecs: 808529898
  frame_id: "ti_mmwave"
point_id: 8
x: 2.65234375
y: -0.1796875
z: 1.0625
range: 3.05038785934
velocity: 0.0
doppler_bin: 8
bearing: -3.87567687035
intensity: 32.1431388855
---
header: 
  seq: 353065
  stamp: 
    secs: 1561864077
    nsecs: 808545712
  frame_id: "ti_mmwave"
point_id: 9
x: 2.755859375
y: -0.08984375
z: 0.916015625
range: 3.09396481514
velocity: 0.0
doppler_bin: 8
bearing: -1.86723792553
intensity: 31.1925582886
---
header: 
  seq: 353066
  stamp: 
    secs: 1561864077
    nsecs: 808638446
  frame_id: "ti_mmwave"
point_id: 10
x: 4.404296875
y: -0.142578125
z: 1.255859375
range: 4.88062095642
velocity: 0.0
doppler_bin: 8
bearing: -1.85416030884
intensity: 31.1925582886
---
header: 
  seq: 353067
  stamp: 
    secs: 1561864077
    nsecs: 808655843
  frame_id: "ti_mmwave"
point_id: 11
x: 4.421875
y: -0.14453125
z: 1.341796875
range: 4.9241976738
velocity: 0.0
doppler_bin: 8
bearing: -1.87207520008
intensity: 30.9898967743
---
header: 
  seq: 353068
  stamp: 
    secs: 1561864077
    nsecs: 808670503
  frame_id: "ti_mmwave"
point_id: 12
x: 4.736328125
y: -0.298828125
z: -0.623046875
range: 5.09850549698
velocity: 0.0
doppler_bin: 8
bearing: -3.61016488075
intensity: 33.13022995
---
header: 
  seq: 353069
  stamp: 
    secs: 1561864077
    nsecs: 808686086
  frame_id: "ti_mmwave"
point_id: 13
x: 4.76953125
y: -0.30078125
z: -0.68359375
range: 5.14208269119
velocity: 0.0
doppler_bin: 8
bearing: -3.60846877098
intensity: 33.7602920532
---
header: 
  seq: 353070
  stamp: 
    secs: 1561864077
    nsecs: 808699428
  frame_id: "ti_mmwave"
point_id: 14
x: 4.783203125
y: -0.15234375
z: -0.896484375
range: 5.18565940857
velocity: 0.0
doppler_bin: 8
bearing: -1.82423877716
intensity: 30.2325248718
---
header: 
  seq: 353071
  stamp: 
    secs: 1561864077
    nsecs: 808713602
  frame_id: "ti_mmwave"
point_id: 15
x: 4.853515625
y: -0.30859375
z: 0.919921875
range: 5.27281332016
velocity: 0.0
doppler_bin: 8
bearing: -3.63805365562
intensity: 30.8529052734
---
header: 
  seq: 353072
  stamp: 
    secs: 1561864077
    nsecs: 808727852
  frame_id: "ti_mmwave"
point_id: 16
x: 1.6953125
y: -0.21484375
z: -0.173828125
range: 1.83023273945
velocity: 0.614668667316
doppler_bin: 9
bearing: -7.22248601913
intensity: 26.503074646
---
header: 
  seq: 353073
  stamp: 
    secs: 1561864077
    nsecs: 808741484
  frame_id: "ti_mmwave"
point_id: 17
x: 0.009765625
y: 0.03125
z: 0.025390625
range: 0.0435769706964
velocity: 0.0
doppler_bin: 8
bearing: 72.6459732056
intensity: 29.380191803
---
header: 
  seq: 353074
  stamp: 
    secs: 1561864077
    nsecs: 808756615
  frame_id: "ti_mmwave"
point_id: 18
x: 0.041015625
y: -0.033203125
z: 0.0625
range: 0.0871539413929
velocity: 0.0
doppler_bin: 8
bearing: -38.9909973145
intensity: 30.1325874329
---
header: 
  seq: 353075
  stamp: 
    secs: 1561864077
    nsecs: 808771545
  frame_id: "ti_mmwave"
point_id: 19
x: 0.052734375
y: -0.04296875
z: 0.103515625
range: 0.130730912089
velocity: 0.0
doppler_bin: 8
bearing: -39.1736602783
intensity: 28.9982051849
---
header: 
  seq: 353076
  stamp: 
    secs: 1561864077
    nsecs: 809833429
  frame_id: "ti_mmwave"
point_id: 0
x: 0.01171875
y: -0.0390625
z: -0.0078125
range: 0.0435769706964
velocity: 0.0
doppler_bin: 8
bearing: -73.3007583618
intensity: 30.7298469543
---
header: 
  seq: 353077
  stamp: 
    secs: 1561864077
    nsecs: 809890593
  frame_id: "ti_mmwave"
point_id: 1
x: 0.017578125
y: -0.080078125
z: -0.009765625
range: 0.0871539413929
velocity: 0.0
doppler_bin: 8
bearing: -77.6192398071
intensity: 31.9672870636
---
header: 
  seq: 353078
  stamp: 
    secs: 1561864077
    nsecs: 809908856
  frame_id: "ti_mmwave"
point_id: 2
x: 0.029296875
y: -0.119140625
z: -0.005859375
range: 0.130730912089
velocity: 0.0
doppler_bin: 8
bearing: -76.1849746704
intensity: 30.2325248718
---
header: 
  seq: 353079
  stamp: 
    secs: 1561864077
    nsecs: 809931910
  frame_id: "ti_mmwave"
point_id: 3
x: 0.056640625
y: -0.154296875
z: 0.00390625
range: 0.174307882786
velocity: 0.0
doppler_bin: 8
bearing: -69.8423843384
intensity: 25.490032196
---
header: 
  seq: 353080
  stamp: 
    secs: 1561864077
    nsecs: 810020923
  frame_id: "ti_mmwave"
point_id: 4
x: 0.138671875
y: -0.080078125
z: 1.2578125
range: 1.35088610649
velocity: 0.0
doppler_bin: 8
bearing: -30.0049190521
intensity: 23.138671875
---
header: 
  seq: 353081
  stamp: 
    secs: 1561864077
    nsecs: 810038370
  frame_id: "ti_mmwave"
point_id: 6
x: 0.421875
y: -0.083984375
z: -1.279296875
range: 1.43804001808
velocity: 0.0
doppler_bin: 8
bearing: -11.2589120865
intensity: 22.9885311127
---
header: 
  seq: 353082
  stamp: 
    secs: 1561864077
    nsecs: 810051156
  frame_id: "ti_mmwave"
point_id: 7
x: 0.546875
y: -0.04296875
z: -1.27734375
range: 1.48161697388
velocity: 0.0
doppler_bin: 8
bearing: -4.49258184433
intensity: 21.6136798859
---
header: 
  seq: 353083
  stamp: 
    secs: 1561864077
    nsecs: 810064183
  frame_id: "ti_mmwave"
point_id: 8
x: 2.603515625
y: -0.17578125
z: 1.076171875
range: 3.00681090355
velocity: 0.0
doppler_bin: 8
bearing: -3.86257004738
intensity: 29.0036716461
---
header: 
  seq: 353084
  stamp: 
    secs: 1561864077
    nsecs: 810085918
  frame_id: "ti_mmwave"
point_id: 9
x: 2.65234375
y: -0.1796875
z: 1.064453125
range: 3.05038785934
velocity: 0.0
doppler_bin: 8
bearing: -3.87567687035
intensity: 32.2556762695
---
header: 
  seq: 353085
  stamp: 
    secs: 1561864077
    nsecs: 810131769
  frame_id: "ti_mmwave"
point_id: 10
x: 2.75
y: -0.08984375
z: 0.9296875
range: 3.09396481514
velocity: 0.0
doppler_bin: 8
bearing: -1.87121355534
intensity: 31.3353881836
---
header: 
  seq: 353086
  stamp: 
    secs: 1561864077
    nsecs: 810147685
  frame_id: "ti_mmwave"
point_id: 11
x: 4.408203125
y: -0.142578125
z: 1.240234375
range: 4.88062095642
velocity: 0.0
doppler_bin: 8
bearing: -1.85251843929
intensity: 31.3735408783
---
header: 
  seq: 353087
  stamp: 
    secs: 1561864077
    nsecs: 810162331
  frame_id: "ti_mmwave"
point_id: 12
x: 4.431640625
y: -0.14453125
z: 1.306640625
range: 4.9241976738
velocity: 0.0
doppler_bin: 8
bearing: -1.86795306206
intensity: 31.1958580017
---
header: 
  seq: 353088
  stamp: 
    secs: 1561864077
    nsecs: 810183751
  frame_id: "ti_mmwave"
point_id: 13
x: 4.734375
y: -0.298828125
z: -0.63671875
range: 5.09850549698
velocity: 0.0
doppler_bin: 8
bearing: -3.61165046692
intensity: 32.8465614319
---
header: 
  seq: 353089
  stamp: 
    secs: 1561864077
    nsecs: 810225957
  frame_id: "ti_mmwave"
point_id: 14
x: 4.767578125
y: -0.30078125
z: -0.69140625
range: 5.14208269119
velocity: 0.0
doppler_bin: 8
bearing: -3.60994315147
intensity: 33.5850601196
---
header: 
  seq: 353090
  stamp: 
    secs: 1561864077
    nsecs: 810239718
  frame_id: "ti_mmwave"
point_id: 15
x: 4.78125
y: -0.15234375
z: -0.896484375
range: 5.18565940857
velocity: 0.0
doppler_bin: 8
bearing: -1.82498347759
intensity: 30.1661548615
---
header: 
  seq: 353091
  stamp: 
    secs: 1561864077
    nsecs: 810253153
  frame_id: "ti_mmwave"
point_id: 16
x: 4.8515625
y: -0.30859375
z: 0.93359375
range: 5.27281332016
velocity: 0.0
doppler_bin: 8
bearing: -3.63951420784
intensity: 30.8134727478
---
header: 
  seq: 353092
  stamp: 
    secs: 1561864077
    nsecs: 810262439
  frame_id: "ti_mmwave"
point_id: 17
x: 1.794921875
y: -0.40234375
z: -0.080078125
range: 1.96096372604
velocity: 0.614668667316
doppler_bin: 9
bearing: -12.6343860626
intensity: 25.5144996643
---
header: 
  seq: 353093
  stamp: 
    secs: 1561864077
    nsecs: 810309844
  frame_id: "ti_mmwave"
point_id: 18
x: 1.84765625
y: -0.353515625
z: 0.072265625
range: 2.00454068184
velocity: 0.614668667316
doppler_bin: 9
bearing: -10.8316030502
intensity: 25.6466598511
---
header: 
  seq: 353094
  stamp: 
    secs: 1561864077
    nsecs: 810325554
  frame_id: "ti_mmwave"
point_id: 19
x: 0.009765625
y: 0.03125
z: 0.025390625
range: 0.0435769706964
velocity: 0.0
doppler_bin: 8
bearing: 72.6459732056
intensity: 29.380191803
---
header: 
  seq: 353095
  stamp: 
    secs: 1561864077
    nsecs: 810338477
  frame_id: "ti_mmwave"
point_id: 20
x: 0.041015625
y: -0.033203125
z: 0.0625
range: 0.0871539413929
velocity: 0.0
doppler_bin: 8
bearing: -38.9909973145
intensity: 30.1325874329
---
header: 
  seq: 353096
  stamp: 
    secs: 1561864077
    nsecs: 810360411
  frame_id: "ti_mmwave"
point_id: 21
x: 0.052734375
y: -0.04296875
z: 0.103515625
range: 0.130730912089
velocity: 0.0
doppler_bin: 8
bearing: -39.1736602783
intensity: 29.0036716461
---
header: 
  seq: 353097
  stamp: 
    secs: 1561864077
    nsecs: 868469332
  frame_id: "ti_mmwave"
point_id: 0
x: 0.01171875
y: -0.0390625
z: -0.0078125
range: 0.0435769706964
velocity: 0.0
doppler_bin: 8
bearing: -73.3007583618
intensity: 30.7371826172
---
header: 
  seq: 353098
  stamp: 
    secs: 1561864077
    nsecs: 868564820
  frame_id: "ti_mmwave"
point_id: 1
x: 0.017578125
y: -0.080078125
z: -0.009765625
range: 0.0871539413929
velocity: 0.0
doppler_bin: 8
bearing: -77.6192398071
intensity: 31.9700469971
---
header: 
  seq: 353099
  stamp: 
    secs: 1561864077
    nsecs: 868581608
  frame_id: "ti_mmwave"
point_id: 2
x: 0.029296875
y: -0.119140625
z: -0.005859375
range: 0.130730912089
velocity: 0.0
doppler_bin: 8
bearing: -76.1849746704
intensity: 30.2284069061
---
header: 
  seq: 353100
  stamp: 
    secs: 1561864077
    nsecs: 868598425
  frame_id: "ti_mmwave"
point_id: 3
x: 0.056640625
y: -0.154296875
z: 0.005859375
range: 0.174307882786
velocity: 0.0
doppler_bin: 8
bearing: -69.8423843384
intensity: 25.4777469635
---
header: 
  seq: 353101
  stamp: 
    secs: 1561864077
    nsecs: 868615250
  frame_id: "ti_mmwave"
point_id: 4
x: 0.0859375
y: -0.080078125
z: 1.26171875
range: 1.35088610649
velocity: 0.0
doppler_bin: 8
bearing: -42.9786338806
intensity: 23.1175384521
---
header: 
  seq: 353102
  stamp: 
    secs: 1561864077
    nsecs: 868631321
  frame_id: "ti_mmwave"
point_id: 6
x: 0.416015625
y: -0.083984375
z: -1.28125
range: 1.43804001808
velocity: 0.0
doppler_bin: 8
bearing: -11.4133548737
intensity: 22.9885311127
---
header: 
  seq: 353103
  stamp: 
    secs: 1561864077
    nsecs: 868645509
  frame_id: "ti_mmwave"
point_id: 7
x: 0.546875
y: -0.04296875
z: -1.27734375
range: 1.48161697388
velocity: 0.0
doppler_bin: 8
bearing: -4.49258184433
intensity: 21.6136798859
---
header: 
  seq: 353104
  stamp: 
    secs: 1561864077
    nsecs: 868659264
  frame_id: "ti_mmwave"
point_id: 8
x: 2.626953125
y: -0.17578125
z: 1.017578125
range: 3.00681090355
velocity: 0.0
doppler_bin: 8
bearing: -3.82821130753
intensity: 29.0633506775
---
header: 
  seq: 353105
  stamp: 
    secs: 1561864077
    nsecs: 868672717
  frame_id: "ti_mmwave"
point_id: 9
x: 2.662109375
y: -0.1796875
z: 1.037109375
range: 3.05038785934
velocity: 0.0
doppler_bin: 8
bearing: -3.86150240898
intensity: 32.2968177795
---
header: 
  seq: 353106
  stamp: 
    secs: 1561864077
    nsecs: 868690980
  frame_id: "ti_mmwave"
point_id: 10
x: 2.755859375
y: -0.08984375
z: 0.9140625
range: 3.09396481514
velocity: 0.0
doppler_bin: 8
bearing: -1.86723792553
intensity: 31.3225975037
---
header: 
  seq: 353107
  stamp: 
    secs: 1561864077
    nsecs: 868770463
  frame_id: "ti_mmwave"
point_id: 11
x: 4.412109375
y: -0.142578125
z: 1.2265625
range: 4.88062095642
velocity: 0.0
doppler_bin: 8
bearing: -1.85087943077
intensity: 31.5075645447
---
header: 
  seq: 353108
  stamp: 
    secs: 1561864077
    nsecs: 868786249
  frame_id: "ti_mmwave"
point_id: 12
x: 4.427734375
y: -0.14453125
z: 1.3203125
range: 4.9241976738
velocity: 0.0
doppler_bin: 8
bearing: -1.86959993839
intensity: 31.2904510498
---
header: 
  seq: 353109
  stamp: 
    secs: 1561864077
    nsecs: 868800588
  frame_id: "ti_mmwave"
point_id: 13
x: 4.736328125
y: -0.298828125
z: -0.626953125
range: 5.09850549698
velocity: 0.0
doppler_bin: 8
bearing: -3.61016488075
intensity: 32.5647735596
---
header: 
  seq: 353110
  stamp: 
    secs: 1561864077
    nsecs: 868814596
  frame_id: "ti_mmwave"
point_id: 14
x: 4.765625
y: -0.30078125
z: -0.708984375
range: 5.14208269119
velocity: 0.0
doppler_bin: 8
bearing: -3.61141896248
intensity: 33.324382782
---
header: 
  seq: 353111
  stamp: 
    secs: 1561864077
    nsecs: 868830494
  frame_id: "ti_mmwave"
point_id: 15
x: 4.755859375
y: -0.15234375
z: -1.02734375
range: 5.18565940857
velocity: 0.0
doppler_bin: 8
bearing: -1.83472013474
intensity: 29.7635002136
---
header: 
  seq: 353112
  stamp: 
    secs: 1561864077
    nsecs: 868845342
  frame_id: "ti_mmwave"
point_id: 16
x: 4.84765625
y: -0.30859375
z: 0.947265625
range: 5.27281332016
velocity: 0.0
doppler_bin: 8
bearing: -3.64243960381
intensity: 30.2530593872
---
header: 
  seq: 353113
  stamp: 
    secs: 1561864077
    nsecs: 868860342
  frame_id: "ti_mmwave"
point_id: 17
x: 0.01171875
y: 0.03125
z: 0.025390625
range: 0.0435769706964
velocity: 0.0
doppler_bin: 8
bearing: 69.4439544678
intensity: 29.380191803
---
header: 
  seq: 353114
  stamp: 
    secs: 1561864077
    nsecs: 868871012
  frame_id: "ti_mmwave"
point_id: 18
x: 0.041015625
y: -0.033203125
z: 0.0625
range: 0.0871539413929
velocity: 0.0
doppler_bin: 8
bearing: -38.9909973145
intensity: 30.1367969513
---
header: 
  seq: 353115
  stamp: 
    secs: 1561864077
    nsecs: 868898912
  frame_id: "ti_mmwave"
point_id: 19
x: 0.052734375
y: -0.04296875
z: 0.103515625
range: 0.130730912089
velocity: 0.0
doppler_bin: 8
bearing: -39.1736602783
intensity: 29.0036716461
---
header: 
  seq: 353116
  stamp: 
    secs: 1561864077
    nsecs: 868964291
  frame_id: "ti_mmwave"
point_id: 21
x: 4.83203125
y: -0.0
z: 1.07421875
range: 5.27281332016
velocity: 0.0
doppler_bin: 8
bearing: -0.0
intensity: 30.2284069061
---
header: 
  seq: 353117
  stamp: 
    secs: 1561864077
    nsecs: 869794587
  frame_id: "ti_mmwave"
point_id: 0
x: 0.01171875
y: -0.0390625
z: -0.0078125
range: 0.0435769706964
velocity: 0.0
doppler_bin: 8
bearing: -73.3007583618
intensity: 30.7371826172
---
header: 
  seq: 353118
  stamp: 
    secs: 1561864077
    nsecs: 869844558
  frame_id: "ti_mmwave"
point_id: 1
x: 0.017578125
y: -0.080078125
z: -0.0078125
range: 0.0871539413929
velocity: 0.0
doppler_bin: 8
bearing: -77.6192398071
intensity: 31.9645252228
---
header: 
  seq: 353119
  stamp: 
    secs: 1561864077
    nsecs: 869859619
  frame_id: "ti_mmwave"
point_id: 2
x: 0.029296875
y: -0.119140625
z: -0.005859375
range: 0.130730912089
velocity: 0.0
doppler_bin: 8
bearing: -76.1849746704
intensity: 30.2284069061
---
header: 
  seq: 353120
  stamp: 
    secs: 1561864077
    nsecs: 869873415
  frame_id: "ti_mmwave"
point_id: 3
x: 0.056640625
y: -0.154296875
z: 0.005859375
range: 0.174307882786
velocity: 0.0
doppler_bin: 8
bearing: -69.8423843384
intensity: 25.490032196
---
header: 
  seq: 353121
  stamp: 
    secs: 1561864077
    nsecs: 869889573
  frame_id: "ti_mmwave"
point_id: 4
x: 0.119140625
y: -0.080078125
z: 1.259765625
range: 1.35088610649
velocity: 0.0
doppler_bin: 8
bearing: -33.9062767029
intensity: 23.0963020325
---
header: 
  seq: 353122
  stamp: 
    secs: 1561864077
    nsecs: 869911487
  frame_id: "ti_mmwave"
point_id: 6
x: 0.41796875
y: -0.083984375
z: -1.28125
range: 1.43804001808
velocity: 0.0
doppler_bin: 8
bearing: -11.3614110947
intensity: 22.9446620941
---
header: 
  seq: 353123
  stamp: 
    secs: 1561864077
    nsecs: 869961362
  frame_id: "ti_mmwave"
point_id: 7
x: 0.546875
y: -0.04296875
z: -1.27734375
range: 1.48161697388
velocity: 0.0
doppler_bin: 8
bearing: -4.49258184433
intensity: 21.5836257935
---
header: 
  seq: 353124
  stamp: 
    secs: 1561864077
    nsecs: 869975677
  frame_id: "ti_mmwave"
point_id: 8
x: 2.62109375
y: -0.17578125
z: 1.033203125
range: 3.00681090355
velocity: 0.0
doppler_bin: 8
bearing: -3.83674383163
intensity: 28.9707698822
---
header: 
  seq: 353125
  stamp: 
    secs: 1561864077
    nsecs: 869988613
  frame_id: "ti_mmwave"
point_id: 9
x: 2.658203125
y: -0.1796875
z: 1.048828125
range: 3.05038785934
velocity: 0.0
doppler_bin: 8
bearing: -3.86716008186
intensity: 32.2582588196
---
header: 
  seq: 353126
  stamp: 
    secs: 1561864077
    nsecs: 870001740
  frame_id: "ti_mmwave"
point_id: 10
x: 2.75390625
y: -0.08984375
z: 0.919921875
range: 3.09396481514
velocity: 0.0
doppler_bin: 8
bearing: -1.86856126785
intensity: 31.2742881775
---
header: 
  seq: 353127
  stamp: 
    secs: 1561864077
    nsecs: 870014941
  frame_id: "ti_mmwave"
point_id: 11
x: 4.416015625
y: -0.142578125
z: 1.208984375
range: 4.88062095642
velocity: 0.0
doppler_bin: 8
bearing: -1.84924340248
intensity: 31.3257980347
---
header: 
  seq: 353128
  stamp: 
    secs: 1561864077
    nsecs: 870027931
  frame_id: "ti_mmwave"
point_id: 12
x: 4.431640625
y: -0.14453125
z: 1.3046875
range: 4.9241976738
velocity: 0.0
doppler_bin: 8
bearing: -1.86795306206
intensity: 31.1461105347
---
header: 
  seq: 353129
  stamp: 
    secs: 1561864077
    nsecs: 870056540
  frame_id: "ti_mmwave"
point_id: 13
x: 4.73046875
y: -0.298828125
z: -0.669921875
range: 5.09850549698
velocity: 0.0
doppler_bin: 8
bearing: -3.61462497711
intensity: 31.7172641754
---
header: 
  seq: 353130
  stamp: 
    secs: 1561864077
    nsecs: 870076395
  frame_id: "ti_mmwave"
point_id: 14
x: 4.75390625
y: -0.30078125
z: -0.78125
range: 5.14208269119
velocity: 0.0
doppler_bin: 8
bearing: -3.62029790878
intensity: 32.4204406738
---
header: 
  seq: 353131
  stamp: 
    secs: 1561864077
    nsecs: 870097479
  frame_id: "ti_mmwave"
point_id: 15
x: 4.8671875
y: -0.30859375
z: 0.845703125
range: 5.27281332016
velocity: 0.0
doppler_bin: 8
bearing: -3.62786221504
intensity: 30.5115261078
---
header: 
  seq: 353132
  stamp: 
    secs: 1561864077
    nsecs: 870118934
  frame_id: "ti_mmwave"
point_id: 16
x: 1.8671875
y: -0.234375
z: 0.046875
range: 2.00454068184
velocity: 0.614668667316
doppler_bin: 9
bearing: -7.15452003479
intensity: 25.9769515991
---
header: 
  seq: 353133
  stamp: 
    secs: 1561864077
    nsecs: 870140108
  frame_id: "ti_mmwave"
point_id: 17
x: 0.01171875
y: 0.03125
z: 0.025390625
range: 0.0435769706964
velocity: 0.0
doppler_bin: 8
bearing: 69.4439544678
intensity: 29.380191803
---
header: 
  seq: 353134
  stamp: 
    secs: 1561864077
    nsecs: 870160143
  frame_id: "ti_mmwave"
point_id: 18
x: 0.041015625
y: -0.033203125
z: 0.0625
range: 0.0871539413929
velocity: 0.0
doppler_bin: 8
bearing: -38.9909973145
intensity: 30.1283721924
---
header: 
  seq: 353135
  stamp: 
    secs: 1561864077
    nsecs: 870181001
  frame_id: "ti_mmwave"
point_id: 19
x: 0.052734375
y: -0.04296875
z: 0.103515625
range: 0.130730912089
velocity: 0.0
doppler_bin: 8
bearing: -39.1736602783
intensity: 28.9927310944
---
header: 
  seq: 353136
  stamp: 
    secs: 1561864077
    nsecs: 928247881
  frame_id: "ti_mmwave"
point_id: 0
x: 0.01171875
y: -0.0390625
z: -0.0078125
range: 0.0435769706964
velocity: 0.0
doppler_bin: 8
bearing: -73.3007583618
intensity: 30.7335166931
---
header: 
  seq: 353137
  stamp: 
    secs: 1561864077
    nsecs: 928326835
  frame_id: "ti_mmwave"
point_id: 1
x: 0.017578125
y: -0.080078125
z: -0.0078125
range: 0.0871539413929
velocity: 0.0
doppler_bin: 8
bearing: -77.6192398071
intensity: 31.9672870636
---
header: 
  seq: 353138
  stamp: 
    secs: 1561864077
    nsecs: 928338315
  frame_id: "ti_mmwave"
point_id: 2
x: 0.029296875
y: -0.119140625
z: -0.005859375
range: 0.130730912089
velocity: 0.0
doppler_bin: 8
bearing: -76.1849746704
intensity: 30.2284069061
---
header: 
  seq: 353139
  stamp: 
    secs: 1561864077
    nsecs: 928346969
  frame_id: "ti_mmwave"
point_id: 3
x: 0.056640625
y: -0.154296875
z: 0.005859375
range: 0.174307882786
velocity: 0.0
doppler_bin: 8
bearing: -69.8423843384
intensity: 25.490032196
---
header: 
  seq: 353140
  stamp: 
    secs: 1561864077
    nsecs: 928355418
  frame_id: "ti_mmwave"
point_id: 4
x: 0.1015625
y: -0.080078125
z: 1.26171875
range: 1.35088610649
velocity: 0.0
doppler_bin: 8
bearing: -38.2544212341
intensity: 23.1175384521
---
header: 
  seq: 353141
  stamp: 
    secs: 1561864077
    nsecs: 928365764
  frame_id: "ti_mmwave"
point_id: 6
x: 0.427734375
y: -0.083984375
z: -1.27734375
range: 1.43804001808
velocity: 0.0
doppler_bin: 8
bearing: -11.1085424423
intensity: 22.9446620941
---
header: 
  seq: 353142
  stamp: 
    secs: 1561864077
    nsecs: 928374488
  frame_id: "ti_mmwave"
point_id: 7
x: 0.568359375
y: -0.04296875
z: -1.267578125
range: 1.48161697388
velocity: 0.0
doppler_bin: 8
bearing: -4.32341527939
intensity: 21.6136798859
---
header: 
  seq: 353143
  stamp: 
    secs: 1561864077
    nsecs: 928382583
  frame_id: "ti_mmwave"
point_id: 8
x: 2.6640625
y: -0.1796875
z: 1.03515625
range: 3.05038785934
velocity: 0.0
doppler_bin: 8
bearing: -3.85868024826
intensity: 32.3019332886
---
header: 
  seq: 353144
  stamp: 
    secs: 1561864077
    nsecs: 928392613
  frame_id: "ti_mmwave"
point_id: 9
x: 2.759765625
y: -0.08984375
z: 0.90234375
range: 3.09396481514
velocity: 0.0
doppler_bin: 8
bearing: -1.86459684372
intensity: 31.332195282
---
header: 
  seq: 353145
  stamp: 
    secs: 1561864077
    nsecs: 928402285
  frame_id: "ti_mmwave"
point_id: 10
x: 4.40625
y: -0.142578125
z: 1.24609375
range: 4.88062095642
velocity: 0.0
doppler_bin: 8
bearing: -1.85333895683
intensity: 31.209028244
---
header: 
  seq: 353146
  stamp: 
    secs: 1561864077
    nsecs: 928410903
  frame_id: "ti_mmwave"
point_id: 11
x: 4.431640625
y: -0.14453125
z: 1.3046875
range: 4.9241976738
velocity: 0.0
doppler_bin: 8
bearing: -1.86795306206
intensity: 31.1660766602
---
header: 
  seq: 353147
  stamp: 
    secs: 1561864077
    nsecs: 928419060
  frame_id: "ti_mmwave"
point_id: 12
x: 4.728515625
y: -0.298828125
z: -0.68359375
range: 5.09850549698
velocity: 0.0
doppler_bin: 8
bearing: -3.61611390114
intensity: 30.6632595062
---
header: 
  seq: 353148
  stamp: 
    secs: 1561864077
    nsecs: 928427526
  frame_id: "ti_mmwave"
point_id: 13
x: 4.74609375
y: -0.30078125
z: -0.828125
range: 5.14208269119
velocity: 0.0
doppler_bin: 8
bearing: -3.6262409687
intensity: 31.3481445312
---
header: 
  seq: 353149
  stamp: 
    secs: 1561864077
    nsecs: 928435922
  frame_id: "ti_mmwave"
point_id: 14
x: 4.85546875
y: -0.30859375
z: 0.90625
range: 5.27281332016
velocity: 0.0
doppler_bin: 8
bearing: -3.6365942955
intensity: 30.6669845581
---
header: 
  seq: 353150
  stamp: 
    secs: 1561864077
    nsecs: 928449639
  frame_id: "ti_mmwave"
point_id: 16
x: 0.01171875
y: 0.03125
z: 0.025390625
range: 0.0435769706964
velocity: 0.0
doppler_bin: 8
bearing: 69.4439544678
intensity: 29.380191803
---
header: 
  seq: 353151
  stamp: 
    secs: 1561864077
    nsecs: 928604708
  frame_id: "ti_mmwave"
point_id: 17
x: 0.041015625
y: -0.033203125
z: 0.0625
range: 0.0871539413929
velocity: 0.0
doppler_bin: 8
bearing: -38.9909973145
intensity: 30.1325874329
---
header: 
  seq: 353152
  stamp: 
    secs: 1561864077
    nsecs: 928626561
  frame_id: "ti_mmwave"
point_id: 18
x: 0.052734375
y: -0.04296875
z: 0.103515625
range: 0.130730912089
velocity: 0.0
doppler_bin: 8
bearing: -39.1736602783
intensity: 28.9982051849
---
header: 
  seq: 353153
  stamp: 
    secs: 1561864077
    nsecs: 988211146
  frame_id: "ti_mmwave"
point_id: 0
x: 0.01171875
y: -0.0390625
z: -0.0078125
range: 0.0435769706964
velocity: 0.0
doppler_bin: 8
bearing: -73.3007583618
intensity: 30.7298469543
---
header: 
  seq: 353154
  stamp: 
    secs: 1561864077
    nsecs: 988287515
  frame_id: "ti_mmwave"
point_id: 1
x: 0.017578125
y: -0.080078125
z: -0.0078125
range: 0.0871539413929
velocity: 0.0
doppler_bin: 8
bearing: -77.6192398071
intensity: 31.9645252228
---
header: 
  seq: 353155
  stamp: 
    secs: 1561864077
    nsecs: 988302214
  frame_id: "ti_mmwave"
point_id: 2
x: 0.029296875
y: -0.119140625
z: -0.005859375
range: 0.130730912089
velocity: 0.0
doppler_bin: 8
bearing: -76.1849746704
intensity: 30.2284069061
---
header: 
  seq: 353156
  stamp: 
    secs: 1561864077
    nsecs: 988314244
  frame_id: "ti_mmwave"
point_id: 3
x: 0.056640625
y: -0.154296875
z: 0.005859375
range: 0.174307882786
velocity: 0.0
doppler_bin: 8
bearing: -69.8423843384
intensity: 25.490032196
---
header: 
  seq: 353157
  stamp: 
    secs: 1561864077
    nsecs: 988330416
  frame_id: "ti_mmwave"
point_id: 4
x: 0.11328125
y: -0.080078125
z: 1.259765625
range: 1.35088610649
velocity: 0.0
doppler_bin: 8
bearing: -35.2563591003
intensity: 23.138671875
---
header: 
  seq: 353158
  stamp: 
    secs: 1561864077
    nsecs: 988341398
  frame_id: "ti_mmwave"
point_id: 6
x: 0.419921875
y: -0.083984375
z: -1.279296875
range: 1.43804001808
velocity: 0.0
doppler_bin: 8
bearing: -11.3099327087
intensity: 23.031961441
---
header: 
  seq: 353159
  stamp: 
    secs: 1561864077
    nsecs: 988350119
  frame_id: "ti_mmwave"
point_id: 7
x: 2.658203125
y: -0.087890625
z: 0.947265625
range: 3.00681090355
velocity: 0.0
doppler_bin: 8
bearing: -1.89373338223
intensity: 28.9097957611
---
header: 
  seq: 353160
  stamp: 
    secs: 1561864077
    nsecs: 988358395
  frame_id: "ti_mmwave"
point_id: 8
x: 2.66015625
y: -0.1796875
z: 1.044921875
range: 3.05038785934
velocity: 0.0
doppler_bin: 8
bearing: -3.86432933807
intensity: 32.2608413696
---
header: 
  seq: 353161
  stamp: 
    secs: 1561864077
    nsecs: 988369834
  frame_id: "ti_mmwave"
point_id: 9
x: 2.75390625
y: -0.08984375
z: 0.919921875
range: 3.09396481514
velocity: 0.0
doppler_bin: 8
bearing: -1.86856126785
intensity: 31.2936763763
---
header: 
  seq: 353162
  stamp: 
    secs: 1561864077
    nsecs: 988377923
  frame_id: "ti_mmwave"
point_id: 10
x: 4.412109375
y: -0.142578125
z: 1.22265625
range: 4.88062095642
velocity: 0.0
doppler_bin: 8
bearing: -1.85087943077
intensity: 31.383026123
---
header: 
  seq: 353163
  stamp: 
    secs: 1561864077
    nsecs: 988385740
  frame_id: "ti_mmwave"
point_id: 11
x: 4.458984375
y: -0.14453125
z: 1.208984375
range: 4.9241976738
velocity: 0.0
doppler_bin: 8
bearing: -1.85650622845
intensity: 31.3672065735
---
header: 
  seq: 353164
  stamp: 
    secs: 1561864077
    nsecs: 988393577
  frame_id: "ti_mmwave"
point_id: 12
x: 4.65234375
y: -0.146484375
z: 0.271484375
range: 4.96777486801
velocity: 0.0
doppler_bin: 8
bearing: -1.80342757702
intensity: 29.8811283112
---
header: 
  seq: 353165
  stamp: 
    secs: 1561864077
    nsecs: 988402411
  frame_id: "ti_mmwave"
point_id: 13
x: 4.75390625
y: -0.150390625
z: -0.828125
range: 5.14208269119
velocity: 0.0
doppler_bin: 8
bearing: -1.81195735931
intensity: 30.141002655
---
header: 
  seq: 353166
  stamp: 
    secs: 1561864077
    nsecs: 988414242
  frame_id: "ti_mmwave"
point_id: 14
x: 4.8671875
y: -0.30859375
z: 0.841796875
range: 5.27281332016
velocity: 0.0
doppler_bin: 8
bearing: -3.62786221504
intensity: 30.8671569824
---
header: 
  seq: 353167
  stamp: 
    secs: 1561864077
    nsecs: 988583441
  frame_id: "ti_mmwave"
point_id: 15
x: 0.009765625
y: 0.03125
z: 0.025390625
range: 0.0435769706964
velocity: 0.0
doppler_bin: 8
bearing: 72.6459732056
intensity: 29.3751792908
---
header: 
  seq: 353168
  stamp: 
    secs: 1561864077
    nsecs: 988605941
  frame_id: "ti_mmwave"
point_id: 16
x: 0.041015625
y: -0.033203125
z: 0.0625
range: 0.0871539413929
velocity: 0.0
doppler_bin: 8
bearing: -38.9909973145
intensity: 30.1325874329
---
header: 
  seq: 353169
  stamp: 
    secs: 1561864077
    nsecs: 988616771
  frame_id: "ti_mmwave"
point_id: 17
x: 0.052734375
y: -0.04296875
z: 0.103515625
range: 0.130730912089
velocity: 0.0
doppler_bin: 8
bearing: -39.1736602783
intensity: 28.9982051849
---
header: 
  seq: 353170
  stamp: 
    secs: 1561864077
    nsecs: 989708428
  frame_id: "ti_mmwave"
point_id: 0
x: 0.01171875
y: -0.0390625
z: -0.0078125
range: 0.0435769706964
velocity: 0.0
doppler_bin: 8
bearing: -73.3007583618
intensity: 30.7371826172
---
header: 
  seq: 353171
  stamp: 
    secs: 1561864077
    nsecs: 989770896
  frame_id: "ti_mmwave"
point_id: 1
x: 0.017578125
y: -0.080078125
z: -0.0078125
range: 0.0871539413929
velocity: 0.0
doppler_bin: 8
bearing: -77.6192398071
intensity: 31.9645252228
---
header: 
  seq: 353172
  stamp: 
    secs: 1561864077
    nsecs: 989789575
  frame_id: "ti_mmwave"
point_id: 2
x: 0.029296875
y: -0.119140625
z: -0.005859375
range: 0.130730912089
velocity: 0.0
doppler_bin: 8
bearing: -76.1849746704
intensity: 30.2284069061
---
header: 
  seq: 353173
  stamp: 
    secs: 1561864077
    nsecs: 989804458
  frame_id: "ti_mmwave"
point_id: 3
x: 0.056640625
y: -0.154296875
z: 0.005859375
range: 0.174307882786
velocity: 0.0
doppler_bin: 8
bearing: -69.8423843384
intensity: 25.490032196
---
header: 
  seq: 353174
  stamp: 
    secs: 1561864077
    nsecs: 989817418
  frame_id: "ti_mmwave"
point_id: 4
x: 0.130859375
y: -0.080078125
z: 1.259765625
range: 1.35088610649
velocity: 0.0
doppler_bin: 8
bearing: -31.4641437531
intensity: 23.0535144806
---
header: 
  seq: 353175
  stamp: 
    secs: 1561864077
    nsecs: 989905604
  frame_id: "ti_mmwave"
point_id: 6
x: 0.41796875
y: -0.083984375
z: -1.28125
range: 1.43804001808
velocity: 0.0
doppler_bin: 8
bearing: -11.3614110947
intensity: 23.0102996826
---
header: 
  seq: 353176
  stamp: 
    secs: 1561864077
    nsecs: 989922748
  frame_id: "ti_mmwave"
point_id: 7
x: 0.560546875
y: -0.04296875
z: -1.2734375
range: 1.48161697388
velocity: 0.0
doppler_bin: 8
bearing: -4.38343858719
intensity: 21.6731739044
---
header: 
  seq: 353177
  stamp: 
    secs: 1561864077
    nsecs: 989937650
  frame_id: "ti_mmwave"
point_id: 8
x: 2.662109375
y: -0.087890625
z: 0.931640625
range: 3.00681090355
velocity: 0.0
doppler_bin: 8
bearing: -1.89095664024
intensity: 28.9265098572
---
header: 
  seq: 353178
  stamp: 
    secs: 1561864077
    nsecs: 989949373
  frame_id: "ti_mmwave"
point_id: 9
x: 2.6640625
y: -0.1796875
z: 1.033203125
range: 3.05038785934
velocity: 0.0
doppler_bin: 8
bearing: -3.85868024826
intensity: 32.2219619751
---
header: 
  seq: 353179
  stamp: 
    secs: 1561864077
    nsecs: 989960958
  frame_id: "ti_mmwave"
point_id: 10
x: 2.755859375
y: -0.08984375
z: 0.9140625
range: 3.09396481514
velocity: 0.0
doppler_bin: 8
bearing: -1.86723792553
intensity: 31.2515583038
---
header: 
  seq: 353180
  stamp: 
    secs: 1561864077
    nsecs: 989971253
  frame_id: "ti_mmwave"
point_id: 11
x: 4.4140625
y: -0.142578125
z: 1.21875
range: 4.88062095642
velocity: 0.0
doppler_bin: 8
bearing: -1.850061059
intensity: 31.4891090393
---
header: 
  seq: 353181
  stamp: 
    secs: 1561864077
    nsecs: 990005744
  frame_id: "ti_mmwave"
point_id: 12
x: 4.470703125
y: -0.14453125
z: 1.16796875
range: 4.9241976738
velocity: 0.0
doppler_bin: 8
bearing: -1.8516433239
intensity: 31.5320491791
---
header: 
  seq: 353182
  stamp: 
    secs: 1561864077
    nsecs: 990019355
  frame_id: "ti_mmwave"
point_id: 13
x: 4.6484375
y: -0.0
z: 0.375
range: 4.96777486801
velocity: 0.0
doppler_bin: 8
bearing: -0.0
intensity: 29.7909297943
---
header: 
  seq: 353183
  stamp: 
    secs: 1561864077
    nsecs: 990030867
  frame_id: "ti_mmwave"
point_id: 14
x: 4.87890625
y: -0.30859375
z: 0.779296875
range: 5.27281332016
velocity: 0.0
doppler_bin: 8
bearing: -3.61917114258
intensity: 30.5115261078
---
header: 
  seq: 353184
  stamp: 
    secs: 1561864077
    nsecs: 990041850
  frame_id: "ti_mmwave"
point_id: 15
x: 1.787109375
y: -0.287109375
z: -0.337890625
range: 1.96096372604
velocity: 0.614668667316
doppler_bin: 9
bearing: -9.12690639496
intensity: 26.9019603729
---
header: 
  seq: 353185
  stamp: 
    secs: 1561864077
    nsecs: 990055225
  frame_id: "ti_mmwave"
point_id: 16
x: 1.83203125
y: -0.294921875
z: -0.318359375
range: 2.00454068184
velocity: 0.614668667316
doppler_bin: 9
bearing: -9.14506149292
intensity: 27.7451705933
---
header: 
  seq: 353186
  stamp: 
    secs: 1561864077
    nsecs: 990066416
  frame_id: "ti_mmwave"
point_id: 17
x: 1.88671875
y: -0.30078125
z: -0.212890625
range: 2.04811763763
velocity: 0.614668667316
doppler_bin: 9
bearing: -9.05788898468
intensity: 26.5224628448
---
header: 
  seq: 353187
  stamp: 
    secs: 1561864077
    nsecs: 990078507
  frame_id: "ti_mmwave"
point_id: 18
x: 0.01171875
y: 0.03125
z: 0.025390625
range: 0.0435769706964
velocity: 0.0
doppler_bin: 8
bearing: 69.4439544678
intensity: 29.3851966858
---
header: 
  seq: 353188
  stamp: 
    secs: 1561864077
    nsecs: 990089885
  frame_id: "ti_mmwave"
point_id: 19
x: 0.041015625
y: -0.033203125
z: 0.0625
range: 0.0871539413929
velocity: 0.0
doppler_bin: 8
bearing: -38.9909973145
intensity: 30.1199302673
---
header: 
  seq: 353189
  stamp: 
    secs: 1561864077
    nsecs: 990101109
  frame_id: "ti_mmwave"
point_id: 20
x: 0.052734375
y: -0.04296875
z: 0.103515625
range: 0.130730912089
velocity: 0.0
doppler_bin: 8
bearing: -39.1736602783
intensity: 28.9872512817
---
header: 
  seq: 353190
  stamp: 
    secs: 1561864077
    nsecs: 990116168
  frame_id: "ti_mmwave"
point_id: 22
x: 4.873046875
y: -0.0
z: 0.8671875
range: 5.27281332016
velocity: 0.0
doppler_bin: 8
bearing: -0.0
intensity: 30.4688510895
---
header: 
  seq: 353191
  stamp: 
    secs: 1561864078
    nsecs:  48260774
  frame_id: "ti_mmwave"
point_id: 0
x: 0.01171875
y: -0.0390625
z: -0.0078125
range: 0.0435769706964
velocity: 0.0
doppler_bin: 8
bearing: -73.3007583618
intensity: 30.7371826172
---
header: 
  seq: 353192
  stamp: 
    secs: 1561864078
    nsecs:  48357594
  frame_id: "ti_mmwave"
point_id: 1
x: 0.017578125
y: -0.080078125
z: -0.0078125
range: 0.0871539413929
velocity: 0.0
doppler_bin: 8
bearing: -77.6192398071
intensity: 31.9645252228
---
header: 
  seq: 353193
  stamp: 
    secs: 1561864078
    nsecs:  48369724
  frame_id: "ti_mmwave"
point_id: 2
x: 0.029296875
y: -0.119140625
z: -0.005859375
range: 0.130730912089
velocity: 0.0
doppler_bin: 8
bearing: -76.1849746704
intensity: 30.2242832184
---
header: 
  seq: 353194
  stamp: 
    secs: 1561864078
    nsecs:  48378287
  frame_id: "ti_mmwave"
point_id: 3
x: 0.056640625
y: -0.154296875
z: 0.005859375
range: 0.174307882786
velocity: 0.0
doppler_bin: 8
bearing: -69.8423843384
intensity: 25.490032196
---
header: 
  seq: 353195
  stamp: 
    secs: 1561864078
    nsecs:  48386451
  frame_id: "ti_mmwave"
point_id: 4
x: 0.13671875
y: -0.080078125
z: 1.2578125
range: 1.35088610649
velocity: 0.0
doppler_bin: 8
bearing: -30.3581142426
intensity: 23.0749607086
---
header: 
  seq: 353196
  stamp: 
    secs: 1561864078
    nsecs:  48411344
  frame_id: "ti_mmwave"
point_id: 6
x: 0.42578125
y: -0.083984375
z: -1.27734375
range: 1.43804001808
velocity: 0.0
doppler_bin: 8
bearing: -11.1582231522
intensity: 22.9885311127
---
header: 
  seq: 353197
  stamp: 
    secs: 1561864078
    nsecs:  48420016
  frame_id: "ti_mmwave"
point_id: 7
x: 2.65625
y: -0.087890625
z: 0.94921875
range: 3.00681090355
velocity: 0.0
doppler_bin: 8
bearing: -1.89512503147
intensity: 28.8705444336
---
header: 
  seq: 353198
  stamp: 
    secs: 1561864078
    nsecs:  48428267
  frame_id: "ti_mmwave"
point_id: 8
x: 2.658203125
y: -0.1796875
z: 1.048828125
range: 3.05038785934
velocity: 0.0
doppler_bin: 8
bearing: -3.86716008186
intensity: 32.1590194702
---
header: 
  seq: 353199
  stamp: 
    secs: 1561864078
    nsecs:  48438142
  frame_id: "ti_mmwave"
point_id: 9
x: 2.74609375
y: -0.08984375
z: 0.94140625
range: 3.09396481514
velocity: 0.0
doppler_bin: 8
bearing: -1.8738732338
intensity: 31.222158432
---
header: 
  seq: 353200
  stamp: 
    secs: 1561864078
    nsecs:  48447327
  frame_id: "ti_mmwave"
point_id: 10
x: 4.4140625
y: -0.142578125
z: 1.216796875
range: 4.88062095642
velocity: 0.0
doppler_bin: 8
bearing: -1.850061059
intensity: 31.47057724
---
header: 
  seq: 353201
  stamp: 
    secs: 1561864078
    nsecs:  48455813
  frame_id: "ti_mmwave"
point_id: 11
x: 4.458984375
y: -0.14453125
z: 1.208984375
range: 4.9241976738
velocity: 0.0
doppler_bin: 8
bearing: -1.85650622845
intensity: 31.4363918304
---
header: 
  seq: 353202
  stamp: 
    secs: 1561864078
    nsecs:  48464068
  frame_id: "ti_mmwave"
point_id: 12
x: 4.884765625
y: -0.30859375
z: 0.732421875
range: 5.27281332016
velocity: 0.0
doppler_bin: 8
bearing: -3.6148416996
intensity: 30.1367969513
---
header: 
  seq: 353203
  stamp: 
    secs: 1561864078
    nsecs:  48471951
  frame_id: "ti_mmwave"
point_id: 13
x: 1.84375
y: -0.234375
z: -0.2890625
range: 2.00454068184
velocity: 0.614668667316
doppler_bin: 9
bearing: -7.24450683594
intensity: 26.1066017151
---
header: 
  seq: 353204
  stamp: 
    secs: 1561864078
    nsecs:  48479893
  frame_id: "ti_mmwave"
point_id: 14
x: 1.90625
y: -0.240234375
z: -0.08203125
range: 2.04811763763
velocity: 0.614668667316
doppler_bin: 9
bearing: -7.18281030655
intensity: 26.1278381348
---
header: 
  seq: 353205
  stamp: 
    secs: 1561864078
    nsecs:  48488410
  frame_id: "ti_mmwave"
point_id: 15
x: 0.01171875
y: 0.03125
z: 0.025390625
range: 0.0435769706964
velocity: 0.0
doppler_bin: 8
bearing: 69.4439544678
intensity: 29.3751792908
---
header: 
  seq: 353206
  stamp: 
    secs: 1561864078
    nsecs:  48499947
  frame_id: "ti_mmwave"
point_id: 16
x: 0.041015625
y: -0.033203125
z: 0.0625
range: 0.0871539413929
velocity: 0.0
doppler_bin: 8
bearing: -38.9909973145
intensity: 30.1325874329
---
header: 
  seq: 353207
  stamp: 
    secs: 1561864078
    nsecs:  48665750
  frame_id: "ti_mmwave"
point_id: 17
x: 0.052734375
y: -0.04296875
z: 0.103515625
range: 0.130730912089
velocity: 0.0
doppler_bin: 8
bearing: -39.1736602783
intensity: 28.9927310944
---
header: 
  seq: 353208
  stamp: 
    secs: 1561864078
    nsecs:  49233522
  frame_id: "ti_mmwave"
point_id: 0
x: 0.01171875
y: -0.0390625
z: -0.0078125
range: 0.0435769706964
velocity: 0.0
doppler_bin: 8
bearing: -73.3007583618
intensity: 30.7371826172
---
header: 
  seq: 353209
  stamp: 
    secs: 1561864078
    nsecs:  49299783
  frame_id: "ti_mmwave"
point_id: 1
x: 0.017578125
y: -0.080078125
z: -0.009765625
range: 0.0871539413929
velocity: 0.0
doppler_bin: 8
bearing: -77.6192398071
intensity: 31.9645252228
---
header: 
  seq: 353210
  stamp: 
    secs: 1561864078
    nsecs:  49320054
  frame_id: "ti_mmwave"
point_id: 2
x: 0.029296875
y: -0.119140625
z: -0.005859375
range: 0.130730912089
velocity: 0.0
doppler_bin: 8
bearing: -76.1849746704
intensity: 30.2284069061
---
header: 
  seq: 353211
  stamp: 
    secs: 1561864078
    nsecs:  49335958
  frame_id: "ti_mmwave"
point_id: 3
x: 0.056640625
y: -0.154296875
z: 0.005859375
range: 0.174307882786
velocity: 0.0
doppler_bin: 8
bearing: -69.8423843384
intensity: 25.490032196
---
header: 
  seq: 353212
  stamp: 
    secs: 1561864078
    nsecs:  49349035
  frame_id: "ti_mmwave"
point_id: 4
x: 0.1015625
y: -0.080078125
z: 1.26171875
range: 1.35088610649
velocity: 0.0
doppler_bin: 8
bearing: -38.2544212341
intensity: 23.1175384521
---
header: 
  seq: 353213
  stamp: 
    secs: 1561864078
    nsecs:  49450000
  frame_id: "ti_mmwave"
point_id: 6
x: 0.4140625
y: -0.083984375
z: -1.28125
range: 1.43804001808
velocity: 0.0
doppler_bin: 8
bearing: -11.4657688141
intensity: 22.9885311127
---
header: 
  seq: 353214
  stamp: 
    secs: 1561864078
    nsecs:  49465924
  frame_id: "ti_mmwave"
point_id: 7
x: 0.546875
y: -0.04296875
z: -1.27734375
range: 1.48161697388
velocity: 0.0
doppler_bin: 8
bearing: -4.49258184433
intensity: 21.6136798859
---
header: 
  seq: 353215
  stamp: 
    secs: 1561864078
    nsecs:  49478742
  frame_id: "ti_mmwave"
point_id: 8
x: 2.6171875
y: -0.17578125
z: 1.04296875
range: 3.00681090355
velocity: 0.0
doppler_bin: 8
bearing: -3.84245300293
intensity: 28.9265098572
---
header: 
  seq: 353216
  stamp: 
    secs: 1561864078
    nsecs:  49519504
  frame_id: "ti_mmwave"
point_id: 9
x: 2.658203125
y: -0.1796875
z: 1.046875
range: 3.05038785934
velocity: 0.0
doppler_bin: 8
bearing: -3.86716008186
intensity: 32.2219619751
---
header: 
  seq: 353217
  stamp: 
    secs: 1561864078
    nsecs:  49550362
  frame_id: "ti_mmwave"
point_id: 10
x: 2.748046875
y: -0.08984375
z: 0.935546875
range: 3.09396481514
velocity: 0.0
doppler_bin: 8
bearing: -1.8725425005
intensity: 31.2319812775
---
header: 
  seq: 353218
  stamp: 
    secs: 1561864078
    nsecs:  49575299
  frame_id: "ti_mmwave"
point_id: 11
x: 4.408203125
y: -0.142578125
z: 1.23828125
range: 4.88062095642
velocity: 0.0
doppler_bin: 8
bearing: -1.85251843929
intensity: 31.3703746796
---
header: 
  seq: 353219
  stamp: 
    secs: 1561864078
    nsecs:  49719463
  frame_id: "ti_mmwave"
point_id: 12
x: 4.4453125
y: -0.14453125
z: 1.26171875
range: 4.9241976738
velocity: 0.0
doppler_bin: 8
bearing: -1.86221218109
intensity: 31.2872219086
---
header: 
  seq: 353220
  stamp: 
    secs: 1561864078
    nsecs:  49749042
  frame_id: "ti_mmwave"
point_id: 13
x: 0.01171875
y: 0.03125
z: 0.025390625
range: 0.0435769706964
velocity: 0.0
doppler_bin: 8
bearing: 69.4439544678
intensity: 29.380191803
---
header: 
  seq: 353221
  stamp: 
    secs: 1561864078
    nsecs:  49762535
  frame_id: "ti_mmwave"
point_id: 14
x: 0.041015625
y: -0.033203125
z: 0.0625
range: 0.0871539413929
velocity: 0.0
doppler_bin: 8
bearing: -38.9909973145
intensity: 30.1325874329
---
header: 
  seq: 353222
  stamp: 
    secs: 1561864078
    nsecs:  49775658
  frame_id: "ti_mmwave"
point_id: 15
x: 0.052734375
y: -0.04296875
z: 0.103515625
range: 0.130730912089
velocity: 0.0
doppler_bin: 8
bearing: -39.1736602783
intensity: 28.9982051849
---
header: 
  seq: 353223
  stamp: 
    secs: 1561864078
    nsecs: 108270293
  frame_id: "ti_mmwave"
point_id: 0
x: 0.01171875
y: -0.0390625
z: -0.0078125
range: 0.0435769706964
velocity: 0.0
doppler_bin: 8
bearing: -73.3007583618
intensity: 30.7408466339
---
header: 
  seq: 353224
  stamp: 
    secs: 1561864078
    nsecs: 108370378
  frame_id: "ti_mmwave"
point_id: 1
x: 0.017578125
y: -0.080078125
z: -0.0078125
range: 0.0871539413929
velocity: 0.0
doppler_bin: 8
bearing: -77.6192398071
intensity: 31.9672870636
---
header: 
  seq: 353225
  stamp: 
    secs: 1561864078
    nsecs: 108382392
  frame_id: "ti_mmwave"
point_id: 2
x: 0.029296875
y: -0.119140625
z: -0.005859375
range: 0.130730912089
velocity: 0.0
doppler_bin: 8
bearing: -76.1849746704
intensity: 30.2284069061
---
header: 
  seq: 353226
  stamp: 
    secs: 1561864078
    nsecs: 108408843
  frame_id: "ti_mmwave"
point_id: 3
x: 0.056640625
y: -0.154296875
z: 0.005859375
range: 0.174307882786
velocity: 0.0
doppler_bin: 8
bearing: -69.8423843384
intensity: 25.490032196
---
header: 
  seq: 353227
  stamp: 
    secs: 1561864078
    nsecs: 108418694
  frame_id: "ti_mmwave"
point_id: 4
x: 0.130859375
y: -0.080078125
z: 1.259765625
range: 1.35088610649
velocity: 0.0
doppler_bin: 8
bearing: -31.4641437531
intensity: 23.1175384521
---
header: 
  seq: 353228
  stamp: 
    secs: 1561864078
    nsecs: 108431823
  frame_id: "ti_mmwave"
point_id: 6
x: 0.435546875
y: -0.083984375
z: -1.275390625
range: 1.43804001808
velocity: 0.0
doppler_bin: 8
bearing: -10.9141130447
intensity: 23.0102996826
---
header: 
  seq: 353229
  stamp: 
    secs: 1561864078
    nsecs: 108635782
  frame_id: "ti_mmwave"
point_id: 7
x: 0.5390625
y: -0.04296875
z: -1.28125
range: 1.48161697388
velocity: 0.0
doppler_bin: 8
bearing: -4.55741930008
intensity: 21.6136798859
---
header: 
  seq: 353230
  stamp: 
    secs: 1561864078
    nsecs: 108665081
  frame_id: "ti_mmwave"
point_id: 8
x: 2.62109375
y: -0.17578125
z: 1.033203125
range: 3.00681090355
velocity: 0.0
doppler_bin: 8
bearing: -3.83674383163
intensity: 29.0308990479
---
header: 
  seq: 353231
  stamp: 
    secs: 1561864078
    nsecs: 108678725
  frame_id: "ti_mmwave"
point_id: 9
x: 2.6640625
y: -0.1796875
z: 1.033203125
range: 3.05038785934
velocity: 0.0
doppler_bin: 8
bearing: -3.85868024826
intensity: 32.2711524963
---
header: 
  seq: 353232
  stamp: 
    secs: 1561864078
    nsecs: 108703208
  frame_id: "ti_mmwave"
point_id: 10
x: 2.76171875
y: -0.08984375
z: 0.89453125
range: 3.09396481514
velocity: 0.0
doppler_bin: 8
bearing: -1.86327898502
intensity: 31.2968997955
---
header: 
  seq: 353233
  stamp: 
    secs: 1561864078
    nsecs: 108716886
  frame_id: "ti_mmwave"
point_id: 11
x: 4.40234375
y: -0.142578125
z: 1.26171875
range: 4.88062095642
velocity: 0.0
doppler_bin: 8
bearing: -1.85498249531
intensity: 31.3001194
---
header: 
  seq: 353234
  stamp: 
    secs: 1561864078
    nsecs: 108736569
  frame_id: "ti_mmwave"
point_id: 12
x: 4.4453125
y: -0.14453125
z: 1.259765625
range: 4.9241976738
velocity: 0.0
doppler_bin: 8
bearing: -1.86221218109
intensity: 31.1461105347
---
header: 
  seq: 353235
  stamp: 
    secs: 1561864078
    nsecs: 108758231
  frame_id: "ti_mmwave"
point_id: 13
x: 4.90625
y: -0.154296875
z: 0.63671875
range: 5.27281332016
velocity: 0.0
doppler_bin: 8
bearing: -1.80130386353
intensity: 30.0603790283
---
header: 
  seq: 353236
  stamp: 
    secs: 1561864078
    nsecs: 108832558
  frame_id: "ti_mmwave"
point_id: 14
x: 1.837890625
y: -0.234375
z: -0.33203125
range: 2.00454068184
velocity: 0.614668667316
doppler_bin: 9
bearing: -7.26735639572
intensity: 26.3748970032
---
header: 
  seq: 353237
  stamp: 
    secs: 1561864078
    nsecs: 108848344
  frame_id: "ti_mmwave"
point_id: 15
x: 1.884765625
y: -0.240234375
z: -0.298828125
range: 2.04811763763
velocity: 0.614668667316
doppler_bin: 9
bearing: -7.26381731033
intensity: 26.503074646
---
header: 
  seq: 353238
  stamp: 
    secs: 1561864078
    nsecs: 108866148
  frame_id: "ti_mmwave"
point_id: 17
x: 0.009765625
y: 0.03125
z: 0.025390625
range: 0.0435769706964
velocity: 0.0
doppler_bin: 8
bearing: 72.6459732056
intensity: 29.380191803
---
header: 
  seq: 353239
  stamp: 
    secs: 1561864078
    nsecs: 108878761
  frame_id: "ti_mmwave"
point_id: 18
x: 0.041015625
y: -0.033203125
z: 0.0625
range: 0.0871539413929
velocity: 0.0
doppler_bin: 8
bearing: -38.9909973145
intensity: 30.1283721924
---
header: 
  seq: 353240
  stamp: 
    secs: 1561864078
    nsecs: 108904554
  frame_id: "ti_mmwave"
point_id: 19
x: 0.052734375
y: -0.04296875
z: 0.103515625
range: 0.130730912089
velocity: 0.0
doppler_bin: 8
bearing: -39.1736602783
intensity: 28.9927310944
---
header: 
  seq: 353241
  stamp: 
    secs: 1561864078
    nsecs: 108966247
  frame_id: "ti_mmwave"
point_id: 21
x: 1.701171875
y: -0.474609375
z: 1.8203125
range: 2.70177221298
velocity: 0.614668667316
doppler_bin: 9
bearing: -15.588552475
intensity: 24.0654010773
---
header: 
  seq: 353242
  stamp: 
    secs: 1561864078
    nsecs: 109446278
  frame_id: "ti_mmwave"
point_id: 0
x: 0.01171875
y: -0.0390625
z: -0.0078125
range: 0.0435769706964
velocity: 0.0
doppler_bin: 8
bearing: -73.3007583618
intensity: 30.7481651306
---
header: 
  seq: 353243
  stamp: 
    secs: 1561864078
    nsecs: 109492278
  frame_id: "ti_mmwave"
point_id: 1
x: 0.017578125
y: -0.080078125
z: -0.009765625
range: 0.0871539413929
velocity: 0.0
doppler_bin: 8
bearing: -77.6192398071
intensity: 31.9700469971
---
header: 
  seq: 353244
  stamp: 
    secs: 1561864078
    nsecs: 109510486
  frame_id: "ti_mmwave"
point_id: 2
x: 0.029296875
y: -0.119140625
z: -0.005859375
range: 0.130730912089
velocity: 0.0
doppler_bin: 8
bearing: -76.1849746704
intensity: 30.2284069061
---
header: 
  seq: 353245
  stamp: 
    secs: 1561864078
    nsecs: 109524457
  frame_id: "ti_mmwave"
point_id: 3
x: 0.056640625
y: -0.154296875
z: 0.005859375
range: 0.174307882786
velocity: 0.0
doppler_bin: 8
bearing: -69.8423843384
intensity: 25.490032196
---
header: 
  seq: 353246
  stamp: 
    secs: 1561864078
    nsecs: 109538253
  frame_id: "ti_mmwave"
point_id: 4
x: 0.130859375
y: -0.080078125
z: 1.259765625
range: 1.35088610649
velocity: 0.0
doppler_bin: 8
bearing: -31.4641437531
intensity: 23.1175384521
---
header: 
  seq: 353247
  stamp: 
    secs: 1561864078
    nsecs: 109553350
  frame_id: "ti_mmwave"
point_id: 6
x: 0.42578125
y: -0.083984375
z: -1.27734375
range: 1.43804001808
velocity: 0.0
doppler_bin: 8
bearing: -11.1582231522
intensity: 22.9666519165
---
header: 
  seq: 353248
  stamp: 
    secs: 1561864078
    nsecs: 109596493
  frame_id: "ti_mmwave"
point_id: 7
x: 0.546875
y: -0.04296875
z: -1.27734375
range: 1.48161697388
velocity: 0.0
doppler_bin: 8
bearing: -4.49258184433
intensity: 21.5836257935
---
header: 
  seq: 353249
  stamp: 
    secs: 1561864078
    nsecs: 109606748
  frame_id: "ti_mmwave"
point_id: 8
x: 2.61328125
y: -0.17578125
z: 1.05078125
range: 3.00681090355
velocity: 0.0
doppler_bin: 8
bearing: -3.84817934036
intensity: 29.0525608063
---
header: 
  seq: 353250
  stamp: 
    secs: 1561864078
    nsecs: 109615691
  frame_id: "ti_mmwave"
point_id: 9
x: 2.6640625
y: -0.1796875
z: 1.033203125
range: 3.05038785934
velocity: 0.0
doppler_bin: 8
bearing: -3.85868024826
intensity: 32.3121452332
---
header: 
  seq: 353251
  stamp: 
    secs: 1561864078
    nsecs: 109623947
  frame_id: "ti_mmwave"
point_id: 10
x: 2.7578125
y: -0.08984375
z: 0.908203125
range: 3.09396481514
velocity: 0.0
doppler_bin: 8
bearing: -1.86591637135
intensity: 31.4050807953
---
header: 
  seq: 353252
  stamp: 
    secs: 1561864078
    nsecs: 109634949
  frame_id: "ti_mmwave"
point_id: 11
x: 4.396484375
y: -0.142578125
z: 1.28125
range: 4.88062095642
velocity: 0.0
doppler_bin: 8
bearing: -1.85745286942
intensity: 31.3767051697
---
header: 
  seq: 353253
  stamp: 
    secs: 1561864078
    nsecs: 109646805
  frame_id: "ti_mmwave"
point_id: 12
x: 4.431640625
y: -0.14453125
z: 1.30859375
range: 4.9241976738
velocity: 0.0
doppler_bin: 8
bearing: -1.86795306206
intensity: 31.1958580017
---
header: 
  seq: 353254
  stamp: 
    secs: 1561864078
    nsecs: 109659797
  frame_id: "ti_mmwave"
point_id: 13
x: 4.90234375
y: -0.46484375
z: 0.501953125
range: 5.27281332016
velocity: 0.0
doppler_bin: 8
bearing: -5.41663217545
intensity: 30.5269393921
---
header: 
  seq: 353255
  stamp: 
    secs: 1561864078
    nsecs: 109703499
  frame_id: "ti_mmwave"
point_id: 14
x: 4.9296875
y: -0.779296875
z: 0.07421875
range: 5.31639051437
velocity: 0.0
doppler_bin: 8
bearing: -8.98311805725
intensity: 29.0955600739
---
header: 
  seq: 353256
  stamp: 
    secs: 1561864078
    nsecs: 109722861
  frame_id: "ti_mmwave"
point_id: 15
x: 0.01171875
y: 0.03125
z: 0.025390625
range: 0.0435769706964
velocity: 0.0
doppler_bin: 8
bearing: 69.4439544678
intensity: 29.3851966858
---
header: 
  seq: 353257
  stamp: 
    secs: 1561864078
    nsecs: 109738282
  frame_id: "ti_mmwave"
point_id: 16
x: 0.041015625
y: -0.033203125
z: 0.0625
range: 0.0871539413929
velocity: 0.0
doppler_bin: 8
bearing: -38.9909973145
intensity: 30.1325874329
---
header: 
  seq: 353258
  stamp: 
    secs: 1561864078
    nsecs: 109751343
  frame_id: "ti_mmwave"
point_id: 17
x: 0.052734375
y: -0.04296875
z: 0.103515625
range: 0.130730912089
velocity: 0.0
doppler_bin: 8
bearing: -39.1736602783
intensity: 28.9982051849
---
header: 
  seq: 353259
  stamp: 
    secs: 1561864078
    nsecs: 168230624
  frame_id: "ti_mmwave"
point_id: 0
x: 0.01171875
y: -0.0390625
z: -0.0078125
range: 0.0435769706964
velocity: 0.0
doppler_bin: 8
bearing: -73.3007583618
intensity: 30.7408466339
---
header: 
  seq: 353260
  stamp: 
    secs: 1561864078
    nsecs: 168337803
  frame_id: "ti_mmwave"
point_id: 1
x: 0.017578125
y: -0.080078125
z: -0.0078125
range: 0.0871539413929
velocity: 0.0
doppler_bin: 8
bearing: -77.6192398071
intensity: 31.9672870636
---
header: 
  seq: 353261
  stamp: 
    secs: 1561864078
    nsecs: 168358049
  frame_id: "ti_mmwave"
point_id: 2
x: 0.029296875
y: -0.119140625
z: -0.005859375
range: 0.130730912089
velocity: 0.0
doppler_bin: 8
bearing: -76.1849746704
intensity: 30.2284069061
---
header: 
  seq: 353262
  stamp: 
    secs: 1561864078
    nsecs: 168374497
  frame_id: "ti_mmwave"
point_id: 3
x: 0.056640625
y: -0.154296875
z: 0.005859375
range: 0.174307882786
velocity: 0.0
doppler_bin: 8
bearing: -69.8423843384
intensity: 25.490032196
---
header: 
  seq: 353263
  stamp: 
    secs: 1561864078
    nsecs: 168411744
  frame_id: "ti_mmwave"
point_id: 4
x: 0.056640625
y: -0.080078125
z: 1.263671875
range: 1.35088610649
velocity: 0.0
doppler_bin: 8
bearing: -54.7275772095
intensity: 23.1175384521
---
header: 
  seq: 353264
  stamp: 
    secs: 1561864078
    nsecs: 168593163
  frame_id: "ti_mmwave"
point_id: 5
x: 0.04296875
y: -0.08203125
z: -1.306640625
range: 1.39446306229
velocity: 0.0
doppler_bin: 8
bearing: -62.3540267944
intensity: 24.5939254761
---
header: 
  seq: 353265
  stamp: 
    secs: 1561864078
    nsecs: 168623543
  frame_id: "ti_mmwave"
point_id: 6
x: 0.427734375
y: -0.083984375
z: -1.27734375
range: 1.43804001808
velocity: 0.0
doppler_bin: 8
bearing: -11.1085424423
intensity: 23.0102996826
---
header: 
  seq: 353266
  stamp: 
    secs: 1561864078
    nsecs: 168636668
  frame_id: "ti_mmwave"
point_id: 7
x: 0.55078125
y: -0.04296875
z: -1.27734375
range: 1.48161697388
velocity: 0.0
doppler_bin: 8
bearing: -4.46084880829
intensity: 21.7026176453
---
header: 
  seq: 353267
  stamp: 
    secs: 1561864078
    nsecs: 168658602
  frame_id: "ti_mmwave"
point_id: 8
x: 2.595703125
y: -0.17578125
z: 1.09375
range: 3.00681090355
velocity: 0.0
doppler_bin: 8
bearing: -3.87416052818
intensity: 28.9042110443
---
header: 
  seq: 353268
  stamp: 
    secs: 1561864078
    nsecs: 168744732
  frame_id: "ti_mmwave"
point_id: 9
x: 2.650390625
y: -0.1796875
z: 1.068359375
range: 3.05038785934
velocity: 0.0
doppler_bin: 8
bearing: -3.87852454185
intensity: 32.2219619751
---
header: 
  seq: 353269
  stamp: 
    secs: 1561864078
    nsecs: 168763512
  frame_id: "ti_mmwave"
point_id: 10
x: 2.74609375
y: -0.08984375
z: 0.939453125
range: 3.09396481514
velocity: 0.0
doppler_bin: 8
bearing: -1.8738732338
intensity: 31.2613143921
---
header: 
  seq: 353270
  stamp: 
    secs: 1561864078
    nsecs: 168774545
  frame_id: "ti_mmwave"
point_id: 11
x: 4.392578125
y: -0.142578125
z: 1.294921875
range: 4.88062095642
velocity: 0.0
doppler_bin: 8
bearing: -1.85910367966
intensity: 31.3417701721
---
header: 
  seq: 353271
  stamp: 
    secs: 1561864078
    nsecs: 168915892
  frame_id: "ti_mmwave"
point_id: 12
x: 4.41796875
y: -0.14453125
z: 1.3515625
range: 4.9241976738
velocity: 0.0
doppler_bin: 8
bearing: -1.87372946739
intensity: 31.05169487
---
header: 
  seq: 353272
  stamp: 
    secs: 1561864078
    nsecs: 168935001
  frame_id: "ti_mmwave"
point_id: 13
x: 4.90234375
y: -0.154296875
z: 0.66796875
range: 5.27281332016
velocity: 0.0
doppler_bin: 8
bearing: -1.8027381897
intensity: 30.2530593872
---
header: 
  seq: 353273
  stamp: 
    secs: 1561864078
    nsecs: 168948600
  frame_id: "ti_mmwave"
point_id: 14
x: 0.01171875
y: 0.03125
z: 0.025390625
range: 0.0435769706964
velocity: 0.0
doppler_bin: 8
bearing: 69.4439544678
intensity: 29.380191803
---
header: 
  seq: 353274
  stamp: 
    secs: 1561864078
    nsecs: 168962303
  frame_id: "ti_mmwave"
point_id: 15
x: 0.041015625
y: -0.033203125
z: 0.0625
range: 0.0871539413929
velocity: 0.0
doppler_bin: 8
bearing: -38.9909973145
intensity: 30.1283721924
---
header: 
  seq: 353275
  stamp: 
    secs: 1561864078
    nsecs: 168975196
  frame_id: "ti_mmwave"
point_id: 16
x: 0.052734375
y: -0.04296875
z: 0.103515625
range: 0.130730912089
velocity: 0.0
doppler_bin: 8
bearing: -39.1736602783
intensity: 28.9982051849
---
header: 
  seq: 353276
  stamp: 
    secs: 1561864078
    nsecs: 169394945
  frame_id: "ti_mmwave"
point_id: 0
x: 0.01171875
y: -0.0390625
z: -0.0078125
range: 0.0435769706964
velocity: 0.0
doppler_bin: 8
bearing: -73.3007583618
intensity: 30.7481651306
---
header: 
  seq: 353277
  stamp: 
    secs: 1561864078
    nsecs: 169421425
  frame_id: "ti_mmwave"
point_id: 1
x: 0.017578125
y: -0.080078125
z: -0.009765625
range: 0.0871539413929
velocity: 0.0
doppler_bin: 8
bearing: -77.6192398071
intensity: 31.9672870636
---
header: 
  seq: 353278
  stamp: 
    secs: 1561864078
    nsecs: 169433994
  frame_id: "ti_mmwave"
point_id: 2
x: 0.029296875
y: -0.119140625
z: -0.005859375
range: 0.130730912089
velocity: 0.0
doppler_bin: 8
bearing: -76.1849746704
intensity: 30.2284069061
---
header: 
  seq: 353279
  stamp: 
    secs: 1561864078
    nsecs: 169446644
  frame_id: "ti_mmwave"
point_id: 3
x: 0.056640625
y: -0.154296875
z: 0.005859375
range: 0.174307882786
velocity: 0.0
doppler_bin: 8
bearing: -69.8423843384
intensity: 25.4777469635
---
header: 
  seq: 353280
  stamp: 
    secs: 1561864078
    nsecs: 169461869
  frame_id: "ti_mmwave"
point_id: 5
x: 0.07421875
y: -0.08203125
z: -1.3046875
range: 1.39446306229
velocity: 0.0
doppler_bin: 8
bearing: -47.8624038696
intensity: 24.563659668
---
header: 
  seq: 353281
  stamp: 
    secs: 1561864078
    nsecs: 169473869
  frame_id: "ti_mmwave"
point_id: 6
x: 0.431640625
y: -0.083984375
z: -1.275390625
range: 1.43804001808
velocity: 0.0
doppler_bin: 8
bearing: -11.0104799271
intensity: 22.9446620941
---
header: 
  seq: 353282
  stamp: 
    secs: 1561864078
    nsecs: 169487363
  frame_id: "ti_mmwave"
point_id: 7
x: 0.560546875
y: -0.04296875
z: -1.271484375
range: 1.48161697388
velocity: 0.0
doppler_bin: 8
bearing: -4.38343858719
intensity: 21.5836257935
---
header: 
  seq: 353283
  stamp: 
    secs: 1561864078
    nsecs: 169501224
  frame_id: "ti_mmwave"
point_id: 8
x: 2.619140625
y: -0.17578125
z: 1.03515625
range: 3.00681090355
velocity: 0.0
doppler_bin: 8
bearing: -3.83959650993
intensity: 29.0471553802
---
header: 
  seq: 353284
  stamp: 
    secs: 1561864078
    nsecs: 169560439
  frame_id: "ti_mmwave"
point_id: 9
x: 2.66015625
y: -0.1796875
z: 1.044921875
range: 3.05038785934
velocity: 0.0
doppler_bin: 8
bearing: -3.86432933807
intensity: 32.2711524963
---
header: 
  seq: 353285
  stamp: 
    secs: 1561864078
    nsecs: 169569461
  frame_id: "ti_mmwave"
point_id: 10
x: 2.755859375
y: -0.08984375
z: 0.9140625
range: 3.09396481514
velocity: 0.0
doppler_bin: 8
bearing: -1.86723792553
intensity: 31.2839927673
---
header: 
  seq: 353286
  stamp: 
    secs: 1561864078
    nsecs: 169577704
  frame_id: "ti_mmwave"
point_id: 11
x: 4.392578125
y: -0.142578125
z: 1.29296875
range: 4.88062095642
velocity: 0.0
doppler_bin: 8
bearing: -1.85910367966
intensity: 31.3353881836
---
header: 
  seq: 353287
  stamp: 
    secs: 1561864078
    nsecs: 169587095
  frame_id: "ti_mmwave"
point_id: 12
x: 4.412109375
y: -0.14453125
z: 1.369140625
range: 4.9241976738
velocity: 0.0
doppler_bin: 8
bearing: -1.87621605396
intensity: 30.9236965179
---
header: 
  seq: 353288
  stamp: 
    secs: 1561864078
    nsecs: 169596099
  frame_id: "ti_mmwave"
point_id: 13
x: 4.888671875
y: -0.154296875
z: 0.763671875
range: 5.27281332016
velocity: 0.0
