header: 
  seq: 225097
  stamp: 
    secs: 1561863885
    nsecs: 328209992
  frame_id: "ti_mmwave"
point_id: 0
x: 0.01171875
y: -0.0390625
z: -0.0078125
range: 0.0435769706964
velocity: 0.0
doppler_bin: 8
bearing: -73.3007583618
intensity: 30.7773113251
---
header: 
  seq: 225098
  stamp: 
    secs: 1561863885
    nsecs: 328281256
  frame_id: "ti_mmwave"
point_id: 1
x: 0.017578125
y: -0.080078125
z: -0.009765625
range: 0.0871539413929
velocity: 0.0
doppler_bin: 8
bearing: -77.6192398071
intensity: 32.0002937317
---
header: 
  seq: 225099
  stamp: 
    secs: 1561863885
    nsecs: 328294038
  frame_id: "ti_mmwave"
point_id: 2
x: 0.029296875
y: -0.119140625
z: -0.005859375
range: 0.130730912089
velocity: 0.0
doppler_bin: 8
bearing: -76.1849746704
intensity: 30.2653331757
---
header: 
  seq: 225100
  stamp: 
    secs: 1561863885
    nsecs: 328302317
  frame_id: "ti_mmwave"
point_id: 3
x: 0.056640625
y: -0.154296875
z: 0.005859375
range: 0.174307882786
velocity: 0.0
doppler_bin: 8
bearing: -69.8423843384
intensity: 25.5144996643
---
header: 
  seq: 225101
  stamp: 
    secs: 1561863885
    nsecs: 328311479
  frame_id: "ti_mmwave"
point_id: 4
x: 2.6171875
y: -0.17578125
z: 1.044921875
range: 3.00681090355
velocity: 0.0
doppler_bin: 8
bearing: -3.84245300293
intensity: 29.0471553802
---
header: 
  seq: 225102
  stamp: 
    secs: 1561863885
    nsecs: 328319975
  frame_id: "ti_mmwave"
point_id: 5
x: 2.662109375
y: -0.1796875
z: 1.0390625
range: 3.05038785934
velocity: 0.0
doppler_bin: 8
bearing: -3.86150240898
intensity: 32.240146637
---
header: 
  seq: 225103
  stamp: 
    secs: 1561863885
    nsecs: 328329895
  frame_id: "ti_mmwave"
point_id: 6
x: 2.755859375
y: -0.08984375
z: 0.91015625
range: 3.09396481514
velocity: 0.0
doppler_bin: 8
bearing: -1.86723792553
intensity: 31.2775249481
---
header: 
  seq: 225104
  stamp: 
    secs: 1561863885
    nsecs: 328339345
  frame_id: "ti_mmwave"
point_id: 7
x: 4.41015625
y: -0.142578125
z: 1.232421875
range: 4.88062095642
velocity: 0.0
doppler_bin: 8
bearing: -1.85169863701
intensity: 31.4612808228
---
header: 
  seq: 225105
  stamp: 
    secs: 1561863885
    nsecs: 328347829
  frame_id: "ti_mmwave"
point_id: 8
x: 4.451171875
y: -0.14453125
z: 1.236328125
range: 4.9241976738
velocity: 0.0
doppler_bin: 8
bearing: -1.8597625494
intensity: 31.3225975037
---
header: 
  seq: 225106
  stamp: 
    secs: 1561863885
    nsecs: 328355995
  frame_id: "ti_mmwave"
point_id: 9
x: 4.73828125
y: -0.298828125
z: -0.599609375
range: 5.09850549698
velocity: 0.0
doppler_bin: 8
bearing: -3.60868048668
intensity: 33.3605918884
---
header: 
  seq: 225107
  stamp: 
    secs: 1561863885
    nsecs: 328365334
  frame_id: "ti_mmwave"
point_id: 10
x: 4.7734375
y: -0.30078125
z: -0.654296875
range: 5.14208269119
velocity: 0.0
doppler_bin: 8
bearing: -3.60552406311
intensity: 33.9462661743
---
header: 
  seq: 225108
  stamp: 
    secs: 1561863885
    nsecs: 328374079
  frame_id: "ti_mmwave"
point_id: 11
x: 4.798828125
y: -0.15234375
z: -0.8046875
range: 5.18565940857
velocity: 0.0
doppler_bin: 8
bearing: -1.81830310822
intensity: 30.561422348
---
header: 
  seq: 225109
  stamp: 
    secs: 1561863885
    nsecs: 328383229
  frame_id: "ti_mmwave"
point_id: 12
x: 4.8984375
y: -0.30859375
z: 0.642578125
range: 5.27281332016
velocity: 0.0
doppler_bin: 8
bearing: -3.60477876663
intensity: 31.1092624664
---
header: 
  seq: 225110
  stamp: 
    secs: 1561863885
    nsecs: 328393213
  frame_id: "ti_mmwave"
point_id: 13
x: 4.94921875
y: -0.623046875
z: -0.12890625
range: 5.31639051437
velocity: 0.0
doppler_bin: 8
bearing: -7.17510271072
intensity: 29.7173957825
---
header: 
  seq: 225111
  stamp: 
    secs: 1561863885
    nsecs: 328402490
  frame_id: "ti_mmwave"
point_id: 14
x: 0.857421875
y: 0.4609375
z: -0.134765625
range: 1.04584729671
velocity: 0.614668667316
doppler_bin: 9
bearing: 28.2618274689
intensity: 21.3353881836
---
header: 
  seq: 225112
  stamp: 
    secs: 1561863885
    nsecs: 328413338
  frame_id: "ti_mmwave"
point_id: 15
x: 0.8984375
y: 0.478515625
z: -0.0859375
range: 1.08942425251
velocity: 0.614668667316
doppler_bin: 9
bearing: 28.0401535034
intensity: 27.3158874512
---
header: 
  seq: 225113
  stamp: 
    secs: 1561863885
    nsecs: 328432547
  frame_id: "ti_mmwave"
point_id: 16
x: 0.955078125
y: 0.46484375
z: -0.044921875
range: 1.13300120831
velocity: 0.614668667316
doppler_bin: 9
bearing: 25.9525375366
intensity: 29.3043956757
---
header: 
  seq: 225114
  stamp: 
    secs: 1561863885
    nsecs: 328447016
  frame_id: "ti_mmwave"
point_id: 17
x: 0.974609375
y: 0.517578125
z: -0.01953125
range: 1.1765781641
velocity: 0.614668667316
doppler_bin: 9
bearing: 27.9710788727
intensity: 28.1224460602
---
header: 
  seq: 225115
  stamp: 
    secs: 1561863885
    nsecs: 328460520
  frame_id: "ti_mmwave"
point_id: 18
x: 1.0234375
y: 0.501953125
z: -0.115234375
range: 1.22015523911
velocity: 0.614668667316
doppler_bin: 9
bearing: 26.1260108948
intensity: 26.294095993
---
header: 
  seq: 225116
  stamp: 
    secs: 1561863885
    nsecs: 328473621
  frame_id: "ti_mmwave"
point_id: 19
x: 1.052734375
y: 0.51953125
z: -0.171875
range: 1.2637321949
velocity: 0.614668667316
doppler_bin: 9
bearing: 26.2666378021
intensity: 25.1719589233
---
header: 
  seq: 225117
  stamp: 
    secs: 1561863885
    nsecs: 328486084
  frame_id: "ti_mmwave"
point_id: 20
x: 1.087890625
y: 0.537109375
z: -0.1875
range: 1.3073091507
velocity: 0.614668667316
doppler_bin: 9
bearing: 26.2763061523
intensity: 22.1484394073
---
header: 
  seq: 225118
  stamp: 
    secs: 1561863885
    nsecs: 328674426
  frame_id: "ti_mmwave"
point_id: 21
x: 1.19140625
y: 0.548828125
z: 0.322265625
range: 1.43804001808
velocity: 0.614668667316
doppler_bin: 9
bearing: 24.7334327698
intensity: 26.9983768463
---
header: 
  seq: 225119
  stamp: 
    secs: 1561863885
    nsecs: 328695407
  frame_id: "ti_mmwave"
point_id: 22
x: 1.193359375
y: 0.609375
z: 0.373046875
range: 1.48161697388
velocity: 0.614668667316
doppler_bin: 9
bearing: 27.0505962372
intensity: 25.7518787384
---
header: 
  seq: 225120
  stamp: 
    secs: 1561863885
    nsecs: 328704531
  frame_id: "ti_mmwave"
point_id: 23
x: 0.01171875
y: 0.03125
z: 0.025390625
range: 0.0435769706964
velocity: 0.0
doppler_bin: 8
bearing: 69.4439544678
intensity: 29.4101428986
---
header: 
  seq: 225121
  stamp: 
    secs: 1561863885
    nsecs: 328713422
  frame_id: "ti_mmwave"
point_id: 24
x: 0.041015625
y: -0.033203125
z: 0.0625
range: 0.0871539413929
velocity: 0.0
doppler_bin: 8
bearing: -38.9909973145
intensity: 30.1452045441
---
header: 
  seq: 225122
  stamp: 
    secs: 1561863885
    nsecs: 328723429
  frame_id: "ti_mmwave"
point_id: 25
x: 0.052734375
y: -0.04296875
z: 0.103515625
range: 0.130730912089
velocity: 0.0
doppler_bin: 8
bearing: -39.1736602783
intensity: 29.0091304779
---
header: 
  seq: 225123
  stamp: 
    secs: 1561863885
    nsecs: 328734287
  frame_id: "ti_mmwave"
point_id: 27
x: 1.08203125
y: -0.576171875
z: -0.046875
range: 1.3073091507
velocity: 0.614668667316
doppler_bin: 9
bearing: -28.0348968506
intensity: 19.1907806396
---
header: 
  seq: 225124
  stamp: 
    secs: 1561863885
    nsecs: 388403526
  frame_id: "ti_mmwave"
point_id: 0
x: 0.01171875
y: -0.0390625
z: -0.0078125
range: 0.0435769706964
velocity: 0.0
doppler_bin: 8
bearing: -73.3007583618
intensity: 30.7736797333
---
header: 
  seq: 225125
  stamp: 
    secs: 1561863885
    nsecs: 388480345
  frame_id: "ti_mmwave"
point_id: 1
x: 0.017578125
y: -0.080078125
z: -0.009765625
range: 0.0871539413929
velocity: 0.0
doppler_bin: 8
bearing: -77.6192398071
intensity: 31.9975509644
---
header: 
  seq: 225126
  stamp: 
    secs: 1561863885
    nsecs: 388491340
  frame_id: "ti_mmwave"
point_id: 2
x: 0.041015625
y: -0.115234375
z: -0.009765625
range: 0.130730912089
velocity: 0.0
doppler_bin: 8
bearing: -70.4077224731
intensity: 30.2612457275
---
header: 
  seq: 225127
  stamp: 
    secs: 1561863885
    nsecs: 388499401
  frame_id: "ti_mmwave"
point_id: 3
x: 0.056640625
y: -0.154296875
z: 0.005859375
range: 0.174307882786
velocity: 0.0
doppler_bin: 8
bearing: -69.8423843384
intensity: 25.5022830963
---
header: 
  seq: 225128
  stamp: 
    secs: 1561863885
    nsecs: 388507276
  frame_id: "ti_mmwave"
point_id: 4
x: 0.30859375
y: -0.119140625
z: 1.224609375
range: 1.35088610649
velocity: 0.0
doppler_bin: 8
bearing: -21.1103744507
intensity: 22.8330116272
---
header: 
  seq: 225129
  stamp: 
    secs: 1561863885
    nsecs: 388515672
  frame_id: "ti_mmwave"
point_id: 5
x: 0.06640625
y: -0.08203125
z: -1.3046875
range: 1.39446306229
velocity: 0.0
doppler_bin: 8
bearing: -51.0090065002
intensity: 24.6538276672
---
header: 
  seq: 225130
  stamp: 
    secs: 1561863885
    nsecs: 388523552
  frame_id: "ti_mmwave"
point_id: 6
x: 2.62109375
y: -0.17578125
z: 1.03125
range: 3.00681090355
velocity: 0.0
doppler_bin: 8
bearing: -3.83674383163
intensity: 29.0848503113
---
header: 
  seq: 225131
  stamp: 
    secs: 1561863885
    nsecs: 388531274
  frame_id: "ti_mmwave"
point_id: 7
x: 2.666015625
y: -0.1796875
z: 1.03125
range: 3.05038785934
velocity: 0.0
doppler_bin: 8
bearing: -3.85586214066
intensity: 32.2762947083
---
header: 
  seq: 225132
  stamp: 
    secs: 1561863885
    nsecs: 388540863
  frame_id: "ti_mmwave"
point_id: 8
x: 2.765625
y: -0.08984375
z: 0.8828125
range: 3.09396481514
velocity: 0.0
doppler_bin: 8
bearing: -1.8606492281
intensity: 31.3097667694
---
header: 
  seq: 225133
  stamp: 
    secs: 1561863885
    nsecs: 388550340
  frame_id: "ti_mmwave"
point_id: 9
x: 4.419921875
y: -0.142578125
z: 1.197265625
range: 4.88062095642
velocity: 0.0
doppler_bin: 8
bearing: -1.847610116
intensity: 31.4643821716
---
header: 
  seq: 225134
  stamp: 
    secs: 1561863885
    nsecs: 388557856
  frame_id: "ti_mmwave"
point_id: 10
x: 4.453125
y: -0.14453125
z: 1.23046875
range: 4.9241976738
velocity: 0.0
doppler_bin: 8
bearing: -1.85894739628
intensity: 31.2968997955
---
header: 
  seq: 225135
  stamp: 
    secs: 1561863885
    nsecs: 388565172
  frame_id: "ti_mmwave"
point_id: 11
x: 4.7421875
y: -0.298828125
z: -0.56640625
range: 5.09850549698
velocity: 0.0
doppler_bin: 8
bearing: -3.60571622849
intensity: 33.4004745483
---
header: 
  seq: 225136
  stamp: 
    secs: 1561863885
    nsecs: 388573232
  frame_id: "ti_mmwave"
point_id: 12
x: 4.77734375
y: -0.30078125
z: -0.6171875
range: 5.14208269119
velocity: 0.0
doppler_bin: 8
bearing: -3.60258316994
intensity: 33.9480171204
---
header: 
  seq: 225137
  stamp: 
    secs: 1561863885
    nsecs: 388580934
  frame_id: "ti_mmwave"
point_id: 13
x: 4.8125
y: -0.15234375
z: -0.71484375
range: 5.18565940857
velocity: 0.0
doppler_bin: 8
bearing: -1.81314074993
intensity: 30.6182937622
---
header: 
  seq: 225138
  stamp: 
    secs: 1561863885
    nsecs: 388588870
  frame_id: "ti_mmwave"
point_id: 14
x: 4.8828125
y: -0.30859375
z: 0.75
range: 5.27281332016
velocity: 0.0
doppler_bin: 8
bearing: -3.61628341675
intensity: 31.1494445801
---
header: 
  seq: 225139
  stamp: 
    secs: 1561863885
    nsecs: 388598164
  frame_id: "ti_mmwave"
point_id: 15
x: 4.939453125
y: -0.623046875
z: 0.353515625
range: 5.31639051437
velocity: 0.0
doppler_bin: 8
bearing: -7.18913936615
intensity: 29.6473083496
---
header: 
  seq: 225140
  stamp: 
    secs: 1561863885
    nsecs: 388606336
  frame_id: "ti_mmwave"
point_id: 16
x: 0.87890625
y: 0.51171875
z: -0.111328125
range: 1.08942425251
velocity: 0.614668667316
doppler_bin: 9
bearing: 30.2089157104
intensity: 25.5266819
---
header: 
  seq: 225141
  stamp: 
    secs: 1561863885
    nsecs: 388615760
  frame_id: "ti_mmwave"
point_id: 17
x: 0.91796875
y: 0.53125
z: -0.0703125
range: 1.13300120831
velocity: 0.614668667316
doppler_bin: 9
bearing: 30.0589733124
intensity: 29.0741138458
---
header: 
  seq: 225142
  stamp: 
    secs: 1561863885
    nsecs: 388626256
  frame_id: "ti_mmwave"
point_id: 18
x: 0.974609375
y: 0.517578125
z: -0.021484375
range: 1.1765781641
velocity: 0.614668667316
doppler_bin: 9
bearing: 27.9710788727
intensity: 28.8024177551
---
header: 
  seq: 225143
  stamp: 
    secs: 1561863885
    nsecs: 388790905
  frame_id: "ti_mmwave"
point_id: 19
x: 1.0234375
y: 0.501953125
z: -0.107421875
range: 1.22015523911
velocity: 0.614668667316
doppler_bin: 9
bearing: 26.1260108948
intensity: 23.7291202545
---
header: 
  seq: 225144
  stamp: 
    secs: 1561863885
    nsecs: 388809359
  frame_id: "ti_mmwave"
point_id: 20
x: 1.041015625
y: 0.51953125
z: -0.228515625
range: 1.2637321949
velocity: 0.614668667316
doppler_bin: 9
bearing: 26.5220355988
intensity: 26.394865036
---
header: 
  seq: 225145
  stamp: 
    secs: 1561863885
    nsecs: 388817918
  frame_id: "ti_mmwave"
point_id: 21
x: 1.0859375
y: 0.537109375
z: -0.193359375
range: 1.3073091507
velocity: 0.614668667316
doppler_bin: 9
bearing: 26.3171977997
intensity: 25.0105934143
---
header: 
  seq: 225146
  stamp: 
    secs: 1561863885
    nsecs: 388828913
  frame_id: "ti_mmwave"
point_id: 22
x: 1.1953125
y: 0.548828125
z: 0.3046875
range: 1.43804001808
velocity: 0.614668667316
doppler_bin: 9
bearing: 24.66223526
intensity: 26.6745300293
---
header: 
  seq: 225147
  stamp: 
    secs: 1561863885
    nsecs: 388838704
  frame_id: "ti_mmwave"
point_id: 23
x: 0.01171875
y: 0.03125
z: 0.025390625
range: 0.0435769706964
velocity: 0.0
doppler_bin: 8
bearing: 69.4439544678
intensity: 29.4101428986
---
header: 
  seq: 225148
  stamp: 
    secs: 1561863885
    nsecs: 388847335
  frame_id: "ti_mmwave"
point_id: 24
x: 0.041015625
y: -0.033203125
z: 0.0625
range: 0.0871539413929
velocity: 0.0
doppler_bin: 8
bearing: -38.9909973145
intensity: 30.1452045441
---
header: 
  seq: 225149
  stamp: 
    secs: 1561863885
    nsecs: 388896251
  frame_id: "ti_mmwave"
point_id: 25
x: 0.052734375
y: -0.04296875
z: 0.103515625
range: 0.130730912089
velocity: 0.0
doppler_bin: 8
bearing: -39.1736602783
intensity: 29.0091304779
---
header: 
  seq: 225150
  stamp: 
    secs: 1561863885
    nsecs: 388907553
  frame_id: "ti_mmwave"
point_id: 27
x: 1.02734375
y: 0.673828125
z: -0.31640625
range: 1.35088610649
velocity: 0.0
doppler_bin: 8
bearing: 33.2606086731
intensity: 20.8635978699
---
header: 
  seq: 225151
  stamp: 
    secs: 1561863885
    nsecs: 388915292
  frame_id: "ti_mmwave"
point_id: 28
x: 1.201171875
y: 0.44921875
z: 0.26171875
range: 1.39446306229
velocity: 0.0
doppler_bin: 8
bearing: 20.5049800873
intensity: 23.6921577454
---
header: 
  seq: 225152
  stamp: 
    secs: 1561863885
    nsecs: 389886477
  frame_id: "ti_mmwave"
point_id: 0
x: 0.01171875
y: -0.0390625
z: -0.0078125
range: 0.0435769706964
velocity: 0.0
doppler_bin: 8
bearing: -73.3007583618
intensity: 30.7736797333
---
header: 
  seq: 225153
  stamp: 
    secs: 1561863885
    nsecs: 389935680
  frame_id: "ti_mmwave"
point_id: 1
x: 0.017578125
y: -0.080078125
z: -0.009765625
range: 0.0871539413929
velocity: 0.0
doppler_bin: 8
bearing: -77.6192398071
intensity: 31.9975509644
---
header: 
  seq: 225154
  stamp: 
    secs: 1561863885
    nsecs: 389948592
  frame_id: "ti_mmwave"
point_id: 2
x: 0.029296875
y: -0.119140625
z: -0.005859375
range: 0.130730912089
velocity: 0.0
doppler_bin: 8
bearing: -76.1849746704
intensity: 30.2653331757
---
header: 
  seq: 225155
  stamp: 
    secs: 1561863885
    nsecs: 389962658
  frame_id: "ti_mmwave"
point_id: 3
x: 0.056640625
y: -0.154296875
z: 0.00390625
range: 0.174307882786
velocity: 0.0
doppler_bin: 8
bearing: -69.8423843384
intensity: 25.5144996643
---
header: 
  seq: 225156
  stamp: 
    secs: 1561863885
    nsecs: 389974353
  frame_id: "ti_mmwave"
point_id: 4
x: 2.619140625
y: -0.17578125
z: 1.03515625
range: 3.00681090355
velocity: 0.0
doppler_bin: 8
bearing: -3.83959650993
intensity: 29.0794849396
---
header: 
  seq: 225157
  stamp: 
    secs: 1561863885
    nsecs: 389999934
  frame_id: "ti_mmwave"
point_id: 5
x: 2.6640625
y: -0.1796875
z: 1.03515625
range: 3.05038785934
velocity: 0.0
doppler_bin: 8
bearing: -3.85868024826
intensity: 32.2840042114
---
header: 
  seq: 225158
  stamp: 
    secs: 1561863885
    nsecs: 390020090
  frame_id: "ti_mmwave"
point_id: 6
x: 2.759765625
y: -0.08984375
z: 0.90234375
range: 3.09396481514
velocity: 0.0
doppler_bin: 8
bearing: -1.86459684372
intensity: 31.3513259888
---
header: 
  seq: 225159
  stamp: 
    secs: 1561863885
    nsecs: 390149818
  frame_id: "ti_mmwave"
point_id: 7
x: 4.41796875
y: -0.142578125
z: 1.203125
range: 4.88062095642
velocity: 0.0
doppler_bin: 8
bearing: -1.84842634201
intensity: 31.4363918304
---
header: 
  seq: 225160
  stamp: 
    secs: 1561863885
    nsecs: 390171599
  frame_id: "ti_mmwave"
point_id: 8
x: 4.43359375
y: -0.14453125
z: 1.302734375
range: 4.9241976738
velocity: 0.0
doppler_bin: 8
bearing: -1.86713063717
intensity: 31.2613143921
---
header: 
  seq: 225161
  stamp: 
    secs: 1561863885
    nsecs: 390184932
  frame_id: "ti_mmwave"
point_id: 9
x: 4.73828125
y: -0.298828125
z: -0.60546875
range: 5.09850549698
velocity: 0.0
doppler_bin: 8
bearing: -3.60868048668
intensity: 33.4242286682
---
header: 
  seq: 225162
  stamp: 
    secs: 1561863885
    nsecs: 390193985
  frame_id: "ti_mmwave"
point_id: 10
x: 4.77734375
y: -0.30078125
z: -0.619140625
range: 5.14208269119
velocity: 0.0
doppler_bin: 8
bearing: -3.60258316994
intensity: 33.9515151978
---
header: 
  seq: 225163
  stamp: 
    secs: 1561863885
    nsecs: 390203110
  frame_id: "ti_mmwave"
point_id: 11
x: 4.8125
y: -0.15234375
z: -0.7109375
range: 5.18565940857
velocity: 0.0
doppler_bin: 8
bearing: -1.81314074993
intensity: 30.6855697632
---
header: 
  seq: 225164
  stamp: 
    secs: 1561863885
    nsecs: 390212678
  frame_id: "ti_mmwave"
point_id: 12
x: 4.90234375
y: -0.30859375
z: 0.603515625
range: 5.27281332016
velocity: 0.0
doppler_bin: 8
bearing: -3.60191392899
intensity: 31.1627559662
---
header: 
  seq: 225165
  stamp: 
    secs: 1561863885
    nsecs: 390217572
  frame_id: "ti_mmwave"
point_id: 13
x: 4.9453125
y: -0.623046875
z: 0.244140625
range: 5.31639051437
velocity: 0.0
doppler_bin: 8
bearing: -7.18071126938
intensity: 30.0086765289
---
header: 
  seq: 225166
  stamp: 
    secs: 1561863885
    nsecs: 390228700
  frame_id: "ti_mmwave"
point_id: 14
x: 0.873046875
y: 0.51171875
z: -0.14453125
range: 1.08942425251
velocity: 0.614668667316
doppler_bin: 9
bearing: 30.3758354187
intensity: 23.2837963104
---
header: 
  seq: 225167
  stamp: 
    secs: 1561863885
    nsecs: 390287710
  frame_id: "ti_mmwave"
point_id: 15
x: 0.93359375
y: 0.498046875
z: -0.099609375
range: 1.13300120831
velocity: 0.614668667316
doppler_bin: 9
bearing: 28.0787067413
intensity: 27.9865055084
---
header: 
  seq: 225168
  stamp: 
    secs: 1561863885
    nsecs: 390297710
  frame_id: "ti_mmwave"
point_id: 16
x: 0.953125
y: 0.552734375
z: -0.068359375
range: 1.1765781641
velocity: 0.614668667316
doppler_bin: 9
bearing: 30.1102199554
intensity: 29.0145835876
---
header: 
  seq: 225169
  stamp: 
    secs: 1561863885
    nsecs: 390306844
  frame_id: "ti_mmwave"
point_id: 17
x: 1.009765625
y: 0.537109375
z: -0.072265625
range: 1.22015523911
velocity: 0.614668667316
doppler_bin: 9
bearing: 28.0091762543
intensity: 27.8532981873
---
header: 
  seq: 225170
  stamp: 
    secs: 1561863885
    nsecs: 390316256
  frame_id: "ti_mmwave"
point_id: 18
x: 1.03515625
y: 0.556640625
z: -0.15625
range: 1.2637321949
velocity: 0.614668667316
doppler_bin: 9
bearing: 28.2685127258
intensity: 27.3559894562
---
header: 
  seq: 225171
  stamp: 
    secs: 1561863885
    nsecs: 390324656
  frame_id: "ti_mmwave"
point_id: 19
x: 1.056640625
y: 0.576171875
z: -0.24609375
range: 1.3073091507
velocity: 0.614668667316
doppler_bin: 9
bearing: 28.6030387878
intensity: 27.1516742706
---
header: 
  seq: 225172
  stamp: 
    secs: 1561863885
    nsecs: 390332690
  frame_id: "ti_mmwave"
point_id: 20
x: 1.05859375
y: 0.634765625
z: -0.29296875
range: 1.35088610649
velocity: 0.614668667316
doppler_bin: 9
bearing: 30.9482078552
intensity: 25.5022830963
---
header: 
  seq: 225173
  stamp: 
    secs: 1561863885
    nsecs: 390340538
  frame_id: "ti_mmwave"
point_id: 21
x: 0.01171875
y: 0.03125
z: 0.025390625
range: 0.0435769706964
velocity: 0.0
doppler_bin: 8
bearing: 69.4439544678
intensity: 29.4101428986
---
header: 
  seq: 225174
  stamp: 
    secs: 1561863885
    nsecs: 390348178
  frame_id: "ti_mmwave"
point_id: 22
x: 0.041015625
y: -0.033203125
z: 0.0625
range: 0.0871539413929
velocity: 0.0
doppler_bin: 8
bearing: -38.9909973145
intensity: 30.1452045441
---
header: 
  seq: 225175
  stamp: 
    secs: 1561863885
    nsecs: 390356473
  frame_id: "ti_mmwave"
point_id: 23
x: 0.052734375
y: -0.04296875
z: 0.103515625
range: 0.130730912089
velocity: 0.0
doppler_bin: 8
bearing: -39.1736602783
intensity: 29.0145835876
---
header: 
  seq: 225176
  stamp: 
    secs: 1561863885
    nsecs: 448372887
  frame_id: "ti_mmwave"
point_id: 0
x: 0.01171875
y: -0.0390625
z: -0.0078125
range: 0.0435769706964
velocity: 0.0
doppler_bin: 8
bearing: -73.3007583618
intensity: 30.7809410095
---
header: 
  seq: 225177
  stamp: 
    secs: 1561863885
    nsecs: 448453164
  frame_id: "ti_mmwave"
point_id: 1
x: 0.017578125
y: -0.080078125
z: -0.009765625
range: 0.0871539413929
velocity: 0.0
doppler_bin: 8
bearing: -77.6192398071
intensity: 32.0030326843
---
header: 
  seq: 225178
  stamp: 
    secs: 1561863885
    nsecs: 448464350
  frame_id: "ti_mmwave"
point_id: 2
x: 0.029296875
y: -0.119140625
z: -0.005859375
range: 0.130730912089
velocity: 0.0
doppler_bin: 8
bearing: -76.1849746704
intensity: 30.2694168091
---
header: 
  seq: 225179
  stamp: 
    secs: 1561863885
    nsecs: 448474424
  frame_id: "ti_mmwave"
point_id: 3
x: 0.056640625
y: -0.154296875
z: 0.005859375
range: 0.174307882786
velocity: 0.0
doppler_bin: 8
bearing: -69.8423843384
intensity: 25.5144996643
---
header: 
  seq: 225180
  stamp: 
    secs: 1561863885
    nsecs: 448482653
  frame_id: "ti_mmwave"
point_id: 4
x: 0.255859375
y: -0.041015625
z: 1.283203125
range: 1.39446306229
velocity: 0.0
doppler_bin: 8
bearing: -9.10733413696
intensity: 24.857213974
---
header: 
  seq: 225181
  stamp: 
    secs: 1561863885
    nsecs: 448490536
  frame_id: "ti_mmwave"
point_id: 5
x: 2.62109375
y: -0.17578125
z: 1.03125
range: 3.00681090355
velocity: 0.0
doppler_bin: 8
bearing: -3.83674383163
intensity: 29.0525608063
---
header: 
  seq: 225182
  stamp: 
    secs: 1561863885
    nsecs: 448498331
  frame_id: "ti_mmwave"
point_id: 6
x: 2.6640625
y: -0.1796875
z: 1.033203125
range: 3.05038785934
velocity: 0.0
doppler_bin: 8
bearing: -3.85868024826
intensity: 32.2453308105
---
header: 
  seq: 225183
  stamp: 
    secs: 1561863885
    nsecs: 448506017
  frame_id: "ti_mmwave"
point_id: 7
x: 2.7578125
y: -0.08984375
z: 0.90625
range: 3.09396481514
velocity: 0.0
doppler_bin: 8
bearing: -1.86591637135
intensity: 31.25806427
---
header: 
  seq: 225184
  stamp: 
    secs: 1561863885
    nsecs: 448513706
  frame_id: "ti_mmwave"
point_id: 8
x: 4.416015625
y: -0.142578125
z: 1.2109375
range: 4.88062095642
velocity: 0.0
doppler_bin: 8
bearing: -1.84924340248
intensity: 31.4238948822
---
header: 
  seq: 225185
  stamp: 
    secs: 1561863885
    nsecs: 448522798
  frame_id: "ti_mmwave"
point_id: 9
x: 4.4140625
y: -0.14453125
z: 1.365234375
range: 4.9241976738
velocity: 0.0
doppler_bin: 8
bearing: -1.87538659573
intensity: 31.2483005524
---
header: 
  seq: 225186
  stamp: 
    secs: 1561863885
    nsecs: 448531891
  frame_id: "ti_mmwave"
point_id: 10
x: 4.73046875
y: -0.298828125
z: -0.666015625
range: 5.09850549698
velocity: 0.0
doppler_bin: 8
bearing: -3.61462497711
intensity: 33.4419555664
---
header: 
  seq: 225187
  stamp: 
    secs: 1561863885
    nsecs: 448540329
  frame_id: "ti_mmwave"
point_id: 11
x: 4.7734375
y: -0.30078125
z: -0.650390625
range: 5.14208269119
velocity: 0.0
doppler_bin: 8
bearing: -3.60552406311
intensity: 33.9637374878
---
header: 
  seq: 225188
  stamp: 
    secs: 1561863885
    nsecs: 448547766
  frame_id: "ti_mmwave"
point_id: 12
x: 4.810546875
y: -0.15234375
z: -0.724609375
range: 5.18565940857
velocity: 0.0
doppler_bin: 8
bearing: -1.81387650967
intensity: 30.6032009125
---
header: 
  seq: 225189
  stamp: 
    secs: 1561863885
    nsecs: 448555886
  frame_id: "ti_mmwave"
point_id: 13
x: 4.8984375
y: -0.30859375
z: 0.634765625
range: 5.27281332016
velocity: 0.0
doppler_bin: 8
bearing: -3.60477876663
intensity: 31.2188796997
---
header: 
  seq: 225190
  stamp: 
    secs: 1561863885
    nsecs: 448564870
  frame_id: "ti_mmwave"
point_id: 14
x: 4.94921875
y: -0.623046875
z: 0.16015625
range: 5.31639051437
velocity: 0.0
doppler_bin: 8
bearing: -7.17510271072
intensity: 30.1452045441
---
header: 
  seq: 225191
  stamp: 
    secs: 1561863885
    nsecs: 448573936
  frame_id: "ti_mmwave"
point_id: 15
x: 0.84375
y: 0.54296875
z: -0.19921875
range: 1.08942425251
velocity: 0.614668667316
doppler_bin: 9
bearing: 32.7620315552
intensity: 20.1283721924
---
header: 
  seq: 225192
  stamp: 
    secs: 1561863885
    nsecs: 448582212
  frame_id: "ti_mmwave"
point_id: 16
x: 0.912109375
y: 0.53125
z: -0.123046875
range: 1.13300120831
velocity: 0.614668667316
doppler_bin: 9
bearing: 30.2182807922
intensity: 26.5127792358
---
header: 
  seq: 225193
  stamp: 
    secs: 1561863885
    nsecs: 448591478
  frame_id: "ti_mmwave"
point_id: 17
x: 0.953125
y: 0.552734375
z: -0.0859375
range: 1.1765781641
velocity: 0.614668667316
doppler_bin: 9
bearing: 30.1102199554
intensity: 28.8252449036
---
header: 
  seq: 225194
  stamp: 
    secs: 1561863885
    nsecs: 448600794
  frame_id: "ti_mmwave"
point_id: 18
x: 0.990234375
y: 0.572265625
z: -0.068359375
range: 1.22015523911
velocity: 0.614668667316
doppler_bin: 9
bearing: 30.0240154266
intensity: 28.3884906769
---
header: 
  seq: 225195
  stamp: 
    secs: 1561863885
    nsecs: 448610008
  frame_id: "ti_mmwave"
point_id: 19
x: 1.03515625
y: 0.556640625
z: -0.1640625
range: 1.2637321949
velocity: 0.614668667316
doppler_bin: 9
bearing: 28.2685127258
intensity: 27.7378635406
---
header: 
  seq: 225196
  stamp: 
    secs: 1561863885
    nsecs: 448618494
  frame_id: "ti_mmwave"
point_id: 20
x: 1.056640625
y: 0.576171875
z: -0.2421875
range: 1.3073091507
velocity: 0.614668667316
doppler_bin: 9
bearing: 28.6030387878
intensity: 28.1023254395
---
header: 
  seq: 225197
  stamp: 
    secs: 1561863885
    nsecs: 448627032
  frame_id: "ti_mmwave"
point_id: 21
x: 1.08984375
y: 0.59375
z: -0.255859375
range: 1.35088610649
velocity: 0.614668667316
doppler_bin: 9
bearing: 28.5816745758
intensity: 26.2324924469
---
header: 
  seq: 225198
  stamp: 
    secs: 1561863885
    nsecs: 448634914
  frame_id: "ti_mmwave"
point_id: 22
x: 0.01171875
y: 0.03125
z: 0.025390625
range: 0.0435769706964
velocity: 0.0
doppler_bin: 8
bearing: 69.4439544678
intensity: 29.4200801849
---
header: 
  seq: 225199
  stamp: 
    secs: 1561863885
    nsecs: 448812574
  frame_id: "ti_mmwave"
point_id: 23
x: 0.041015625
y: -0.033203125
z: 0.0625
range: 0.0871539413929
velocity: 0.0
doppler_bin: 8
bearing: -38.9909973145
intensity: 30.1535968781
---
header: 
  seq: 225200
  stamp: 
    secs: 1561863885
    nsecs: 448834431
  frame_id: "ti_mmwave"
point_id: 24
x: 0.05078125
y: -0.04296875
z: 0.103515625
range: 0.130730912089
velocity: 0.0
doppler_bin: 8
bearing: -40.2363586426
intensity: 29.020029068
---
header: 
  seq: 225201
  stamp: 
    secs: 1561863885
    nsecs: 448845029
  frame_id: "ti_mmwave"
point_id: 26
x: 0.5546875
y: 0.119140625
z: 1.1328125
range: 1.35088610649
velocity: 0.614668667316
doppler_bin: 9
bearing: 12.1223106384
intensity: 23.8560619354
---
header: 
  seq: 225202
  stamp: 
    secs: 1561863885
    nsecs: 450153501
  frame_id: "ti_mmwave"
point_id: 0
x: 0.01171875
y: -0.0390625
z: -0.0078125
range: 0.0435769706964
velocity: 0.0
doppler_bin: 8
bearing: -73.3007583618
intensity: 30.7700424194
---
header: 
  seq: 225203
  stamp: 
    secs: 1561863885
    nsecs: 450216773
  frame_id: "ti_mmwave"
point_id: 1
x: 0.017578125
y: -0.080078125
z: -0.009765625
range: 0.0871539413929
velocity: 0.0
doppler_bin: 8
bearing: -77.6192398071
intensity: 31.994808197
---
header: 
  seq: 225204
  stamp: 
    secs: 1561863885
    nsecs: 450236183
  frame_id: "ti_mmwave"
point_id: 2
x: 0.041015625
y: -0.115234375
z: -0.009765625
range: 0.130730912089
velocity: 0.0
doppler_bin: 8
bearing: -70.4077224731
intensity: 30.2612457275
---
header: 
  seq: 225205
  stamp: 
    secs: 1561863885
    nsecs: 450249191
  frame_id: "ti_mmwave"
point_id: 3
x: 0.056640625
y: -0.154296875
z: 0.005859375
range: 0.174307882786
velocity: 0.0
doppler_bin: 8
bearing: -69.8423843384
intensity: 25.5022830963
---
header: 
  seq: 225206
  stamp: 
    secs: 1561863885
    nsecs: 450261907
  frame_id: "ti_mmwave"
point_id: 4
x: 0.189453125
y: -0.041015625
z: -1.294921875
range: 1.39446306229
velocity: 0.0
doppler_bin: 8
bearing: -12.215719223
intensity: 24.9136161804
---
header: 
  seq: 225207
  stamp: 
    secs: 1561863885
    nsecs: 450275309
  frame_id: "ti_mmwave"
point_id: 5
x: 2.609375
y: -0.17578125
z: 1.060546875
range: 3.00681090355
velocity: 0.0
doppler_bin: 8
bearing: -3.85392260551
intensity: 29.0955600739
---
header: 
  seq: 225208
  stamp: 
    secs: 1561863885
    nsecs: 450288687
  frame_id: "ti_mmwave"
point_id: 6
x: 2.658203125
y: -0.1796875
z: 1.048828125
range: 3.05038785934
velocity: 0.0
doppler_bin: 8
bearing: -3.86716008186
intensity: 32.2916984558
---
header: 
  seq: 225209
  stamp: 
    secs: 1561863885
    nsecs: 450301369
  frame_id: "ti_mmwave"
point_id: 7
x: 2.755859375
y: -0.08984375
z: 0.9140625
range: 3.09396481514
velocity: 0.0
doppler_bin: 8
bearing: -1.86723792553
intensity: 31.3289985657
---
header: 
  seq: 225210
  stamp: 
    secs: 1561863885
    nsecs: 450312453
  frame_id: "ti_mmwave"
point_id: 8
x: 4.41015625
y: -0.142578125
z: 1.236328125
range: 4.88062095642
velocity: 0.0
doppler_bin: 8
bearing: -1.85169863701
intensity: 31.4395103455
---
header: 
  seq: 225211
  stamp: 
    secs: 1561863885
    nsecs: 450325112
  frame_id: "ti_mmwave"
point_id: 9
x: 4.427734375
y: -0.14453125
z: 1.318359375
range: 4.9241976738
velocity: 0.0
doppler_bin: 8
bearing: -1.86959993839
intensity: 31.2287101746
---
header: 
  seq: 225212
  stamp: 
    secs: 1561863885
    nsecs: 450356603
  frame_id: "ti_mmwave"
point_id: 10
x: 4.732421875
y: -0.298828125
z: -0.642578125
range: 5.09850549698
velocity: 0.0
doppler_bin: 8
bearing: -3.61313724518
intensity: 33.4340858459
---
header: 
  seq: 225213
  stamp: 
    secs: 1561863885
    nsecs: 450368449
  frame_id: "ti_mmwave"
point_id: 11
x: 4.771484375
y: -0.30078125
z: -0.66796875
range: 5.14208269119
velocity: 0.0
doppler_bin: 8
bearing: -3.60699558258
intensity: 33.9828720093
---
header: 
  seq: 225214
  stamp: 
    secs: 1561863885
    nsecs: 450380240
  frame_id: "ti_mmwave"
point_id: 12
x: 4.796875
y: -0.15234375
z: -0.818359375
range: 5.18565940857
velocity: 0.0
doppler_bin: 8
bearing: -1.81904268265
intensity: 30.6520614624
---
header: 
  seq: 225215
  stamp: 
    secs: 1561863885
    nsecs: 450388956
  frame_id: "ti_mmwave"
point_id: 13
x: 4.83984375
y: -0.306640625
z: 0.759765625
range: 5.22923660278
velocity: 0.0
doppler_bin: 8
bearing: -3.62527441978
intensity: 28.8309345245
---
header: 
  seq: 225216
  stamp: 
    secs: 1561863885
    nsecs: 450398183
  frame_id: "ti_mmwave"
point_id: 14
x: 4.890625
y: -0.30859375
z: 0.69140625
range: 5.27281332016
velocity: 0.0
doppler_bin: 8
bearing: -3.61052203178
intensity: 31.1226978302
---
header: 
  seq: 225217
  stamp: 
    secs: 1561863885
    nsecs: 450406532
  frame_id: "ti_mmwave"
point_id: 15
x: 4.9453125
y: -0.623046875
z: 0.2578125
range: 5.31639051437
velocity: 0.0
doppler_bin: 8
bearing: -7.18071126938
intensity: 29.8677177429
---
header: 
  seq: 225218
  stamp: 
    secs: 1561863885
    nsecs: 450414799
  frame_id: "ti_mmwave"
point_id: 16
x: 0.884765625
y: 0.564453125
z: -0.173828125
range: 1.13300120831
velocity: 0.614668667316
doppler_bin: 9
bearing: 32.5366172791
intensity: 23.3845653534
---
header: 
  seq: 225219
  stamp: 
    secs: 1561863885
    nsecs: 450422681
  frame_id: "ti_mmwave"
point_id: 17
x: 0.923828125
y: 0.5859375
z: -0.1484375
range: 1.1765781641
velocity: 0.614668667316
doppler_bin: 9
bearing: 32.38489151
intensity: 25.9879055023
---
header: 
  seq: 225220
  stamp: 
    secs: 1561863885
    nsecs: 450431115
  frame_id: "ti_mmwave"
point_id: 18
x: 0.962890625
y: 0.609375
z: -0.123046875
range: 1.22015523911
velocity: 0.614668667316
doppler_bin: 9
bearing: 32.3280830383
intensity: 24.9692974091
---
header: 
  seq: 225221
  stamp: 
    secs: 1561863885
    nsecs: 450439113
  frame_id: "ti_mmwave"
point_id: 19
x: 1.0625
y: 0.51953125
z: -0.09765625
range: 1.2637321949
velocity: 0.614668667316
doppler_bin: 9
bearing: 26.0572719574
intensity: 23.6172790527
---
header: 
  seq: 225222
  stamp: 
    secs: 1561863885
    nsecs: 450446761
  frame_id: "ti_mmwave"
point_id: 20
x: 1.009765625
y: 0.537109375
z: -0.4453125
range: 1.3073091507
velocity: 0.614668667316
doppler_bin: 9
bearing: 28.0091762543
intensity: 23.3243846893
---
header: 
  seq: 225223
  stamp: 
    secs: 1561863885
    nsecs: 450454990
  frame_id: "ti_mmwave"
point_id: 21
x: 1.095703125
y: 0.5546875
z: -0.3125
range: 1.35088610649
velocity: 0.614668667316
doppler_bin: 9
bearing: 26.8503055573
intensity: 25.0242710114
---
header: 
  seq: 225224
  stamp: 
    secs: 1561863885
    nsecs: 450462813
  frame_id: "ti_mmwave"
point_id: 22
x: 1.208984375
y: 0.609375
z: 0.322265625
range: 1.48161697388
velocity: 0.614668667316
doppler_bin: 9
bearing: 26.749874115
intensity: 26.6558094025
---
header: 
  seq: 225225
  stamp: 
    secs: 1561863885
    nsecs: 450470399
  frame_id: "ti_mmwave"
point_id: 23
x: 1.248046875
y: 0.626953125
z: 0.318359375
range: 1.52519392967
velocity: 0.614668667316
doppler_bin: 9
bearing: 26.6725482941
intensity: 26.5991611481
---
header: 
  seq: 225226
  stamp: 
    secs: 1561863885
    nsecs: 450478984
  frame_id: "ti_mmwave"
point_id: 24
x: 0.01171875
y: 0.03125
z: 0.025390625
range: 0.0435769706964
velocity: 0.0
doppler_bin: 8
bearing: 69.4439544678
intensity: 29.4151134491
---
header: 
  seq: 225227
  stamp: 
    secs: 1561863885
    nsecs: 450487730
  frame_id: "ti_mmwave"
point_id: 25
x: 0.041015625
y: -0.033203125
z: 0.0625
range: 0.0871539413929
velocity: 0.0
doppler_bin: 8
bearing: -38.9909973145
intensity: 30.1494026184
---
header: 
  seq: 225228
  stamp: 
    secs: 1561863885
    nsecs: 450496220
  frame_id: "ti_mmwave"
point_id: 26
x: 0.052734375
y: -0.04296875
z: 0.103515625
range: 0.130730912089
velocity: 0.0
doppler_bin: 8
bearing: -39.1736602783
intensity: 29.0145835876
---
header: 
  seq: 225229
  stamp: 
    secs: 1561863885
    nsecs: 450506175
  frame_id: "ti_mmwave"
point_id: 28
x: 1.095703125
y: 0.490234375
z: -0.51953125
range: 1.39446306229
velocity: 0.0
doppler_bin: 8
bearing: 24.104473114
intensity: 22.7415790558
---
header: 
  seq: 225230
  stamp: 
    secs: 1561863885
    nsecs: 450514085
  frame_id: "ti_mmwave"
point_id: 29
x: 0.48828125
y: 0.080078125
z: 1.16796875
range: 1.35088610649
velocity: 0.614668667316
doppler_bin: 9
bearing: 9.31359863281
intensity: 22.7415790558
---
header: 
  seq: 225231
  stamp: 
    secs: 1561863885
    nsecs: 508340934
  frame_id: "ti_mmwave"
point_id: 0
x: 0.01171875
y: -0.0390625
z: -0.0078125
range: 0.0435769706964
velocity: 0.0
doppler_bin: 8
bearing: -73.3007583618
intensity: 30.7773113251
---
header: 
  seq: 225232
  stamp: 
    secs: 1561863885
    nsecs: 508419814
  frame_id: "ti_mmwave"
point_id: 1
x: 0.017578125
y: -0.080078125
z: -0.009765625
range: 0.0871539413929
velocity: 0.0
doppler_bin: 8
bearing: -77.6192398071
intensity: 31.9975509644
---
header: 
  seq: 225233
  stamp: 
    secs: 1561863885
    nsecs: 508431251
  frame_id: "ti_mmwave"
point_id: 2
x: 0.029296875
y: -0.119140625
z: -0.005859375
range: 0.130730912089
velocity: 0.0
doppler_bin: 8
bearing: -76.1849746704
intensity: 30.2653331757
---
header: 
  seq: 225234
  stamp: 
    secs: 1561863885
    nsecs: 508439231
  frame_id: "ti_mmwave"
point_id: 3
x: 0.056640625
y: -0.154296875
z: 0.005859375
range: 0.174307882786
velocity: 0.0
doppler_bin: 8
bearing: -69.8423843384
intensity: 25.5266819
---
header: 
  seq: 225235
  stamp: 
    secs: 1561863885
    nsecs: 508447180
  frame_id: "ti_mmwave"
point_id: 4
x: 0.361328125
y: -0.041015625
z: -1.2578125
range: 1.39446306229
velocity: 0.0
doppler_bin: 8
bearing: -6.47612476349
intensity: 24.4715805054
---
header: 
  seq: 225236
  stamp: 
    secs: 1561863885
    nsecs: 508455079
  frame_id: "ti_mmwave"
point_id: 5
x: 2.615234375
y: -0.17578125
z: 1.044921875
range: 3.00681090355
velocity: 0.0
doppler_bin: 8
bearing: -3.84531402588
intensity: 29.0955600739
---
header: 
  seq: 225237
  stamp: 
    secs: 1561863885
    nsecs: 508464096
  frame_id: "ti_mmwave"
point_id: 6
x: 2.65625
y: -0.1796875
z: 1.056640625
range: 3.05038785934
velocity: 0.0
doppler_bin: 8
bearing: -3.86999511719
intensity: 32.2942581177
---
header: 
  seq: 225238
  stamp: 
    secs: 1561863885
    nsecs: 508475424
  frame_id: "ti_mmwave"
point_id: 7
x: 2.748046875
y: -0.08984375
z: 0.935546875
range: 3.09396481514
velocity: 0.0
doppler_bin: 8
bearing: -1.8725425005
intensity: 31.3385810852
---
header: 
  seq: 225239
  stamp: 
    secs: 1561863885
    nsecs: 508490013
  frame_id: "ti_mmwave"
point_id: 8
x: 4.416015625
y: -0.142578125
z: 1.208984375
range: 4.88062095642
velocity: 0.0
doppler_bin: 8
bearing: -1.84924340248
intensity: 31.4488544464
---
header: 
  seq: 225240
  stamp: 
    secs: 1561863885
    nsecs: 508503443
  frame_id: "ti_mmwave"
point_id: 9
x: 4.45703125
y: -0.14453125
z: 1.212890625
range: 4.9241976738
velocity: 0.0
doppler_bin: 8
bearing: -1.8573192358
intensity: 31.2872219086
---
header: 
  seq: 225241
  stamp: 
    secs: 1561863885
    nsecs: 508514192
  frame_id: "ti_mmwave"
point_id: 10
x: 4.740234375
y: -0.298828125
z: -0.595703125
range: 5.09850549698
velocity: 0.0
doppler_bin: 8
bearing: -3.60719799995
intensity: 33.3745918274
---
header: 
  seq: 225242
  stamp: 
    secs: 1561863885
    nsecs: 508522954
  frame_id: "ti_mmwave"
point_id: 11
x: 4.779296875
y: -0.30078125
z: -0.607421875
range: 5.14208269119
velocity: 0.0
doppler_bin: 8
bearing: -3.60111522675
intensity: 33.9252090454
---
header: 
  seq: 225243
  stamp: 
    secs: 1561863885
    nsecs: 508531001
  frame_id: "ti_mmwave"
point_id: 12
x: 4.814453125
y: -0.15234375
z: -0.701171875
range: 5.18565940857
velocity: 0.0
doppler_bin: 8
bearing: -1.81240582466
intensity: 30.6258201599
---
header: 
  seq: 225244
  stamp: 
    secs: 1561863885
    nsecs: 508539288
  frame_id: "ti_mmwave"
point_id: 13
x: 4.8828125
y: -0.30859375
z: 0.744140625
range: 5.27281332016
velocity: 0.0
doppler_bin: 8
bearing: -3.61628341675
intensity: 31.0924091339
---
header: 
  seq: 225245
  stamp: 
    secs: 1561863885
    nsecs: 508547417
  frame_id: "ti_mmwave"
point_id: 14
x: 4.947265625
y: -0.623046875
z: 0.22265625
range: 5.31639051437
velocity: 0.0
doppler_bin: 8
bearing: -7.17790555954
intensity: 29.7635002136
---
header: 
  seq: 225246
  stamp: 
    secs: 1561863885
    nsecs: 508571255
  frame_id: "ti_mmwave"
point_id: 15
x: 0.87890625
y: 0.564453125
z: -0.1953125
range: 1.13300120831
velocity: 0.614668667316
doppler_bin: 9
bearing: 32.7094802856
intensity: 21.9312458038
---
header: 
  seq: 225247
  stamp: 
    secs: 1561863885
    nsecs: 508581871
  frame_id: "ti_mmwave"
point_id: 16
x: 0.923828125
y: 0.5859375
z: -0.14453125
range: 1.1765781641
velocity: 0.614668667316
doppler_bin: 9
bearing: 32.38489151
intensity: 26.8841991425
---
header: 
  seq: 225248
  stamp: 
    secs: 1561863885
    nsecs: 508665196
  frame_id: "ti_mmwave"
point_id: 17
x: 0.962890625
y: 0.609375
z: -0.119140625
range: 1.22015523911
velocity: 0.614668667316
doppler_bin: 9
bearing: 32.3280830383
intensity: 27.7232170105
---
header: 
  seq: 225249
  stamp: 
    secs: 1561863885
    nsecs: 508675882
  frame_id: "ti_mmwave"
point_id: 18
x: 1.033203125
y: 0.556640625
z: -0.1796875
range: 1.2637321949
velocity: 0.614668667316
doppler_bin: 9
bearing: 28.3136730194
intensity: 24.9276046753
---
header: 
  seq: 225250
  stamp: 
    secs: 1561863885
    nsecs: 508683904
  frame_id: "ti_mmwave"
point_id: 19
x: 1.06640625
y: 0.576171875
z: -0.193359375
range: 1.3073091507
velocity: 0.614668667316
doppler_bin: 9
bearing: 28.3820438385
intensity: 26.9460525513
---
header: 
  seq: 225251
  stamp: 
    secs: 1561863885
    nsecs: 508691991
  frame_id: "ti_mmwave"
point_id: 20
x: 1.076171875
y: 0.634765625
z: -0.21875
range: 1.35088610649
velocity: 0.614668667316
doppler_bin: 9
bearing: 30.5336647034
intensity: 26.2634029388
---
header: 
  seq: 225252
  stamp: 
    secs: 1561863885
    nsecs: 508699840
  frame_id: "ti_mmwave"
point_id: 21
x: 0.01171875
y: 0.03125
z: 0.0234375
range: 0.0435769706964
velocity: 0.0
doppler_bin: 8
bearing: 69.4439544678
intensity: 29.4101428986
---
header: 
  seq: 225253
  stamp: 
    secs: 1561863885
    nsecs: 508709525
  frame_id: "ti_mmwave"
point_id: 22
x: 0.041015625
y: -0.033203125
z: 0.0625
range: 0.0871539413929
velocity: 0.0
doppler_bin: 8
bearing: -38.9909973145
intensity: 30.1494026184
---
header: 
  seq: 225254
  stamp: 
    secs: 1561863885
    nsecs: 508717130
  frame_id: "ti_mmwave"
point_id: 23
x: 0.052734375
y: -0.04296875
z: 0.103515625
range: 0.130730912089
velocity: 0.0
doppler_bin: 8
bearing: -39.1736602783
intensity: 29.0145835876
---
header: 
  seq: 225255
  stamp: 
    secs: 1561863885
    nsecs: 508729571
  frame_id: "ti_mmwave"
point_id: 25
x: 1.05078125
y: 0.61328125
z: -0.48046875
range: 1.39446306229
velocity: 0.0
doppler_bin: 8
bearing: 30.2696800232
intensity: 23.0749607086
---
header: 
  seq: 225256
  stamp: 
    secs: 1561863885
    nsecs: 509798543
  frame_id: "ti_mmwave"
point_id: 0
x: 0.01171875
y: -0.0390625
z: -0.0078125
range: 0.0435769706964
velocity: 0.0
doppler_bin: 8
bearing: -73.3007583618
intensity: 30.7773113251
---
header: 
  seq: 225257
  stamp: 
    secs: 1561863885
    nsecs: 509842788
  frame_id: "ti_mmwave"
point_id: 1
x: 0.017578125
y: -0.080078125
z: -0.009765625
range: 0.0871539413929
velocity: 0.0
doppler_bin: 8
bearing: -77.6192398071
intensity: 31.9975509644
---
header: 
  seq: 225258
  stamp: 
    secs: 1561863885
    nsecs: 509858470
  frame_id: "ti_mmwave"
point_id: 2
x: 0.029296875
y: -0.119140625
z: -0.005859375
range: 0.130730912089
velocity: 0.0
doppler_bin: 8
bearing: -76.1849746704
intensity: 30.2612457275
---
header: 
  seq: 225259
  stamp: 
    secs: 1561863885
    nsecs: 509870763
  frame_id: "ti_mmwave"
point_id: 3
x: 0.056640625
y: -0.154296875
z: 0.005859375
range: 0.174307882786
velocity: 0.0
doppler_bin: 8
bearing: -69.8423843384
intensity: 25.5144996643
---
header: 
  seq: 225260
  stamp: 
    secs: 1561863885
    nsecs: 509879605
  frame_id: "ti_mmwave"
point_id: 4
x: 2.6171875
y: -0.17578125
z: 1.04296875
range: 3.00681090355
velocity: 0.0
doppler_bin: 8
bearing: -3.84245300293
intensity: 29.0633506775
---
header: 
  seq: 225261
  stamp: 
    secs: 1561863885
    nsecs: 509895952
  frame_id: "ti_mmwave"
point_id: 5
x: 2.66015625
y: -0.1796875
z: 1.044921875
range: 3.05038785934
velocity: 0.0
doppler_bin: 8
bearing: -3.86432933807
intensity: 32.2582588196
---
header: 
  seq: 225262
  stamp: 
    secs: 1561863885
    nsecs: 509910430
  frame_id: "ti_mmwave"
point_id: 6
x: 2.755859375
y: -0.08984375
z: 0.912109375
range: 3.09396481514
velocity: 0.0
doppler_bin: 8
bearing: -1.86723792553
intensity: 31.25806427
---
header: 
  seq: 225263
  stamp: 
    secs: 1561863885
    nsecs: 509924909
  frame_id: "ti_mmwave"
point_id: 7
x: 4.4140625
y: -0.142578125
z: 1.216796875
range: 4.88062095642
velocity: 0.0
doppler_bin: 8
bearing: -1.850061059
intensity: 31.455072403
---
header: 
  seq: 225264
  stamp: 
    secs: 1561863885
    nsecs: 509938079
  frame_id: "ti_mmwave"
point_id: 8
x: 4.44140625
y: -0.14453125
z: 1.275390625
range: 4.9241976738
velocity: 0.0
doppler_bin: 8
bearing: -1.86384868622
intensity: 31.3257980347
---
header: 
  seq: 225265
  stamp: 
    secs: 1561863885
    nsecs: 509951365
  frame_id: "ti_mmwave"
point_id: 9
x: 4.73828125
y: -0.298828125
z: -0.599609375
range: 5.09850549698
velocity: 0.0
doppler_bin: 8
bearing: -3.60868048668
intensity: 33.3425254822
---
header: 
  seq: 225266
  stamp: 
    secs: 1561863885
    nsecs: 509965225
  frame_id: "ti_mmwave"
point_id: 10
x: 4.779296875
y: -0.30078125
z: -0.607421875
range: 5.14208269119
velocity: 0.0
doppler_bin: 8
bearing: -3.60111522675
intensity: 33.9269714355
---
header: 
  seq: 225267
  stamp: 
    secs: 1561863885
    nsecs: 509977944
  frame_id: "ti_mmwave"
point_id: 11
x: 4.8203125
y: -0.15234375
z: -0.662109375
range: 5.18565940857
velocity: 0.0
doppler_bin: 8
bearing: -1.81020414829
intensity: 30.6483230591
---
header: 
  seq: 225268
  stamp: 
    secs: 1561863885
    nsecs: 509991156
  frame_id: "ti_mmwave"
point_id: 12
x: 4.892578125
y: -0.30859375
z: 0.6875
range: 5.27281332016
velocity: 0.0
doppler_bin: 8
bearing: -3.60908436775
intensity: 31.1294002533
---
header: 
  seq: 225269
  stamp: 
    secs: 1561863885
    nsecs: 510004371
  frame_id: "ti_mmwave"
point_id: 13
x: 4.94921875
y: -0.623046875
z: 0.13671875
range: 5.31639051437
velocity: 0.0
doppler_bin: 8
bearing: -7.17510271072
intensity: 29.6520175934
---
header: 
  seq: 225270
  stamp: 
    secs: 1561863885
    nsecs: 510018976
  frame_id: "ti_mmwave"
point_id: 14
x: 0.916015625
y: 0.5859375
z: -0.193359375
range: 1.1765781641
velocity: 0.614668667316
doppler_bin: 9
bearing: 32.6053771973
intensity: 25.7287158966
---
header: 
  seq: 225271
  stamp: 
    secs: 1561863885
    nsecs: 510031876
  frame_id: "ti_mmwave"
point_id: 15
x: 0.955078125
y: 0.609375
z: -0.173828125
range: 1.22015523911
velocity: 0.614668667316
doppler_bin: 9
bearing: 32.5393714905
intensity: 27.7670116425
---
header: 
  seq: 225272
  stamp: 
    secs: 1561863885
    nsecs: 510044621
  frame_id: "ti_mmwave"
point_id: 16
x: 0.958984375
y: 0.66796875
z: -0.20703125
range: 1.2637321949
velocity: 0.614668667316
doppler_bin: 9
bearing: 34.8586654663
intensity: 24.440448761
---
header: 
  seq: 225273
  stamp: 
    secs: 1561863885
    nsecs: 510059079
  frame_id: "ti_mmwave"
point_id: 17
x: 1.078125
y: 0.576171875
z: -0.107421875
range: 1.3073091507
velocity: 0.614668667316
doppler_bin: 9
bearing: 28.1209526062
intensity: 24.871383667
---
header: 
  seq: 225274
  stamp: 
    secs: 1561863885
    nsecs: 510072360
  frame_id: "ti_mmwave"
point_id: 18
x: 1.087890625
y: 0.634765625
z: -0.15234375
range: 1.35088610649
velocity: 0.614668667316
doppler_bin: 9
bearing: 30.2628326416
intensity: 27.058637619
---
header: 
  seq: 225275
  stamp: 
    secs: 1561863885
    nsecs: 510085145
  frame_id: "ti_mmwave"
point_id: 19
x: 1.12109375
y: 0.654296875
z: -0.1640625
range: 1.39446306229
velocity: 0.614668667316
doppler_bin: 9
bearing: 30.2688503265
intensity: 24.9831047058
---
header: 
  seq: 225276
  stamp: 
    secs: 1561863885
    nsecs: 510097950
  frame_id: "ti_mmwave"
point_id: 20
x: 0.01171875
y: 0.03125
z: 0.0234375
range: 0.0435769706964
velocity: 0.0
doppler_bin: 8
bearing: 69.4439544678
intensity: 29.4101428986
---
header: 
  seq: 225277
  stamp: 
    secs: 1561863885
    nsecs: 510110788
  frame_id: "ti_mmwave"
point_id: 21
x: 0.041015625
y: -0.033203125
z: 0.0625
range: 0.0871539413929
velocity: 0.0
doppler_bin: 8
bearing: -38.9909973145
intensity: 30.1494026184
---
header: 
  seq: 225278
  stamp: 
    secs: 1561863885
    nsecs: 510124125
  frame_id: "ti_mmwave"
point_id: 22
x: 0.05078125
y: -0.04296875
z: 0.103515625
range: 0.130730912089
velocity: 0.0
doppler_bin: 8
bearing: -40.2363586426
intensity: 29.0091304779
---
header: 
  seq: 225279
  stamp: 
    secs: 1561863885
    nsecs: 568433388
  frame_id: "ti_mmwave"
point_id: 0
x: 0.01171875
y: -0.0390625
z: -0.0078125
range: 0.0435769706964
velocity: 0.0
doppler_bin: 8
bearing: -73.3007583618
intensity: 30.7809410095
---
header: 
  seq: 225280
  stamp: 
    secs: 1561863885
    nsecs: 568526085
  frame_id: "ti_mmwave"
point_id: 1
x: 0.017578125
y: -0.080078125
z: -0.009765625
range: 0.0871539413929
velocity: 0.0
doppler_bin: 8
bearing: -77.6192398071
intensity: 31.9975509644
---
header: 
  seq: 225281
  stamp: 
    secs: 1561863885
    nsecs: 568543078
  frame_id: "ti_mmwave"
point_id: 2
x: 0.029296875
y: -0.119140625
z: -0.005859375
range: 0.130730912089
velocity: 0.0
doppler_bin: 8
bearing: -76.1849746704
intensity: 30.2612457275
---
header: 
  seq: 225282
  stamp: 
    secs: 1561863885
    nsecs: 568556585
  frame_id: "ti_mmwave"
point_id: 3
x: 0.056640625
y: -0.154296875
z: 0.005859375
range: 0.174307882786
velocity: 0.0
doppler_bin: 8
bearing: -69.8423843384
intensity: 25.5022830963
---
header: 
  seq: 225283
  stamp: 
    secs: 1561863885
    nsecs: 568571073
  frame_id: "ti_mmwave"
point_id: 4
x: 0.18359375
y: -0.080078125
z: 1.251953125
range: 1.35088610649
velocity: 0.0
doppler_bin: 8
bearing: -23.5653953552
intensity: 23.2221927643
---
header: 
  seq: 225284
  stamp: 
    secs: 1561863885
    nsecs: 568587024
  frame_id: "ti_mmwave"
point_id: 6
x: 0.35546875
y: -0.083984375
z: -1.298828125
range: 1.43804001808
velocity: 0.0
doppler_bin: 8
bearing: -13.2931489944
intensity: 23.0963020325
---
header: 
  seq: 225285
  stamp: 
    secs: 1561863885
    nsecs: 568601369
  frame_id: "ti_mmwave"
point_id: 7
x: 2.61328125
y: -0.17578125
z: 1.052734375
range: 3.00681090355
velocity: 0.0
doppler_bin: 8
bearing: -3.84817934036
intensity: 29.1539974213
---
header: 
  seq: 225286
  stamp: 
    secs: 1561863885
    nsecs: 568619297
  frame_id: "ti_mmwave"
point_id: 8
x: 2.658203125
y: -0.1796875
z: 1.05078125
range: 3.05038785934
velocity: 0.0
doppler_bin: 8
bearing: -3.86716008186
intensity: 32.3019332886
---
header: 
  seq: 225287
  stamp: 
    secs: 1561863885
    nsecs: 568633361
  frame_id: "ti_mmwave"
point_id: 9
x: 2.751953125
y: -0.08984375
z: 0.92578125
range: 3.09396481514
velocity: 0.0
doppler_bin: 8
bearing: -1.86988639832
intensity: 31.3481445312
---
header: 
  seq: 225288
  stamp: 
    secs: 1561863885
    nsecs: 568658543
  frame_id: "ti_mmwave"
point_id: 10
x: 4.416015625
y: -0.142578125
z: 1.212890625
range: 4.88062095642
velocity: 0.0
doppler_bin: 8
bearing: -1.84924340248
intensity: 31.4488544464
---
header: 
  seq: 225289
  stamp: 
    secs: 1561863885
    nsecs: 568745994
  frame_id: "ti_mmwave"
point_id: 11
x: 4.451171875
y: -0.14453125
z: 1.23828125
range: 4.9241976738
velocity: 0.0
doppler_bin: 8
bearing: -1.8597625494
intensity: 31.2807598114
---
header: 
  seq: 225290
  stamp: 
    secs: 1561863885
    nsecs: 568761846
  frame_id: "ti_mmwave"
point_id: 12
x: 4.73046875
y: -0.298828125
z: -0.66015625
range: 5.09850549698
velocity: 0.0
doppler_bin: 8
bearing: -3.61462497711
intensity: 33.318321228
---
header: 
  seq: 225291
  stamp: 
    secs: 1561863885
    nsecs: 568775511
  frame_id: "ti_mmwave"
point_id: 13
x: 4.771484375
y: -0.30078125
z: -0.658203125
range: 5.14208269119
velocity: 0.0
doppler_bin: 8
bearing: -3.60699558258
intensity: 33.9093513489
---
header: 
  seq: 225292
  stamp: 
    secs: 1561863885
    nsecs: 568788346
  frame_id: "ti_mmwave"
point_id: 14
x: 4.806640625
y: -0.15234375
z: -0.748046875
range: 5.18565940857
velocity: 0.0
doppler_bin: 8
bearing: -1.81534969807
intensity: 30.5499591827
---
header: 
  seq: 225293
  stamp: 
    secs: 1561863885
    nsecs: 568803452
  frame_id: "ti_mmwave"
point_id: 15
x: 4.88671875
y: -0.30859375
z: 0.720703125
range: 5.27281332016
velocity: 0.0
doppler_bin: 8
bearing: -3.61340069771
intensity: 31.1394329071
---
header: 
  seq: 225294
  stamp: 
    secs: 1561863885
    nsecs: 568818560
  frame_id: "ti_mmwave"
point_id: 16
x: 4.947265625
y: -0.623046875
z: 0.212890625
range: 5.31639051437
velocity: 0.0
doppler_bin: 8
bearing: -7.17790555954
intensity: 29.7818050385
---
header: 
  seq: 225295
  stamp: 
    secs: 1561863885
    nsecs: 568831993
  frame_id: "ti_mmwave"
point_id: 17
x: 0.880859375
y: 0.62109375
z: -0.2421875
range: 1.1765781641
velocity: 0.614668667316
doppler_bin: 9
bearing: 35.1876564026
intensity: 22.8780174255
---
header: 
  seq: 225296
  stamp: 
    secs: 1561863885
    nsecs: 568845484
  frame_id: "ti_mmwave"
point_id: 18
x: 0.955078125
y: 0.609375
z: -0.171875
range: 1.22015523911
velocity: 0.614668667316
doppler_bin: 9
bearing: 32.5393714905
intensity: 27.4193916321
---
header: 
  seq: 225297
  stamp: 
    secs: 1561863885
    nsecs: 568870028
  frame_id: "ti_mmwave"
point_id: 19
x: 0.998046875
y: 0.630859375
z: -0.123046875
range: 1.2637321949
velocity: 0.614668667316
doppler_bin: 9
bearing: 32.2967300415
intensity: 28.3378429413
---
header: 
  seq: 225298
  stamp: 
    secs: 1561863885
    nsecs: 568891019
  frame_id: "ti_mmwave"
point_id: 20
x: 1.0390625
y: 0.65234375
z: 0.0234375
range: 1.3073091507
velocity: 0.614668667316
doppler_bin: 9
bearing: 32.1214065552
intensity: 24.9136161804
---
header: 
  seq: 225299
  stamp: 
    secs: 1561863885
    nsecs: 568911895
  frame_id: "ti_mmwave"
point_id: 21
x: 0.01171875
y: 0.03125
z: 0.025390625
range: 0.0435769706964
velocity: 0.0
doppler_bin: 8
bearing: 69.4439544678
intensity: 29.4051647186
---
header: 
  seq: 225300
  stamp: 
    secs: 1561863885
    nsecs: 568980668
  frame_id: "ti_mmwave"
point_id: 22
x: 0.041015625
y: -0.033203125
z: 0.0625
range: 0.0871539413929
velocity: 0.0
doppler_bin: 8
bearing: -38.9909973145
intensity: 30.1535968781
---
header: 
  seq: 225301
  stamp: 
    secs: 1561863885
    nsecs: 568996922
  frame_id: "ti_mmwave"
point_id: 23
x: 0.05078125
y: -0.04296875
z: 0.103515625
range: 0.130730912089
velocity: 0.0
doppler_bin: 8
bearing: -40.2363586426
intensity: 29.020029068
---
header: 
  seq: 225302
  stamp: 
    secs: 1561863885
    nsecs: 569014764
  frame_id: "ti_mmwave"
point_id: 25
x: 0.91015625
y: 0.673828125
z: -0.5703125
range: 1.35088610649
velocity: 0.0
doppler_bin: 8
bearing: 36.5141487122
intensity: 20.2530593872
---
header: 
  seq: 225303
  stamp: 
    secs: 1561863885
    nsecs: 569027976
  frame_id: "ti_mmwave"
point_id: 26
x: 0.990234375
y: 0.6953125
z: -0.5
range: 1.39446306229
velocity: 0.0
doppler_bin: 8
bearing: 35.0753631592
intensity: 22.0682582855
---
header: 
  seq: 225304
  stamp: 
    secs: 1561863885
    nsecs: 569041118
  frame_id: "ti_mmwave"
point_id: 27
x: 1.08984375
y: 0.716796875
z: -0.34375
range: 1.43804001808
velocity: 0.0
doppler_bin: 8
bearing: 33.3331642151
intensity: 20.6818580627
---
header: 
  seq: 225305
  stamp: 
    secs: 1561863885
    nsecs: 570126611
  frame_id: "ti_mmwave"
point_id: 0
x: 0.01171875
y: -0.0390625
z: -0.0078125
range: 0.0435769706964
velocity: 0.0
doppler_bin: 8
bearing: -73.3007583618
intensity: 30.7809410095
---
header: 
  seq: 225306
  stamp: 
    secs: 1561863885
    nsecs: 570194726
  frame_id: "ti_mmwave"
point_id: 1
x: 0.017578125
y: -0.080078125
z: -0.009765625
range: 0.0871539413929
velocity: 0.0
doppler_bin: 8
bearing: -77.6192398071
intensity: 32.0002937317
---
header: 
  seq: 225307
  stamp: 
    secs: 1561863885
    nsecs: 570214323
  frame_id: "ti_mmwave"
point_id: 2
x: 0.029296875
y: -0.119140625
z: -0.005859375
range: 0.130730912089
velocity: 0.0
doppler_bin: 8
bearing: -76.1849746704
intensity: 30.2694168091
---
header: 
  seq: 225308
  stamp: 
    secs: 1561863885
    nsecs: 570227759
  frame_id: "ti_mmwave"
point_id: 3
x: 0.056640625
y: -0.154296875
z: 0.005859375
range: 0.174307882786
velocity: 0.0
doppler_bin: 8
bearing: -69.8423843384
intensity: 25.5266819
---
header: 
  seq: 225309
  stamp: 
    secs: 1561863885
    nsecs: 570252357
  frame_id: "ti_mmwave"
point_id: 4
x: 2.615234375
y: -0.17578125
z: 1.048828125
range: 3.00681090355
velocity: 0.0
doppler_bin: 8
bearing: -3.84531402588
intensity: 29.0687351227
---
header: 
  seq: 225310
  stamp: 
    secs: 1561863885
    nsecs: 570272524
  frame_id: "ti_mmwave"
point_id: 5
x: 2.658203125
y: -0.1796875
z: 1.05078125
range: 3.05038785934
velocity: 0.0
doppler_bin: 8
bearing: -3.86716008186
intensity: 32.2737236023
---
header: 
  seq: 225311
  stamp: 
    secs: 1561863885
    nsecs: 570291478
  frame_id: "ti_mmwave"
point_id: 6
x: 2.75390625
y: -0.08984375
z: 0.91796875
range: 3.09396481514
velocity: 0.0
doppler_bin: 8
bearing: -1.86856126785
intensity: 31.3001194
---
header: 
  seq: 225312
  stamp: 
    secs: 1561863885
    nsecs: 570379024
  frame_id: "ti_mmwave"
point_id: 7
x: 4.416015625
y: -0.142578125
z: 1.2109375
range: 4.88062095642
velocity: 0.0
doppler_bin: 8
bearing: -1.84924340248
intensity: 31.427022934
---
header: 
  seq: 225313
  stamp: 
    secs: 1561863885
    nsecs: 570398195
  frame_id: "ti_mmwave"
point_id: 8
x: 4.4453125
y: -0.14453125
z: 1.259765625
range: 4.9241976738
velocity: 0.0
doppler_bin: 8
bearing: -1.86221218109
intensity: 31.25806427
---
header: 
  seq: 225314
  stamp: 
    secs: 1561863885
    nsecs: 570410070
  frame_id: "ti_mmwave"
point_id: 9
x: 4.7421875
y: -0.298828125
z: -0.572265625
range: 5.09850549698
velocity: 0.0
doppler_bin: 8
bearing: -3.60571622849
intensity: 33.2735900879
---
header: 
  seq: 225315
  stamp: 
    secs: 1561863885
    nsecs: 570421732
  frame_id: "ti_mmwave"
point_id: 10
x: 4.78125
y: -0.30078125
z: -0.58984375
range: 5.14208269119
velocity: 0.0
doppler_bin: 8
bearing: -3.59964799881
intensity: 33.8685569763
---
header: 
  seq: 225316
  stamp: 
    secs: 1561863885
    nsecs: 570433048
  frame_id: "ti_mmwave"
point_id: 11
x: 4.810546875
y: -0.15234375
z: -0.73046875
range: 5.18565940857
velocity: 0.0
doppler_bin: 8
bearing: -1.81387650967
intensity: 30.6370849609
---
header: 
  seq: 225317
  stamp: 
    secs: 1561863885
    nsecs: 570444070
  frame_id: "ti_mmwave"
point_id: 12
x: 4.896484375
y: -0.30859375
z: 0.65625
range: 5.27281332016
velocity: 0.0
doppler_bin: 8
bearing: -3.6062130928
intensity: 31.0380363464
---
header: 
  seq: 225318
  stamp: 
    secs: 1561863885
    nsecs: 570456719
  frame_id: "ti_mmwave"
point_id: 13
x: 4.947265625
y: -0.623046875
z: 0.22265625
range: 5.31639051437
velocity: 0.0
doppler_bin: 8
bearing: -7.17790555954
intensity: 29.7220287323
---
header: 
  seq: 225319
  stamp: 
    secs: 1561863885
    nsecs: 570468381
  frame_id: "ti_mmwave"
point_id: 14
x: 0.921875
y: 0.64453125
z: -0.21875
range: 1.22015523911
velocity: 0.614668667316
doppler_bin: 9
bearing: 34.9594192505
intensity: 23.8738975525
---
header: 
  seq: 225320
  stamp: 
    secs: 1561863885
    nsecs: 570481945
  frame_id: "ti_mmwave"
point_id: 15
x: 0.95703125
y: 0.66796875
z: -0.216796875
range: 1.2637321949
velocity: 0.614668667316
doppler_bin: 9
bearing: 34.9134674072
intensity: 24.8287353516
---
header: 
  seq: 225321
  stamp: 
    secs: 1561863885
    nsecs: 570493781
  frame_id: "ti_mmwave"
point_id: 16
x: 1.009765625
y: 0.61328125
z: -0.33203125
range: 1.3073091507
velocity: 0.614668667316
doppler_bin: 9
bearing: 31.2724075317
intensity: 24.4090900421
---
header: 
  seq: 225322
  stamp: 
    secs: 1561863885
    nsecs: 570501752
  frame_id: "ti_mmwave"
point_id: 17
x: 1.0703125
y: 0.634765625
z: -0.24609375
range: 1.35088610649
velocity: 0.614668667316
doppler_bin: 9
bearing: 30.6707248688
intensity: 27.6117572784
---
header: 
  seq: 225323
  stamp: 
    secs: 1561863885
    nsecs: 570517191
  frame_id: "ti_mmwave"
point_id: 18
x: 1.103515625
y: 0.654296875
z: -0.259765625
range: 1.39446306229
velocity: 0.614668667316
doppler_bin: 9
bearing: 30.6645641327
intensity: 27.9657440186
---
header: 
  seq: 225324
  stamp: 
    secs: 1561863885
    nsecs: 570579382
  frame_id: "ti_mmwave"
point_id: 19
x: 1.173828125
y: 0.6328125
z: -0.20703125
range: 1.43804001808
velocity: 0.614668667316
doppler_bin: 9
bearing: 28.3291721344
intensity: 25.490032196
---
header: 
  seq: 225325
  stamp: 
    secs: 1561863885
    nsecs: 570593857
  frame_id: "ti_mmwave"
point_id: 20
x: 1.232421875
y: 0.609375
z: 0.20703125
range: 1.48161697388
velocity: 0.614668667316
doppler_bin: 9
bearing: 26.3102436066
intensity: 25.0105934143
---
header: 
  seq: 225326
  stamp: 
    secs: 1561863885
    nsecs: 570608556
  frame_id: "ti_mmwave"
point_id: 21
x: 1.240234375
y: 0.671875
z: 0.24609375
range: 1.52519392967
velocity: 0.614668667316
doppler_bin: 9
bearing: 28.4458351135
