header: 
  seq: 210028
  stamp: 
    secs: 1561863862
    nsecs: 888438910
  frame_id: "ti_mmwave"
point_id: 0
x: 0.01171875
y: -0.0390625
z: -0.0078125
range: 0.0435769706964
velocity: 0.0
doppler_bin: 8
bearing: -73.3007583618
intensity: 30.7845687866
---
header: 
  seq: 210029
  stamp: 
    secs: 1561863862
    nsecs: 888557309
  frame_id: "ti_mmwave"
point_id: 1
x: 0.017578125
y: -0.080078125
z: -0.009765625
range: 0.0871539413929
velocity: 0.0
doppler_bin: 8
bearing: -77.6192398071
intensity: 32.0030326843
---
header: 
  seq: 210030
  stamp: 
    secs: 1561863862
    nsecs: 888578298
  frame_id: "ti_mmwave"
point_id: 2
x: 0.029296875
y: -0.119140625
z: -0.005859375
range: 0.130730912089
velocity: 0.0
doppler_bin: 8
bearing: -76.1849746704
intensity: 30.2734966278
---
header: 
  seq: 210031
  stamp: 
    secs: 1561863862
    nsecs: 888592535
  frame_id: "ti_mmwave"
point_id: 3
x: 0.056640625
y: -0.154296875
z: 0.005859375
range: 0.174307882786
velocity: 0.0
doppler_bin: 8
bearing: -69.8423843384
intensity: 25.5266819
---
header: 
  seq: 210032
  stamp: 
    secs: 1561863862
    nsecs: 888689056
  frame_id: "ti_mmwave"
point_id: 4
x: 0.17578125
y: -0.080078125
z: 1.25390625
range: 1.35088610649
velocity: 0.0
doppler_bin: 8
bearing: -24.4919013977
intensity: 23.2014636993
---
header: 
  seq: 210033
  stamp: 
    secs: 1561863862
    nsecs: 888705697
  frame_id: "ti_mmwave"
point_id: 5
x: 0.265625
y: -0.041015625
z: -1.28125
range: 1.39446306229
velocity: 0.0
doppler_bin: 8
bearing: -8.77781772614
intensity: 24.6239795685
---
header: 
  seq: 210034
  stamp: 
    secs: 1561863862
    nsecs: 888720893
  frame_id: "ti_mmwave"
point_id: 6
x: 0.517578125
y: -0.04296875
z: -1.24609375
range: 1.43804001808
velocity: 0.0
doppler_bin: 8
bearing: -4.74574804306
intensity: 23.0102996826
---
header: 
  seq: 210035
  stamp: 
    secs: 1561863862
    nsecs: 888734650
  frame_id: "ti_mmwave"
point_id: 7
x: 0.56640625
y: -0.04296875
z: -1.26953125
range: 1.48161697388
velocity: 0.0
doppler_bin: 8
bearing: -4.33826684952
intensity: 21.6731739044
---
header: 
  seq: 210036
  stamp: 
    secs: 1561863862
    nsecs: 888748476
  frame_id: "ti_mmwave"
point_id: 8
x: 2.615234375
y: -0.17578125
z: 1.048828125
range: 3.00681090355
velocity: 0.0
doppler_bin: 8
bearing: -3.84531402588
intensity: 29.0902080536
---
header: 
  seq: 210037
  stamp: 
    secs: 1561863862
    nsecs: 888763079
  frame_id: "ti_mmwave"
point_id: 9
x: 2.66015625
y: -0.1796875
z: 1.044921875
range: 3.05038785934
velocity: 0.0
doppler_bin: 8
bearing: -3.86432933807
intensity: 32.2659988403
---
header: 
  seq: 210038
  stamp: 
    secs: 1561863862
    nsecs: 888773294
  frame_id: "ti_mmwave"
point_id: 10
x: 2.7578125
y: -0.08984375
z: 0.908203125
range: 3.09396481514
velocity: 0.0
doppler_bin: 8
bearing: -1.86591637135
intensity: 31.3001194
---
header: 
  seq: 210039
  stamp: 
    secs: 1561863862
    nsecs: 888797805
  frame_id: "ti_mmwave"
point_id: 11
x: 4.412109375
y: -0.142578125
z: 1.2265625
range: 4.88062095642
velocity: 0.0
doppler_bin: 8
bearing: -1.85087943077
intensity: 31.4488544464
---
header: 
  seq: 210040
  stamp: 
    secs: 1561863862
    nsecs: 888820371
  frame_id: "ti_mmwave"
point_id: 12
x: 4.4375
y: -0.14453125
z: 1.283203125
range: 4.9241976738
velocity: 0.0
doppler_bin: 8
bearing: -1.86548817158
intensity: 31.3417701721
---
header: 
  seq: 210041
  stamp: 
    secs: 1561863862
    nsecs: 888861517
  frame_id: "ti_mmwave"
point_id: 13
x: 4.734375
y: -0.298828125
z: -0.634765625
range: 5.09850549698
velocity: 0.0
doppler_bin: 8
bearing: -3.61165046692
intensity: 33.3725967407
---
header: 
  seq: 210042
  stamp: 
    secs: 1561863862
    nsecs: 888876583
  frame_id: "ti_mmwave"
point_id: 14
x: 4.771484375
y: -0.30078125
z: -0.669921875
range: 5.14208269119
velocity: 0.0
doppler_bin: 8
bearing: -3.60699558258
intensity: 33.9375076294
---
header: 
  seq: 210043
  stamp: 
    secs: 1561863862
    nsecs: 888890821
  frame_id: "ti_mmwave"
point_id: 15
x: 4.80078125
y: -0.15234375
z: -0.791015625
range: 5.18565940857
velocity: 0.0
doppler_bin: 8
bearing: -1.81756365299
intensity: 30.5230903625
---
header: 
  seq: 210044
  stamp: 
    secs: 1561863862
    nsecs: 888904543
  frame_id: "ti_mmwave"
point_id: 16
x: 4.876953125
y: -0.30859375
z: 0.791015625
range: 5.27281332016
velocity: 0.0
doppler_bin: 8
bearing: -3.62061715126
intensity: 31.1527767181
---
header: 
  seq: 210045
  stamp: 
    secs: 1561863862
    nsecs: 888918326
  frame_id: "ti_mmwave"
point_id: 17
x: 4.94921875
y: -0.623046875
z: 0.123046875
range: 5.31639051437
velocity: 0.0
doppler_bin: 8
bearing: -7.17510271072
intensity: 29.8407707214
---
header: 
  seq: 210046
  stamp: 
    secs: 1561863862
    nsecs: 888933113
  frame_id: "ti_mmwave"
point_id: 18
x: 1.75
y: 1.0234375
z: -0.27734375
range: 2.17884850502
velocity: -0.614668667316
doppler_bin: 7
bearing: 30.3200092316
intensity: 28.2607479095
---
header: 
  seq: 210047
  stamp: 
    secs: 1561863862
    nsecs: 888945953
  frame_id: "ti_mmwave"
point_id: 19
x: 1.736328125
y: 1.107421875
z: -0.330078125
range: 2.22242546082
velocity: -0.614668667316
doppler_bin: 7
bearing: 32.5295372009
intensity: 29.5230808258
---
header: 
  seq: 210048
  stamp: 
    secs: 1561863862
    nsecs: 889048881
  frame_id: "ti_mmwave"
point_id: 20
x: 1.75390625
y: 1.130859375
z: -0.4140625
range: 2.26600241661
velocity: -0.614668667316
doppler_bin: 7
bearing: 32.8125534058
intensity: 27.3479976654
---
header: 
  seq: 210049
  stamp: 
    secs: 1561863862
    nsecs: 889065271
  frame_id: "ti_mmwave"
point_id: 21
x: 0.01171875
y: 0.03125
z: 0.0234375
range: 0.0435769706964
velocity: 0.0
doppler_bin: 8
bearing: 69.4439544678
intensity: 29.4151134491
---
header: 
  seq: 210050
  stamp: 
    secs: 1561863862
    nsecs: 889080394
  frame_id: "ti_mmwave"
point_id: 22
x: 0.041015625
y: -0.033203125
z: 0.0625
range: 0.0871539413929
velocity: 0.0
doppler_bin: 8
bearing: -38.9909973145
intensity: 30.157787323
---
header: 
  seq: 210051
  stamp: 
    secs: 1561863862
    nsecs: 889094947
  frame_id: "ti_mmwave"
point_id: 23
x: 0.052734375
y: -0.04296875
z: 0.103515625
range: 0.130730912089
velocity: 0.0
doppler_bin: 8
bearing: -39.1736602783
intensity: 29.020029068
---
header: 
  seq: 210052
  stamp: 
    secs: 1561863862
    nsecs: 889958955
  frame_id: "ti_mmwave"
point_id: 0
x: 0.01171875
y: -0.0390625
z: -0.0078125
range: 0.0435769706964
velocity: 0.0
doppler_bin: 8
bearing: -73.3007583618
intensity: 30.788192749
---
header: 
  seq: 210053
  stamp: 
    secs: 1561863862
    nsecs: 890025864
  frame_id: "ti_mmwave"
point_id: 1
x: 0.017578125
y: -0.080078125
z: -0.009765625
range: 0.0871539413929
velocity: 0.0
doppler_bin: 8
bearing: -77.6192398071
intensity: 32.0057678223
---
header: 
  seq: 210054
  stamp: 
    secs: 1561863862
    nsecs: 890045912
  frame_id: "ti_mmwave"
point_id: 2
x: 0.041015625
y: -0.115234375
z: -0.009765625
range: 0.130730912089
velocity: 0.0
doppler_bin: 8
bearing: -70.4077224731
intensity: 30.2734966278
---
header: 
  seq: 210055
  stamp: 
    secs: 1561863862
    nsecs: 890058843
  frame_id: "ti_mmwave"
point_id: 3
x: 0.056640625
y: -0.154296875
z: 0.005859375
range: 0.174307882786
velocity: 0.0
doppler_bin: 8
bearing: -69.8423843384
intensity: 25.5266819
---
header: 
  seq: 210056
  stamp: 
    secs: 1561863862
    nsecs: 890137216
  frame_id: "ti_mmwave"
point_id: 4
x: 0.142578125
y: -0.080078125
z: 1.2578125
range: 1.35088610649
velocity: 0.0
doppler_bin: 8
bearing: -29.3204746246
intensity: 23.1597042084
---
header: 
  seq: 210057
  stamp: 
    secs: 1561863862
    nsecs: 890147317
  frame_id: "ti_mmwave"
point_id: 5
x: 0.2734375
y: -0.041015625
z: -1.279296875
range: 1.39446306229
velocity: 0.0
doppler_bin: 8
bearing: -8.53076648712
intensity: 24.6089782715
---
header: 
  seq: 210058
  stamp: 
    secs: 1561863862
    nsecs: 890154859
  frame_id: "ti_mmwave"
point_id: 6
x: 0.517578125
y: -0.04296875
z: -1.24609375
range: 1.43804001808
velocity: 0.0
doppler_bin: 8
bearing: -4.74574804306
intensity: 23.031961441
---
header: 
  seq: 210059
  stamp: 
    secs: 1561863862
    nsecs: 890162401
  frame_id: "ti_mmwave"
point_id: 7
x: 0.56640625
y: -0.04296875
z: -1.26953125
range: 1.48161697388
velocity: 0.0
doppler_bin: 8
bearing: -4.33826684952
intensity: 21.7318630219
---
header: 
  seq: 210060
  stamp: 
    secs: 1561863862
    nsecs: 890171843
  frame_id: "ti_mmwave"
point_id: 8
x: 2.6171875
y: -0.17578125
z: 1.044921875
range: 3.00681090355
velocity: 0.0
doppler_bin: 8
bearing: -3.84245300293
intensity: 29.1062431335
---
header: 
  seq: 210061
  stamp: 
    secs: 1561863862
    nsecs: 890180989
  frame_id: "ti_mmwave"
point_id: 9
x: 2.658203125
y: -0.1796875
z: 1.05078125
range: 3.05038785934
velocity: 0.0
doppler_bin: 8
bearing: -3.86716008186
intensity: 32.2916984558
---
header: 
  seq: 210062
  stamp: 
    secs: 1561863862
    nsecs: 890186223
  frame_id: "ti_mmwave"
point_id: 10
x: 2.751953125
y: -0.08984375
z: 0.923828125
range: 3.09396481514
velocity: 0.0
doppler_bin: 8
bearing: -1.86988639832
intensity: 31.3257980347
---
header: 
  seq: 210063
  stamp: 
    secs: 1561863862
    nsecs: 890205258
  frame_id: "ti_mmwave"
point_id: 11
x: 4.4140625
y: -0.142578125
z: 1.216796875
range: 4.88062095642
velocity: 0.0
doppler_bin: 8
bearing: -1.850061059
intensity: 31.4395103455
---
header: 
  seq: 210064
  stamp: 
    secs: 1561863862
    nsecs: 890219048
  frame_id: "ti_mmwave"
point_id: 12
x: 4.44140625
y: -0.14453125
z: 1.275390625
range: 4.9241976738
velocity: 0.0
doppler_bin: 8
bearing: -1.86384868622
intensity: 31.3289985657
---
header: 
  seq: 210065
  stamp: 
    secs: 1561863862
    nsecs: 890232209
  frame_id: "ti_mmwave"
point_id: 13
x: 4.736328125
y: -0.298828125
z: -0.625
range: 5.09850549698
velocity: 0.0
doppler_bin: 8
bearing: -3.61016488075
intensity: 33.3565826416
---
header: 
  seq: 210066
  stamp: 
    secs: 1561863862
    nsecs: 890247984
  frame_id: "ti_mmwave"
point_id: 14
x: 4.771484375
y: -0.30078125
z: -0.66015625
range: 5.14208269119
velocity: 0.0
doppler_bin: 8
bearing: -3.60699558258
intensity: 33.9111175537
---
header: 
  seq: 210067
  stamp: 
    secs: 1561863862
    nsecs: 890307418
  frame_id: "ti_mmwave"
point_id: 15
x: 4.794921875
y: -0.15234375
z: -0.82421875
range: 5.18565940857
velocity: 0.0
doppler_bin: 8
bearing: -1.81978332996
intensity: 30.4571399689
---
header: 
  seq: 210068
  stamp: 
    secs: 1561863862
    nsecs: 890322755
  frame_id: "ti_mmwave"
point_id: 16
x: 4.87109375
y: -0.30859375
z: 0.826171875
range: 5.27281332016
velocity: 0.0
doppler_bin: 8
bearing: -3.62496066093
intensity: 31.0037059784
---
header: 
  seq: 210069
  stamp: 
    secs: 1561863862
    nsecs: 890337850
  frame_id: "ti_mmwave"
point_id: 17
x: 4.951171875
y: -0.623046875
z: 0.08203125
range: 5.31639051437
velocity: 0.0
doppler_bin: 8
bearing: -7.17230129242
intensity: 29.8000335693
---
header: 
  seq: 210070
  stamp: 
    secs: 1561863862
    nsecs: 890349745
  frame_id: "ti_mmwave"
point_id: 18
x: 1.671875
y: 1.064453125
z: -0.29296875
range: 2.13527154922
velocity: -0.614668667316
doppler_bin: 7
bearing: 32.4841842651
intensity: 26.7486114502
---
header: 
  seq: 210071
  stamp: 
    secs: 1561863862
    nsecs: 890362163
  frame_id: "ti_mmwave"
point_id: 19
x: 1.71484375
y: 1.0859375
z: -0.24609375
range: 2.17884850502
velocity: -0.614668667316
doppler_bin: 7
bearing: 32.3443374634
intensity: 28.2282161713
---
header: 
  seq: 210072
  stamp: 
    secs: 1561863862
    nsecs: 890373838
  frame_id: "ti_mmwave"
point_id: 20
x: 1.7578125
y: 1.107421875
z: -0.189453125
range: 2.22242546082
velocity: -0.614668667316
doppler_bin: 7
bearing: 32.2109260559
intensity: 26.3245735168
---
header: 
  seq: 210073
  stamp: 
    secs: 1561863862
    nsecs: 890381822
  frame_id: "ti_mmwave"
point_id: 21
x: 0.01171875
y: 0.03125
z: 0.0234375
range: 0.0435769706964
velocity: 0.0
doppler_bin: 8
bearing: 69.4439544678
intensity: 29.4200801849
---
header: 
  seq: 210074
  stamp: 
    secs: 1561863862
    nsecs: 890393364
  frame_id: "ti_mmwave"
point_id: 22
x: 0.041015625
y: -0.033203125
z: 0.0625
range: 0.0871539413929
velocity: 0.0
doppler_bin: 8
bearing: -38.9909973145
intensity: 30.1535968781
---
header: 
  seq: 210075
  stamp: 
    secs: 1561863862
    nsecs: 890401026
  frame_id: "ti_mmwave"
point_id: 23
x: 0.052734375
y: -0.04296875
z: 0.103515625
range: 0.130730912089
velocity: 0.0
doppler_bin: 8
bearing: -39.1736602783
intensity: 29.020029068
---
header: 
  seq: 210076
  stamp: 
    secs: 1561863862
    nsecs: 948376281
  frame_id: "ti_mmwave"
point_id: 0
x: 0.01171875
y: -0.0390625
z: -0.0078125
range: 0.0435769706964
velocity: 0.0
doppler_bin: 8
bearing: -73.3007583618
intensity: 30.7809410095
---
header: 
  seq: 210077
  stamp: 
    secs: 1561863862
    nsecs: 948450314
  frame_id: "ti_mmwave"
point_id: 1
x: 0.017578125
y: -0.080078125
z: -0.009765625
range: 0.0871539413929
velocity: 0.0
doppler_bin: 8
bearing: -77.6192398071
intensity: 32.0030326843
---
header: 
  seq: 210078
  stamp: 
    secs: 1561863862
    nsecs: 948461007
  frame_id: "ti_mmwave"
point_id: 2
x: 0.041015625
y: -0.115234375
z: -0.009765625
range: 0.130730912089
velocity: 0.0
doppler_bin: 8
bearing: -70.4077224731
intensity: 30.2694168091
---
header: 
  seq: 210079
  stamp: 
    secs: 1561863862
    nsecs: 948469328
  frame_id: "ti_mmwave"
point_id: 3
x: 0.056640625
y: -0.154296875
z: 0.005859375
range: 0.174307882786
velocity: 0.0
doppler_bin: 8
bearing: -69.8423843384
intensity: 25.5266819
---
header: 
  seq: 210080
  stamp: 
    secs: 1561863862
    nsecs: 948481406
  frame_id: "ti_mmwave"
point_id: 4
x: 0.1640625
y: -0.080078125
z: 1.255859375
range: 1.35088610649
velocity: 0.0
doppler_bin: 8
bearing: -26.0167827606
intensity: 23.138671875
---
header: 
  seq: 210081
  stamp: 
    secs: 1561863862
    nsecs: 948490433
  frame_id: "ti_mmwave"
point_id: 5
x: 0.25
y: -0.041015625
z: -1.28515625
range: 1.39446306229
velocity: 0.0
doppler_bin: 8
bearing: -9.31708621979
intensity: 24.6239795685
---
header: 
  seq: 210082
  stamp: 
    secs: 1561863862
    nsecs: 948507990
  frame_id: "ti_mmwave"
point_id: 6
x: 0.51171875
y: -0.04296875
z: -1.248046875
range: 1.43804001808
velocity: 0.0
doppler_bin: 8
bearing: -4.79983615875
intensity: 23.0535144806
---
header: 
  seq: 210083
  stamp: 
    secs: 1561863862
    nsecs: 948521302
  frame_id: "ti_mmwave"
point_id: 7
x: 0.552734375
y: -0.04296875
z: -1.275390625
range: 1.48161697388
velocity: 0.0
doppler_bin: 8
bearing: -4.44514894485
intensity: 21.7609119415
---
header: 
  seq: 210084
  stamp: 
    secs: 1561863862
    nsecs: 948529292
  frame_id: "ti_mmwave"
point_id: 8
x: 2.611328125
y: -0.17578125
z: 1.0546875
range: 3.00681090355
velocity: 0.0
doppler_bin: 8
bearing: -3.85104894638
intensity: 29.1009063721
---
header: 
  seq: 210085
  stamp: 
    secs: 1561863862
    nsecs: 948696610
  frame_id: "ti_mmwave"
point_id: 9
x: 2.662109375
y: -0.1796875
z: 1.041015625
range: 3.05038785934
velocity: 0.0
doppler_bin: 8
bearing: -3.86150240898
intensity: 32.286567688
---
header: 
  seq: 210086
  stamp: 
    secs: 1561863862
    nsecs: 948715591
  frame_id: "ti_mmwave"
point_id: 10
x: 2.759765625
y: -0.08984375
z: 0.900390625
range: 3.09396481514
velocity: 0.0
doppler_bin: 8
bearing: -1.86459684372
intensity: 31.3033370972
---
header: 
  seq: 210087
  stamp: 
    secs: 1561863862
    nsecs: 948727077
  frame_id: "ti_mmwave"
point_id: 11
x: 4.41015625
y: -0.142578125
z: 1.23046875
range: 4.88062095642
velocity: 0.0
doppler_bin: 8
bearing: -1.85169863701
intensity: 31.4238948822
---
header: 
  seq: 210088
  stamp: 
    secs: 1561863862
    nsecs: 948732631
  frame_id: "ti_mmwave"
point_id: 12
x: 4.4375
y: -0.14453125
z: 1.287109375
range: 4.9241976738
velocity: 0.0
doppler_bin: 8
bearing: -1.86548817158
intensity: 31.332195282
---
header: 
  seq: 210089
  stamp: 
    secs: 1561863862
    nsecs: 948753668
  frame_id: "ti_mmwave"
point_id: 13
x: 4.732421875
y: -0.298828125
z: -0.646484375
range: 5.09850549698
velocity: 0.0
doppler_bin: 8
bearing: -3.61313724518
intensity: 33.3705978394
---
header: 
  seq: 210090
  stamp: 
    secs: 1561863862
    nsecs: 948764210
  frame_id: "ti_mmwave"
point_id: 14
x: 4.767578125
y: -0.30078125
z: -0.6953125
range: 5.14208269119
velocity: 0.0
doppler_bin: 8
bearing: -3.60994315147
intensity: 33.9515151978
---
header: 
  seq: 210091
  stamp: 
    secs: 1561863862
    nsecs: 948815624
  frame_id: "ti_mmwave"
point_id: 15
x: 4.78515625
y: -0.15234375
z: -0.87890625
range: 5.18565940857
velocity: 0.0
doppler_bin: 8
bearing: -1.82349443436
intensity: 30.6370849609
---
header: 
  seq: 210092
  stamp: 
    secs: 1561863862
    nsecs: 948825053
  frame_id: "ti_mmwave"
point_id: 16
x: 4.912109375
y: -0.30859375
z: 0.529296875
range: 5.27281332016
velocity: 0.0
doppler_bin: 8
bearing: -3.59477210045
intensity: 31.0687046051
---
header: 
  seq: 210093
  stamp: 
    secs: 1561863862
    nsecs: 948832781
  frame_id: "ti_mmwave"
point_id: 17
x: 4.951171875
y: -0.623046875
z: 0.03515625
range: 5.31639051437
velocity: 0.0
doppler_bin: 8
bearing: -7.17230129242
intensity: 29.7726612091
---
header: 
  seq: 210094
  stamp: 
    secs: 1561863862
    nsecs: 948845292
  frame_id: "ti_mmwave"
point_id: 18
x: 1.662109375
y: 1.064453125
z: -0.349609375
range: 2.13527154922
velocity: -0.614668667316
doppler_bin: 7
bearing: 32.6364364624
intensity: 28.5612449646
---
header: 
  seq: 210095
  stamp: 
    secs: 1561863862
    nsecs: 948857277
  frame_id: "ti_mmwave"
point_id: 19
x: 1.705078125
y: 1.0859375
z: -0.3125
range: 2.17884850502
velocity: -0.614668667316
doppler_bin: 7
bearing: 32.4924240112
intensity: 28.6391735077
---
header: 
  seq: 210096
  stamp: 
    secs: 1561863862
    nsecs: 948870024
  frame_id: "ti_mmwave"
point_id: 20
x: 1.740234375
y: 1.107421875
z: -0.306640625
range: 2.22242546082
velocity: -0.614668667316
doppler_bin: 7
bearing: 32.4711914062
intensity: 26.570558548
---
header: 
  seq: 210097
  stamp: 
    secs: 1561863862
    nsecs: 948886257
  frame_id: "ti_mmwave"
point_id: 21
x: 0.01171875
y: 0.03125
z: 0.0234375
range: 0.0435769706964
velocity: 0.0
doppler_bin: 8
bearing: 69.4439544678
intensity: 29.4151134491
---
header: 
  seq: 210098
  stamp: 
    secs: 1561863862
    nsecs: 948958644
  frame_id: "ti_mmwave"
point_id: 22
x: 0.041015625
y: -0.033203125
z: 0.0625
range: 0.0871539413929
velocity: 0.0
doppler_bin: 8
bearing: -38.9909973145
intensity: 30.1494026184
---
header: 
  seq: 210099
  stamp: 
    secs: 1561863862
    nsecs: 948972369
  frame_id: "ti_mmwave"
point_id: 23
x: 0.052734375
y: -0.04296875
z: 0.103515625
range: 0.130730912089
velocity: 0.0
doppler_bin: 8
bearing: -39.1736602783
intensity: 29.0145835876
---
header: 
  seq: 210100
  stamp: 
    secs: 1561863862
    nsecs: 949929142
  frame_id: "ti_mmwave"
point_id: 0
x: 0.01171875
y: -0.0390625
z: -0.0078125
range: 0.0435769706964
velocity: 0.0
doppler_bin: 8
bearing: -73.3007583618
intensity: 30.7845687866
---
header: 
  seq: 210101
  stamp: 
    secs: 1561863862
    nsecs: 949979040
  frame_id: "ti_mmwave"
point_id: 1
x: 0.017578125
y: -0.080078125
z: -0.009765625
range: 0.0871539413929
velocity: 0.0
doppler_bin: 8
bearing: -77.6192398071
intensity: 32.0030326843
---
header: 
  seq: 210102
  stamp: 
    secs: 1561863862
    nsecs: 950030172
  frame_id: "ti_mmwave"
point_id: 2
x: 0.029296875
y: -0.119140625
z: -0.005859375
range: 0.130730912089
velocity: 0.0
doppler_bin: 8
bearing: -76.1849746704
intensity: 30.2694168091
---
header: 
  seq: 210103
  stamp: 
    secs: 1561863862
    nsecs: 950046167
  frame_id: "ti_mmwave"
point_id: 3
x: 0.056640625
y: -0.154296875
z: 0.005859375
range: 0.174307882786
velocity: 0.0
doppler_bin: 8
bearing: -69.8423843384
intensity: 25.5144996643
---
header: 
  seq: 210104
  stamp: 
    secs: 1561863862
    nsecs: 950070792
  frame_id: "ti_mmwave"
point_id: 4
x: 0.064453125
y: -0.080078125
z: 1.263671875
range: 1.35088610649
velocity: 0.0
doppler_bin: 8
bearing: -51.1701774597
intensity: 23.138671875
---
header: 
  seq: 210105
  stamp: 
    secs: 1561863862
    nsecs: 950134192
  frame_id: "ti_mmwave"
point_id: 5
x: 0.287109375
y: -0.041015625
z: -1.27734375
range: 1.39446306229
velocity: 0.0
doppler_bin: 8
bearing: -8.13010311127
intensity: 24.6239795685
---
header: 
  seq: 210106
  stamp: 
    secs: 1561863862
    nsecs: 950162174
  frame_id: "ti_mmwave"
point_id: 6
x: 0.52734375
y: -0.04296875
z: -1.2421875
range: 1.43804001808
velocity: 0.0
doppler_bin: 8
bearing: -4.65825366974
intensity: 23.031961441
---
header: 
  seq: 210107
  stamp: 
    secs: 1561863862
    nsecs: 950212281
  frame_id: "ti_mmwave"
point_id: 7
x: 0.560546875
y: -0.04296875
z: -1.271484375
range: 1.48161697388
velocity: 0.0
doppler_bin: 8
bearing: -4.38343858719
intensity: 21.6731739044
---
header: 
  seq: 210108
  stamp: 
    secs: 1561863862
    nsecs: 950237584
  frame_id: "ti_mmwave"
point_id: 8
x: 2.609375
y: -0.17578125
z: 1.060546875
range: 3.00681090355
velocity: 0.0
doppler_bin: 8
bearing: -3.85392260551
intensity: 29.1009063721
---
header: 
  seq: 210109
  stamp: 
    secs: 1561863862
    nsecs: 950291661
  frame_id: "ti_mmwave"
point_id: 9
x: 2.658203125
y: -0.1796875
z: 1.048828125
range: 3.05038785934
velocity: 0.0
doppler_bin: 8
bearing: -3.86716008186
intensity: 32.2814369202
---
header: 
  seq: 210110
  stamp: 
    secs: 1561863862
    nsecs: 950337444
  frame_id: "ti_mmwave"
point_id: 10
x: 2.755859375
y: -0.08984375
z: 0.916015625
range: 3.09396481514
velocity: 0.0
doppler_bin: 8
bearing: -1.86723792553
intensity: 31.3161869049
---
header: 
  seq: 210111
  stamp: 
    secs: 1561863862
    nsecs: 950360775
  frame_id: "ti_mmwave"
point_id: 11
x: 4.408203125
y: -0.142578125
z: 1.23828125
range: 4.88062095642
velocity: 0.0
doppler_bin: 8
bearing: -1.85251843929
intensity: 31.430147171
---
header: 
  seq: 210112
  stamp: 
    secs: 1561863862
    nsecs: 950376995
  frame_id: "ti_mmwave"
point_id: 12
x: 4.435546875
y: -0.14453125
z: 1.2890625
range: 4.9241976738
velocity: 0.0
doppler_bin: 8
bearing: -1.86630904675
intensity: 31.332195282
---
header: 
  seq: 210113
  stamp: 
    secs: 1561863862
    nsecs: 950418969
  frame_id: "ti_mmwave"
point_id: 13
x: 4.734375
y: -0.298828125
z: -0.634765625
range: 5.09850549698
velocity: 0.0
doppler_bin: 8
bearing: -3.61165046692
intensity: 33.3625946045
---
header: 
  seq: 210114
  stamp: 
    secs: 1561863862
    nsecs: 950465900
  frame_id: "ti_mmwave"
point_id: 14
x: 4.76953125
y: -0.30078125
z: -0.673828125
range: 5.14208269119
velocity: 0.0
doppler_bin: 8
bearing: -3.60846877098
intensity: 33.92345047
---
header: 
  seq: 210115
  stamp: 
    secs: 1561863862
    nsecs: 950509330
  frame_id: "ti_mmwave"
point_id: 15
x: 4.796875
y: -0.15234375
z: -0.8203125
range: 5.18565940857
velocity: 0.0
doppler_bin: 8
bearing: -1.81904268265
intensity: 30.4649524689
---
header: 
  seq: 210116
  stamp: 
    secs: 1561863862
    nsecs: 950552565
  frame_id: "ti_mmwave"
point_id: 16
x: 4.869140625
y: -0.30859375
z: 0.837890625
range: 5.27281332016
velocity: 0.0
doppler_bin: 8
bearing: -3.62641048431
intensity: 31.0380363464
---
header: 
  seq: 210117
  stamp: 
    secs: 1561863862
    nsecs: 950590578
  frame_id: "ti_mmwave"
point_id: 17
x: 4.951171875
y: -0.623046875
z: 0.0859375
range: 5.31639051437
velocity: 0.0
doppler_bin: 8
bearing: -7.17230129242
intensity: 29.8181858063
---
header: 
  seq: 210118
  stamp: 
    secs: 1561863862
    nsecs: 950644781
  frame_id: "ti_mmwave"
point_id: 18
x: 1.642578125
y: 1.126953125
z: -0.220703125
range: 2.13527154922
velocity: -0.614668667316
doppler_bin: 7
bearing: 34.4535522461
intensity: 26.4933490753
---
header: 
  seq: 210119
  stamp: 
    secs: 1561863862
    nsecs: 950668918
  frame_id: "ti_mmwave"
point_id: 19
x: 0.01171875
y: 0.03125
z: 0.0234375
range: 0.0435769706964
velocity: 0.0
doppler_bin: 8
bearing: 69.4439544678
intensity: 29.4151134491
---
header: 
  seq: 210120
  stamp: 
    secs: 1561863862
    nsecs: 950694470
  frame_id: "ti_mmwave"
point_id: 20
x: 0.041015625
y: -0.033203125
z: 0.0625
range: 0.0871539413929
velocity: 0.0
doppler_bin: 8
bearing: -38.9909973145
intensity: 30.1494026184
---
header: 
  seq: 210121
  stamp: 
    secs: 1561863862
    nsecs: 950756474
  frame_id: "ti_mmwave"
point_id: 21
x: 0.05078125
y: -0.04296875
z: 0.103515625
range: 0.130730912089
velocity: 0.0
doppler_bin: 8
bearing: -40.2363586426
intensity: 29.0145835876
---
header: 
  seq: 210122
  stamp: 
    secs: 1561863863
    nsecs:   8318683
  frame_id: "ti_mmwave"
point_id: 0
x: 0.01171875
y: -0.0390625
z: -0.0078125
range: 0.0435769706964
velocity: 0.0
doppler_bin: 8
bearing: -73.3007583618
intensity: 30.7809410095
---
header: 
  seq: 210123
  stamp: 
    secs: 1561863863
    nsecs:   8392192
  frame_id: "ti_mmwave"
point_id: 1
x: 0.017578125
y: -0.080078125
z: -0.009765625
range: 0.0871539413929
velocity: 0.0
doppler_bin: 8
bearing: -77.6192398071
intensity: 32.0030326843
---
header: 
  seq: 210124
  stamp: 
    secs: 1561863863
    nsecs:   8403249
  frame_id: "ti_mmwave"
point_id: 2
x: 0.029296875
y: -0.119140625
z: -0.005859375
range: 0.130730912089
velocity: 0.0
doppler_bin: 8
bearing: -76.1849746704
intensity: 30.2694168091
---
header: 
  seq: 210125
  stamp: 
    secs: 1561863863
    nsecs:   8411721
  frame_id: "ti_mmwave"
point_id: 3
x: 0.056640625
y: -0.154296875
z: 0.005859375
range: 0.174307882786
velocity: 0.0
doppler_bin: 8
bearing: -69.8423843384
intensity: 25.5022830963
---
header: 
  seq: 210126
  stamp: 
    secs: 1561863863
    nsecs:   8420584
  frame_id: "ti_mmwave"
point_id: 4
x: 0.173828125
y: -0.080078125
z: 1.25390625
range: 1.35088610649
velocity: 0.0
doppler_bin: 8
bearing: -24.7343044281
intensity: 23.1597042084
---
header: 
  seq: 210127
  stamp: 
    secs: 1561863863
    nsecs:   8430697
  frame_id: "ti_mmwave"
point_id: 5
x: 0.26953125
y: -0.041015625
z: -1.28125
range: 1.39446306229
velocity: 0.0
doppler_bin: 8
bearing: -8.65254211426
intensity: 24.6089782715
---
header: 
  seq: 210128
  stamp: 
    secs: 1561863863
    nsecs:   8439042
  frame_id: "ti_mmwave"
point_id: 6
x: 0.5234375
y: -0.04296875
z: -1.244140625
range: 1.43804001808
velocity: 0.0
doppler_bin: 8
bearing: -4.69286251068
intensity: 23.0102996826
---
header: 
  seq: 210129
  stamp: 
    secs: 1561863863
    nsecs:   8447419
  frame_id: "ti_mmwave"
point_id: 7
x: 0.55859375
y: -0.04296875
z: -1.2734375
range: 1.48161697388
velocity: 0.0
doppler_bin: 8
bearing: -4.39870548248
intensity: 21.6731739044
---
header: 
  seq: 210130
  stamp: 
    secs: 1561863863
    nsecs:   8456813
  frame_id: "ti_mmwave"
point_id: 8
x: 2.599609375
y: -0.17578125
z: 1.083984375
range: 3.00681090355
velocity: 0.0
doppler_bin: 8
bearing: -3.86835670471
intensity: 29.1750545502
---
header: 
  seq: 210131
  stamp: 
    secs: 1561863863
    nsecs:   8465433
  frame_id: "ti_mmwave"
point_id: 9
x: 2.654296875
y: -0.1796875
z: 1.05859375
range: 3.05038785934
velocity: 0.0
doppler_bin: 8
bearing: -3.87283420563
intensity: 32.2916984558
---
header: 
  seq: 210132
  stamp: 
    secs: 1561863863
    nsecs:   8474125
  frame_id: "ti_mmwave"
point_id: 10
x: 2.75390625
y: -0.08984375
z: 0.919921875
range: 3.09396481514
velocity: 0.0
doppler_bin: 8
bearing: -1.86856126785
intensity: 31.3129787445
---
header: 
  seq: 210133
  stamp: 
    secs: 1561863863
    nsecs:   8484541
  frame_id: "ti_mmwave"
point_id: 11
x: 4.40625
y: -0.142578125
z: 1.25
range: 4.88062095642
velocity: 0.0
doppler_bin: 8
bearing: -1.85333895683
intensity: 31.4332714081
---
header: 
  seq: 210134
  stamp: 
    secs: 1561863863
    nsecs:   8678554
  frame_id: "ti_mmwave"
point_id: 12
x: 4.43359375
y: -0.14453125
z: 1.302734375
range: 4.9241976738
velocity: 0.0
doppler_bin: 8
bearing: -1.86713063717
intensity: 31.332195282
---
header: 
  seq: 210135
  stamp: 
    secs: 1561863863
    nsecs:   8705601
  frame_id: "ti_mmwave"
point_id: 13
x: 4.73828125
y: -0.298828125
z: -0.609375
range: 5.09850549698
velocity: 0.0
doppler_bin: 8
bearing: -3.60868048668
intensity: 33.3545799255
---
header: 
  seq: 210136
  stamp: 
    secs: 1561863863
    nsecs:   8718620
  frame_id: "ti_mmwave"
point_id: 14
x: 4.77734375
y: -0.30078125
z: -0.626953125
range: 5.14208269119
velocity: 0.0
doppler_bin: 8
bearing: -3.60258316994
intensity: 33.9339981079
---
header: 
  seq: 210137
  stamp: 
    secs: 1561863863
    nsecs:   8726870
  frame_id: "ti_mmwave"
point_id: 15
x: 4.810546875
y: -0.15234375
z: -0.724609375
range: 5.18565940857
velocity: 0.0
doppler_bin: 8
bearing: -1.81387650967
intensity: 30.6632595062
---
header: 
  seq: 210138
  stamp: 
    secs: 1561863863
    nsecs:   8763299
  frame_id: "ti_mmwave"
point_id: 16
x: 4.90234375
y: -0.30859375
z: 0.603515625
range: 5.27281332016
velocity: 0.0
doppler_bin: 8
bearing: -3.60191392899
intensity: 31.1826477051
---
header: 
  seq: 210139
  stamp: 
    secs: 1561863863
    nsecs:   8829044
  frame_id: "ti_mmwave"
point_id: 17
x: 4.951171875
y: -0.623046875
z: 0.013671875
range: 5.31639051437
velocity: 0.0
doppler_bin: 8
bearing: -7.17230129242
intensity: 29.8721923828
---
header: 
  seq: 210140
  stamp: 
    secs: 1561863863
    nsecs:   8847370
  frame_id: "ti_mmwave"
point_id: 18
x: 1.689453125
y: 0.982421875
z: -0.197265625
range: 2.09169459343
velocity: -0.614668667316
doppler_bin: 7
bearing: 30.1781253815
intensity: 26.6275787354
---
header: 
  seq: 210141
  stamp: 
    secs: 1561863863
    nsecs:   8862033
  frame_id: "ti_mmwave"
point_id: 19
x: 0.01171875
y: 0.03125
z: 0.0234375
range: 0.0435769706964
velocity: 0.0
doppler_bin: 8
bearing: 69.4439544678
intensity: 29.4151134491
---
header: 
  seq: 210142
  stamp: 
    secs: 1561863863
    nsecs:   8874178
  frame_id: "ti_mmwave"
point_id: 20
x: 0.041015625
y: -0.033203125
z: 0.0625
range: 0.0871539413929
velocity: 0.0
doppler_bin: 8
bearing: -38.9909973145
intensity: 30.1535968781
---
header: 
  seq: 210143
  stamp: 
    secs: 1561863863
    nsecs:   8885109
  frame_id: "ti_mmwave"
point_id: 21
x: 0.052734375
y: -0.04296875
z: 0.103515625
range: 0.130730912089
velocity: 0.0
doppler_bin: 8
bearing: -39.1736602783
intensity: 29.020029068
---
header: 
  seq: 210144
  stamp: 
    secs: 1561863863
    nsecs:   9982613
  frame_id: "ti_mmwave"
point_id: 0
x: 0.01171875
y: -0.0390625
z: -0.0078125
range: 0.0435769706964
velocity: 0.0
doppler_bin: 8
bearing: -73.3007583618
intensity: 30.7845687866
---
header: 
  seq: 210145
  stamp: 
    secs: 1561863863
    nsecs:  10050423
  frame_id: "ti_mmwave"
point_id: 1
x: 0.017578125
y: -0.080078125
z: -0.009765625
range: 0.0871539413929
velocity: 0.0
doppler_bin: 8
bearing: -77.6192398071
intensity: 32.0057678223
---
header: 
  seq: 210146
  stamp: 
    secs: 1561863863
    nsecs:  10071162
  frame_id: "ti_mmwave"
point_id: 2
x: 0.041015625
y: -0.115234375
z: -0.009765625
range: 0.130730912089
velocity: 0.0
doppler_bin: 8
bearing: -70.4077224731
intensity: 30.2694168091
---
header: 
  seq: 210147
  stamp: 
    secs: 1561863863
    nsecs:  10085446
  frame_id: "ti_mmwave"
point_id: 3
x: 0.056640625
y: -0.154296875
z: 0.005859375
range: 0.174307882786
velocity: 0.0
doppler_bin: 8
bearing: -69.8423843384
intensity: 25.5144996643
---
header: 
  seq: 210148
  stamp: 
    secs: 1561863863
    nsecs:  10098169
  frame_id: "ti_mmwave"
point_id: 4
x: 0.140625
y: -0.080078125
z: 1.2578125
range: 1.35088610649
velocity: 0.0
doppler_bin: 8
bearing: -29.6591091156
intensity: 23.1597042084
---
header: 
  seq: 210149
  stamp: 
    secs: 1561863863
    nsecs:  10110246
  frame_id: "ti_mmwave"
point_id: 5
x: 0.2734375
y: -0.041015625
z: -1.279296875
range: 1.39446306229
velocity: 0.0
doppler_bin: 8
bearing: -8.53076648712
intensity: 24.6089782715
---
header: 
  seq: 210150
  stamp: 
    secs: 1561863863
    nsecs:  10122371
  frame_id: "ti_mmwave"
point_id: 6
x: 0.4140625
y: -0.083984375
z: -1.283203125
range: 1.43804001808
velocity: 0.0
doppler_bin: 8
bearing: -11.4657688141
intensity: 23.0102996826
---
header: 
  seq: 210151
  stamp: 
    secs: 1561863863
    nsecs:  10135188
  frame_id: "ti_mmwave"
point_id: 7
x: 0.55859375
y: -0.04296875
z: -1.2734375
range: 1.48161697388
velocity: 0.0
doppler_bin: 8
bearing: -4.39870548248
intensity: 21.6731739044
---
header: 
  seq: 210152
  stamp: 
    secs: 1561863863
    nsecs:  10148773
  frame_id: "ti_mmwave"
point_id: 8
x: 2.607421875
y: -0.17578125
z: 1.064453125
range: 3.00681090355
velocity: 0.0
doppler_bin: 8
bearing: -3.8568007946
intensity: 29.0848503113
---
header: 
  seq: 210153
  stamp: 
    secs: 1561863863
    nsecs:  10160537
  frame_id: "ti_mmwave"
point_id: 9
x: 2.66015625
y: -0.1796875
z: 1.046875
range: 3.05038785934
velocity: 0.0
doppler_bin: 8
bearing: -3.86432933807
intensity: 32.2814369202
---
header: 
  seq: 210154
  stamp: 
    secs: 1561863863
    nsecs:  10274659
  frame_id: "ti_mmwave"
point_id: 10
x: 2.7578125
y: -0.08984375
z: 0.908203125
range: 3.09396481514
velocity: 0.0
doppler_bin: 8
bearing: -1.86591637135
intensity: 31.3001194
---
header: 
  seq: 210155
  stamp: 
    secs: 1561863863
    nsecs:  10304235
  frame_id: "ti_mmwave"
point_id: 11
x: 4.41015625
y: -0.142578125
z: 1.23046875
range: 4.88062095642
velocity: 0.0
doppler_bin: 8
bearing: -1.85169863701
intensity: 31.4363918304
---
header: 
  seq: 210156
  stamp: 
    secs: 1561863863
    nsecs:  10316605
  frame_id: "ti_mmwave"
point_id: 12
x: 4.4375
y: -0.14453125
z: 1.287109375
range: 4.9241976738
velocity: 0.0
doppler_bin: 8
bearing: -1.86548817158
intensity: 31.3481445312
---
header: 
  seq: 210157
  stamp: 
    secs: 1561863863
    nsecs:  10328234
  frame_id: "ti_mmwave"
point_id: 13
x: 4.734375
y: -0.298828125
z: -0.638671875
range: 5.09850549698
velocity: 0.0
doppler_bin: 8
bearing: -3.61165046692
intensity: 33.3666000366
---
header: 
  seq: 210158
  stamp: 
    secs: 1561863863
    nsecs:  10339303
  frame_id: "ti_mmwave"
point_id: 14
x: 4.771484375
y: -0.30078125
z: -0.669921875
range: 5.14208269119
velocity: 0.0
doppler_bin: 8
bearing: -3.60699558258
intensity: 33.9304847717
---
header: 
  seq: 210159
  stamp: 
    secs: 1561863863
    nsecs:  10350291
  frame_id: "ti_mmwave"
point_id: 15
x: 4.791015625
y: -0.15234375
z: -0.84375
range: 5.18565940857
velocity: 0.0
doppler_bin: 8
bearing: -1.82126605511
intensity: 30.5690479279
---
header: 
  seq: 210160
  stamp: 
    secs: 1561863863
    nsecs:  10361105
  frame_id: "ti_mmwave"
point_id: 16
x: 4.892578125
y: -0.30859375
z: 0.677734375
range: 5.27281332016
velocity: 0.0
doppler_bin: 8
bearing: -3.60908436775
intensity: 30.979511261
---
header: 
  seq: 210161
  stamp: 
    secs: 1561863863
    nsecs:  10380449
  frame_id: "ti_mmwave"
point_id: 17
x: 4.951171875
y: -0.623046875
z: 0.041015625
range: 5.31639051437
velocity: 0.0
doppler_bin: 8
bearing: -7.17230129242
intensity: 29.7726612091
---
header: 
  seq: 210162
  stamp: 
    secs: 1561863863
    nsecs:  10438421
  frame_id: "ti_mmwave"
point_id: 18
x: 0.01171875
y: 0.03125
z: 0.025390625
range: 0.0435769706964
velocity: 0.0
doppler_bin: 8
bearing: 69.4439544678
intensity: 29.4151134491
---
header: 
  seq: 210163
  stamp: 
    secs: 1561863863
    nsecs:  10453251
  frame_id: "ti_mmwave"
point_id: 19
x: 0.041015625
y: -0.033203125
z: 0.0625
range: 0.0871539413929
velocity: 0.0
doppler_bin: 8
bearing: -38.9909973145
intensity: 30.1535968781
---
header: 
  seq: 210164
  stamp: 
    secs: 1561863863
    nsecs:  10464757
  frame_id: "ti_mmwave"
point_id: 20
x: 0.05078125
y: -0.04296875
z: 0.103515625
range: 0.130730912089
velocity: 0.0
doppler_bin: 8
bearing: -40.2363586426
intensity: 29.020029068
---
header: 
  seq: 210165
  stamp: 
    secs: 1561863863
    nsecs:  68237709
  frame_id: "ti_mmwave"
point_id: 0
x: 0.01171875
y: -0.0390625
z: -0.0078125
range: 0.0435769706964
velocity: 0.0
doppler_bin: 8
bearing: -73.3007583618
intensity: 30.7773113251
---
header: 
  seq: 210166
  stamp: 
    secs: 1561863863
    nsecs:  68308933
  frame_id: "ti_mmwave"
point_id: 1
x: 0.017578125
y: -0.080078125
z: -0.009765625
range: 0.0871539413929
velocity: 0.0
doppler_bin: 8
bearing: -77.6192398071
intensity: 32.0030326843
---
header: 
  seq: 210167
  stamp: 
    secs: 1561863863
    nsecs:  68322343
  frame_id: "ti_mmwave"
point_id: 2
x: 0.029296875
y: -0.119140625
z: -0.005859375
range: 0.130730912089
velocity: 0.0
doppler_bin: 8
bearing: -76.1849746704
intensity: 30.2734966278
---
header: 
  seq: 210168
  stamp: 
    secs: 1561863863
    nsecs:  68331376
  frame_id: "ti_mmwave"
point_id: 3
x: 0.056640625
y: -0.154296875
z: 0.005859375
range: 0.174307882786
velocity: 0.0
doppler_bin: 8
bearing: -69.8423843384
intensity: 25.5266819
---
header: 
  seq: 210169
  stamp: 
    secs: 1561863863
    nsecs:  68358311
  frame_id: "ti_mmwave"
point_id: 4
x: 0.1796875
y: -0.080078125
z: 1.251953125
range: 1.35088610649
velocity: 0.0
doppler_bin: 8
bearing: -24.0202465057
intensity: 23.1806335449
---
header: 
  seq: 210170
  stamp: 
    secs: 1561863863
    nsecs:  68368716
  frame_id: "ti_mmwave"
point_id: 5
x: 0.24609375
y: -0.041015625
z: -1.28515625
range: 1.39446306229
velocity: 0.0
doppler_bin: 8
bearing: -9.46232223511
intensity: 24.6389293671
---
header: 
  seq: 210171
  stamp: 
    secs: 1561863863
    nsecs:  68378058
  frame_id: "ti_mmwave"
point_id: 6
x: 0.41015625
y: -0.083984375
z: -1.283203125
range: 1.43804001808
velocity: 0.0
doppler_bin: 8
bearing: -11.5720338821
intensity: 23.0749607086
---
header: 
  seq: 210172
  stamp: 
    secs: 1561863863
    nsecs:  68386898
  frame_id: "ti_mmwave"
point_id: 7
x: 0.55078125
y: -0.04296875
z: -1.275390625
range: 1.48161697388
velocity: 0.0
doppler_bin: 8
bearing: -4.46084880829
intensity: 21.7609119415
---
header: 
  seq: 210173
  stamp: 
    secs: 1561863863
    nsecs:  68401813
  frame_id: "ti_mmwave"
point_id: 8
x: 2.6171875
y: -0.17578125
z: 1.04296875
range: 3.00681090355
velocity: 0.0
doppler_bin: 8
bearing: -3.84245300293
intensity: 29.1062431335
---
header: 
  seq: 210174
  stamp: 
    secs: 1561863863
    nsecs:  68456865
  frame_id: "ti_mmwave"
point_id: 9
x: 2.66015625
y: -0.1796875
z: 1.046875
range: 3.05038785934
velocity: 0.0
doppler_bin: 8
bearing: -3.86432933807
intensity: 32.286567688
---
header: 
  seq: 210175
  stamp: 
    secs: 1561863863
    nsecs:  68467126
  frame_id: "ti_mmwave"
point_id: 10
x: 2.755859375
y: -0.08984375
z: 0.916015625
range: 3.09396481514
velocity: 0.0
doppler_bin: 8
bearing: -1.86723792553
intensity: 31.319393158
---
header: 
  seq: 210176
  stamp: 
    secs: 1561863863
    nsecs:  68475881
  frame_id: "ti_mmwave"
point_id: 11
x: 4.412109375
y: -0.142578125
z: 1.228515625
range: 4.88062095642
velocity: 0.0
doppler_bin: 8
bearing: -1.85087943077
intensity: 31.4363918304
---
header: 
  seq: 210177
  stamp: 
    secs: 1561863863
    nsecs:  68484446
  frame_id: "ti_mmwave"
point_id: 12
x: 4.4375
y: -0.14453125
z: 1.283203125
range: 4.9241976738
velocity: 0.0
doppler_bin: 8
bearing: -1.86548817158
intensity: 31.344959259
---
header: 
  seq: 210178
  stamp: 
    secs: 1561863863
    nsecs:  68493818
  frame_id: "ti_mmwave"
point_id: 13
x: 4.734375
y: -0.298828125
z: -0.638671875
range: 5.09850549698
velocity: 0.0
doppler_bin: 8
bearing: -3.61165046692
intensity: 33.3705978394
---
header: 
  seq: 210179
  stamp: 
    secs: 1561863863
    nsecs:  68520386
  frame_id: "ti_mmwave"
point_id: 14
x: 4.76953125
y: -0.30078125
z: -0.6796875
range: 5.14208269119
velocity: 0.0
doppler_bin: 8
bearing: -3.60846877098
intensity: 33.9427642822
---
header: 
  seq: 210180
  stamp: 
    secs: 1561863863
    nsecs:  68526571
  frame_id: "ti_mmwave"
point_id: 15
x: 4.80078125
y: -0.15234375
z: -0.787109375
range: 5.18565940857
velocity: 0.0
doppler_bin: 8
bearing: -1.81756365299
intensity: 30.4688510895
---
header: 
  seq: 210181
  stamp: 
    secs: 1561863863
    nsecs:  68554850
  frame_id: "ti_mmwave"
point_id: 16
x: 4.87890625
y: -0.30859375
z: 0.775390625
range: 5.27281332016
velocity: 0.0
doppler_bin: 8
bearing: -3.61917114258
intensity: 31.1260509491
---
header: 
  seq: 210182
  stamp: 
    secs: 1561863863
    nsecs:  68564060
  frame_id: "ti_mmwave"
point_id: 17
x: 4.951171875
y: -0.623046875
z: 0.0859375
range: 5.31639051437
velocity: 0.0
doppler_bin: 8
bearing: -7.17230129242
intensity: 29.7863693237
---
header: 
  seq: 210183
  stamp: 
    secs: 1561863863
    nsecs:  68573592
  frame_id: "ti_mmwave"
point_id: 18
x: 0.01171875
y: 0.03125
z: 0.0234375
range: 0.0435769706964
velocity: 0.0
doppler_bin: 8
bearing: 69.4439544678
intensity: 29.4101428986
---
header: 
  seq: 210184
  stamp: 
    secs: 1561863863
    nsecs:  68583633
  frame_id: "ti_mmwave"
point_id: 19
x: 0.041015625
y: -0.033203125
z: 0.0625
range: 0.0871539413929
velocity: 0.0
doppler_bin: 8
bearing: -38.9909973145
intensity: 30.1494026184
---
header: 
  seq: 210185
  stamp: 
    secs: 1561863863
    nsecs:  68592467
  frame_id: "ti_mmwave"
point_id: 20
x: 0.05078125
y: -0.04296875
z: 0.103515625
range: 0.130730912089
velocity: 0.0
doppler_bin: 8
bearing: -40.2363586426
intensity: 29.0145835876
---
header: 
  seq: 210186
  stamp: 
    secs: 1561863863
    nsecs:  69164080
  frame_id: "ti_mmwave"
point_id: 0
x: 0.01171875
y: -0.0390625
z: -0.0078125
range: 0.0435769706964
velocity: 0.0
doppler_bin: 8
bearing: -73.3007583618
intensity: 30.7918128967
---
header: 
  seq: 210187
  stamp: 
    secs: 1561863863
    nsecs:  69196335
  frame_id: "ti_mmwave"
point_id: 1
x: 0.017578125
y: -0.080078125
z: -0.009765625
range: 0.0871539413929
velocity: 0.0
doppler_bin: 8
bearing: -77.6192398071
intensity: 32.0030326843
---
header: 
  seq: 210188
  stamp: 
    secs: 1561863863
    nsecs:  69209300
  frame_id: "ti_mmwave"
point_id: 2
x: 0.041015625
y: -0.115234375
z: -0.009765625
range: 0.130730912089
velocity: 0.0
doppler_bin: 8
bearing: -70.4077224731
intensity: 30.2694168091
---
header: 
  seq: 210189
  stamp: 
    secs: 1561863863
    nsecs:  69244408
  frame_id: "ti_mmwave"
point_id: 3
x: 0.056640625
y: -0.154296875
z: 0.00390625
range: 0.174307882786
velocity: 0.0
doppler_bin: 8
bearing: -69.8423843384
intensity: 25.5144996643
---
header: 
  seq: 210190
  stamp: 
    secs: 1561863863
    nsecs:  69253972
  frame_id: "ti_mmwave"
point_id: 4
x: 0.150390625
y: -0.080078125
z: 1.255859375
range: 1.35088610649
velocity: 0.0
doppler_bin: 8
bearing: -28.0338516235
intensity: 23.1806335449
---
header: 
  seq: 210191
  stamp: 
    secs: 1561863863
    nsecs:  69261789
  frame_id: "ti_mmwave"
point_id: 5
x: 0.265625
y: -0.041015625
z: -1.28125
range: 1.39446306229
velocity: 0.0
doppler_bin: 8
bearing: -8.77781772614
intensity: 24.6239795685
---
header: 
  seq: 210192
  stamp: 
    secs: 1561863863
    nsecs:  69268793
  frame_id: "ti_mmwave"
point_id: 6
x: 0.517578125
y: -0.04296875
z: -1.24609375
range: 1.43804001808
velocity: 0.0
doppler_bin: 8
bearing: -4.74574804306
intensity: 23.0102996826
---
header: 
  seq: 210193
  stamp: 
    secs: 1561863863
    nsecs:  69302063
  frame_id: "ti_mmwave"
point_id: 7
x: 0.5546875
y: -0.04296875
z: -1.275390625
range: 1.48161697388
velocity: 0.0
doppler_bin: 8
bearing: -4.42955970764
intensity: 21.6435279846
---
header: 
  seq: 210194
  stamp: 
    secs: 1561863863
    nsecs:  69314985
  frame_id: "ti_mmwave"
point_id: 8
x: 2.611328125
y: -0.17578125
z: 1.056640625
range: 3.00681090355
velocity: 0.0
doppler_bin: 8
bearing: -3.85104894638
intensity: 29.0902080536
---
header: 
  seq: 210195
  stamp: 
    secs: 1561863863
    nsecs:  69330633
  frame_id: "ti_mmwave"
point_id: 9
x: 2.658203125
y: -0.1796875
z: 1.05078125
range: 3.05038785934
velocity: 0.0
doppler_bin: 8
bearing: -3.86716008186
intensity: 32.286567688
---
header: 
  seq: 210196
  stamp: 
    secs: 1561863863
    nsecs:  69363901
  frame_id: "ti_mmwave"
point_id: 10
x: 2.75390625
y: -0.08984375
z: 0.91796875
range: 3.09396481514
velocity: 0.0
doppler_bin: 8
bearing: -1.86856126785
intensity: 31.3257980347
---
header: 
  seq: 210197
  stamp: 
    secs: 1561863863
    nsecs:  69373612
  frame_id: "ti_mmwave"
point_id: 11
x: 4.41015625
y: -0.142578125
z: 1.232421875
range: 4.88062095642
velocity: 0.0
doppler_bin: 8
bearing: -1.85169863701
intensity: 31.430147171
---
header: 
  seq: 210198
  stamp: 
    secs: 1561863863
    nsecs:  69379510
  frame_id: "ti_mmwave"
point_id: 12
x: 4.435546875
y: -0.14453125
z: 1.291015625
range: 4.9241976738
velocity: 0.0
doppler_bin: 8
bearing: -1.86630904675
intensity: 31.332195282
---
header: 
  seq: 210199
  stamp: 
    secs: 1561863863
    nsecs:  69406501
  frame_id: "ti_mmwave"
point_id: 13
x: 4.736328125
y: -0.298828125
z: -0.619140625
range: 5.09850549698
velocity: 0.0
doppler_bin: 8
bearing: -3.61016488075
intensity: 33.350566864
---
header: 
  seq: 210200
  stamp: 
    secs: 1561863863
    nsecs:  69425710
  frame_id: "ti_mmwave"
point_id: 14
x: 4.7734375
y: -0.30078125
z: -0.654296875
range: 5.14208269119
velocity: 0.0
doppler_bin: 8
bearing: -3.60552406311
intensity: 33.914642334
---
header: 
  seq: 210201
  stamp: 
    secs: 1561863863
    nsecs:  69455670
  frame_id: "ti_mmwave"
point_id: 15
x: 4.7890625
y: -0.15234375
z: -0.85546875
range: 5.18565940857
velocity: 0.0
doppler_bin: 8
bearing: -1.82200825214
intensity: 30.6632595062
---
header: 
  seq: 210202
  stamp: 
    secs: 1561863863
    nsecs:  69471889
  frame_id: "ti_mmwave"
point_id: 16
x: 4.90625
y: -0.30859375
z: 0.578125
range: 5.27281332016
velocity: 0.0
doppler_bin: 8
bearing: -3.59905409813
intensity: 31.020904541
---
header: 
  seq: 210203
  stamp: 
    secs: 1561863863
    nsecs:  69540643
  frame_id: "ti_mmwave"
point_id: 17
x: 4.951171875
y: -0.623046875
z: 0.021484375
range: 5.31639051437
velocity: 0.0
doppler_bin: 8
bearing: -7.17230129242
intensity: 29.8497714996
---
header: 
  seq: 210204
  stamp: 
    secs: 1561863863
    nsecs:  69569925
  frame_id: "ti_mmwave"
point_id: 18
x: 0.01171875
y: 0.03125
z: 0.025390625
range: 0.0435769706964
velocity: 0.0
doppler_bin: 8
bearing: 69.4439544678
intensity: 29.4101428986
---
header: 
  seq: 210205
  stamp: 
    secs: 1561863863
    nsecs:  69597420
  frame_id: "ti_mmwave"
point_id: 19
x: 0.041015625
y: -0.033203125
z: 0.0625
range: 0.0871539413929
velocity: 0.0
doppler_bin: 8
bearing: -38.9909973145
intensity: 30.1535968781
---
header: 
  seq: 210206
  stamp: 
    secs: 1561863863
    nsecs:  69623868
  frame_id: "ti_mmwave"
point_id: 20
x: 0.052734375
y: -0.04296875
z: 0.103515625
range: 0.130730912089
velocity: 0.0
doppler_bin: 8
bearing: -39.1736602783
intensity: 29.0254669189
---
header: 
  seq: 210207
  stamp: 
    secs: 1561863863
    nsecs: 128295482
  frame_id: "ti_mmwave"
point_id: 0
x: 0.01171875
y: -0.0390625
z: -0.0078125
range: 0.0435769706964
velocity: 0.0
doppler_bin: 8
bearing: -73.3007583618
intensity: 30.788192749
---
header: 
  seq: 210208
  stamp: 
    secs: 1561863863
    nsecs: 128348545
  frame_id: "ti_mmwave"
point_id: 1
x: 0.017578125
y: -0.080078125
z: -0.009765625
range: 0.0871539413929
velocity: 0.0
doppler_bin: 8
bearing: -77.6192398071
intensity: 32.0030326843
---
header: 
  seq: 210209
  stamp: 
    secs: 1561863863
    nsecs: 128356113
  frame_id: "ti_mmwave"
point_id: 2
x: 0.029296875
y: -0.119140625
z: -0.005859375
range: 0.130730912089
velocity: 0.0
doppler_bin: 8
bearing: -76.1849746704
intensity: 30.2694168091
---
header: 
  seq: 210210
  stamp: 
    secs: 1561863863
    nsecs: 128361623
  frame_id: "ti_mmwave"
point_id: 3
x: 0.056640625
y: -0.154296875
z: 0.00390625
range: 0.174307882786
velocity: 0.0
doppler_bin: 8
bearing: -69.8423843384
intensity: 25.5144996643
---
header: 
  seq: 210211
  stamp: 
    secs: 1561863863
    nsecs: 128367205
  frame_id: "ti_mmwave"
point_id: 4
x: 0.162109375
y: -0.080078125
z: 1.255859375
range: 1.35088610649
velocity: 0.0
doppler_bin: 8
bearing: -26.2882633209
intensity: 23.1806335449
---
header: 
  seq: 210212
  stamp: 
    secs: 1561863863
    nsecs: 128372642
  frame_id: "ti_mmwave"
point_id: 5
x: 0.25390625
y: -0.041015625
z: -1.283203125
range: 1.39446306229
velocity: 0.0
doppler_bin: 8
bearing: -9.17620372772
intensity: 24.6538276672
---
header: 
  seq: 210213
  stamp: 
    secs: 1561863863
    nsecs: 128377711
  frame_id: "ti_mmwave"
point_id: 6
x: 0.498046875
y: -0.04296875
z: -1.25390625
range: 1.43804001808
velocity: 0.0
doppler_bin: 8
bearing: -4.93095541
intensity: 23.0749607086
---
header: 
  seq: 210214
  stamp: 
    secs: 1561863863
    nsecs: 128384109
  frame_id: "ti_mmwave"
point_id: 7
x: 0.5625
y: -0.04296875
z: -1.271484375
range: 1.48161697388
velocity: 0.0
doppler_bin: 8
bearing: -4.36827754974
intensity: 21.7318630219
---
header: 
  seq: 210215
  stamp: 
    secs: 1561863863
    nsecs: 128389527
  frame_id: "ti_mmwave"
point_id: 8
x: 2.615234375
y: -0.17578125
z: 1.048828125
range: 3.00681090355
velocity: 0.0
doppler_bin: 8
bearing: -3.84531402588
intensity: 29.0902080536
---
header: 
  seq: 210216
  stamp: 
    secs: 1561863863
    nsecs: 128395347
  frame_id: "ti_mmwave"
point_id: 9
x: 2.658203125
y: -0.1796875
z: 1.048828125
range: 3.05038785934
velocity: 0.0
doppler_bin: 8
bearing: -3.86716008186
intensity: 32.2556762695
---
header: 
  seq: 210217
  stamp: 
    secs: 1561863863
    nsecs: 128400814
  frame_id: "ti_mmwave"
point_id: 10
x: 2.75390625
y: -0.08984375
z: 0.919921875
range: 3.09396481514
velocity: 0.0
doppler_bin: 8
bearing: -1.86856126785
intensity: 31.2807598114
---
header: 
  seq: 210218
  stamp: 
    secs: 1561863863
    nsecs: 128405926
  frame_id: "ti_mmwave"
point_id: 11
x: 4.412109375
y: -0.142578125
z: 1.224609375
range: 4.88062095642
velocity: 0.0
doppler_bin: 8
bearing: -1.85087943077
intensity: 31.4395103455
---
header: 
  seq: 210219
  stamp: 
    secs: 1561863863
    nsecs: 128411230
  frame_id: "ti_mmwave"
point_id: 12
x: 4.443359375
y: -0.14453125
z: 1.267578125
range: 4.9241976738
velocity: 0.0
doppler_bin: 8
bearing: -1.86303019524
intensity: 31.3417701721
---
header: 
  seq: 210220
  stamp: 
    secs: 1561863863
    nsecs: 128416480
  frame_id: "ti_mmwave"
point_id: 13
x: 4.734375
y: -0.298828125
z: -0.638671875
range: 5.09850549698
velocity: 0.0
doppler_bin: 8
bearing: -3.61165046692
intensity: 33.3565826416
---
header: 
  seq: 210221
  stamp: 
    secs: 1561863863
    nsecs: 128422980
  frame_id: "ti_mmwave"
point_id: 14
x: 4.771484375
y: -0.30078125
z: -0.6640625
range: 5.14208269119
velocity: 0.0
doppler_bin: 8
bearing: -3.60699558258
intensity: 33.9022827148
---
header: 
  seq: 210222
  stamp: 
    secs: 1561863863
    nsecs: 128428470
  frame_id: "ti_mmwave"
point_id: 15
x: 4.8125
y: -0.15234375
z: -0.712890625
range: 5.18565940857
velocity: 0.0
doppler_bin: 8
bearing: -1.81314074993
intensity: 30.4178733826
---
header: 
  seq: 210223
  stamp: 
    secs: 1561863863
    nsecs: 128433572
  frame_id: "ti_mmwave"
point_id: 16
x: 4.87890625
y: -0.30859375
z: 0.77734375
range: 5.27281332016
velocity: 0.0
doppler_bin: 8
bearing: -3.61917114258
intensity: 31.172712326
---
header: 
  seq: 210224
  stamp: 
    secs: 1561863863
    nsecs: 128439219
  frame_id: "ti_mmwave"
point_id: 17
x: 4.951171875
y: -0.623046875
z: 0.064453125
range: 5.31639051437
velocity: 0.0
doppler_bin: 8
bearing: -7.17230129242
intensity: 29.8272342682
---
header: 
  seq: 210225
  stamp: 
    secs: 1561863863
    nsecs: 128444429
  frame_id: "ti_mmwave"
point_id: 18
x: 0.01171875
y: 0.03125
z: 0.025390625
range: 0.0435769706964
velocity: 0.0
doppler_bin: 8
bearing: 69.4439544678
intensity: 29.4151134491
---
header: 
  seq: 210226
  stamp: 
    secs: 1561863863
    nsecs: 128458990
  frame_id: "ti_mmwave"
point_id: 19
x: 0.041015625
y: -0.033203125
z: 0.0625
range: 0.0871539413929
velocity: 0.0
doppler_bin: 8
bearing: -38.9909973145
intensity: 30.1535968781
---
header: 
  seq: 210227
  stamp: 
    secs: 1561863863
    nsecs: 128469566
  frame_id: "ti_mmwave"
point_id: 20
x: 0.052734375
y: -0.04296875
z: 0.103515625
range: 0.130730912089
velocity: 0.0
doppler_bin: 8
bearing: -39.1736602783
intensity: 29.020029068
---
header: 
  seq: 210228
  stamp: 
    secs: 1561863863
    nsecs: 129186924
  frame_id: "ti_mmwave"
point_id: 0
x: 0.01171875
y: -0.0390625
z: -0.0078125
range: 0.0435769706964
velocity: 0.0
doppler_bin: 8
bearing: -73.3007583618
intensity: 30.788192749
---
header: 
  seq: 210229
  stamp: 
    secs: 1561863863
    nsecs: 129227030
  frame_id: "ti_mmwave"
point_id: 1
x: 0.017578125
y: -0.080078125
z: -0.009765625
range: 0.0871539413929
velocity: 0.0
doppler_bin: 8
bearing: -77.6192398071
intensity: 32.0030326843
---
header: 
  seq: 210230
  stamp: 
    secs: 1561863863
    nsecs: 129238868
  frame_id: "ti_mmwave"
point_id: 2
x: 0.041015625
y: -0.115234375
z: -0.0078125
range: 0.130730912089
velocity: 0.0
doppler_bin: 8
bearing: -70.4077224731
intensity: 30.2653331757
---
header: 
  seq: 210231
  stamp: 
    secs: 1561863863
    nsecs: 129247895
  frame_id: "ti_mmwave"
point_id: 3
x: 0.056640625
y: -0.154296875
z: 0.005859375
range: 0.174307882786
velocity: 0.0
doppler_bin: 8
bearing: -69.8423843384
intensity: 25.5144996643
---
header: 
  seq: 210232
  stamp: 
    secs: 1561863863
    nsecs: 129256137
  frame_id: "ti_mmwave"
point_id: 4
x: 0.119140625
y: -0.080078125
z: 1.259765625
range: 1.35088610649
velocity: 0.0
doppler_bin: 8
bearing: -33.9062767029
intensity: 23.2014636993
---
header: 
  seq: 210233
  stamp: 
    secs: 1561863863
    nsecs: 129264202
  frame_id: "ti_mmwave"
point_id: 5
x: 0.26171875
y: -0.041015625
z: -1.28125
range: 1.39446306229
velocity: 0.0
doppler_bin: 8
bearing: -8.9067440033
intensity: 24.6239795685
---
header: 
  seq: 210234
  stamp: 
    secs: 1561863863
    nsecs: 129272356
  frame_id: "ti_mmwave"
point_id: 6
x: 0.412109375
y: -0.083984375
z: -1.283203125
range: 1.43804001808
velocity: 0.0
doppler_bin: 8
bearing: -11.518658638
intensity: 23.031961441
---
header: 
  seq: 210235
  stamp: 
    secs: 1561863863
    nsecs: 129281587
  frame_id: "ti_mmwave"
point_id: 7
x: 0.55859375
y: -0.04296875
z: -1.2734375
range: 1.48161697388
velocity: 0.0
doppler_bin: 8
bearing: -4.39870548248
intensity: 21.7318630219
---
header: 
  seq: 210236
  stamp: 
    secs: 1561863863
    nsecs: 129290517
  frame_id: "ti_mmwave"
point_id: 8
x: 2.6171875
y: -0.17578125
z: 1.04296875
range: 3.00681090355
velocity: 0.0
doppler_bin: 8
bearing: -3.84245300293
intensity: 29.0633506775
---
header: 
  seq: 210237
  stamp: 
    secs: 1561863863
    nsecs: 129310034
  frame_id: "ti_mmwave"
point_id: 9
x: 2.66015625
y: -0.1796875
z: 1.04296875
range: 3.05038785934
velocity: 0.0
doppler_bin: 8
bearing: -3.86432933807
intensity: 32.2582588196
---
header: 
  seq: 210238
  stamp: 
    secs: 1561863863
    nsecs: 129386373
  frame_id: "ti_mmwave"
point_id: 10
x: 2.7578125
y: -0.08984375
z: 0.908203125
range: 3.09396481514
velocity: 0.0
doppler_bin: 8
bearing: -1.86591637135
intensity: 31.2839927673
---
header: 
  seq: 210239
  stamp: 
    secs: 1561863863
    nsecs: 129405211
  frame_id: "ti_mmwave"
point_id: 11
x: 4.41015625
y: -0.142578125
z: 1.234375
range: 4.88062095642
velocity: 0.0
doppler_bin: 8
bearing: -1.85169863701
intensity: 31.4207649231
---
header: 
  seq: 210240
  stamp: 
    secs: 1561863863
    nsecs: 129414735
  frame_id: "ti_mmwave"
point_id: 12
x: 4.43359375
y: -0.14453125
z: 1.296875
range: 4.9241976738
velocity: 0.0
doppler_bin: 8
bearing: -1.86713063717
intensity: 31.3225975037
---
header: 
  seq: 210241
  stamp: 
    secs: 1561863863
    nsecs: 129422735
  frame_id: "ti_mmwave"
point_id: 13
x: 4.736328125
y: -0.298828125
z: -0.625
range: 5.09850549698
velocity: 0.0
doppler_bin: 8
bearing: -3.61016488075
intensity: 33.368598938
---
header: 
  seq: 210242
  stamp: 
    secs: 1561863863
    nsecs: 129430634
  frame_id: "ti_mmwave"
point_id: 14
x: 4.76953125
y: -0.30078125
z: -0.67578125
range: 5.14208269119
velocity: 0.0
doppler_bin: 8
bearing: -3.60846877098
intensity: 33.9392585754
---
header: 
  seq: 210243
  stamp: 
    secs: 1561863863
    nsecs: 129440862
  frame_id: "ti_mmwave"
point_id: 15
x: 4.77734375
y: -0.15234375
z: -0.919921875
range: 5.18565940857
velocity: 0.0
doppler_bin: 8
bearing: -1.82647454739
intensity: 30.6855697632
---
header: 
  seq: 210244
  stamp: 
    secs: 1561863863
    nsecs: 129464737
  frame_id: "ti_mmwave"
point_id: 16
x: 4.8984375
y: -0.30859375
z: 0.638671875
range: 5.27281332016
velocity: 0.0
doppler_bin: 8
bearing: -3.60477876663
intensity: 30.9412155151
---
header: 
  seq: 210245
  stamp: 
    secs: 1561863863
    nsecs: 129479303
  frame_id: "ti_mmwave"
point_id: 17
x: 4.951171875
y: -0.623046875
z: 0.04296875
range: 5.31639051437
velocity: 0.0
doppler_bin: 8
bearing: -7.17230129242
intensity: 29.7543182373
---
header: 
  seq: 210246
  stamp: 
    secs: 1561863863
    nsecs: 129495081
  frame_id: "ti_mmwave"
point_id: 18
x: 0.01171875
y: 0.03125
z: 0.0234375
range: 0.0435769706964
velocity: 0.0
doppler_bin: 8
bearing: 69.4439544678
intensity: 29.4151134491
---
header: 
  seq: 210247
  stamp: 
    secs: 1561863863
    nsecs: 129577024
  frame_id: "ti_mmwave"
point_id: 19
x: 0.041015625
y: -0.033203125
z: 0.0625
range: 0.0871539413929
velocity: 0.0
doppler_bin: 8
bearing: -38.9909973145
intensity: 30.1535968781
---
header: 
  seq: 210248
  stamp: 
    secs: 1561863863
    nsecs: 129596441
  frame_id: "ti_mmwave"
point_id: 20
x: 0.05078125
y: -0.04296875
z: 0.103515625
range: 0.130730912089
velocity: 0.0
doppler_bin: 8
bearing: -40.2363586426
intensity: 29.020029068
---
header: 
  seq: 210249
  stamp: 
    secs: 1561863863
    nsecs: 189542258
  frame_id: "ti_mmwave"
point_id: 0
x: 0.01171875
y: -0.0390625
z: -0.0078125
range: 0.0435769706964
velocity: 0.0
doppler_bin: 8
bearing: -73.3007583618
intensity: 30.7918128967
---
header: 
  seq: 210250
  stamp: 
    secs: 1561863863
    nsecs: 189615367
  frame_id: "ti_mmwave"
point_id: 1
x: 0.017578125
y: -0.080078125
z: -0.009765625
range: 0.0871539413929
velocity: 0.0
doppler_bin: 8
bearing: -77.6192398071
intensity: 32.0057678223
---
header: 
  seq: 210251
  stamp: 
    secs: 1561863863
    nsecs: 189625853
  frame_id: "ti_mmwave"
point_id: 2
x: 0.029296875
y: -0.119140625
z: -0.005859375
range: 0.130730912089
velocity: 0.0
doppler_bin: 8
bearing: -76.1849746704
intensity: 30.2694168091
---
header: 
  seq: 210252
  stamp: 
    secs: 1561863863
    nsecs: 189634173
  frame_id: "ti_mmwave"
point_id: 3
x: 0.056640625
y: -0.154296875
z: 0.005859375
range: 0.174307882786
velocity: 0.0
doppler_bin: 8
bearing: -69.8423843384
intensity: 25.5144996643
---
header: 
  seq: 210253
  stamp: 
    secs: 1561863863
    nsecs: 189682117
  frame_id: "ti_mmwave"
point_id: 4
x: 0.08203125
y: -0.080078125
z: 1.263671875
range: 1.35088610649
velocity: 0.0
doppler_bin: 8
bearing: -44.3097229004
intensity: 23.1806335449
---
header: 
  seq: 210254
  stamp: 
    secs: 1561863863
    nsecs: 189690752
  frame_id: "ti_mmwave"
point_id: 5
x: 0.27734375
y: -0.041015625
z: -1.279296875
range: 1.39446306229
velocity: 0.0
doppler_bin: 8
bearing: -8.41234493256
intensity: 24.6239795685
---
header: 
  seq: 210255
  stamp: 
    secs: 1561863863
    nsecs: 189698993
  frame_id: "ti_mmwave"
point_id: 6
x: 0.5078125
y: -0.04296875
z: -1.25
range: 1.43804001808
velocity: 0.0
doppler_bin: 8
bearing: -4.83658361435
intensity: 23.0102996826
---
header: 
  seq: 210256
  stamp: 
    secs: 1561863863
    nsecs: 189708554
  frame_id: "ti_mmwave"
point_id: 7
x: 0.541015625
y: -0.04296875
z: -1.28125
range: 1.48161697388
velocity: 0.0
doppler_bin: 8
bearing: -4.54103565216
intensity: 21.7026176453
---
header: 
  seq: 210257
  stamp: 
    secs: 1561863863
    nsecs: 189718346
  frame_id: "ti_mmwave"
point_id: 8
x: 2.609375
y: -0.17578125
z: 1.060546875
range: 3.00681090355
velocity: 0.0
doppler_bin: 8
bearing: -3.85392260551
intensity: 29.0955600739
---
header: 
  seq: 210258
  stamp: 
    secs: 1561863863
    nsecs: 189726559
  frame_id: "ti_mmwave"
point_id: 9
x: 2.658203125
y: -0.1796875
z: 1.05078125
range: 3.05038785934
velocity: 0.0
doppler_bin: 8
bearing: -3.86716008186
intensity: 32.2916984558
---
header: 
  seq: 210259
  stamp: 
    secs: 1561863863
    nsecs: 189734562
  frame_id: "ti_mmwave"
point_id: 10
x: 2.75390625
y: -0.08984375
z: 0.91796875
range: 3.09396481514
