header: 
  seq: 306070
  stamp: 
    secs: 1561864006
    nsecs: 228589696
  frame_id: "ti_mmwave"
point_id: 0
x: 0.01171875
y: -0.0390625
z: -0.0078125
range: 0.0435769706964
velocity: 0.0
doppler_bin: 8
bearing: -73.3007583618
intensity: 30.7664051056
---
header: 
  seq: 306071
  stamp: 
    secs: 1561864006
    nsecs: 228669473
  frame_id: "ti_mmwave"
point_id: 1
x: 0.017578125
y: -0.080078125
z: -0.0078125
range: 0.0871539413929
velocity: 0.0
doppler_bin: 8
bearing: -77.6192398071
intensity: 31.9893188477
---
header: 
  seq: 306072
  stamp: 
    secs: 1561864006
    nsecs: 228687240
  frame_id: "ti_mmwave"
point_id: 2
x: 0.029296875
y: -0.119140625
z: -0.005859375
range: 0.130730912089
velocity: 0.0
doppler_bin: 8
bearing: -76.1849746704
intensity: 30.2530593872
---
header: 
  seq: 306073
  stamp: 
    secs: 1561864006
    nsecs: 228703413
  frame_id: "ti_mmwave"
point_id: 3
x: 0.056640625
y: -0.154296875
z: 0.005859375
range: 0.174307882786
velocity: 0.0
doppler_bin: 8
bearing: -69.8423843384
intensity: 25.5144996643
---
header: 
  seq: 306074
  stamp: 
    secs: 1561864006
    nsecs: 228715503
  frame_id: "ti_mmwave"
point_id: 4
x: 0.126953125
y: -0.080078125
z: 1.259765625
range: 1.35088610649
velocity: 0.0
doppler_bin: 8
bearing: -32.2424697876
intensity: 23.138671875
---
header: 
  seq: 306075
  stamp: 
    secs: 1561864006
    nsecs: 228797082
  frame_id: "ti_mmwave"
point_id: 6
x: 0.416015625
y: -0.083984375
z: -1.28125
range: 1.43804001808
velocity: 0.0
doppler_bin: 8
bearing: -11.4133548737
intensity: 23.0102996826
---
header: 
  seq: 306076
  stamp: 
    secs: 1561864006
    nsecs: 228812218
  frame_id: "ti_mmwave"
point_id: 7
x: 0.541015625
y: -0.04296875
z: -1.28125
range: 1.48161697388
velocity: 0.0
doppler_bin: 8
bearing: -4.54103565216
intensity: 21.6731739044
---
header: 
  seq: 306077
  stamp: 
    secs: 1561864006
    nsecs: 228825504
  frame_id: "ti_mmwave"
point_id: 8
x: 2.6171875
y: -0.17578125
z: 1.041015625
range: 3.00681090355
velocity: 0.0
doppler_bin: 8
bearing: -3.84245300293
intensity: 29.0633506775
---
header: 
  seq: 306078
  stamp: 
    secs: 1561864006
    nsecs: 228837080
  frame_id: "ti_mmwave"
point_id: 9
x: 2.66015625
y: -0.1796875
z: 1.04296875
range: 3.05038785934
velocity: 0.0
doppler_bin: 8
bearing: -3.86432933807
intensity: 32.3095970154
---
header: 
  seq: 306079
  stamp: 
    secs: 1561864006
    nsecs: 228848761
  frame_id: "ti_mmwave"
point_id: 10
x: 2.755859375
y: -0.08984375
z: 0.91015625
range: 3.09396481514
velocity: 0.0
doppler_bin: 8
bearing: -1.86723792553
intensity: 31.3513259888
---
header: 
  seq: 306080
  stamp: 
    secs: 1561864006
    nsecs: 228860124
  frame_id: "ti_mmwave"
point_id: 11
x: 4.4140625
y: -0.142578125
z: 1.216796875
range: 4.88062095642
velocity: 0.0
doppler_bin: 8
bearing: -1.850061059
intensity: 31.4395103455
---
header: 
  seq: 306081
  stamp: 
    secs: 1561864006
    nsecs: 228873712
  frame_id: "ti_mmwave"
point_id: 12
x: 4.44140625
y: -0.14453125
z: 1.271484375
range: 4.9241976738
velocity: 0.0
doppler_bin: 8
bearing: -1.86384868622
intensity: 31.319393158
---
header: 
  seq: 306082
  stamp: 
    secs: 1561864006
    nsecs: 228885962
  frame_id: "ti_mmwave"
point_id: 13
x: 4.716796875
y: -0.298828125
z: -0.75390625
range: 5.09850549698
velocity: 0.0
doppler_bin: 8
bearing: -3.62507414818
intensity: 33.4143447876
---
header: 
  seq: 306083
  stamp: 
    secs: 1561864006
    nsecs: 228897954
  frame_id: "ti_mmwave"
point_id: 14
x: 4.76171875
y: -0.30078125
z: -0.732421875
range: 5.14208269119
velocity: 0.0
doppler_bin: 8
bearing: -3.61437344551
intensity: 34.0619926453
---
header: 
  seq: 306084
  stamp: 
    secs: 1561864006
    nsecs: 228909950
  frame_id: "ti_mmwave"
point_id: 15
x: 4.794921875
y: -0.15234375
z: -0.82421875
range: 5.18565940857
velocity: 0.0
doppler_bin: 8
bearing: -1.81978332996
intensity: 30.7151374817
---
header: 
  seq: 306085
  stamp: 
    secs: 1561864006
    nsecs: 228922510
  frame_id: "ti_mmwave"
point_id: 16
x: 4.90625
y: -0.30859375
z: 0.578125
range: 5.27281332016
velocity: 0.0
doppler_bin: 8
bearing: -3.59905409813
intensity: 31.0380363464
---
header: 
  seq: 306086
  stamp: 
    secs: 1561864006
    nsecs: 228937883
  frame_id: "ti_mmwave"
point_id: 17
x: 4.951171875
y: -0.623046875
z: 0.0546875
range: 5.31639051437
velocity: 0.0
doppler_bin: 8
bearing: -7.17230129242
intensity: 29.8227119446
---
header: 
  seq: 306087
  stamp: 
    secs: 1561864006
    nsecs: 228951865
  frame_id: "ti_mmwave"
point_id: 18
x: 1.412109375
y: 0.990234375
z: -0.34765625
range: 1.87380969524
velocity: 0.614668667316
doppler_bin: 9
bearing: 35.0398597717
intensity: 27.3078231812
---
header: 
  seq: 306088
  stamp: 
    secs: 1561864006
    nsecs: 228965307
  frame_id: "ti_mmwave"
point_id: 19
x: 1.556640625
y: 0.900390625
z: -0.07421875
range: 1.91738677025
velocity: 0.614668667316
doppler_bin: 9
bearing: 30.0459060669
intensity: 26.5896492004
---
header: 
  seq: 306089
  stamp: 
    secs: 1561864006
    nsecs: 229042238
  frame_id: "ti_mmwave"
point_id: 20
x: 0.01171875
y: 0.03125
z: 0.0234375
range: 0.0435769706964
velocity: 0.0
doppler_bin: 8
bearing: 69.4439544678
intensity: 29.4051647186
---
header: 
  seq: 306090
  stamp: 
    secs: 1561864006
    nsecs: 229061195
  frame_id: "ti_mmwave"
point_id: 21
x: 0.041015625
y: -0.033203125
z: 0.0625
range: 0.0871539413929
velocity: 0.0
doppler_bin: 8
bearing: -38.9909973145
intensity: 30.1452045441
---
header: 
  seq: 306091
  stamp: 
    secs: 1561864006
    nsecs: 229075770
  frame_id: "ti_mmwave"
point_id: 22
x: 0.05078125
y: -0.04296875
z: 0.103515625
range: 0.130730912089
velocity: 0.0
doppler_bin: 8
bearing: -40.2363586426
intensity: 29.020029068
---
header: 
  seq: 306092
  stamp: 
    secs: 1561864006
    nsecs: 229090416
  frame_id: "ti_mmwave"
point_id: 24
x: 1.541015625
y: 0.439453125
z: 0.7265625
range: 1.87380969524
velocity: 0.614668667316
doppler_bin: 9
bearing: 15.9166183472
intensity: 26.0959434509
---
header: 
  seq: 306093
  stamp: 
    secs: 1561864006
    nsecs: 288336039
  frame_id: "ti_mmwave"
point_id: 0
x: 0.01171875
y: -0.0390625
z: -0.0078125
range: 0.0435769706964
velocity: 0.0
doppler_bin: 8
bearing: -73.3007583618
intensity: 30.7700424194
---
header: 
  seq: 306094
  stamp: 
    secs: 1561864006
    nsecs: 288413176
  frame_id: "ti_mmwave"
point_id: 1
x: 0.017578125
y: -0.080078125
z: -0.009765625
range: 0.0871539413929
velocity: 0.0
doppler_bin: 8
bearing: -77.6192398071
intensity: 31.9920654297
---
header: 
  seq: 306095
  stamp: 
    secs: 1561864006
    nsecs: 288430035
  frame_id: "ti_mmwave"
point_id: 2
x: 0.029296875
y: -0.119140625
z: -0.005859375
range: 0.130730912089
velocity: 0.0
doppler_bin: 8
bearing: -76.1849746704
intensity: 30.248960495
---
header: 
  seq: 306096
  stamp: 
    secs: 1561864006
    nsecs: 288442156
  frame_id: "ti_mmwave"
point_id: 3
x: 0.056640625
y: -0.154296875
z: 0.005859375
range: 0.174307882786
velocity: 0.0
doppler_bin: 8
bearing: -69.8423843384
intensity: 25.5022830963
---
header: 
  seq: 306097
  stamp: 
    secs: 1561864006
    nsecs: 288463175
  frame_id: "ti_mmwave"
point_id: 4
x: 0.150390625
y: -0.080078125
z: 1.255859375
range: 1.35088610649
velocity: 0.0
doppler_bin: 8
bearing: -28.0338516235
intensity: 23.1806335449
---
header: 
  seq: 306098
  stamp: 
    secs: 1561864006
    nsecs: 288545479
  frame_id: "ti_mmwave"
point_id: 6
x: 0.421875
y: -0.083984375
z: -1.279296875
range: 1.43804001808
velocity: 0.0
doppler_bin: 8
bearing: -11.2589120865
intensity: 22.9885311127
---
header: 
  seq: 306099
  stamp: 
    secs: 1561864006
    nsecs: 288586463
  frame_id: "ti_mmwave"
point_id: 7
x: 0.55078125
y: -0.04296875
z: -1.27734375
range: 1.48161697388
velocity: 0.0
doppler_bin: 8
bearing: -4.46084880829
intensity: 21.6136798859
---
header: 
  seq: 306100
  stamp: 
    secs: 1561864006
    nsecs: 288596972
  frame_id: "ti_mmwave"
point_id: 8
x: 2.6171875
y: -0.17578125
z: 1.041015625
range: 3.00681090355
velocity: 0.0
doppler_bin: 8
bearing: -3.84245300293
intensity: 29.0145835876
---
header: 
  seq: 306101
  stamp: 
    secs: 1561864006
    nsecs: 288609850
  frame_id: "ti_mmwave"
point_id: 9
x: 2.6640625
y: -0.1796875
z: 1.037109375
range: 3.05038785934
velocity: 0.0
doppler_bin: 8
bearing: -3.85868024826
intensity: 32.286567688
---
header: 
  seq: 306102
  stamp: 
    secs: 1561864006
    nsecs: 288622439
  frame_id: "ti_mmwave"
point_id: 10
x: 2.759765625
y: -0.08984375
z: 0.900390625
range: 3.09396481514
velocity: 0.0
doppler_bin: 8
bearing: -1.86459684372
intensity: 31.3289985657
---
header: 
  seq: 306103
  stamp: 
    secs: 1561864006
    nsecs: 288633588
  frame_id: "ti_mmwave"
point_id: 11
x: 4.412109375
y: -0.142578125
z: 1.228515625
range: 4.88062095642
velocity: 0.0
doppler_bin: 8
bearing: -1.85087943077
intensity: 31.427022934
---
header: 
  seq: 306104
  stamp: 
    secs: 1561864006
    nsecs: 288643897
  frame_id: "ti_mmwave"
point_id: 12
x: 4.439453125
y: -0.14453125
z: 1.28125
range: 4.9241976738
velocity: 0.0
doppler_bin: 8
bearing: -1.86466813087
intensity: 31.3033370972
---
header: 
  seq: 306105
  stamp: 
    secs: 1561864006
    nsecs: 288655217
  frame_id: "ti_mmwave"
point_id: 13
x: 4.73828125
y: -0.298828125
z: -0.603515625
range: 5.09850549698
velocity: 0.0
doppler_bin: 8
bearing: -3.60868048668
intensity: 33.2056159973
---
header: 
  seq: 306106
  stamp: 
    secs: 1561864006
    nsecs: 288666058
  frame_id: "ti_mmwave"
point_id: 14
x: 4.775390625
y: -0.30078125
z: -0.63671875
range: 5.14208269119
velocity: 0.0
doppler_bin: 8
bearing: -3.60405302048
intensity: 33.8916625977
---
header: 
  seq: 306107
  stamp: 
    secs: 1561864006
    nsecs: 288677142
  frame_id: "ti_mmwave"
point_id: 15
x: 4.806640625
y: -0.15234375
z: -0.755859375
range: 5.18565940857
velocity: 0.0
doppler_bin: 8
bearing: -1.81534969807
intensity: 30.6445808411
---
header: 
  seq: 306108
  stamp: 
    secs: 1561864006
    nsecs: 288689505
  frame_id: "ti_mmwave"
point_id: 16
x: 4.904296875
y: -0.30859375
z: 0.595703125
range: 5.27281332016
velocity: 0.0
doppler_bin: 8
bearing: -3.60048341751
intensity: 31.0174713135
---
header: 
  seq: 306109
  stamp: 
    secs: 1561864006
    nsecs: 288701165
  frame_id: "ti_mmwave"
point_id: 17
x: 4.951171875
y: -0.623046875
z: 0.064453125
range: 5.31639051437
velocity: 0.0
doppler_bin: 8
bearing: -7.17230129242
intensity: 29.8677177429
---
header: 
  seq: 306110
  stamp: 
    secs: 1561864006
    nsecs: 288714656
  frame_id: "ti_mmwave"
point_id: 18
x: 1.54296875
y: 0.751953125
z: -0.080078125
range: 1.83023273945
velocity: 0.614668667316
doppler_bin: 9
bearing: 25.9819087982
intensity: 28.1756534576
---
header: 
  seq: 306111
  stamp: 
    secs: 1561864006
    nsecs: 288726713
  frame_id: "ti_mmwave"
point_id: 19
x: 1.578125
y: 0.76953125
z: -0.109375
range: 1.87380969524
velocity: 0.614668667316
doppler_bin: 9
bearing: 25.9949626923
intensity: 29.4645233154
---
header: 
  seq: 306112
  stamp: 
    secs: 1561864006
    nsecs: 288798318
  frame_id: "ti_mmwave"
point_id: 20
x: 1.62890625
y: 0.73046875
z: -0.220703125
range: 1.91738677025
velocity: 0.614668667316
doppler_bin: 9
bearing: 24.1534309387
intensity: 27.1683769226
---
header: 
  seq: 306113
  stamp: 
    secs: 1561864006
    nsecs: 288816213
  frame_id: "ti_mmwave"
point_id: 21
x: 0.01171875
y: 0.03125
z: 0.025390625
range: 0.0435769706964
velocity: 0.0
doppler_bin: 8
bearing: 69.4439544678
intensity: 29.4051647186
---
header: 
  seq: 306114
  stamp: 
    secs: 1561864006
    nsecs: 288829182
  frame_id: "ti_mmwave"
point_id: 22
x: 0.041015625
y: -0.033203125
z: 0.0625
range: 0.0871539413929
velocity: 0.0
doppler_bin: 8
bearing: -38.9909973145
intensity: 30.1494026184
---
header: 
  seq: 306115
  stamp: 
    secs: 1561864006
    nsecs: 288841347
  frame_id: "ti_mmwave"
point_id: 23
x: 0.052734375
y: -0.04296875
z: 0.103515625
range: 0.130730912089
velocity: 0.0
doppler_bin: 8
bearing: -39.1736602783
intensity: 29.020029068
---
header: 
  seq: 306116
  stamp: 
    secs: 1561864006
    nsecs: 289871660
  frame_id: "ti_mmwave"
point_id: 0
x: 0.01171875
y: -0.0390625
z: -0.0078125
range: 0.0435769706964
velocity: 0.0
doppler_bin: 8
bearing: -73.3007583618
intensity: 30.7736797333
---
header: 
  seq: 306117
  stamp: 
    secs: 1561864006
    nsecs: 289923864
  frame_id: "ti_mmwave"
point_id: 1
x: 0.017578125
y: -0.080078125
z: -0.009765625
range: 0.0871539413929
velocity: 0.0
doppler_bin: 8
bearing: -77.6192398071
intensity: 31.994808197
---
header: 
  seq: 306118
  stamp: 
    secs: 1561864006
    nsecs: 289941875
  frame_id: "ti_mmwave"
point_id: 2
x: 0.029296875
y: -0.119140625
z: -0.005859375
range: 0.130730912089
velocity: 0.0
doppler_bin: 8
bearing: -76.1849746704
intensity: 30.2571544647
---
header: 
  seq: 306119
  stamp: 
    secs: 1561864006
    nsecs: 289958808
  frame_id: "ti_mmwave"
point_id: 3
x: 0.056640625
y: -0.154296875
z: 0.005859375
range: 0.174307882786
velocity: 0.0
doppler_bin: 8
bearing: -69.8423843384
intensity: 25.5144996643
---
header: 
  seq: 306120
  stamp: 
    secs: 1561864006
    nsecs: 290017990
  frame_id: "ti_mmwave"
point_id: 4
x: 0.04296875
y: -0.080078125
z: 1.265625
range: 1.35088610649
velocity: 0.0
doppler_bin: 8
bearing: -61.7826461792
intensity: 23.138671875
---
header: 
  seq: 306121
  stamp: 
    secs: 1561864006
    nsecs: 290031952
  frame_id: "ti_mmwave"
point_id: 5
x: 0.00390625
y: -0.08203125
z: -1.306640625
range: 1.39446306229
velocity: 0.0
doppler_bin: 8
bearing: -87.27368927
intensity: 24.6089782715
---
header: 
  seq: 306122
  stamp: 
    secs: 1561864006
    nsecs: 290044455
  frame_id: "ti_mmwave"
point_id: 6
x: 0.421875
y: -0.083984375
z: -1.279296875
range: 1.43804001808
velocity: 0.0
doppler_bin: 8
bearing: -11.2589120865
intensity: 23.0102996826
---
header: 
  seq: 306123
  stamp: 
    secs: 1561864006
    nsecs: 290055421
  frame_id: "ti_mmwave"
point_id: 7
x: 0.564453125
y: -0.04296875
z: -1.26953125
range: 1.48161697388
velocity: 0.0
doppler_bin: 8
bearing: -4.35321998596
intensity: 21.6136798859
---
header: 
  seq: 306124
  stamp: 
    secs: 1561864006
    nsecs: 290066323
  frame_id: "ti_mmwave"
point_id: 8
x: 2.615234375
y: -0.17578125
z: 1.046875
range: 3.00681090355
velocity: 0.0
doppler_bin: 8
bearing: -3.84531402588
intensity: 28.9982051849
---
header: 
  seq: 306125
  stamp: 
    secs: 1561864006
    nsecs: 290079282
  frame_id: "ti_mmwave"
point_id: 9
x: 2.662109375
y: -0.1796875
z: 1.037109375
range: 3.05038785934
velocity: 0.0
doppler_bin: 8
bearing: -3.86150240898
intensity: 32.2375526428
---
header: 
  seq: 306126
  stamp: 
    secs: 1561864006
    nsecs: 290092152
  frame_id: "ti_mmwave"
point_id: 10
x: 2.759765625
y: -0.08984375
z: 0.90234375
range: 3.09396481514
velocity: 0.0
doppler_bin: 8
bearing: -1.86459684372
intensity: 31.25806427
---
header: 
  seq: 306127
  stamp: 
    secs: 1561864006
    nsecs: 290104713
  frame_id: "ti_mmwave"
point_id: 11
x: 4.4140625
y: -0.142578125
z: 1.21875
range: 4.88062095642
velocity: 0.0
doppler_bin: 8
bearing: -1.850061059
intensity: 31.430147171
---
header: 
  seq: 306128
  stamp: 
    secs: 1561864006
    nsecs: 290207105
  frame_id: "ti_mmwave"
point_id: 12
x: 4.443359375
y: -0.14453125
z: 1.265625
range: 4.9241976738
velocity: 0.0
doppler_bin: 8
bearing: -1.86303019524
intensity: 31.3001194
---
header: 
  seq: 306129
  stamp: 
    secs: 1561864006
    nsecs: 290227979
  frame_id: "ti_mmwave"
point_id: 13
x: 4.734375
y: -0.298828125
z: -0.626953125
range: 5.09850549698
velocity: 0.0
doppler_bin: 8
bearing: -3.61165046692
intensity: 33.2139129639
---
header: 
  seq: 306130
  stamp: 
    secs: 1561864006
    nsecs: 290257171
  frame_id: "ti_mmwave"
point_id: 14
x: 4.775390625
y: -0.30078125
z: -0.6328125
range: 5.14208269119
velocity: 0.0
doppler_bin: 8
bearing: -3.60405302048
intensity: 33.879234314
---
header: 
  seq: 306131
  stamp: 
    secs: 1561864006
    nsecs: 290265676
  frame_id: "ti_mmwave"
point_id: 15
x: 4.80859375
y: -0.15234375
z: -0.7421875
range: 5.18565940857
velocity: 0.0
doppler_bin: 8
bearing: -1.81461262703
intensity: 30.5994186401
---
header: 
  seq: 306132
  stamp: 
    secs: 1561864006
    nsecs: 290346771
  frame_id: "ti_mmwave"
point_id: 16
x: 4.90234375
y: -0.30859375
z: 0.607421875
range: 5.27281332016
velocity: 0.0
doppler_bin: 8
bearing: -3.60191392899
intensity: 31.027765274
---
header: 
  seq: 306133
  stamp: 
    secs: 1561864006
    nsecs: 290363764
  frame_id: "ti_mmwave"
point_id: 17
x: 4.951171875
y: -0.623046875
z: 0.044921875
range: 5.31639051437
velocity: 0.0
doppler_bin: 8
bearing: -7.17230129242
intensity: 29.8452739716
---
header: 
  seq: 306134
  stamp: 
    secs: 1561864006
    nsecs: 290377152
  frame_id: "ti_mmwave"
point_id: 18
x: 1.55078125
y: 0.82421875
z: -0.087890625
range: 1.87380969524
velocity: 0.614668667316
doppler_bin: 9
bearing: 27.990026474
intensity: 28.3884906769
---
header: 
  seq: 306135
  stamp: 
    secs: 1561864006
    nsecs: 290389581
  frame_id: "ti_mmwave"
point_id: 19
x: 1.6171875
y: 0.787109375
z: -0.080078125
range: 1.91738677025
velocity: 0.614668667316
doppler_bin: 9
bearing: 25.9528808594
intensity: 28.1090431213
---
header: 
  seq: 306136
  stamp: 
    secs: 1561864006
    nsecs: 290401449
  frame_id: "ti_mmwave"
point_id: 20
x: 1.65234375
y: 0.8046875
z: 0.08203125
range: 1.96096372604
velocity: 0.614668667316
doppler_bin: 9
bearing: 25.9659729004
intensity: 26.0852603912
---
header: 
  seq: 306137
  stamp: 
    secs: 1561864006
    nsecs: 290412244
  frame_id: "ti_mmwave"
point_id: 21
x: 1.693359375
y: 0.763671875
z: 0.302734375
range: 2.00454068184
velocity: 0.614668667316
doppler_bin: 9
bearing: 24.2744407654
intensity: 25.5630245209
---
header: 
  seq: 306138
  stamp: 
    secs: 1561864006
    nsecs: 290423660
  frame_id: "ti_mmwave"
point_id: 22
x: 0.01171875
y: 0.03125
z: 0.025390625
range: 0.0435769706964
velocity: 0.0
doppler_bin: 8
bearing: 69.4439544678
intensity: 29.4001808167
---
header: 
  seq: 306139
  stamp: 
    secs: 1561864006
    nsecs: 290436630
  frame_id: "ti_mmwave"
point_id: 23
x: 0.041015625
y: -0.033203125
z: 0.0625
range: 0.0871539413929
velocity: 0.0
doppler_bin: 8
bearing: -38.9909973145
intensity: 30.1494026184
---
header: 
  seq: 306140
  stamp: 
    secs: 1561864006
    nsecs: 290451391
  frame_id: "ti_mmwave"
point_id: 24
x: 0.052734375
y: -0.04296875
z: 0.103515625
range: 0.130730912089
velocity: 0.0
doppler_bin: 8
bearing: -39.1736602783
intensity: 29.020029068
---
header: 
  seq: 306141
  stamp: 
    secs: 1561864006
    nsecs: 348182623
  frame_id: "ti_mmwave"
point_id: 0
x: 0.01171875
y: -0.0390625
z: -0.0078125
range: 0.0435769706964
velocity: 0.0
doppler_bin: 8
bearing: -73.3007583618
intensity: 30.7627620697
---
header: 
  seq: 306142
  stamp: 
    secs: 1561864006
    nsecs: 348247866
  frame_id: "ti_mmwave"
point_id: 1
x: 0.017578125
y: -0.080078125
z: -0.0078125
range: 0.0871539413929
velocity: 0.0
doppler_bin: 8
bearing: -77.6192398071
intensity: 31.9920654297
---
header: 
  seq: 306143
  stamp: 
    secs: 1561864006
    nsecs: 348259014
  frame_id: "ti_mmwave"
point_id: 2
x: 0.029296875
y: -0.119140625
z: -0.005859375
range: 0.130730912089
velocity: 0.0
doppler_bin: 8
bearing: -76.1849746704
intensity: 30.2571544647
---
header: 
  seq: 306144
  stamp: 
    secs: 1561864006
    nsecs: 348267890
  frame_id: "ti_mmwave"
point_id: 3
x: 0.056640625
y: -0.154296875
z: 0.005859375
range: 0.174307882786
velocity: 0.0
doppler_bin: 8
bearing: -69.8423843384
intensity: 25.5144996643
---
header: 
  seq: 306145
  stamp: 
    secs: 1561864006
    nsecs: 348279043
  frame_id: "ti_mmwave"
point_id: 4
x: 0.1640625
y: -0.080078125
z: 1.25390625
range: 1.35088610649
velocity: 0.0
doppler_bin: 8
bearing: -26.0167827606
intensity: 23.138671875
---
header: 
  seq: 306146
  stamp: 
    secs: 1561864006
    nsecs: 348291495
  frame_id: "ti_mmwave"
point_id: 6
x: 0.41796875
y: -0.083984375
z: -1.28125
range: 1.43804001808
velocity: 0.0
doppler_bin: 8
bearing: -11.3614110947
intensity: 23.0102996826
---
header: 
  seq: 306147
  stamp: 
    secs: 1561864006
    nsecs: 348300273
  frame_id: "ti_mmwave"
point_id: 7
x: 0.541015625
y: -0.04296875
z: -1.28125
range: 1.48161697388
velocity: 0.0
doppler_bin: 8
bearing: -4.54103565216
intensity: 21.6435279846
---
header: 
  seq: 306148
  stamp: 
    secs: 1561864006
    nsecs: 348308379
  frame_id: "ti_mmwave"
point_id: 8
x: 1.662109375
y: 0.548828125
z: -0.177734375
range: 1.87380969524
velocity: 0.0
doppler_bin: 8
bearing: 18.2732124329
intensity: 26.3548374176
---
header: 
  seq: 306149
  stamp: 
    secs: 1561864006
    nsecs: 348316866
  frame_id: "ti_mmwave"
point_id: 9
x: 2.623046875
y: -0.17578125
z: 1.02734375
range: 3.00681090355
velocity: 0.0
doppler_bin: 8
bearing: -3.83389568329
intensity: 28.9927310944
---
header: 
  seq: 306150
  stamp: 
    secs: 1561864006
    nsecs: 348435409
  frame_id: "ti_mmwave"
point_id: 10
x: 2.6640625
y: -0.1796875
z: 1.033203125
range: 3.05038785934
velocity: 0.0
doppler_bin: 8
bearing: -3.85868024826
intensity: 32.2530937195
---
header: 
  seq: 306151
  stamp: 
    secs: 1561864006
    nsecs: 348445499
  frame_id: "ti_mmwave"
point_id: 11
x: 2.7578125
y: -0.08984375
z: 0.904296875
range: 3.09396481514
velocity: 0.0
doppler_bin: 8
bearing: -1.86591637135
intensity: 31.2839927673
---
header: 
  seq: 306152
  stamp: 
    secs: 1561864006
    nsecs: 348453309
  frame_id: "ti_mmwave"
point_id: 12
x: 4.412109375
y: -0.142578125
z: 1.2265625
range: 4.88062095642
velocity: 0.0
doppler_bin: 8
bearing: -1.85087943077
intensity: 31.4363918304
---
header: 
  seq: 306153
  stamp: 
    secs: 1561864006
    nsecs: 348463022
  frame_id: "ti_mmwave"
point_id: 13
x: 4.43359375
y: -0.14453125
z: 1.30078125
range: 4.9241976738
velocity: 0.0
doppler_bin: 8
bearing: -1.86713063717
intensity: 31.3097667694
---
header: 
  seq: 306154
  stamp: 
    secs: 1561864006
    nsecs: 348470689
  frame_id: "ti_mmwave"
point_id: 14
x: 4.71484375
y: -0.298828125
z: -0.765625
range: 5.09850549698
velocity: 0.0
doppler_bin: 8
bearing: -3.62657165527
intensity: 33.5063552856
---
header: 
  seq: 306155
  stamp: 
    secs: 1561864006
    nsecs: 348478719
  frame_id: "ti_mmwave"
point_id: 15
x: 4.7578125
y: -0.30078125
z: -0.759765625
range: 5.14208269119
velocity: 0.0
doppler_bin: 8
bearing: -3.61733317375
intensity: 34.1027107239
---
header: 
  seq: 306156
  stamp: 
    secs: 1561864006
    nsecs: 348486469
  frame_id: "ti_mmwave"
point_id: 16
x: 4.787109375
y: -0.15234375
z: -0.869140625
range: 5.18565940857
velocity: 0.0
doppler_bin: 8
bearing: -1.82275128365
intensity: 30.7371826172
---
header: 
  seq: 306157
  stamp: 
    secs: 1561864006
    nsecs: 348495618
  frame_id: "ti_mmwave"
point_id: 17
x: 4.8984375
y: -0.30859375
z: 0.634765625
range: 5.27281332016
velocity: 0.0
doppler_bin: 8
bearing: -3.60477876663
intensity: 31.0311927795
---
header: 
  seq: 306158
  stamp: 
    secs: 1561864006
    nsecs: 348503324
  frame_id: "ti_mmwave"
point_id: 18
x: 4.951171875
y: -0.623046875
z: 0.064453125
range: 5.31639051437
velocity: 0.0
doppler_bin: 8
bearing: -7.17230129242
intensity: 29.8272342682
---
header: 
  seq: 306159
  stamp: 
    secs: 1561864006
    nsecs: 348511661
  frame_id: "ti_mmwave"
point_id: 19
x: 1.5859375
y: 0.919921875
z: 0.162109375
range: 1.96096372604
velocity: 0.614668667316
doppler_bin: 9
bearing: 30.1158447266
intensity: 26.0530509949
---
header: 
  seq: 306160
  stamp: 
    secs: 1561864006
    nsecs: 348521897
  frame_id: "ti_mmwave"
point_id: 20
x: 1.669921875
y: 0.82421875
z: 0.27734375
range: 2.00454068184
velocity: 0.614668667316
doppler_bin: 9
bearing: 26.2694377899
intensity: 26.5224628448
---
header: 
  seq: 306161
  stamp: 
    secs: 1561864006
    nsecs: 348529737
  frame_id: "ti_mmwave"
point_id: 21
x: 0.01171875
y: 0.03125
z: 0.025390625
range: 0.0435769706964
velocity: 0.0
doppler_bin: 8
bearing: 69.4439544678
intensity: 29.3951931
---
header: 
  seq: 306162
  stamp: 
    secs: 1561864006
    nsecs: 348552473
  frame_id: "ti_mmwave"
point_id: 22
x: 0.041015625
y: -0.033203125
z: 0.0625
range: 0.0871539413929
velocity: 0.0
doppler_bin: 8
bearing: -38.9909973145
intensity: 30.1535968781
---
header: 
  seq: 306163
  stamp: 
    secs: 1561864006
    nsecs: 348560319
  frame_id: "ti_mmwave"
point_id: 23
x: 0.052734375
y: -0.04296875
z: 0.103515625
range: 0.130730912089
velocity: 0.0
doppler_bin: 8
bearing: -39.1736602783
intensity: 29.020029068
---
header: 
  seq: 306164
  stamp: 
    secs: 1561864006
    nsecs: 349748552
  frame_id: "ti_mmwave"
point_id: 0
x: 0.01171875
y: -0.0390625
z: -0.0078125
range: 0.0435769706964
velocity: 0.0
doppler_bin: 8
bearing: -73.3007583618
intensity: 30.7627620697
---
header: 
  seq: 306165
  stamp: 
    secs: 1561864006
    nsecs: 349793184
  frame_id: "ti_mmwave"
point_id: 1
x: 0.017578125
y: -0.080078125
z: -0.009765625
range: 0.0871539413929
velocity: 0.0
doppler_bin: 8
bearing: -77.6192398071
intensity: 31.9893188477
---
header: 
  seq: 306166
  stamp: 
    secs: 1561864006
    nsecs: 349804925
  frame_id: "ti_mmwave"
point_id: 2
x: 0.029296875
y: -0.119140625
z: -0.005859375
range: 0.130730912089
velocity: 0.0
doppler_bin: 8
bearing: -76.1849746704
intensity: 30.2530593872
---
header: 
  seq: 306167
  stamp: 
    secs: 1561864006
    nsecs: 349813010
  frame_id: "ti_mmwave"
point_id: 3
x: 0.056640625
y: -0.154296875
z: 0.005859375
range: 0.174307882786
velocity: 0.0
doppler_bin: 8
bearing: -69.8423843384
intensity: 25.5022830963
---
header: 
  seq: 306168
  stamp: 
    secs: 1561864006
    nsecs: 349821719
  frame_id: "ti_mmwave"
point_id: 4
x: 0.158203125
y: -0.080078125
z: 1.255859375
range: 1.35088610649
velocity: 0.0
doppler_bin: 8
bearing: -26.8472938538
intensity: 23.1175384521
---
header: 
  seq: 306169
  stamp: 
    secs: 1561864006
    nsecs: 349830961
  frame_id: "ti_mmwave"
point_id: 5
x: 0.033203125
y: -0.08203125
z: 1.306640625
range: 1.39446306229
velocity: 0.0
doppler_bin: 8
bearing: -67.9637680054
intensity: 24.6089782715
---
header: 
  seq: 306170
  stamp: 
    secs: 1561864006
    nsecs: 349839153
  frame_id: "ti_mmwave"
point_id: 6
x: 0.39453125
y: -0.083984375
z: -1.287109375
range: 1.43804001808
velocity: 0.0
doppler_bin: 8
bearing: -12.0172519684
intensity: 23.0102996826
---
header: 
  seq: 306171
  stamp: 
    secs: 1561864006
    nsecs: 349898355
  frame_id: "ti_mmwave"
point_id: 7
x: 0.54296875
y: -0.04296875
z: -1.279296875
range: 1.48161697388
velocity: 0.0
doppler_bin: 8
bearing: -4.52476835251
intensity: 21.6731739044
---
header: 
  seq: 306172
  stamp: 
    secs: 1561864006
    nsecs: 349907654
  frame_id: "ti_mmwave"
point_id: 8
x: 1.62890625
y: 0.60546875
z: -0.2734375
range: 1.87380969524
velocity: 0.0
doppler_bin: 8
bearing: 20.3902339935
intensity: 27.8887519836
---
header: 
  seq: 306173
  stamp: 
    secs: 1561864006
    nsecs: 349916598
  frame_id: "ti_mmwave"
point_id: 9
x: 1.623046875
y: 0.67578125
z: -0.384765625
range: 1.91738677025
velocity: 0.0
doppler_bin: 8
bearing: 22.6051769257
intensity: 28.4010601044
---
header: 
  seq: 306174
  stamp: 
    secs: 1561864006
    nsecs: 349924373
  frame_id: "ti_mmwave"
point_id: 10
x: 2.609375
y: -0.17578125
z: 1.060546875
range: 3.00681090355
velocity: 0.0
doppler_bin: 8
bearing: -3.85392260551
intensity: 29.0308990479
---
header: 
  seq: 306175
  stamp: 
    secs: 1561864006
    nsecs: 349931574
  frame_id: "ti_mmwave"
point_id: 11
x: 2.65625
y: -0.1796875
z: 1.052734375
range: 3.05038785934
velocity: 0.0
doppler_bin: 8
bearing: -3.86999511719
intensity: 32.2685775757
---
header: 
  seq: 306176
  stamp: 
    secs: 1561864006
    nsecs: 349939044
  frame_id: "ti_mmwave"
point_id: 12
x: 2.751953125
y: -0.08984375
z: 0.923828125
range: 3.09396481514
velocity: 0.0
doppler_bin: 8
bearing: -1.86988639832
intensity: 31.2775249481
---
header: 
  seq: 306177
  stamp: 
    secs: 1561864006
    nsecs: 349947464
  frame_id: "ti_mmwave"
point_id: 13
x: 4.412109375
y: -0.142578125
z: 1.2265625
range: 4.88062095642
velocity: 0.0
doppler_bin: 8
bearing: -1.85087943077
intensity: 31.4332714081
---
header: 
  seq: 306178
  stamp: 
    secs: 1561864006
    nsecs: 349954860
  frame_id: "ti_mmwave"
point_id: 14
x: 4.443359375
y: -0.14453125
z: 1.26953125
range: 4.9241976738
velocity: 0.0
doppler_bin: 8
bearing: -1.86303019524
intensity: 31.3097667694
---
header: 
  seq: 306179
  stamp: 
    secs: 1561864006
    nsecs: 349962378
  frame_id: "ti_mmwave"
point_id: 15
x: 4.75390625
y: -0.298828125
z: -0.47265625
range: 5.09850549698
velocity: 0.0
doppler_bin: 8
bearing: -3.59685111046
intensity: 33.2325210571
---
header: 
  seq: 306180
  stamp: 
    secs: 1561864006
    nsecs: 349971594
  frame_id: "ti_mmwave"
point_id: 16
x: 4.7890625
y: -0.30078125
z: -0.52734375
range: 5.14208269119
velocity: 0.0
doppler_bin: 8
bearing: -3.593791008
intensity: 33.8703384399
---
header: 
  seq: 306181
  stamp: 
    secs: 1561864006
    nsecs: 349979194
  frame_id: "ti_mmwave"
point_id: 17
x: 4.81640625
y: -0.15234375
z: -0.6953125
range: 5.18565940857
velocity: 0.0
doppler_bin: 8
bearing: -1.81167113781
intensity: 30.588054657
---
header: 
  seq: 306182
  stamp: 
    secs: 1561864006
    nsecs: 349986765
  frame_id: "ti_mmwave"
point_id: 18
x: 4.89453125
y: -0.30859375
z: 0.666015625
range: 5.27281332016
velocity: 0.0
doppler_bin: 8
bearing: -3.60764837265
intensity: 31.0619087219
---
header: 
  seq: 306183
  stamp: 
    secs: 1561864006
    nsecs: 349994074
  frame_id: "ti_mmwave"
point_id: 19
x: 4.94921875
y: -0.623046875
z: 0.11328125
range: 5.31639051437
velocity: 0.0
doppler_bin: 8
bearing: -7.17510271072
intensity: 29.8497714996
---
header: 
  seq: 306184
  stamp: 
    secs: 1561864006
    nsecs: 350002932
  frame_id: "ti_mmwave"
point_id: 20
x: 1.67578125
y: 0.763671875
z: 0.384765625
range: 2.00454068184
velocity: 0.614668667316
doppler_bin: 9
bearing: 24.4992733002
intensity: 25.4530715942
---
header: 
  seq: 306185
  stamp: 
    secs: 1561864006
    nsecs: 350010403
  frame_id: "ti_mmwave"
point_id: 21
x: 1.7109375
y: 0.78125
z: 0.39453125
range: 2.04811763763
velocity: 0.614668667316
doppler_bin: 9
bearing: 24.5424346924
intensity: 26.1066017151
---
header: 
  seq: 306186
  stamp: 
    secs: 1561864006
    nsecs: 350018307
  frame_id: "ti_mmwave"
point_id: 22
x: 0.01171875
y: 0.03125
z: 0.025390625
range: 0.0435769706964
velocity: 0.0
doppler_bin: 8
bearing: 69.4439544678
intensity: 29.4001808167
---
header: 
  seq: 306187
  stamp: 
    secs: 1561864006
    nsecs: 350025969
  frame_id: "ti_mmwave"
point_id: 23
x: 0.041015625
y: -0.033203125
z: 0.0625
range: 0.0871539413929
velocity: 0.0
doppler_bin: 8
bearing: -38.9909973145
intensity: 30.1535968781
---
header: 
  seq: 306188
  stamp: 
    secs: 1561864006
    nsecs: 350034408
  frame_id: "ti_mmwave"
point_id: 24
x: 0.052734375
y: -0.04296875
z: 0.103515625
range: 0.130730912089
velocity: 0.0
doppler_bin: 8
bearing: -39.1736602783
intensity: 29.0145835876
---
header: 
  seq: 306189
  stamp: 
    secs: 1561864006
    nsecs: 408203808
  frame_id: "ti_mmwave"
point_id: 0
x: 0.01171875
y: -0.0390625
z: -0.0078125
range: 0.0435769706964
velocity: 0.0
doppler_bin: 8
bearing: -73.3007583618
intensity: 30.7700424194
---
header: 
  seq: 306190
  stamp: 
    secs: 1561864006
    nsecs: 408292986
  frame_id: "ti_mmwave"
point_id: 1
x: 0.017578125
y: -0.080078125
z: -0.009765625
range: 0.0871539413929
velocity: 0.0
doppler_bin: 8
bearing: -77.6192398071
intensity: 31.994808197
---
header: 
  seq: 306191
  stamp: 
    secs: 1561864006
    nsecs: 408309288
  frame_id: "ti_mmwave"
point_id: 2
x: 0.029296875
y: -0.119140625
z: -0.005859375
range: 0.130730912089
velocity: 0.0
doppler_bin: 8
bearing: -76.1849746704
intensity: 30.2571544647
---
header: 
  seq: 306192
  stamp: 
    secs: 1561864006
    nsecs: 408322277
  frame_id: "ti_mmwave"
point_id: 3
x: 0.056640625
y: -0.154296875
z: 0.005859375
range: 0.174307882786
velocity: 0.0
doppler_bin: 8
bearing: -69.8423843384
intensity: 25.5022830963
---
header: 
  seq: 306193
  stamp: 
    secs: 1561864006
    nsecs: 408334474
  frame_id: "ti_mmwave"
point_id: 4
x: 0.09375
y: -0.080078125
z: 1.26171875
range: 1.35088610649
velocity: 0.0
doppler_bin: 8
bearing: -40.5028457642
intensity: 23.138671875
---
header: 
  seq: 306194
  stamp: 
    secs: 1561864006
    nsecs: 408359683
  frame_id: "ti_mmwave"
point_id: 6
x: 0.416015625
y: -0.083984375
z: -1.28125
range: 1.43804001808
velocity: 0.0
doppler_bin: 8
bearing: -11.4133548737
intensity: 23.0535144806
---
header: 
  seq: 306195
  stamp: 
    secs: 1561864006
    nsecs: 408441361
  frame_id: "ti_mmwave"
point_id: 7
x: 1.6171875
y: 0.8046875
z: -0.349609375
range: 1.96096372604
velocity: 0.0
doppler_bin: 8
bearing: 26.4542274475
intensity: 26.8841991425
---
header: 
  seq: 306196
  stamp: 
    secs: 1561864006
    nsecs: 408454391
  frame_id: "ti_mmwave"
point_id: 8
x: 2.623046875
y: -0.17578125
z: 1.02734375
range: 3.00681090355
velocity: 0.0
doppler_bin: 8
bearing: -3.83389568329
intensity: 28.9762706757
---
header: 
  seq: 306197
  stamp: 
    secs: 1561864006
    nsecs: 408468444
  frame_id: "ti_mmwave"
point_id: 9
x: 2.6640625
y: -0.1796875
z: 1.033203125
range: 3.05038785934
velocity: 0.0
doppler_bin: 8
bearing: -3.85868024826
intensity: 32.2582588196
---
header: 
  seq: 306198
  stamp: 
    secs: 1561864006
    nsecs: 408481095
  frame_id: "ti_mmwave"
point_id: 10
x: 2.76171875
y: -0.08984375
z: 0.896484375
range: 3.09396481514
velocity: 0.0
doppler_bin: 8
bearing: -1.86327898502
intensity: 31.3001194
---
header: 
  seq: 306199
  stamp: 
    secs: 1561864006
    nsecs: 408491986
  frame_id: "ti_mmwave"
point_id: 11
x: 4.412109375
y: -0.142578125
z: 1.2265625
range: 4.88062095642
velocity: 0.0
doppler_bin: 8
bearing: -1.85087943077
intensity: 31.4395103455
---
header: 
  seq: 306200
  stamp: 
    secs: 1561864006
    nsecs: 408502808
  frame_id: "ti_mmwave"
point_id: 12
x: 4.439453125
y: -0.14453125
z: 1.27734375
range: 4.9241976738
velocity: 0.0
doppler_bin: 8
bearing: -1.86466813087
intensity: 31.3161869049
---
header: 
  seq: 306201
  stamp: 
    secs: 1561864006
    nsecs: 408514273
  frame_id: "ti_mmwave"
point_id: 13
x: 4.75
y: -0.298828125
z: -0.498046875
range: 5.09850549698
velocity: 0.0
doppler_bin: 8
bearing: -3.59980130196
intensity: 33.4439239502
---
header: 
  seq: 306202
  stamp: 
    secs: 1561864006
    nsecs: 408529891
  frame_id: "ti_mmwave"
point_id: 14
x: 4.783203125
y: -0.30078125
z: -0.572265625
range: 5.14208269119
velocity: 0.0
doppler_bin: 8
bearing: -3.59818196297
intensity: 34.0294876099
---
header: 
  seq: 306203
  stamp: 
    secs: 1561864006
    nsecs: 408588641
  frame_id: "ti_mmwave"
point_id: 15
x: 4.810546875
y: -0.15234375
z: -0.734375
range: 5.18565940857
velocity: 0.0
doppler_bin: 8
bearing: -1.81387650967
intensity: 30.7224998474
---
header: 
  seq: 306204
  stamp: 
    secs: 1561864006
    nsecs: 408604126
  frame_id: "ti_mmwave"
point_id: 16
x: 4.892578125
y: -0.30859375
z: 0.677734375
range: 5.27281332016
velocity: 0.0
doppler_bin: 8
bearing: -3.60908436775
intensity: 31.0822658539
---
header: 
  seq: 306205
  stamp: 
    secs: 1561864006
    nsecs: 408615570
  frame_id: "ti_mmwave"
point_id: 17
x: 4.951171875
y: -0.623046875
z: 0.1015625
range: 5.31639051437
velocity: 0.0
doppler_bin: 8
bearing: -7.17230129242
intensity: 29.876663208
---
header: 
  seq: 306206
  stamp: 
    secs: 1561864006
    nsecs: 408629300
  frame_id: "ti_mmwave"
point_id: 18
x: 1.546875
y: 0.82421875
z: -0.140625
range: 1.87380969524
velocity: 0.614668667316
doppler_bin: 9
bearing: 28.0499534607
intensity: 26.1172332764
---
header: 
  seq: 306207
  stamp: 
    secs: 1561864006
    nsecs: 408640359
  frame_id: "ti_mmwave"
point_id: 19
x: 1.580078125
y: 0.84375
z: -0.173828125
range: 1.91738677025
velocity: 0.614668667316
doppler_bin: 9
bearing: 28.1018867493
intensity: 27.8031730652
---
header: 
  seq: 306208
  stamp: 
    secs: 1561864006
    nsecs: 408651626
  frame_id: "ti_mmwave"
point_id: 20
x: 0.01171875
y: 0.03125
z: 0.025390625
range: 0.0435769706964
velocity: 0.0
doppler_bin: 8
bearing: 69.4439544678
intensity: 29.4051647186
---
header: 
  seq: 306209
  stamp: 
    secs: 1561864006
    nsecs: 408659575
  frame_id: "ti_mmwave"
point_id: 21
x: 0.041015625
y: -0.033203125
z: 0.0625
range: 0.0871539413929
velocity: 0.0
doppler_bin: 8
bearing: -38.9909973145
intensity: 30.1535968781
---
header: 
  seq: 306210
  stamp: 
    secs: 1561864006
    nsecs: 408680455
  frame_id: "ti_mmwave"
point_id: 22
x: 0.052734375
y: -0.04296875
z: 0.103515625
range: 0.130730912089
velocity: 0.0
doppler_bin: 8
bearing: -39.1736602783
intensity: 29.020029068
---
header: 
  seq: 306211
  stamp: 
    secs: 1561864006
    nsecs: 409749732
  frame_id: "ti_mmwave"
point_id: 0
x: 0.01171875
y: -0.0390625
z: -0.0078125
range: 0.0435769706964
velocity: 0.0
doppler_bin: 8
bearing: -73.3007583618
intensity: 30.7700424194
---
header: 
  seq: 306212
  stamp: 
    secs: 1561864006
    nsecs: 409799565
  frame_id: "ti_mmwave"
point_id: 1
x: 0.017578125
y: -0.080078125
z: -0.009765625
range: 0.0871539413929
velocity: 0.0
doppler_bin: 8
bearing: -77.6192398071
intensity: 31.994808197
---
header: 
  seq: 306213
  stamp: 
    secs: 1561864006
    nsecs: 409814690
  frame_id: "ti_mmwave"
point_id: 2
x: 0.029296875
y: -0.119140625
z: -0.005859375
range: 0.130730912089
velocity: 0.0
doppler_bin: 8
bearing: -76.1849746704
intensity: 30.2571544647
---
header: 
  seq: 306214
  stamp: 
    secs: 1561864006
    nsecs: 409837165
  frame_id: "ti_mmwave"
point_id: 3
x: 0.056640625
y: -0.154296875
z: 0.005859375
range: 0.174307882786
velocity: 0.0
doppler_bin: 8
bearing: -69.8423843384
intensity: 25.5266819
---
header: 
  seq: 306215
  stamp: 
    secs: 1561864006
    nsecs: 409889249
  frame_id: "ti_mmwave"
point_id: 4
x: 0.166015625
y: -0.080078125
z: 1.25390625
range: 1.35088610649
velocity: 0.0
doppler_bin: 8
bearing: -25.7504749298
intensity: 23.1175384521
---
header: 
  seq: 306216
  stamp: 
    secs: 1561864006
    nsecs: 409905587
  frame_id: "ti_mmwave"
point_id: 6
x: 0.431640625
y: -0.083984375
z: -1.27734375
range: 1.43804001808
velocity: 0.0
doppler_bin: 8
bearing: -11.0104799271
intensity: 23.0102996826
---
header: 
  seq: 306217
  stamp: 
    secs: 1561864006
    nsecs: 409918736
  frame_id: "ti_mmwave"
point_id: 7
x: 0.55078125
y: -0.04296875
z: -1.27734375
range: 1.48161697388
velocity: 0.0
doppler_bin: 8
bearing: -4.46084880829
intensity: 21.6731739044
---
header: 
  seq: 306218
  stamp: 
    secs: 1561864006
    nsecs: 409929930
  frame_id: "ti_mmwave"
point_id: 8
x: 2.60546875
y: -0.17578125
z: 1.068359375
range: 3.00681090355
velocity: 0.0
doppler_bin: 8
bearing: -3.85968351364
intensity: 28.9872512817
---
header: 
  seq: 306219
  stamp: 
    secs: 1561864006
    nsecs: 409935475
  frame_id: "ti_mmwave"
point_id: 9
x: 2.654296875
y: -0.1796875
z: 1.060546875
range: 3.05038785934
velocity: 0.0
doppler_bin: 8
bearing: -3.87283420563
intensity: 32.2556762695
---
header: 
  seq: 306220
  stamp: 
    secs: 1561864006
    nsecs: 409972321
  frame_id: "ti_mmwave"
point_id: 10
x: 2.74609375
y: -0.08984375
z: 0.939453125
range: 3.09396481514
velocity: 0.0
doppler_bin: 8
bearing: -1.8738732338
intensity: 31.2968997955
---
header: 
  seq: 306221
  stamp: 
    secs: 1561864006
    nsecs: 409981288
  frame_id: "ti_mmwave"
point_id: 11
x: 4.41015625
y: -0.142578125
z: 1.234375
range: 4.88062095642
velocity: 0.0
doppler_bin: 8
bearing: -1.85169863701
intensity: 31.4519634247
---
header: 
  seq: 306222
  stamp: 
    secs: 1561864006
    nsecs: 409991264
  frame_id: "ti_mmwave"
point_id: 12
x: 4.44140625
y: -0.14453125
z: 1.271484375
range: 4.9241976738
velocity: 0.0
doppler_bin: 8
bearing: -1.86384868622
intensity: 31.3225975037
---
header: 
  seq: 306223
  stamp: 
    secs: 1561864006
    nsecs: 409999145
  frame_id: "ti_mmwave"
point_id: 13
x: 4.740234375
y: -0.298828125
z: -0.58203125
range: 5.09850549698
velocity: 0.0
doppler_bin: 8
bearing: -3.60719799995
intensity: 33.4478530884
---
header: 
  seq: 306224
  stamp: 
    secs: 1561864006
    nsecs: 410008803
  frame_id: "ti_mmwave"
point_id: 14
x: 4.775390625
y: -0.30078125
z: -0.634765625
range: 5.14208269119
velocity: 0.0
doppler_bin: 8
bearing: -3.60405302048
intensity: 34.0483360291
---
header: 
  seq: 306225
  stamp: 
    secs: 1561864006
    nsecs: 410013834
  frame_id: "ti_mmwave"
point_id: 15
x: 4.80078125
y: -0.15234375
z: -0.787109375
range: 5.18565940857
velocity: 0.0
doppler_bin: 8
bearing: -1.81756365299
intensity: 30.696680069
---
header: 
  seq: 306226
  stamp: 
    secs: 1561864006
    nsecs: 410029042
  frame_id: "ti_mmwave"
point_id: 16
x: 4.890625
y: -0.30859375
z: 0.69140625
range: 5.27281332016
velocity: 0.0
doppler_bin: 8
bearing: -3.61052203178
intensity: 31.1025295258
---
header: 
  seq: 306227
  stamp: 
    secs: 1561864006
    nsecs: 410042042
  frame_id: "ti_mmwave"
point_id: 17
x: 4.951171875
y: -0.623046875
z: 0.109375
range: 5.31639051437
velocity: 0.0
doppler_bin: 8
bearing: -7.17230129242
intensity: 29.9166908264
---
header: 
  seq: 306228
  stamp: 
    secs: 1561864006
    nsecs: 410057122
  frame_id: "ti_mmwave"
point_id: 18
x: 1.587890625
y: 0.84375
z: -0.064453125
range: 1.91738677025
velocity: 0.614668667316
doppler_bin: 9
bearing: 27.98462677
intensity: 27.5739593506
---
header: 
  seq: 306229
  stamp: 
    secs: 1561864006
    nsecs: 410070246
  frame_id: "ti_mmwave"
point_id: 19
x: 1.626953125
y: 0.86328125
z: 0.001953125
range: 1.96096372604
velocity: 0.614668667316
doppler_bin: 9
bearing: 27.9509677887
intensity: 27.5434837341
---
header: 
  seq: 306230
  stamp: 
    secs: 1561864006
    nsecs: 410087487
  frame_id: "ti_mmwave"
point_id: 20
x: 1.654296875
y: 0.8828125
z: 0.16796875
range: 2.00454068184
velocity: 0.614668667316
doppler_bin: 9
bearing: 28.0865306854
intensity: 25.9328613281
---
header: 
  seq: 306231
  stamp: 
    secs: 1561864006
    nsecs: 410160371
  frame_id: "ti_mmwave"
point_id: 21
x: 0.01171875
y: 0.03125
z: 0.025390625
range: 0.0435769706964
velocity: 0.0
doppler_bin: 8
bearing: 69.4439544678
intensity: 29.4001808167
---
header: 
  seq: 306232
  stamp: 
    secs: 1561864006
    nsecs: 410177230
  frame_id: "ti_mmwave"
point_id: 22
x: 0.041015625
y: -0.033203125
z: 0.0625
range: 0.0871539413929
velocity: 0.0
doppler_bin: 8
bearing: -38.9909973145
intensity: 30.1494026184
---
header: 
  seq: 306233
  stamp: 
    secs: 1561864006
    nsecs: 410189670
  frame_id: "ti_mmwave"
point_id: 23
x: 0.052734375
y: -0.04296875
z: 0.103515625
range: 0.130730912089
velocity: 0.0
doppler_bin: 8
bearing: -39.1736602783
intensity: 29.0145835876
---
header: 
  seq: 306234
  stamp: 
    secs: 1561864006
    nsecs: 468163901
  frame_id: "ti_mmwave"
point_id: 0
x: 0.01171875
y: -0.0390625
z: -0.0078125
range: 0.0435769706964
velocity: 0.0
doppler_bin: 8
bearing: -73.3007583618
intensity: 30.7591171265
---
header: 
  seq: 306235
  stamp: 
    secs: 1561864006
    nsecs: 468237585
  frame_id: "ti_mmwave"
point_id: 1
x: 0.017578125
y: -0.080078125
z: -0.009765625
range: 0.0871539413929
velocity: 0.0
doppler_bin: 8
bearing: -77.6192398071
intensity: 31.9893188477
---
header: 
  seq: 306236
  stamp: 
    secs: 1561864006
    nsecs: 468254451
  frame_id: "ti_mmwave"
point_id: 2
x: 0.029296875
y: -0.119140625
z: -0.005859375
range: 0.130730912089
velocity: 0.0
doppler_bin: 8
bearing: -76.1849746704
intensity: 30.2530593872
---
header: 
  seq: 306237
  stamp: 
    secs: 1561864006
    nsecs: 468269561
  frame_id: "ti_mmwave"
point_id: 3
x: 0.056640625
y: -0.154296875
z: 0.005859375
range: 0.174307882786
velocity: 0.0
doppler_bin: 8
bearing: -69.8423843384
intensity: 25.5022830963
---
header: 
  seq: 306238
  stamp: 
    secs: 1561864006
    nsecs: 468283669
  frame_id: "ti_mmwave"
point_id: 4
x: 0.15234375
y: -0.080078125
z: 1.255859375
range: 1.35088610649
velocity: 0.0
doppler_bin: 8
bearing: -27.7282581329
intensity: 23.138671875
---
header: 
  seq: 306239
  stamp: 
    secs: 1561864006
    nsecs: 468373039
  frame_id: "ti_mmwave"
point_id: 6
x: 0.421875
y: -0.083984375
z: -1.279296875
range: 1.43804001808
velocity: 0.0
doppler_bin: 8
bearing: -11.2589120865
intensity: 22.9885311127
---
header: 
  seq: 306240
  stamp: 
    secs: 1561864006
    nsecs: 468389860
  frame_id: "ti_mmwave"
point_id: 7
x: 0.560546875
y: -0.04296875
z: -1.271484375
range: 1.48161697388
velocity: 0.0
doppler_bin: 8
bearing: -4.38343858719
intensity: 21.6136798859
---
header: 
  seq: 306241
  stamp: 
    secs: 1561864006
    nsecs: 468401551
  frame_id: "ti_mmwave"
point_id: 8
x: 2.615234375
y: -0.17578125
z: 1.048828125
range: 3.00681090355
velocity: 0.0
doppler_bin: 8
bearing: -3.84531402588
intensity: 29.0471553802
---
header: 
  seq: 306242
  stamp: 
    secs: 1561864006
    nsecs: 468412814
  frame_id: "ti_mmwave"
point_id: 9
x: 2.66015625
y: -0.1796875
z: 1.046875
range: 3.05038785934
velocity: 0.0
doppler_bin: 8
bearing: -3.86432933807
intensity: 32.2840042114
---
header: 
  seq: 306243
  stamp: 
    secs: 1561864006
    nsecs: 468423867
  frame_id: "ti_mmwave"
point_id: 10
x: 2.75390625
y: -0.08984375
z: 0.916015625
range: 3.09396481514
velocity: 0.0
doppler_bin: 8
bearing: -1.86856126785
intensity: 31.3161869049
---
header: 
  seq: 306244
  stamp: 
    secs: 1561864006
    nsecs: 468437726
  frame_id: "ti_mmwave"
point_id: 11
x: 4.41015625
y: -0.142578125
z: 1.232421875
range: 4.88062095642
velocity: 0.0
doppler_bin: 8
bearing: -1.85169863701
intensity: 31.4426269531
---
header: 
  seq: 306245
  stamp: 
    secs: 1561864006
    nsecs: 468448718
  frame_id: "ti_mmwave"
point_id: 12
x: 4.435546875
y: -0.14453125
z: 1.294921875
range: 4.9241976738
velocity: 0.0
doppler_bin: 8
bearing: -1.86630904675
intensity: 31.332195282
---
header: 
  seq: 306246
  stamp: 
    secs: 1561864006
    nsecs: 468461742
  frame_id: "ti_mmwave"
point_id: 13
x: 4.74609375
y: -0.298828125
z: -0.53125
range: 5.09850549698
velocity: 0.0
doppler_bin: 8
bearing: -3.60275626183
intensity: 33.4419555664
---
header: 
  seq: 306247
  stamp: 
    secs: 1561864006
    nsecs: 468547660
  frame_id: "ti_mmwave"
point_id: 14
x: 4.78125
y: -0.30078125
z: -0.591796875
range: 5.14208269119
velocity: 0.0
doppler_bin: 8
bearing: -3.59964799881
intensity: 34.0363502502
---
header: 
  seq: 306248
  stamp: 
    secs: 1561864006
    nsecs: 468562502
  frame_id: "ti_mmwave"
point_id: 15
x: 4.806640625
y: -0.15234375
z: -0.7578125
range: 5.18565940857
velocity: 0.0
doppler_bin: 8
bearing: -1.81534969807
intensity: 30.700378418
---
header: 
  seq: 306249
  stamp: 
    secs: 1561864006
    nsecs: 468575283
  frame_id: "ti_mmwave"
point_id: 16
x: 4.89453125
y: -0.30859375
z: 0.66796875
range: 5.27281332016
velocity: 0.0
doppler_bin: 8
bearing: -3.60764837265
intensity: 31.0380363464
---
header: 
  seq: 306250
  stamp: 
    secs: 1561864006
    nsecs: 468586730
  frame_id: "ti_mmwave"
point_id: 17
x: 4.94921875
y: -0.623046875
z: 0.15625
range: 5.31639051437
velocity: 0.0
doppler_bin: 8
bearing: -7.17510271072
intensity: 29.7909297943
---
header: 
  seq: 306251
  stamp: 
    secs: 1561864006
    nsecs: 468599451
  frame_id: "ti_mmwave"
point_id: 18
x: 1.5546875
y: 0.900390625
z: -0.11328125
range: 1.91738677025
velocity: 0.614668667316
doppler_bin: 9
bearing: 30.0770931244
intensity: 26.7851829529
---
header: 
  seq: 306252
  stamp: 
    secs: 1561864006
    nsecs: 468611384
  frame_id: "ti_mmwave"
point_id: 19
x: 1.62109375
y: 0.86328125
z: -0.126953125
range: 1.96096372604
velocity: 0.614668667316
doppler_bin: 9
bearing: 28.0366458893
intensity: 28.0955963135
---
header: 
  seq: 306253
  stamp: 
    secs: 1561864006
    nsecs: 468622781
  frame_id: "ti_mmwave"
point_id: 20
x: 1.712890625
y: 0.763671875
z: 0.154296875
range: 2.00454068184
velocity: 0.614668667316
doppler_bin: 9
bearing: 24.029132843
intensity: 28.5672893524
---
header: 
  seq: 306254
  stamp: 
    secs: 1561864006
    nsecs: 468637564
  frame_id: "ti_mmwave"
point_id: 21
x: 1.7265625
y: 0.78125
z: 0.326171875
range: 2.04811763763
velocity: 0.614668667316
doppler_bin: 9
bearing: 24.3462142944
intensity: 29.7451171875
---
header: 
  seq: 306255
  stamp: 
    secs: 1561864006
    nsecs: 468649629
  frame_id: "ti_mmwave"
point_id: 22
x: 1.76171875
y: 0.796875
z: 0.341796875
range: 2.09169459343
velocity: 0.614668667316
doppler_bin: 9
bearing: 24.3385791779
intensity: 28.3632411957
---
header: 
  seq: 306256
  stamp: 
    secs: 1561864006
    nsecs: 468731123
  frame_id: "ti_mmwave"
point_id: 23
x: 0.01171875
y: 0.03125
z: 0.025390625
range: 0.0435769706964
velocity: 0.0
doppler_bin: 8
bearing: 69.4439544678
intensity: 29.4051647186
---
header: 
  seq: 306257
  stamp: 
    secs: 1561864006
    nsecs: 468746456
  frame_id: "ti_mmwave"
point_id: 24
x: 0.041015625
y: -0.033203125
z: 0.0625
range: 0.0871539413929
velocity: 0.0
doppler_bin: 8
bearing: -38.9909973145
intensity: 30.1494026184
---
header: 
  seq: 306258
  stamp: 
    secs: 1561864006
    nsecs: 468761397
  frame_id: "ti_mmwave"
point_id: 25
x: 0.052734375
y: -0.04296875
z: 0.103515625
range: 0.130730912089
velocity: 0.0
doppler_bin: 8
bearing: -39.1736602783
intensity: 29.0254669189
---
header: 
  seq: 306259
  stamp: 
    secs: 1561864006
    nsecs: 468774728
  frame_id: "ti_mmwave"
point_id: 27
x: 1.470703125
y: 0.44921875
z: -0.935546875
range: 1.91738677025
velocity: 0.614668667316
doppler_bin: 9
bearing: 16.9850234985
intensity: 25.4406795502
---
header: 
  seq: 306260
  stamp: 
    secs: 1561864006
    nsecs: 469923144
  frame_id: "ti_mmwave"
point_id: 0
x: 0.01171875
y: -0.0390625
z: -0.0078125
range: 0.0435769706964
velocity: 0.0
doppler_bin: 8
bearing: -73.3007583618
intensity: 30.7627620697
---
header: 
  seq: 306261
  stamp: 
    secs: 1561864006
    nsecs: 469979496
  frame_id: "ti_mmwave"
point_id: 1
x: 0.017578125
y: -0.080078125
z: -0.009765625
range: 0.0871539413929
velocity: 0.0
doppler_bin: 8
bearing: -77.6192398071
intensity: 31.994808197
---
header: 
  seq: 306262
  stamp: 
    secs: 1561864006
    nsecs: 469998080
  frame_id: "ti_mmwave"
point_id: 2
x: 0.029296875
y: -0.119140625
z: -0.005859375
range: 0.130730912089
velocity: 0.0
doppler_bin: 8
bearing: -76.1849746704
intensity: 30.2612457275
---
header: 
  seq: 306263
  stamp: 
    secs: 1561864006
    nsecs: 470017965
  frame_id: "ti_mmwave"
point_id: 3
x: 0.056640625
y: -0.154296875
z: 0.005859375
range: 0.174307882786
velocity: 0.0
doppler_bin: 8
bearing: -69.8423843384
intensity: 25.5266819
---
header: 
  seq: 306264
  stamp: 
    secs: 1561864006
    nsecs: 470075293
  frame_id: "ti_mmwave"
point_id: 4
x: 0.158203125
y: -0.080078125
z: 1.255859375
range: 1.35088610649
velocity: 0.0
doppler_bin: 8
bearing: -26.8472938538
intensity: 23.1175384521
---
header: 
  seq: 306265
  stamp: 
    secs: 1561864006
    nsecs: 470090676
  frame_id: "ti_mmwave"
point_id: 5
x: 0.068359375
y: -0.08203125
z: 1.3046875
range: 1.39446306229
velocity: 0.0
doppler_bin: 8
bearing: -50.1944313049
intensity: 24.6089782715
---
header: 
  seq: 306266
  stamp: 
    secs: 1561864006
    nsecs: 470101919
  frame_id: "ti_mmwave"
point_id: 6
x: 0.396484375
y: -0.083984375
z: -1.287109375
range: 1.43804001808
velocity: 0.0
doppler_bin: 8
bearing: -11.9597616196
intensity: 23.0102996826
---
header: 
  seq: 306267
  stamp: 
    secs: 1561864006
    nsecs: 470113154
  frame_id: "ti_mmwave"
point_id: 7
x: 0.529296875
y: -0.04296875
z: -1.28515625
range: 1.48161697388
velocity: 0.0
doppler_bin: 8
bearing: -4.64113998413
intensity: 21.6435279846
---
header: 
  seq: 306268
  stamp: 
    secs: 1561864006
    nsecs: 470123862
  frame_id: "ti_mmwave"
point_id: 8
x: 2.625
y: -0.17578125
z: 1.0234375
range: 3.00681090355
velocity: 0.0
doppler_bin: 8
bearing: -3.83105134964
intensity: 29.0363254547
---
header: 
  seq: 306269
  stamp: 
    secs: 1561864006
    nsecs: 470131270
  frame_id: "ti_mmwave"
point_id: 9
x: 2.666015625
y: -0.1796875
z: 1.029296875
range: 3.05038785934
velocity: 0.0
doppler_bin: 8
bearing: -3.85586214066
intensity: 32.2737236023
---
header: 
  seq: 306270
  stamp: 
    secs: 1561864006
    nsecs: 470178424
  frame_id: "ti_mmwave"
point_id: 10
x: 2.7578125
y: -0.08984375
z: 0.90625
range: 3.09396481514
velocity: 0.0
doppler_bin: 8
bearing: -1.86591637135
intensity: 31.3097667694
---
header: 
  seq: 306271
  stamp: 
    secs: 1561864006
    nsecs: 470193039
  frame_id: "ti_mmwave"
point_id: 11
x: 4.4140625
y: -0.142578125
z: 1.220703125
range: 4.88062095642
velocity: 0.0
doppler_bin: 8
bearing: -1.850061059
intensity: 31.4176330566
---
header: 
  seq: 306272
  stamp: 
    secs: 1561864006
    nsecs: 470204402
  frame_id: "ti_mmwave"
point_id: 12
x: 4.4375
y: -0.14453125
z: 1.2890625
range: 4.9241976738
velocity: 0.0
doppler_bin: 8
bearing: -1.86548817158
intensity: 31.2775249481
---
header: 
  seq: 306273
  stamp: 
    secs: 1561864006
    nsecs: 470216706
  frame_id: "ti_mmwave"
point_id: 13
x: 4.755859375
y: -0.298828125
z: -0.451171875
range: 5.09850549698
velocity: 0.0
doppler_bin: 8
bearing: -3.59537792206
intensity: 33.2572097778
---
header: 
  seq: 306274
  stamp: 
    secs: 1561864006
    nsecs: 470302480
  frame_id: "ti_mmwave"
point_id: 14
x: 4.7890625
y: -0.30078125
z: -0.515625
range: 5.14208269119
velocity: 0.0
doppler_bin: 8
bearing: -3.593791008
intensity: 33.9058189392
---
header: 
  seq: 306275
  stamp: 
    secs: 1561864006
    nsecs: 470333950
  frame_id: "ti_mmwave"
point_id: 15
x: 4.8203125
y: -0.15234375
z: -0.658203125
range: 5.18565940857
velocity: 0.0
doppler_bin: 8
bearing: -1.81020414829
intensity: 30.5956344604
---
header: 
  seq: 306276
  stamp: 
    secs: 1561864006
    nsecs: 470348635
  frame_id: "ti_mmwave"
point_id: 16
x: 4.8984375
y: -0.30859375
z: 0.638671875
range: 5.27281332016
velocity: 0.0
doppler_bin: 8
bearing: -3.60477876663
intensity: 31.1427726746
---
header: 
  seq: 306277
  stamp: 
    secs: 1561864006
    nsecs: 470357825
  frame_id: "ti_mmwave"
point_id: 17
x: 4.951171875
y: -0.623046875
z: 0.046875
range: 5.31639051437
velocity: 0.0
doppler_bin: 8
bearing: -7.17230129242
intensity: 29.9387683868
---
header: 
  seq: 306278
  stamp: 
    secs: 1561864006
    nsecs: 470432022
  frame_id: "ti_mmwave"
point_id: 18
x: 1.63671875
y: 0.73046875
z: -0.171875
range: 1.91738677025
velocity: 0.614668667316
doppler_bin: 9
bearing: 24.051240921
intensity: 28.1624126434
---
header: 
  seq: 306279
  stamp: 
    secs: 1561864006
    nsecs: 470443266
  frame_id: "ti_mmwave"
point_id: 19
x: 1.673828125
y: 0.748046875
z: -0.17578125
range: 1.96096372604
velocity: 0.614668667316
doppler_bin: 9
bearing: 24.080242157
intensity: 28.2085800171
---
header: 
  seq: 306280
  stamp: 
    secs: 1561864006
    nsecs: 470472073
  frame_id: "ti_mmwave"
point_id: 20
x: 1.71875
y: 0.763671875
z: 0.05859375
range: 2.00454068184
velocity: 0.614668667316
doppler_bin: 9
bearing: 23.9564476013
intensity: 25.15873909
---
header: 
  seq: 306281
  stamp: 
    secs: 1561864006
    nsecs: 470484997
  frame_id: "ti_mmwave"
point_id: 21
x: 1.72265625
y: 0.78125
z: 0.34375
range: 2.04811763763
velocity: 0.614668667316
doppler_bin: 9
bearing: 24.3949928284
intensity: 27.3878059387
---
header: 
  seq: 306282
  stamp: 
    secs: 1561864006
    nsecs: 470496101
  frame_id: "ti_mmwave"
point_id: 22
x: 1.759765625
y: 0.796875
z: 0.349609375
range: 2.09169459343
velocity: 0.614668667316
doppler_bin: 9
bearing: 24.3624534607
intensity: 27.3639640808
---
header: 
  seq: 306283
  stamp: 
    secs: 1561864006
    nsecs: 470507234
  frame_id: "ti_mmwave"
point_id: 23
x: 0.01171875
y: 0.03125
z: 0.025390625
range: 0.0435769706964
velocity: 0.0
doppler_bin: 8
bearing: 69.4439544678
intensity: 29.4051647186
---
header: 
  seq: 306284
  stamp: 
    secs: 1561864006
    nsecs: 470519103
  frame_id: "ti_mmwave"
point_id: 24
x: 0.041015625
y: -0.033203125
z: 0.0625
range: 0.0871539413929
velocity: 0.0
doppler_bin: 8
bearing: -38.9909973145
intensity: 30.1494026184
---
header: 
  seq: 306285
  stamp: 
    secs: 1561864006
    nsecs: 470533293
  frame_id: "ti_mmwave"
point_id: 25
x: 0.052734375
y: -0.04296875
z: 0.103515625
range: 0.130730912089
velocity: 0.0
doppler_bin: 8
bearing: -39.1736602783
intensity: 29.020029068
---
header: 
  seq: 306286
  stamp: 
    secs: 1561864006
    nsecs: 528230653
  frame_id: "ti_mmwave"
point_id: 0
x: 0.01171875
y: -0.0390625
z: -0.0078125
range: 0.0435769706964
velocity: 0.0
doppler_bin: 8
bearing: -73.3007583618
intensity: 30.7664051056
---
header: 
  seq: 306287
  stamp: 
    secs: 1561864006
    nsecs: 528319641
  frame_id: "ti_mmwave"
point_id: 1
x: 0.017578125
y: -0.080078125
z: -0.009765625
range: 0.0871539413929
velocity: 0.0
doppler_bin: 8
bearing: -77.6192398071
intensity: 31.9920654297
---
header: 
  seq: 306288
  stamp: 
    secs: 1561864006
    nsecs: 528339795
  frame_id: "ti_mmwave"
point_id: 2
x: 0.029296875
y: -0.119140625
z: -0.005859375
range: 0.130730912089
velocity: 0.0
doppler_bin: 8
bearing: -76.1849746704
intensity: 30.2530593872
---
header: 
  seq: 306289
  stamp: 
    secs: 1561864006
    nsecs: 528353122
  frame_id: "ti_mmwave"
point_id: 3
x: 0.056640625
y: -0.154296875
z: 0.005859375
range: 0.174307882786
velocity: 0.0
doppler_bin: 8
bearing: -69.8423843384
intensity: 25.5022830963
---
header: 
  seq: 306290
  stamp: 
    secs: 1561864006
    nsecs: 528366290
  frame_id: "ti_mmwave"
point_id: 4
x: 0.1484375
y: -0.080078125
z: 1.2578125
range: 1.35088610649
velocity: 0.0
doppler_bin: 8
bearing: -28.3456954956
intensity: 23.1175384521
---
header: 
  seq: 306291
  stamp: 
    secs: 1561864006
    nsecs: 528384073
  frame_id: "ti_mmwave"
point_id: 6
x: 0.41015625
y: -0.083984375
z: -1.283203125
range: 1.43804001808
velocity: 0.0
doppler_bin: 8
bearing: -11.5720338821
intensity: 23.0102996826
---
header: 
  seq: 306292
  stamp: 
    secs: 1561864006
    nsecs: 528397145
  frame_id: "ti_mmwave"
point_id: 7
x: 0.529296875
y: -0.04296875
z: -1.28515625
range: 1.48161697388
velocity: 0.0
doppler_bin: 8
bearing: -4.64113998413
intensity: 21.6731739044
---
header: 
  seq: 306293
  stamp: 
    secs: 1561864006
    nsecs: 528421748
  frame_id: "ti_mmwave"
point_id: 8
x: 2.6171875
y: -0.17578125
z: 1.044921875
range: 3.00681090355
velocity: 0.0
doppler_bin: 8
bearing: -3.84245300293
intensity: 29.0417442322
---
header: 
  seq: 306294
  stamp: 
    secs: 1561864006
    nsecs: 528443898
  frame_id: "ti_mmwave"
point_id: 9
x: 2.66015625
y: -0.1796875
z: 1.044921875
range: 3.05038785934
velocity: 0.0
doppler_bin: 8
bearing: -3.86432933807
intensity: 32.2891349792
---
header: 
  seq: 306295
  stamp: 
    secs: 1561864006
    nsecs: 528457365
  frame_id: "ti_mmwave"
point_id: 10
x: 2.75390625
y: -0.08984375
z: 0.919921875
range: 3.09396481514
velocity: 0.0
doppler_bin: 8
bearing: -1.86856126785
intensity: 31.3161869049
---
header: 
  seq: 306296
  stamp: 
    secs: 1561864006
    nsecs: 528476444
  frame_id: "ti_mmwave"
point_id: 11
x: 4.416015625
y: -0.142578125
z: 1.212890625
range: 4.88062095642
velocity: 0.0
doppler_bin: 8
bearing: -1.84924340248
intensity: 31.4144973755
---
header: 
  seq: 306297
  stamp: 
    secs: 1561864006
    nsecs: 528495420
  frame_id: "ti_mmwave"
point_id: 12
x: 4.439453125
y: -0.14453125
z: 1.27734375
range: 4.9241976738
velocity: 0.0
doppler_bin: 8
bearing: -1.86466813087
intensity: 31.2936763763
---
header: 
  seq: 306298
  stamp: 
    secs: 1561864006
    nsecs: 528516934
  frame_id: "ti_mmwave"
point_id: 13
x: 4.7265625
y: -0.298828125
z: -0.693359375
range: 5.09850549698
velocity: 0.0
doppler_bin: 8
bearing: -3.61760425568
intensity: 33.318321228
---
header: 
  seq: 306299
  stamp: 
    secs: 1561864006
    nsecs: 528536444
  frame_id: "ti_mmwave"
point_id: 14
x: 4.767578125
y: -0.30078125
z: -0.69140625
range: 5.14208269119
velocity: 0.0
doppler_bin: 8
bearing: -3.60994315147
intensity: 33.981136322
---
header: 
  seq: 306300
  stamp: 
    secs: 1561864006
    nsecs: 528554858
  frame_id: "ti_mmwave"
point_id: 15
x: 4.798828125
y: -0.15234375
z: -0.80078125
range: 5.18565940857
velocity: 0.0
doppler_bin: 8
bearing: -1.81830310822
intensity: 30.6929798126
---
header: 
  seq: 306301
  stamp: 
