header: 
  seq: 484997
  stamp: 
    secs: 1561866868
    nsecs: 346700495
  frame_id: "ti_mmwave"
point_id: 0
x: 0.01171875
y: -0.0390625
z: -0.0078125
range: 0.0435769706964
velocity: 0.0
doppler_bin: 8
bearing: -73.3007583618
intensity: 30.6818580627
---
header: 
  seq: 484998
  stamp: 
    secs: 1561866868
    nsecs: 346771760
  frame_id: "ti_mmwave"
point_id: 1
x: 0.017578125
y: -0.080078125
z: -0.0078125
range: 0.0871539413929
velocity: 0.0
doppler_bin: 8
bearing: -77.6192398071
intensity: 31.945142746
---
header: 
  seq: 484999
  stamp: 
    secs: 1561866868
    nsecs: 346789865
  frame_id: "ti_mmwave"
point_id: 2
x: 0.029296875
y: -0.119140625
z: -0.005859375
range: 0.130730912089
velocity: 0.0
doppler_bin: 8
bearing: -76.1849746704
intensity: 30.1703338623
---
header: 
  seq: 485000
  stamp: 
    secs: 1561866868
    nsecs: 346803423
  frame_id: "ti_mmwave"
point_id: 3
x: 0.056640625
y: -0.154296875
z: 0.005859375
range: 0.174307882786
velocity: 0.0
doppler_bin: 8
bearing: -69.8423843384
intensity: 25.5022830963
---
header: 
  seq: 485001
  stamp: 
    secs: 1561866868
    nsecs: 346877048
  frame_id: "ti_mmwave"
point_id: 4
x: 0.142578125
y: -0.080078125
z: 1.2578125
range: 1.35088610649
velocity: 0.0
doppler_bin: 8
bearing: -29.3204746246
intensity: 23.1597042084
---
header: 
  seq: 485002
  stamp: 
    secs: 1561866868
    nsecs: 346894824
  frame_id: "ti_mmwave"
point_id: 6
x: 0.4296875
y: -0.083984375
z: -1.27734375
range: 1.43804001808
velocity: 0.0
doppler_bin: 8
bearing: -11.0592975616
intensity: 23.1175384521
---
header: 
  seq: 485003
  stamp: 
    secs: 1561866868
    nsecs: 346908310
  frame_id: "ti_mmwave"
point_id: 7
x: 0.578125
y: -0.04296875
z: -1.263671875
range: 1.48161697388
velocity: 0.0
doppler_bin: 8
bearing: -4.25065469742
intensity: 21.7318630219
---
header: 
  seq: 485004
  stamp: 
    secs: 1561866868
    nsecs: 346920848
  frame_id: "ti_mmwave"
point_id: 8
x: 2.373046875
y: 0.30078125
z: -0.3203125
range: 2.5710413456
velocity: 0.0
doppler_bin: 8
bearing: 7.22366189957
intensity: 27.7451705933
---
header: 
  seq: 485005
  stamp: 
    secs: 1561866868
    nsecs: 346933135
  frame_id: "ti_mmwave"
point_id: 9
x: 2.6640625
y: -0.1796875
z: 1.033203125
range: 3.05038785934
velocity: 0.0
doppler_bin: 8
bearing: -3.85868024826
intensity: 32.1879806519
---
header: 
  seq: 485006
  stamp: 
    secs: 1561866868
    nsecs: 346946465
  frame_id: "ti_mmwave"
point_id: 10
x: 2.7578125
y: -0.08984375
z: 0.908203125
range: 3.09396481514
velocity: 0.0
doppler_bin: 8
bearing: -1.86591637135
intensity: 31.1958580017
---
header: 
  seq: 485007
  stamp: 
    secs: 1561866868
    nsecs: 346958872
  frame_id: "ti_mmwave"
point_id: 11
x: 4.404296875
y: -0.142578125
z: 1.251953125
range: 4.88062095642
velocity: 0.0
doppler_bin: 8
bearing: -1.85416030884
intensity: 31.332195282
---
header: 
  seq: 485008
  stamp: 
    secs: 1561866868
    nsecs: 346971973
  frame_id: "ti_mmwave"
point_id: 12
x: 4.404296875
y: -0.14453125
z: 1.39453125
range: 4.9241976738
velocity: 0.0
doppler_bin: 8
bearing: -1.87954175472
intensity: 31.0924091339
---
header: 
  seq: 485009
  stamp: 
    secs: 1561866868
    nsecs: 346987278
  frame_id: "ti_mmwave"
point_id: 13
x: 4.716796875
y: -0.296875
z: -0.435546875
range: 5.0549287796
velocity: 0.0
doppler_bin: 8
bearing: -3.60144305229
intensity: 29.31457901
---
header: 
  seq: 485010
  stamp: 
    secs: 1561866868
    nsecs: 347000494
  frame_id: "ti_mmwave"
point_id: 14
x: 4.736328125
y: -0.298828125
z: -0.623046875
range: 5.09850549698
velocity: 0.0
doppler_bin: 8
bearing: -3.61016488075
intensity: 33.4004745483
---
header: 
  seq: 485011
  stamp: 
    secs: 1561866868
    nsecs: 347014890
  frame_id: "ti_mmwave"
point_id: 15
x: 4.765625
y: -0.30078125
z: -0.708984375
range: 5.14208269119
velocity: 0.0
doppler_bin: 8
bearing: -3.61141896248
intensity: 33.886341095
---
header: 
  seq: 485012
  stamp: 
    secs: 1561866868
    nsecs: 347042348
  frame_id: "ti_mmwave"
point_id: 16
x: 4.806640625
y: -0.0
z: -0.767578125
range: 5.18565940857
velocity: 0.0
doppler_bin: 8
bearing: -0.0
intensity: 30.0987567902
---
header: 
  seq: 485013
  stamp: 
    secs: 1561866868
    nsecs: 347113166
  frame_id: "ti_mmwave"
point_id: 17
x: 4.892578125
y: -0.30859375
z: 0.681640625
range: 5.27281332016
velocity: 0.0
doppler_bin: 8
bearing: -3.60908436775
intensity: 31.176027298
---
header: 
  seq: 485014
  stamp: 
    secs: 1561866868
    nsecs: 347131015
  frame_id: "ti_mmwave"
point_id: 18
x: 4.951171875
y: -0.623046875
z: 0.0546875
range: 5.31639051437
velocity: 0.0
doppler_bin: 8
bearing: -7.17230129242
intensity: 29.7863693237
---
header: 
  seq: 485015
  stamp: 
    secs: 1561866868
    nsecs: 347147269
  frame_id: "ti_mmwave"
point_id: 20
x: 0.041015625
y: -0.033203125
z: 0.0625
range: 0.0871539413929
velocity: 0.0
doppler_bin: 8
bearing: -38.9909973145
intensity: 30.1325874329
---
header: 
  seq: 485016
  stamp: 
    secs: 1561866868
    nsecs: 347160730
  frame_id: "ti_mmwave"
point_id: 21
x: 0.044921875
y: -0.046875
z: 0.103515625
range: 0.130730912089
velocity: 0.0
doppler_bin: 8
bearing: -46.218875885
intensity: 29.0471553802
---
header: 
  seq: 485017
  stamp: 
    secs: 1561866868
    nsecs: 347177661
  frame_id: "ti_mmwave"
point_id: 23
x: 4.7734375
y: -0.3046875
z: -0.904296875
range: 5.18565940857
velocity: 0.0
doppler_bin: 8
bearing: -3.65222287178
intensity: 30.0945091248
---
header: 
  seq: 485018
  stamp: 
    secs: 1561866868
    nsecs: 348236586
  frame_id: "ti_mmwave"
point_id: 0
x: 0.01171875
y: -0.0390625
z: -0.0078125
range: 0.0435769706964
velocity: 0.0
doppler_bin: 8
bearing: -73.3007583618
intensity: 30.6818580627
---
header: 
  seq: 485019
  stamp: 
    secs: 1561866868
    nsecs: 348301245
  frame_id: "ti_mmwave"
point_id: 1
x: 0.017578125
y: -0.080078125
z: -0.0078125
range: 0.0871539413929
velocity: 0.0
doppler_bin: 8
bearing: -77.6192398071
intensity: 31.945142746
---
header: 
  seq: 485020
  stamp: 
    secs: 1561866868
    nsecs: 348316995
  frame_id: "ti_mmwave"
point_id: 2
x: 0.029296875
y: -0.119140625
z: -0.005859375
range: 0.130730912089
velocity: 0.0
doppler_bin: 8
bearing: -76.1849746704
intensity: 30.1703338623
---
header: 
  seq: 485021
  stamp: 
    secs: 1561866868
    nsecs: 348329679
  frame_id: "ti_mmwave"
point_id: 3
x: 0.056640625
y: -0.154296875
z: 0.005859375
range: 0.174307882786
velocity: 0.0
doppler_bin: 8
bearing: -69.8423843384
intensity: 25.490032196
---
header: 
  seq: 485022
  stamp: 
    secs: 1561866868
    nsecs: 348342145
  frame_id: "ti_mmwave"
point_id: 4
x: 0.125
y: -0.080078125
z: 1.259765625
range: 1.35088610649
velocity: 0.0
doppler_bin: 8
bearing: -32.6446380615
intensity: 23.138671875
---
header: 
  seq: 485023
  stamp: 
    secs: 1561866868
    nsecs: 348411499
  frame_id: "ti_mmwave"
point_id: 6
x: 0.423828125
y: -0.083984375
z: -1.279296875
range: 1.43804001808
velocity: 0.0
doppler_bin: 8
bearing: -11.2083444595
intensity: 23.0963020325
---
header: 
  seq: 485024
  stamp: 
    secs: 1561866868
    nsecs: 348425333
  frame_id: "ti_mmwave"
point_id: 7
x: 0.560546875
y: -0.04296875
z: -1.271484375
range: 1.48161697388
velocity: 0.0
doppler_bin: 8
bearing: -4.38343858719
intensity: 21.7026176453
---
header: 
  seq: 485025
  stamp: 
    secs: 1561866868
    nsecs: 348436940
  frame_id: "ti_mmwave"
point_id: 8
x: 2.6875
y: -0.08984375
z: 0.982421875
range: 3.05038785934
velocity: 0.0
doppler_bin: 8
bearing: -1.91469812393
intensity: 32.1616592407
---
header: 
  seq: 485026
  stamp: 
    secs: 1561866868
    nsecs: 348450103
  frame_id: "ti_mmwave"
point_id: 9
x: 2.751953125
y: -0.08984375
z: 0.921875
range: 3.09396481514
velocity: 0.0
doppler_bin: 8
bearing: -1.86988639832
intensity: 31.2123146057
---
header: 
  seq: 485027
  stamp: 
    secs: 1561866868
    nsecs: 348462881
  frame_id: "ti_mmwave"
point_id: 10
x: 4.3984375
y: -0.142578125
z: 1.275390625
range: 4.88062095642
velocity: 0.0
doppler_bin: 8
bearing: -1.8566287756
intensity: 31.2385158539
---
header: 
  seq: 485028
  stamp: 
    secs: 1561866868
    nsecs: 348474232
  frame_id: "ti_mmwave"
point_id: 11
x: 4.318359375
y: -0.14453125
z: 1.64453125
range: 4.9241976738
velocity: 0.0
doppler_bin: 8
bearing: -1.91691803932
intensity: 30.5422992706
---
header: 
  seq: 485029
  stamp: 
    secs: 1561866868
    nsecs: 348485020
  frame_id: "ti_mmwave"
point_id: 12
x: 4.73828125
y: -0.298828125
z: -0.599609375
range: 5.09850549698
velocity: 0.0
doppler_bin: 8
bearing: -3.60868048668
intensity: 33.300075531
---
header: 
  seq: 485030
  stamp: 
    secs: 1561866868
    nsecs: 348500698
  frame_id: "ti_mmwave"
point_id: 13
x: 4.77734375
y: -0.30078125
z: -0.623046875
range: 5.14208269119
velocity: 0.0
doppler_bin: 8
bearing: -3.60258316994
intensity: 33.907585144
---
header: 
  seq: 485031
  stamp: 
    secs: 1561866868
    nsecs: 348559003
  frame_id: "ti_mmwave"
point_id: 14
x: 4.888671875
y: -0.30859375
z: 0.7109375
range: 5.27281332016
velocity: 0.0
doppler_bin: 8
bearing: -3.61196112633
intensity: 31.1527767181
---
header: 
  seq: 485032
  stamp: 
    secs: 1561866868
    nsecs: 348572616
  frame_id: "ti_mmwave"
point_id: 15
x: 4.966796875
y: -0.46875
z: 0.099609375
range: 5.31639051437
velocity: 0.0
doppler_bin: 8
bearing: -5.39141845703
intensity: 29.8227119446
---
header: 
  seq: 485033
  stamp: 
    secs: 1561866868
    nsecs: 348589377
  frame_id: "ti_mmwave"
point_id: 17
x: 0.041015625
y: -0.033203125
z: 0.0625
range: 0.0871539413929
velocity: 0.0
doppler_bin: 8
bearing: -38.9909973145
intensity: 30.1325874329
---
header: 
  seq: 485034
  stamp: 
    secs: 1561866868
    nsecs: 348600679
  frame_id: "ti_mmwave"
point_id: 18
x: 0.044921875
y: -0.046875
z: 0.103515625
range: 0.130730912089
velocity: 0.0
doppler_bin: 8
bearing: -46.218875885
intensity: 29.0471553802
---
header: 
  seq: 485035
  stamp: 
    secs: 1561866868
    nsecs: 348615828
  frame_id: "ti_mmwave"
point_id: 20
x: 4.927734375
y: -0.779296875
z: 0.1015625
range: 5.31639051437
velocity: 0.0
doppler_bin: 8
bearing: -8.98661994934
intensity: 29.7543182373
---
header: 
  seq: 485036
  stamp: 
    secs: 1561866868
    nsecs: 406876674
  frame_id: "ti_mmwave"
point_id: 0
x: 0.01171875
y: -0.0390625
z: -0.0078125
range: 0.0435769706964
velocity: 0.0
doppler_bin: 8
bearing: -73.3007583618
intensity: 30.678144455
---
header: 
  seq: 485037
  stamp: 
    secs: 1561866868
    nsecs: 406929960
  frame_id: "ti_mmwave"
point_id: 1
x: 0.017578125
y: -0.080078125
z: -0.0078125
range: 0.0871539413929
velocity: 0.0
doppler_bin: 8
bearing: -77.6192398071
intensity: 31.9423675537
---
header: 
  seq: 485038
  stamp: 
    secs: 1561866868
    nsecs: 406937672
  frame_id: "ti_mmwave"
point_id: 2
x: 0.029296875
y: -0.119140625
z: -0.005859375
range: 0.130730912089
velocity: 0.0
doppler_bin: 8
bearing: -76.1849746704
intensity: 30.1661548615
---
header: 
  seq: 485039
  stamp: 
    secs: 1561866868
    nsecs: 406945524
  frame_id: "ti_mmwave"
point_id: 3
x: 0.056640625
y: -0.154296875
z: 0.0078125
range: 0.174307882786
velocity: 0.0
doppler_bin: 8
bearing: -69.8423843384
intensity: 25.490032196
---
header: 
  seq: 485040
  stamp: 
    secs: 1561866868
    nsecs: 406953229
  frame_id: "ti_mmwave"
point_id: 4
x: 0.111328125
y: -0.080078125
z: 1.259765625
range: 1.35088610649
velocity: 0.0
doppler_bin: 8
bearing: -35.7273979187
intensity: 23.138671875
---
header: 
  seq: 485041
  stamp: 
    secs: 1561866868
    nsecs: 406960723
  frame_id: "ti_mmwave"
point_id: 6
x: 0.44140625
y: -0.083984375
z: -1.2734375
range: 1.43804001808
velocity: 0.0
doppler_bin: 8
bearing: -10.7726478577
intensity: 23.0749607086
---
header: 
  seq: 485042
  stamp: 
    secs: 1561866868
    nsecs: 406966760
  frame_id: "ti_mmwave"
point_id: 7
x: 2.33203125
y: 0.22265625
z: -0.373046875
range: 2.5274643898
velocity: 0.0
doppler_bin: 8
bearing: 5.45391893387
intensity: 25.8771095276
---
header: 
  seq: 485043
  stamp: 
    secs: 1561866868
    nsecs: 406972240
  frame_id: "ti_mmwave"
point_id: 8
x: 2.380859375
y: 0.2265625
z: -0.318359375
range: 2.5710413456
velocity: 0.0
doppler_bin: 8
bearing: 5.4358959198
intensity: 27.3639640808
---
header: 
  seq: 485044
  stamp: 
    secs: 1561866868
    nsecs: 406978262
  frame_id: "ti_mmwave"
point_id: 9
x: 2.44921875
y: 0.154296875
z: 0.015625
range: 2.61461830139
velocity: 0.0
doppler_bin: 8
bearing: 3.60477876663
intensity: 27.5434837341
---
header: 
  seq: 485045
  stamp: 
    secs: 1561866868
    nsecs: 406984479
  frame_id: "ti_mmwave"
point_id: 10
x: 2.462890625
y: 0.078125
z: 0.388671875
range: 2.65819525719
velocity: 0.0
doppler_bin: 8
bearing: 1.81686210632
intensity: 26.8033542633
---
header: 
  seq: 485046
  stamp: 
    secs: 1561866868
    nsecs: 406991344
  frame_id: "ti_mmwave"
point_id: 11
x: 2.693359375
y: -0.08984375
z: 0.96875
range: 3.05038785934
velocity: 0.0
doppler_bin: 8
bearing: -1.91053581238
intensity: 32.2375526428
---
header: 
  seq: 485047
  stamp: 
    secs: 1561866868
    nsecs: 406997604
  frame_id: "ti_mmwave"
point_id: 12
x: 2.775390625
y: -0.0
z: 0.857421875
range: 3.09396481514
velocity: 0.0
doppler_bin: 8
bearing: -0.0
intensity: 31.1859531403
---
header: 
  seq: 485048
  stamp: 
    secs: 1561866868
    nsecs: 407003830
  frame_id: "ti_mmwave"
point_id: 13
x: 4.40625
y: -0.142578125
z: 1.244140625
range: 4.88062095642
velocity: 0.0
doppler_bin: 8
bearing: -1.85333895683
intensity: 31.3353881836
---
header: 
  seq: 485049
  stamp: 
    secs: 1561866868
    nsecs: 407009895
  frame_id: "ti_mmwave"
point_id: 14
x: 4.419921875
y: -0.14453125
z: 1.34765625
range: 4.9241976738
velocity: 0.0
doppler_bin: 8
bearing: -1.87290215492
intensity: 31.0174713135
---
header: 
  seq: 485050
  stamp: 
    secs: 1561866868
    nsecs: 407071839
  frame_id: "ti_mmwave"
point_id: 15
x: 4.73828125
y: -0.298828125
z: -0.59765625
range: 5.09850549698
velocity: 0.0
doppler_bin: 8
bearing: -3.60868048668
intensity: 33.3625946045
---
header: 
  seq: 485051
  stamp: 
    secs: 1561866868
    nsecs: 407080376
  frame_id: "ti_mmwave"
point_id: 16
x: 4.775390625
y: -0.30078125
z: -0.640625
range: 5.14208269119
velocity: 0.0
doppler_bin: 8
bearing: -3.60405302048
intensity: 34.0122833252
---
header: 
  seq: 485052
  stamp: 
    secs: 1561866868
    nsecs: 407086187
  frame_id: "ti_mmwave"
point_id: 17
x: 4.79296875
y: -0.15234375
z: -0.8359375
range: 5.18565940857
velocity: 0.0
doppler_bin: 8
bearing: -1.8205242157
intensity: 30.4532299042
---
header: 
  seq: 485053
  stamp: 
    secs: 1561866868
    nsecs: 407092687
  frame_id: "ti_mmwave"
point_id: 18
x: 4.890625
y: -0.46484375
z: 0.611328125
range: 5.27281332016
velocity: 0.0
doppler_bin: 8
bearing: -5.42953395844
intensity: 30.3502922058
---
header: 
  seq: 485054
  stamp: 
    secs: 1561866868
    nsecs: 407100216
  frame_id: "ti_mmwave"
point_id: 19
x: 4.951171875
y: -0.623046875
z: -0.076171875
range: 5.31639051437
velocity: 0.0
doppler_bin: 8
bearing: -7.17230129242
intensity: 29.2839584351
---
header: 
  seq: 485055
  stamp: 
    secs: 1561866868
    nsecs: 407107564
  frame_id: "ti_mmwave"
point_id: 21
x: 0.041015625
y: -0.033203125
z: 0.0625
range: 0.0871539413929
velocity: 0.0
doppler_bin: 8
bearing: -38.9909973145
intensity: 30.1283721924
---
header: 
  seq: 485056
  stamp: 
    secs: 1561866868
    nsecs: 407114075
  frame_id: "ti_mmwave"
point_id: 22
x: 0.044921875
y: -0.046875
z: 0.103515625
range: 0.130730912089
velocity: 0.0
doppler_bin: 8
bearing: -46.218875885
intensity: 29.0471553802
---
header: 
  seq: 485057
  stamp: 
    secs: 1561866868
    nsecs: 407121513
  frame_id: "ti_mmwave"
point_id: 24
x: 2.734375
y: -0.181640625
z: 0.9609375
range: 3.09396481514
velocity: 0.0
doppler_bin: 8
bearing: -3.80049324036
intensity: 31.1660766602
---
header: 
  seq: 485058
  stamp: 
    secs: 1561866868
    nsecs: 407127983
  frame_id: "ti_mmwave"
point_id: 25
x: 4.90234375
y: -0.935546875
z: -0.07421875
range: 5.31639051437
velocity: 0.0
doppler_bin: 8
bearing: -10.8042259216
intensity: 29.2531204224
---
header: 
  seq: 485059
  stamp: 
    secs: 1561866868
    nsecs: 408125022
  frame_id: "ti_mmwave"
point_id: 0
x: 0.01171875
y: -0.0390625
z: -0.0078125
range: 0.0435769706964
velocity: 0.0
doppler_bin: 8
bearing: -73.3007583618
intensity: 30.6818580627
---
header: 
  seq: 485060
  stamp: 
    secs: 1561866868
    nsecs: 408173860
  frame_id: "ti_mmwave"
point_id: 1
x: 0.017578125
y: -0.080078125
z: -0.0078125
range: 0.0871539413929
velocity: 0.0
doppler_bin: 8
bearing: -77.6192398071
intensity: 31.9479179382
---
header: 
  seq: 485061
  stamp: 
    secs: 1561866868
    nsecs: 408187839
  frame_id: "ti_mmwave"
point_id: 2
x: 0.029296875
y: -0.119140625
z: -0.005859375
range: 0.130730912089
velocity: 0.0
doppler_bin: 8
bearing: -76.1849746704
intensity: 30.1703338623
---
header: 
  seq: 485062
  stamp: 
    secs: 1561866868
    nsecs: 408205113
  frame_id: "ti_mmwave"
point_id: 3
x: 0.056640625
y: -0.154296875
z: 0.005859375
range: 0.174307882786
velocity: 0.0
doppler_bin: 8
bearing: -69.8423843384
intensity: 25.5022830963
---
header: 
  seq: 485063
  stamp: 
    secs: 1561866868
    nsecs: 408252418
  frame_id: "ti_mmwave"
point_id: 4
x: 0.080078125
y: -0.080078125
z: 1.263671875
range: 1.35088610649
velocity: 0.0
doppler_bin: 8
bearing: -45.0
intensity: 23.138671875
---
header: 
  seq: 485064
  stamp: 
    secs: 1561866868
    nsecs: 408263140
  frame_id: "ti_mmwave"
point_id: 5
x: 0.07421875
y: -0.08203125
z: -1.3046875
range: 1.39446306229
velocity: 0.0
doppler_bin: 8
bearing: -47.8624038696
intensity: 24.6538276672
---
header: 
  seq: 485065
  stamp: 
    secs: 1561866868
    nsecs: 408272379
  frame_id: "ti_mmwave"
point_id: 6
x: 0.451171875
y: -0.083984375
z: -1.26953125
range: 1.43804001808
velocity: 0.0
doppler_bin: 8
bearing: -10.5447587967
intensity: 23.0749607086
---
header: 
  seq: 485066
  stamp: 
    secs: 1561866868
    nsecs: 408282302
  frame_id: "ti_mmwave"
point_id: 7
x: 0.564453125
y: -0.04296875
z: -1.26953125
range: 1.48161697388
velocity: 0.0
doppler_bin: 8
bearing: -4.35321998596
intensity: 21.6731739044
---
header: 
  seq: 485067
  stamp: 
    secs: 1561866868
    nsecs: 408295365
  frame_id: "ti_mmwave"
point_id: 8
x: 2.23828125
y: 0.287109375
z: -0.390625
range: 2.44031047821
velocity: 0.0
doppler_bin: 8
bearing: 7.30954313278
intensity: 26.6838588715
---
header: 
  seq: 485068
  stamp: 
    secs: 1561866868
    nsecs: 408325879
  frame_id: "ti_mmwave"
point_id: 9
x: 2.29296875
y: 0.291015625
z: -0.314453125
range: 2.48388743401
velocity: 0.0
doppler_bin: 8
bearing: 7.23311042786
intensity: 29.1803035736
---
header: 
  seq: 485069
  stamp: 
    secs: 1561866868
    nsecs: 408337878
  frame_id: "ti_mmwave"
point_id: 10
x: 2.345703125
y: 0.296875
z: -0.197265625
range: 2.5274643898
velocity: 0.0
doppler_bin: 8
bearing: 7.21307325363
intensity: 27.9448795319
---
header: 
  seq: 485070
  stamp: 
    secs: 1561866868
    nsecs: 408347111
  frame_id: "ti_mmwave"
point_id: 11
x: 2.69140625
y: -0.08984375
z: 0.97265625
range: 3.05038785934
velocity: 0.0
doppler_bin: 8
bearing: -1.91192126274
intensity: 32.2193565369
---
header: 
  seq: 485071
  stamp: 
    secs: 1561866868
    nsecs: 408376231
  frame_id: "ti_mmwave"
point_id: 12
x: 2.7734375
y: -0.0
z: 0.865234375
range: 3.09396481514
velocity: 0.0
doppler_bin: 8
bearing: -0.0
intensity: 31.1859531403
---
header: 
  seq: 485072
  stamp: 
    secs: 1561866868
    nsecs: 408385841
  frame_id: "ti_mmwave"
point_id: 13
x: 4.400390625
y: -0.142578125
z: 1.267578125
range: 4.88062095642
velocity: 0.0
doppler_bin: 8
bearing: -1.85580503941
intensity: 31.2904510498
---
header: 
  seq: 485073
  stamp: 
    secs: 1561866868
    nsecs: 408406161
  frame_id: "ti_mmwave"
point_id: 14
x: 4.35546875
y: -0.14453125
z: 1.541015625
range: 4.9241976738
velocity: 0.0
doppler_bin: 8
bearing: -1.90059769154
intensity: 30.824262619
---
header: 
  seq: 485074
  stamp: 
    secs: 1561866868
    nsecs: 408442805
  frame_id: "ti_mmwave"
point_id: 15
x: 4.689453125
y: -0.146484375
z: -0.349609375
range: 5.01135158539
velocity: 0.0
doppler_bin: 8
bearing: -1.78916561604
intensity: 29.1750545502
---
header: 
  seq: 485075
  stamp: 
    secs: 1561866868
    nsecs: 408452828
  frame_id: "ti_mmwave"
point_id: 16
x: 4.740234375
y: -0.298828125
z: -0.587890625
range: 5.09850549698
velocity: 0.0
doppler_bin: 8
bearing: -3.60719799995
intensity: 33.4596138
---
header: 
  seq: 485076
  stamp: 
    secs: 1561866868
    nsecs: 408470129
  frame_id: "ti_mmwave"
point_id: 17
x: 4.775390625
y: -0.30078125
z: -0.62890625
range: 5.14208269119
velocity: 0.0
doppler_bin: 8
bearing: -3.60405302048
intensity: 34.1195640564
---
header: 
  seq: 485077
  stamp: 
    secs: 1561866868
    nsecs: 408533729
  frame_id: "ti_mmwave"
point_id: 18
x: 4.779296875
y: -0.15234375
z: -0.916015625
range: 5.18565940857
velocity: 0.0
doppler_bin: 8
bearing: -1.82572877407
intensity: 30.4099769592
---
header: 
  seq: 485078
  stamp: 
    secs: 1561866868
    nsecs: 408554677
  frame_id: "ti_mmwave"
point_id: 19
x: 4.88671875
y: -0.30859375
z: 0.71875
range: 5.27281332016
velocity: 0.0
doppler_bin: 8
bearing: -3.61340069771
intensity: 31.0002574921
---
header: 
  seq: 485079
  stamp: 
    secs: 1561866868
    nsecs: 408565337
  frame_id: "ti_mmwave"
point_id: 20
x: 4.951171875
y: -0.623046875
z: 0.068359375
range: 5.31639051437
velocity: 0.0
doppler_bin: 8
bearing: -7.17230129242
intensity: 29.5904140472
---
header: 
  seq: 485080
  stamp: 
    secs: 1561866868
    nsecs: 408574341
  frame_id: "ti_mmwave"
point_id: 22
x: 0.041015625
y: -0.033203125
z: 0.0625
range: 0.0871539413929
velocity: 0.0
doppler_bin: 8
bearing: -38.9909973145
intensity: 30.1241531372
---
header: 
  seq: 485081
  stamp: 
    secs: 1561866868
    nsecs: 408604709
  frame_id: "ti_mmwave"
point_id: 23
x: 0.044921875
y: -0.046875
z: 0.103515625
range: 0.130730912089
velocity: 0.0
doppler_bin: 8
bearing: -46.218875885
intensity: 29.0417442322
---
header: 
  seq: 485082
  stamp: 
    secs: 1561866868
    nsecs: 408616735
  frame_id: "ti_mmwave"
point_id: 25
x: 2.732421875
y: -0.181640625
z: 0.970703125
range: 3.09396481514
velocity: 0.0
doppler_bin: 8
bearing: -3.80320167542
intensity: 31.1627559662
---
header: 
  seq: 485083
  stamp: 
    secs: 1561866868
    nsecs: 466770533
  frame_id: "ti_mmwave"
point_id: 0
x: 0.01171875
y: -0.0390625
z: -0.0078125
range: 0.0435769706964
velocity: 0.0
doppler_bin: 8
bearing: -73.3007583618
intensity: 30.6855697632
---
header: 
  seq: 485084
  stamp: 
    secs: 1561866868
    nsecs: 466861585
  frame_id: "ti_mmwave"
point_id: 1
x: 0.017578125
y: -0.080078125
z: -0.0078125
range: 0.0871539413929
velocity: 0.0
doppler_bin: 8
bearing: -77.6192398071
intensity: 31.9479179382
---
header: 
  seq: 485085
  stamp: 
    secs: 1561866868
    nsecs: 466881698
  frame_id: "ti_mmwave"
point_id: 2
x: 0.029296875
y: -0.119140625
z: -0.005859375
range: 0.130730912089
velocity: 0.0
doppler_bin: 8
bearing: -76.1849746704
intensity: 30.1703338623
---
header: 
  seq: 485086
  stamp: 
    secs: 1561866868
    nsecs: 466894901
  frame_id: "ti_mmwave"
point_id: 3
x: 0.056640625
y: -0.154296875
z: 0.0078125
range: 0.174307882786
velocity: 0.0
doppler_bin: 8
bearing: -69.8423843384
intensity: 25.5022830963
---
header: 
  seq: 485087
  stamp: 
    secs: 1561866868
    nsecs: 466910097
  frame_id: "ti_mmwave"
point_id: 4
x: 0.111328125
y: -0.080078125
z: 1.259765625
range: 1.35088610649
velocity: 0.0
doppler_bin: 8
bearing: -35.7273979187
intensity: 23.1597042084
---
header: 
  seq: 485088
  stamp: 
    secs: 1561866868
    nsecs: 466993923
  frame_id: "ti_mmwave"
point_id: 6
x: 0.396484375
y: -0.083984375
z: -1.287109375
range: 1.43804001808
velocity: 0.0
doppler_bin: 8
bearing: -11.9597616196
intensity: 23.138671875
---
header: 
  seq: 485089
  stamp: 
    secs: 1561866868
    nsecs: 467009085
  frame_id: "ti_mmwave"
point_id: 7
x: 2.25390625
y: 0.357421875
z: -0.201171875
range: 2.44031047821
velocity: 0.0
doppler_bin: 8
bearing: 9.01086616516
intensity: 27.9239177704
---
header: 
  seq: 485090
  stamp: 
    secs: 1561866868
    nsecs: 467020818
  frame_id: "ti_mmwave"
point_id: 8
x: 2.306640625
y: 0.291015625
z: -0.177734375
range: 2.48388743401
velocity: 0.0
doppler_bin: 8
bearing: 7.19068813324
intensity: 31.1226978302
---
header: 
  seq: 485091
  stamp: 
    secs: 1561866868
    nsecs: 467032663
  frame_id: "ti_mmwave"
point_id: 9
x: 2.33203125
y: 0.37109375
z: -0.236328125
range: 2.5274643898
velocity: 0.0
doppler_bin: 8
bearing: 9.0416097641
intensity: 30.6445808411
---
header: 
  seq: 485092
  stamp: 
    secs: 1561866868
    nsecs: 467043621
  frame_id: "ti_mmwave"
point_id: 10
x: 2.365234375
y: 0.2265625
z: -0.427734375
range: 2.5710413456
velocity: 0.0
doppler_bin: 8
bearing: 5.47158908844
intensity: 27.7378635406
---
header: 
  seq: 485093
  stamp: 
    secs: 1561866868
    nsecs: 467056943
  frame_id: "ti_mmwave"
point_id: 11
x: 2.6875
y: -0.08984375
z: 0.984375
range: 3.05038785934
velocity: 0.0
doppler_bin: 8
bearing: -1.91469812393
intensity: 32.2115325928
---
header: 
  seq: 485094
  stamp: 
    secs: 1561866868
    nsecs: 467070723
  frame_id: "ti_mmwave"
point_id: 12
x: 2.75390625
y: -0.08984375
z: 0.921875
range: 3.09396481514
velocity: 0.0
doppler_bin: 8
bearing: -1.86856126785
intensity: 31.2807598114
---
header: 
  seq: 485095
  stamp: 
    secs: 1561866868
    nsecs: 467124198
  frame_id: "ti_mmwave"
point_id: 13
x: 4.404296875
y: -0.142578125
z: 1.25390625
range: 4.88062095642
velocity: 0.0
doppler_bin: 8
bearing: -1.85416030884
intensity: 31.3924922943
---
header: 
  seq: 485096
  stamp: 
    secs: 1561866868
    nsecs: 467138757
  frame_id: "ti_mmwave"
point_id: 14
x: 4.40234375
y: -0.14453125
z: 1.404296875
range: 4.9241976738
velocity: 0.0
doppler_bin: 8
bearing: -1.88037514687
intensity: 31.0720996857
---
header: 
  seq: 485097
  stamp: 
    secs: 1561866868
    nsecs: 467150959
  frame_id: "ti_mmwave"
point_id: 15
x: 4.734375
y: -0.298828125
z: -0.630859375
range: 5.09850549698
velocity: 0.0
doppler_bin: 8
bearing: -3.61165046692
intensity: 33.2939796448
---
header: 
  seq: 485098
  stamp: 
    secs: 1561866868
    nsecs: 467162594
  frame_id: "ti_mmwave"
point_id: 16
x: 4.771484375
y: -0.30078125
z: -0.669921875
range: 5.14208269119
velocity: 0.0
doppler_bin: 8
bearing: -3.60699558258
intensity: 33.9724464417
---
header: 
  seq: 485099
  stamp: 
    secs: 1561866868
    nsecs: 467174139
  frame_id: "ti_mmwave"
point_id: 17
x: 4.779296875
y: -0.15234375
z: -0.91015625
range: 5.18565940857
velocity: 0.0
doppler_bin: 8
bearing: -1.82572877407
intensity: 30.0216598511
---
header: 
  seq: 485100
  stamp: 
    secs: 1561866868
    nsecs: 467185599
  frame_id: "ti_mmwave"
point_id: 18
x: 4.890625
y: -0.30859375
z: 0.703125
range: 5.27281332016
velocity: 0.0
doppler_bin: 8
bearing: -3.61052203178
intensity: 31.3672065735
---
header: 
  seq: 485101
  stamp: 
    secs: 1561866868
    nsecs: 467201180
  frame_id: "ti_mmwave"
point_id: 19
x: 4.951171875
y: -0.623046875
z: 0.048828125
range: 5.31639051437
velocity: 0.0
doppler_bin: 8
bearing: -7.17230129242
intensity: 29.7543182373
---
header: 
  seq: 485102
  stamp: 
    secs: 1561866868
    nsecs: 467228030
  frame_id: "ti_mmwave"
point_id: 21
x: 0.041015625
y: -0.033203125
z: 0.0625
range: 0.0871539413929
velocity: 0.0
doppler_bin: 8
bearing: -38.9909973145
intensity: 30.1325874329
---
header: 
  seq: 485103
  stamp: 
    secs: 1561866868
    nsecs: 467248884
  frame_id: "ti_mmwave"
point_id: 22
x: 0.044921875
y: -0.046875
z: 0.103515625
range: 0.130730912089
velocity: 0.0
doppler_bin: 8
bearing: -46.218875885
intensity: 29.0471553802
---
header: 
  seq: 485104
  stamp: 
    secs: 1561866868
    nsecs: 468326735
  frame_id: "ti_mmwave"
point_id: 0
x: 0.01171875
y: -0.0390625
z: -0.0078125
range: 0.0435769706964
velocity: 0.0
doppler_bin: 8
bearing: -73.3007583618
intensity: 30.6892757416
---
header: 
  seq: 485105
  stamp: 
    secs: 1561866868
    nsecs: 468378805
  frame_id: "ti_mmwave"
point_id: 1
x: 0.017578125
y: -0.080078125
z: -0.0078125
range: 0.0871539413929
velocity: 0.0
doppler_bin: 8
bearing: -77.6192398071
intensity: 31.945142746
---
header: 
  seq: 485106
  stamp: 
    secs: 1561866868
    nsecs: 468395259
  frame_id: "ti_mmwave"
point_id: 2
x: 0.029296875
y: -0.119140625
z: -0.005859375
range: 0.130730912089
velocity: 0.0
doppler_bin: 8
bearing: -76.1849746704
intensity: 30.1703338623
---
header: 
  seq: 485107
  stamp: 
    secs: 1561866868
    nsecs: 468446110
  frame_id: "ti_mmwave"
point_id: 3
x: 0.056640625
y: -0.154296875
z: 0.005859375
range: 0.174307882786
velocity: 0.0
doppler_bin: 8
bearing: -69.8423843384
intensity: 25.490032196
---
header: 
  seq: 485108
  stamp: 
    secs: 1561866868
    nsecs: 468464772
  frame_id: "ti_mmwave"
point_id: 6
x: 0.408203125
y: -0.083984375
z: -1.283203125
range: 1.43804001808
velocity: 0.0
doppler_bin: 8
bearing: -11.6258993149
intensity: 23.0963020325
---
header: 
  seq: 485109
  stamp: 
    secs: 1561866868
    nsecs: 468479329
  frame_id: "ti_mmwave"
point_id: 7
x: 0.544921875
y: -0.04296875
z: -1.279296875
range: 1.48161697388
velocity: 0.0
doppler_bin: 8
bearing: -4.50861787796
intensity: 21.7026176453
---
header: 
  seq: 485110
  stamp: 
    secs: 1561866868
    nsecs: 468488048
  frame_id: "ti_mmwave"
point_id: 8
x: 2.66015625
y: -0.1796875
z: 1.04296875
range: 3.05038785934
velocity: 0.0
doppler_bin: 8
bearing: -3.86432933807
intensity: 32.240146637
---
header: 
  seq: 485111
  stamp: 
    secs: 1561866868
    nsecs: 468528397
  frame_id: "ti_mmwave"
point_id: 9
x: 2.759765625
y: -0.08984375
z: 0.90234375
range: 3.09396481514
velocity: 0.0
doppler_bin: 8
bearing: -1.86459684372
intensity: 31.3289985657
---
header: 
  seq: 485112
  stamp: 
    secs: 1561866868
    nsecs: 468542365
  frame_id: "ti_mmwave"
point_id: 10
x: 4.400390625
y: -0.142578125
z: 1.26953125
range: 4.88062095642
velocity: 0.0
doppler_bin: 8
bearing: -1.85580503941
intensity: 31.3513259888
---
header: 
  seq: 485113
  stamp: 
    secs: 1561866868
    nsecs: 468553835
  frame_id: "ti_mmwave"
point_id: 11
x: 4.37109375
y: -0.14453125
z: 1.494140625
range: 4.9241976738
velocity: 0.0
doppler_bin: 8
bearing: -1.89380848408
intensity: 30.5994186401
---
header: 
  seq: 485114
  stamp: 
    secs: 1561866868
    nsecs: 468577339
  frame_id: "ti_mmwave"
point_id: 12
x: 4.728515625
y: -0.44921875
z: -0.587890625
range: 5.09850549698
velocity: 0.0
doppler_bin: 8
bearing: -5.42692995071
intensity: 33.0706787109
---
header: 
  seq: 485115
  stamp: 
    secs: 1561866868
    nsecs: 468596365
  frame_id: "ti_mmwave"
point_id: 13
x: 4.783203125
y: -0.30078125
z: -0.572265625
range: 5.14208269119
velocity: 0.0
doppler_bin: 8
bearing: -3.59818196297
intensity: 33.5256843567
---
header: 
  seq: 485116
  stamp: 
    secs: 1561866868
    nsecs: 468614994
  frame_id: "ti_mmwave"
point_id: 14
x: 4.84765625
y: -0.15234375
z: -0.423828125
range: 5.18565940857
velocity: 0.0
doppler_bin: 8
bearing: -1.80000030994
intensity: 29.637878418
---
header: 
  seq: 485117
  stamp: 
    secs: 1561866868
    nsecs: 468635222
  frame_id: "ti_mmwave"
point_id: 15
x: 4.8515625
y: -0.154296875
z: 0.734375
range: 5.22923660278
velocity: 0.0
doppler_bin: 8
bearing: -1.82159459591
intensity: 30.4060230255
---
header: 
  seq: 485118
  stamp: 
    secs: 1561866868
    nsecs: 468654231
  frame_id: "ti_mmwave"
point_id: 16
x: 4.900390625
y: -0.30859375
z: 0.630859375
range: 5.27281332016
velocity: 0.0
doppler_bin: 8
bearing: -3.60334610939
intensity: 31.6554107666
---
header: 
  seq: 485119
  stamp: 
    secs: 1561866868
    nsecs: 468672747
  frame_id: "ti_mmwave"
point_id: 17
x: 4.951171875
y: -0.623046875
z: 0.05078125
range: 5.31639051437
velocity: 0.0
doppler_bin: 8
bearing: -7.17230129242
intensity: 29.9607372284
---
header: 
  seq: 485120
  stamp: 
    secs: 1561866868
    nsecs: 468694573
  frame_id: "ti_mmwave"
point_id: 19
x: 0.041015625
y: -0.033203125
z: 0.0625
range: 0.0871539413929
velocity: 0.0
doppler_bin: 8
bearing: -38.9909973145
intensity: 30.1325874329
---
header: 
  seq: 485121
  stamp: 
    secs: 1561866868
    nsecs: 468761677
  frame_id: "ti_mmwave"
point_id: 20
x: 0.044921875
y: -0.046875
z: 0.103515625
range: 0.130730912089
velocity: 0.0
doppler_bin: 8
bearing: -46.218875885
intensity: 29.0471553802
---
header: 
  seq: 485122
  stamp: 
    secs: 1561866868
    nsecs: 527125831
  frame_id: "ti_mmwave"
point_id: 0
x: 0.01171875
y: -0.0390625
z: -0.0078125
range: 0.0435769706964
velocity: 0.0
doppler_bin: 8
bearing: -73.3007583618
intensity: 30.6929798126
---
header: 
  seq: 485123
  stamp: 
    secs: 1561866868
    nsecs: 527218179
  frame_id: "ti_mmwave"
point_id: 1
x: 0.017578125
y: -0.080078125
z: -0.0078125
range: 0.0871539413929
velocity: 0.0
doppler_bin: 8
bearing: -77.6192398071
intensity: 31.9479179382
---
header: 
  seq: 485124
  stamp: 
    secs: 1561866868
    nsecs: 527235923
  frame_id: "ti_mmwave"
point_id: 2
x: 0.029296875
y: -0.119140625
z: -0.005859375
range: 0.130730912089
velocity: 0.0
doppler_bin: 8
bearing: -76.1849746704
intensity: 30.1745071411
---
header: 
  seq: 485125
  stamp: 
    secs: 1561866868
    nsecs: 527250162
  frame_id: "ti_mmwave"
point_id: 3
x: 0.056640625
y: -0.154296875
z: 0.005859375
range: 0.174307882786
velocity: 0.0
doppler_bin: 8
bearing: -69.8423843384
intensity: 25.5022830963
---
header: 
  seq: 485126
  stamp: 
    secs: 1561866868
    nsecs: 527261865
  frame_id: "ti_mmwave"
point_id: 4
x: 0.140625
y: -0.080078125
z: 1.2578125
range: 1.35088610649
velocity: 0.0
doppler_bin: 8
bearing: -29.6591091156
intensity: 23.0963020325
---
header: 
  seq: 485127
  stamp: 
    secs: 1561866868
    nsecs: 527277162
  frame_id: "ti_mmwave"
point_id: 6
x: 0.4140625
y: -0.083984375
z: -1.28125
range: 1.43804001808
velocity: 0.0
doppler_bin: 8
bearing: -11.4657688141
intensity: 23.0963020325
---
header: 
  seq: 485128
  stamp: 
    secs: 1561866868
    nsecs: 527291613
  frame_id: "ti_mmwave"
point_id: 7
x: 2.689453125
y: -0.08984375
z: 0.98046875
range: 3.05038785934
velocity: 0.0
doppler_bin: 8
bearing: -1.91330885887
intensity: 32.1853561401
---
header: 
  seq: 485129
  stamp: 
    secs: 1561866868
    nsecs: 527393308
  frame_id: "ti_mmwave"
point_id: 8
x: 2.771484375
y: -0.0
z: 0.87109375
range: 3.09396481514
velocity: 0.0
doppler_bin: 8
bearing: -0.0
intensity: 31.095785141
---
header: 
  seq: 485130
  stamp: 
    secs: 1561866868
    nsecs: 527408641
  frame_id: "ti_mmwave"
point_id: 9
x: 4.40234375
y: -0.142578125
z: 1.1015625
range: 4.83704376221
velocity: 0.0
doppler_bin: 8
bearing: -1.85498249531
intensity: 28.0888595581
---
header: 
  seq: 485131
  stamp: 
    secs: 1561866868
    nsecs: 527417336
  frame_id: "ti_mmwave"
point_id: 10
x: 4.40234375
y: -0.142578125
z: 1.259765625
range: 4.88062095642
velocity: 0.0
doppler_bin: 8
bearing: -1.85498249531
intensity: 31.4860267639
---
header: 
  seq: 485132
  stamp: 
    secs: 1561866868
    nsecs: 527425433
  frame_id: "ti_mmwave"
point_id: 11
x: 4.30078125
y: -0.14453125
z: 1.685546875
range: 4.9241976738
velocity: 0.0
doppler_bin: 8
bearing: -1.92474687099
intensity: 30.7627620697
---
header: 
  seq: 485133
  stamp: 
    secs: 1561866868
    nsecs: 527435523
  frame_id: "ti_mmwave"
point_id: 12
x: 4.68359375
y: -0.146484375
z: -0.419921875
range: 5.01135158539
velocity: 0.0
doppler_bin: 8
bearing: -1.79140233994
intensity: 29.5085144043
---
header: 
  seq: 485134
  stamp: 
    secs: 1561866868
    nsecs: 527445703
  frame_id: "ti_mmwave"
point_id: 13
x: 4.740234375
y: -0.298828125
z: -0.59375
range: 5.09850549698
velocity: 0.0
doppler_bin: 8
bearing: -3.60719799995
intensity: 33.422252655
---
header: 
  seq: 485135
  stamp: 
    secs: 1561866868
    nsecs: 527454132
  frame_id: "ti_mmwave"
point_id: 14
x: 4.77734375
y: -0.30078125
z: -0.619140625
range: 5.14208269119
velocity: 0.0
doppler_bin: 8
bearing: -3.60258316994
intensity: 33.9915428162
---
header: 
  seq: 485136
  stamp: 
    secs: 1561866868
    nsecs: 527462480
  frame_id: "ti_mmwave"
point_id: 15
x: 4.828125
y: -0.15234375
z: -0.609375
range: 5.18565940857
velocity: 0.0
doppler_bin: 8
bearing: -1.80727696419
intensity: 30.4883003235
---
header: 
  seq: 485137
  stamp: 
    secs: 1561866868
    nsecs: 527470164
  frame_id: "ti_mmwave"
point_id: 16
x: 4.84765625
y: -0.154296875
z: 0.759765625
range: 5.22923660278
velocity: 0.0
doppler_bin: 8
bearing: -1.82306158543
intensity: 30.1199302673
---
header: 
  seq: 485138
  stamp: 
    secs: 1561866868
    nsecs: 527477793
  frame_id: "ti_mmwave"
point_id: 17
x: 4.896484375
y: -0.30859375
z: 0.650390625
range: 5.27281332016
velocity: 0.0
doppler_bin: 8
bearing: -3.6062130928
intensity: 31.886472702
---
header: 
  seq: 485139
  stamp: 
    secs: 1561866868
    nsecs: 527485478
  frame_id: "ti_mmwave"
point_id: 18
x: 4.951171875
y: -0.623046875
z: 0.1015625
range: 5.31639051437
velocity: 0.0
doppler_bin: 8
bearing: -7.17230129242
intensity: 30.358297348
---
header: 
  seq: 485140
  stamp: 
    secs: 1561866868
    nsecs: 527493536
  frame_id: "ti_mmwave"
point_id: 19
x: 0.955078125
y: -2.9140625
z: -0.5078125
range: 3.31184983253
velocity: -0.614668667316
doppler_bin: 7
bearing: -71.8535461426
intensity: 26.0097293854
---
header: 
  seq: 485141
  stamp: 
    secs: 1561866868
    nsecs: 527505321
  frame_id: "ti_mmwave"
point_id: 21
x: 0.041015625
y: -0.033203125
z: 0.0625
range: 0.0871539413929
velocity: 0.0
doppler_bin: 8
bearing: -38.9909973145
intensity: 30.1283721924
---
header: 
  seq: 485142
  stamp: 
    secs: 1561866868
    nsecs: 527513204
  frame_id: "ti_mmwave"
point_id: 22
x: 0.044921875
y: -0.046875
z: 0.103515625
range: 0.130730912089
velocity: 0.0
doppler_bin: 8
bearing: -46.218875885
intensity: 29.0471553802
---
header: 
  seq: 485143
  stamp: 
    secs: 1561866868
    nsecs: 527522691
  frame_id: "ti_mmwave"
point_id: 24
x: 2.73046875
y: -0.181640625
z: 0.974609375
range: 3.09396481514
velocity: 0.0
doppler_bin: 8
bearing: -3.80591416359
intensity: 31.0924091339
---
header: 
  seq: 485144
  stamp: 
    secs: 1561866868
    nsecs: 586786253
  frame_id: "ti_mmwave"
point_id: 0
x: 0.01171875
y: -0.0390625
z: -0.0078125
range: 0.0435769706964
velocity: 0.0
doppler_bin: 8
bearing: -73.3007583618
intensity: 30.6855697632
---
header: 
  seq: 485145
  stamp: 
    secs: 1561866868
    nsecs: 586876288
  frame_id: "ti_mmwave"
point_id: 1
x: 0.017578125
y: -0.080078125
z: -0.0078125
range: 0.0871539413929
velocity: 0.0
doppler_bin: 8
bearing: -77.6192398071
intensity: 31.9479179382
---
header: 
  seq: 485146
  stamp: 
    secs: 1561866868
    nsecs: 586887751
  frame_id: "ti_mmwave"
point_id: 2
x: 0.029296875
y: -0.119140625
z: -0.005859375
range: 0.130730912089
velocity: 0.0
doppler_bin: 8
bearing: -76.1849746704
intensity: 30.1745071411
---
header: 
  seq: 485147
  stamp: 
    secs: 1561866868
    nsecs: 586896700
  frame_id: "ti_mmwave"
point_id: 3
x: 0.056640625
y: -0.154296875
z: 0.005859375
range: 0.174307882786
velocity: 0.0
doppler_bin: 8
bearing: -69.8423843384
intensity: 25.5022830963
---
header: 
  seq: 485148
  stamp: 
    secs: 1561866868
    nsecs: 586909608
  frame_id: "ti_mmwave"
point_id: 4
x: 0.138671875
y: -0.080078125
z: 1.2578125
range: 1.35088610649
velocity: 0.0
doppler_bin: 8
bearing: -30.0049190521
intensity: 23.1597042084
---
header: 
  seq: 485149
  stamp: 
    secs: 1561866868
    nsecs: 586921404
  frame_id: "ti_mmwave"
point_id: 6
x: 0.408203125
y: -0.083984375
z: -1.283203125
range: 1.43804001808
velocity: 0.0
doppler_bin: 8
bearing: -11.6258993149
intensity: 23.0535144806
---
header: 
  seq: 485150
  stamp: 
    secs: 1561866868
    nsecs: 586930079
  frame_id: "ti_mmwave"
point_id: 7
x: 2.31640625
y: 0.21875
z: -0.146484375
range: 2.48388743401
velocity: 0.0
doppler_bin: 8
bearing: 5.39473247528
intensity: 28.1888542175
---
header: 
  seq: 485151
  stamp: 
    secs: 1561866868
    nsecs: 586937806
  frame_id: "ti_mmwave"
point_id: 8
x: 2.35546875
y: 0.22265625
z: -0.16796875
range: 2.5274643898
velocity: 0.0
doppler_bin: 8
bearing: 5.39997339249
intensity: 28.6391735077
---
header: 
  seq: 485152
  stamp: 
    secs: 1561866868
    nsecs: 587101000
  frame_id: "ti_mmwave"
point_id: 9
x: 2.40625
y: 0.150390625
z: -0.09375
range: 2.5710413456
velocity: 0.0
doppler_bin: 8
bearing: 3.57633447647
intensity: 26.981004715
---
header: 
  seq: 485153
  stamp: 
    secs: 1561866868
    nsecs: 587122317
  frame_id: "ti_mmwave"
point_id: 10
x: 2.62890625
y: -0.17578125
z: 1.01171875
range: 3.00681090355
velocity: 0.0
doppler_bin: 8
bearing: -3.82537555695
intensity: 29.1855449677
---
header: 
  seq: 485154
  stamp: 
    secs: 1561866868
    nsecs: 587134444
  frame_id: "ti_mmwave"
point_id: 11
x: 2.66015625
y: -0.1796875
z: 1.04296875
range: 3.05038785934
velocity: 0.0
doppler_bin: 8
bearing: -3.86432933807
intensity: 32.2582588196
---
header: 
  seq: 485155
  stamp: 
    secs: 1561866868
    nsecs: 587147600
  frame_id: "ti_mmwave"
point_id: 12
x: 2.75390625
y: -0.08984375
z: 0.91796875
range: 3.09396481514
velocity: 0.0
doppler_bin: 8
bearing: -1.86856126785
intensity: 31.225435257
---
header: 
  seq: 485156
  stamp: 
    secs: 1561866868
    nsecs: 587163251
  frame_id: "ti_mmwave"
point_id: 13
x: 4.412109375
y: -0.142578125
z: 1.0625
range: 4.83704376221
velocity: 0.0
doppler_bin: 8
bearing: -1.85087943077
intensity: 28.1424751282
---
header: 
  seq: 485157
  stamp: 
    secs: 1561866868
    nsecs: 587175788
  frame_id: "ti_mmwave"
point_id: 14
x: 4.41796875
y: -0.142578125
z: 1.20703125
range: 4.88062095642
velocity: 0.0
doppler_bin: 8
bearing: -1.84842634201
intensity: 31.5472812653
---
header: 
  seq: 485158
  stamp: 
    secs: 1561866868
    nsecs: 587187003
  frame_id: "ti_mmwave"
point_id: 15
x: 4.453125
y: -0.14453125
z: 1.234375
range: 4.9241976738
velocity: 0.0
doppler_bin: 8
bearing: -1.85894739628
intensity: 31.4144973755
---
header: 
  seq: 485159
  stamp: 
    secs: 1561866868
    nsecs: 587194668
  frame_id: "ti_mmwave"
point_id: 16
x: 4.6328125
y: -0.146484375
z: 0.509765625
range: 4.96777486801
velocity: 0.0
doppler_bin: 8
bearing: -1.81102526188
intensity: 29.6520175934
---
header: 
  seq: 485160
  stamp: 
    secs: 1561866868
    nsecs: 587231072
  frame_id: "ti_mmwave"
point_id: 17
x: 4.70703125
y: -0.296875
z: -0.521484375
range: 5.0549287796
velocity: 0.0
doppler_bin: 8
bearing: -3.60889554024
intensity: 29.2012329102
---
header: 
  seq: 485161
  stamp: 
    secs: 1561866868
    nsecs: 587307159
  frame_id: "ti_mmwave"
point_id: 18
x: 4.73046875
y: -0.44921875
z: -0.5703125
range: 5.09850549698
velocity: 0.0
doppler_bin: 8
bearing: -5.42470264435
intensity: 33.5121650696
---
header: 
  seq: 485162
  stamp: 
    secs: 1561866868
    nsecs: 587325743
  frame_id: "ti_mmwave"
point_id: 19
x: 4.78125
y: -0.30078125
z: -0.583984375
range: 5.14208269119
velocity: 0.0
doppler_bin: 8
bearing: -3.59964799881
intensity: 34.0517539978
---
header: 
  seq: 485163
  stamp: 
    secs: 1561866868
    nsecs: 587340505
  frame_id: "ti_mmwave"
point_id: 20
x: 4.822265625
y: -0.15234375
z: -0.640625
range: 5.18565940857
velocity: 0.0
doppler_bin: 8
bearing: -1.80947124958
intensity: 30.2653331757
---
header: 
  seq: 485164
  stamp: 
    secs: 1561866868
    nsecs: 587353725
  frame_id: "ti_mmwave"
point_id: 21
x: 4.8203125
y: -0.154296875
z: 0.916015625
range: 5.22923660278
velocity: 0.0
doppler_bin: 8
bearing: -1.83339607716
intensity: 29.6331558228
---
header: 
  seq: 485165
  stamp: 
    secs: 1561866868
    nsecs: 587365730
  frame_id: "ti_mmwave"
point_id: 22
x: 4.892578125
y: -0.30859375
z: 0.68359375
range: 5.27281332016
velocity: 0.0
doppler_bin: 8
bearing: -3.60908436775
intensity: 31.7840137482
---
header: 
  seq: 485166
  stamp: 
    secs: 1561866868
    nsecs: 587379072
  frame_id: "ti_mmwave"
point_id: 23
x: 4.966796875
y: -0.46875
z: 0.15625
range: 5.31639051437
velocity: 0.0
doppler_bin: 8
bearing: -5.39141845703
intensity: 30.3981056213
---
header: 
  seq: 485167
  stamp: 
    secs: 1561866868
    nsecs: 587394513
  frame_id: "ti_mmwave"
point_id: 25
x: 0.041015625
y: -0.033203125
z: 0.0625
range: 0.0871539413929
velocity: 0.0
doppler_bin: 8
bearing: -38.9909973145
intensity: 30.1241531372
---
header: 
  seq: 485168
  stamp: 
    secs: 1561866868
    nsecs: 587406696
  frame_id: "ti_mmwave"
point_id: 26
x: 0.044921875
y: -0.046875
z: 0.103515625
range: 0.130730912089
velocity: 0.0
doppler_bin: 8
bearing: -46.218875885
intensity: 29.0417442322
---
header: 
  seq: 485169
  stamp: 
    secs: 1561866868
    nsecs: 588629841
  frame_id: "ti_mmwave"
point_id: 0
x: 0.01171875
y: -0.0390625
z: -0.0078125
range: 0.0435769706964
velocity: 0.0
doppler_bin: 8
bearing: -73.3007583618
intensity: 30.6892757416
---
header: 
  seq: 485170
  stamp: 
    secs: 1561866868
    nsecs: 588691638
  frame_id: "ti_mmwave"
point_id: 1
x: 0.017578125
y: -0.080078125
z: -0.0078125
range: 0.0871539413929
velocity: 0.0
doppler_bin: 8
bearing: -77.6192398071
intensity: 31.945142746
---
header: 
  seq: 485171
  stamp: 
    secs: 1561866868
    nsecs: 588704878
  frame_id: "ti_mmwave"
point_id: 2
x: 0.029296875
y: -0.119140625
z: -0.005859375
range: 0.130730912089
velocity: 0.0
doppler_bin: 8
bearing: -76.1849746704
intensity: 30.1661548615
---
header: 
  seq: 485172
  stamp: 
    secs: 1561866868
    nsecs: 588715388
  frame_id: "ti_mmwave"
point_id: 3
x: 0.056640625
y: -0.154296875
z: 0.0078125
range: 0.174307882786
velocity: 0.0
doppler_bin: 8
bearing: -69.8423843384
intensity: 25.4777469635
---
header: 
  seq: 485173
  stamp: 
    secs: 1561866868
    nsecs: 588724221
  frame_id: "ti_mmwave"
point_id: 4
x: 0.1015625
y: -0.080078125
z: 1.26171875
range: 1.35088610649
velocity: 0.0
doppler_bin: 8
bearing: -38.2544212341
intensity: 23.138671875
---
header: 
  seq: 485174
  stamp: 
    secs: 1561866868
    nsecs: 588734437
  frame_id: "ti_mmwave"
point_id: 6
x: 0.419921875
y: -0.083984375
z: -1.279296875
range: 1.43804001808
velocity: 0.0
doppler_bin: 8
bearing: -11.3099327087
intensity: 23.0963020325
---
header: 
  seq: 485175
  stamp: 
    secs: 1561866868
    nsecs: 588742538
  frame_id: "ti_mmwave"
point_id: 7
x: 0.568359375
y: -0.04296875
z: -1.267578125
range: 1.48161697388
velocity: 0.0
doppler_bin: 8
bearing: -4.32341527939
intensity: 21.6731739044
---
header: 
  seq: 485176
  stamp: 
    secs: 1561866868
    nsecs: 588753690
  frame_id: "ti_mmwave"
point_id: 8
x: 2.3125
y: 0.21875
z: -0.203125
range: 2.48388743401
velocity: 0.0
doppler_bin: 8
bearing: 5.40379190445
intensity: 27.2997436523
---
header: 
  seq: 485177
  stamp: 
    secs: 1561866868
    nsecs: 588762489
  frame_id: "ti_mmwave"
point_id: 9
x: 2.353515625
y: 0.22265625
z: -0.197265625
range: 2.5274643898
velocity: 0.0
doppler_bin: 8
bearing: 5.40442800522
intensity: 27.2997436523
---
header: 
  seq: 485178
  stamp: 
    secs: 1561866868
    nsecs: 588770630
  frame_id: "ti_mmwave"
point_id: 10
x: 2.40234375
y: 0.2265625
z: -0.0546875
range: 2.5710413456
velocity: 0.0
doppler_bin: 8
bearing: 5.38756942749
intensity: 25.8546066284
---
header: 
  seq: 485179
  stamp: 
    secs: 1561866868
    nsecs: 588778804
  frame_id: "ti_mmwave"
point_id: 11
x: 2.6875
y: -0.08984375
z: 0.982421875
range: 3.05038785934
velocity: 0.0
doppler_bin: 8
bearing: -1.91469812393
intensity: 32.1192092896
---
header: 
  seq: 485180
  stamp: 
    secs: 1561866868
    nsecs: 588788496
  frame_id: "ti_mmwave"
point_id: 12
x: 2.751953125
y: -0.08984375
z: 0.92578125
range: 3.09396481514
velocity: 0.0
doppler_bin: 8
bearing: -1.86988639832
intensity: 31.176027298
---
header: 
  seq: 485181
  stamp: 
    secs: 1561866868
    nsecs: 588797898
  frame_id: "ti_mmwave"
point_id: 13
x: 4.404296875
y: -0.283203125
z: 1.064453125
range: 4.83704376221
velocity: 0.0
doppler_bin: 8
bearing: -3.67914247513
intensity: 27.9309158325
---
header: 
  seq: 485182
  stamp: 
    secs: 1561866868
    nsecs: 588806494
  frame_id: "ti_mmwave"
point_id: 14
x: 4.41796875
y: -0.142578125
z: 1.208984375
range: 4.88062095642
velocity: 0.0
doppler_bin: 8
bearing: -1.84842634201
intensity: 31.3289985657
---
header: 
  seq: 485183
  stamp: 
    secs: 1561866868
    nsecs: 588815973
  frame_id: "ti_mmwave"
point_id: 15
x: 4.443359375
y: -0.14453125
z: 1.267578125
range: 4.9241976738
velocity: 0.0
doppler_bin: 8
bearing: -1.86303019524
intensity: 30.9166698456
---
header: 
  seq: 485184
  stamp: 
    secs: 1561866868
    nsecs: 588826310
  frame_id: "ti_mmwave"
point_id: 16
x: 4.744140625
y: -0.298828125
z: -0.5546875
range: 5.09850549698
velocity: 0.0
doppler_bin: 8
bearing: -3.60423564911
intensity: 33.1133003235
---
header: 
  seq: 485185
  stamp: 
    secs: 1561866868
    nsecs: 588922705
  frame_id: "ti_mmwave"
point_id: 17
x: 4.7890625
y: -0.30078125
z: -0.525390625
range: 5.14208269119
velocity: 0.0
doppler_bin: 8
bearing: -3.593791008
intensity: 33.6172790527
---
header: 
  seq: 485186
  stamp: 
    secs: 1561866868
    nsecs: 588937472
  frame_id: "ti_mmwave"
point_id: 18
x: 4.837890625
y: -0.3046875
z: -0.4453125
range: 5.18565940857
velocity: 0.0
doppler_bin: 8
bearing: -3.60369491577
intensity: 29.9782314301
---
header: 
  seq: 485187
  stamp: 
    secs: 1561866868
    nsecs: 588950513
  frame_id: "ti_mmwave"
point_id: 19
x: 4.888671875
y: -0.46484375
z: 0.619140625
range: 5.27281332016
velocity: 0.0
doppler_bin: 8
bearing: -5.43169021606
intensity: 31.3289985657
---
header: 
  seq: 485188
  stamp: 
    secs: 1561866868
    nsecs: 588964049
  frame_id: "ti_mmwave"
point_id: 20
x: 4.94921875
y: -0.623046875
z: 0.15234375
range: 5.31639051437
velocity: 0.0
doppler_bin: 8
bearing: -7.17510271072
intensity: 30.0259799957
---
header: 
  seq: 485189
  stamp: 
    secs: 1561866868
    nsecs: 588976242
  frame_id: "ti_mmwave"
point_id: 21
x: 0.994140625
y: -2.876953125
z: -0.390625
range: 3.26827287674
velocity: -0.614668667316
doppler_bin: 7
bearing: -70.9372406006
intensity: 27.2754135132
---
header: 
  seq: 485190
  stamp: 
    secs: 1561866868
    nsecs: 588990050
  frame_id: "ti_mmwave"
point_id: 22
x: 1.013671875
y: -2.9140625
z: -0.37890625
range: 3.31184983253
velocity: -0.614668667316
doppler_bin: 7
bearing: -70.8194961548
intensity: 25.7287158966
---
header: 
  seq: 485191
  stamp: 
    secs: 1561866868
    nsecs: 589005705
  frame_id: "ti_mmwave"
point_id: 24
x: 0.041015625
y: -0.033203125
z: 0.0625
range: 0.0871539413929
velocity: 0.0
doppler_bin: 8
bearing: -38.9909973145
intensity: 30.1283721924
---
header: 
  seq: 485192
  stamp: 
    secs: 1561866868
    nsecs: 589018418
  frame_id: "ti_mmwave"
point_id: 25
x: 0.044921875
y: -0.046875
z: 0.103515625
range: 0.130730912089
velocity: 0.0
doppler_bin: 8
bearing: -46.218875885
intensity: 29.0471553802
---
header: 
  seq: 485193
  stamp: 
    secs: 1561866868
    nsecs: 589031501
  frame_id: "ti_mmwave"
point_id: 27
x: 4.90234375
y: -0.154296875
z: 0.6640625
range: 5.27281332016
velocity: 0.0
doppler_bin: 8
bearing: -1.8027381897
intensity: 31.3001194
---
header: 
  seq: 485194
  stamp: 
    secs: 1561866868
    nsecs: 646819912
  frame_id: "ti_mmwave"
point_id: 0
x: 0.01171875
y: -0.0390625
z: -0.0078125
range: 0.0435769706964
velocity: 0.0
doppler_bin: 8
bearing: -73.3007583618
intensity: 30.6892757416
---
header: 
  seq: 485195
  stamp: 
    secs: 1561866868
    nsecs: 646871492
  frame_id: "ti_mmwave"
point_id: 1
x: 0.017578125
y: -0.080078125
z: -0.0078125
range: 0.0871539413929
velocity: 0.0
doppler_bin: 8
bearing: -77.6192398071
intensity: 31.9479179382
---
header: 
  seq: 485196
  stamp: 
    secs: 1561866868
    nsecs: 646878761
  frame_id: "ti_mmwave"
point_id: 2
x: 0.029296875
y: -0.119140625
z: -0.005859375
range: 0.130730912089
velocity: 0.0
doppler_bin: 8
bearing: -76.1849746704
intensity: 30.1661548615
---
header: 
  seq: 485197
  stamp: 
    secs: 1561866868
    nsecs: 646884670
  frame_id: "ti_mmwave"
point_id: 3
x: 0.056640625
y: -0.154296875
z: 0.005859375
range: 0.174307882786
velocity: 0.0
doppler_bin: 8
bearing: -69.8423843384
intensity: 25.490032196
---
header: 
  seq: 485198
  stamp: 
    secs: 1561866868
    nsecs: 646895900
  frame_id: "ti_mmwave"
point_id: 4
x: 0.142578125
y: -0.080078125
z: 1.2578125
range: 1.35088610649
velocity: 0.0
doppler_bin: 8
bearing: -29.3204746246
intensity: 23.138671875
---
header: 
  seq: 485199
  stamp: 
    secs: 1561866868
    nsecs: 646907552
  frame_id: "ti_mmwave"
point_id: 6
x: 0.42578125
y: -0.083984375
z: -1.27734375
range: 1.43804001808
velocity: 0.0
doppler_bin: 8
bearing: -11.1582231522
intensity: 23.0963020325
---
header: 
  seq: 485200
  stamp: 
    secs: 1561866868
    nsecs: 646913678
  frame_id: "ti_mmwave"
point_id: 7
x: 0.568359375
y: -0.04296875
z: -1.26953125
range: 1.48161697388
velocity: 0.0
doppler_bin: 8
bearing: -4.32341527939
intensity: 21.6731739044
---
header: 
  seq: 485201
  stamp: 
    secs: 1561866868
    nsecs: 646921235
  frame_id: "ti_mmwave"
point_id: 8
x: 2.66015625
y: -0.1796875
z: 1.044921875
range: 3.05038785934
velocity: 0.0
doppler_bin: 8
bearing: -3.86432933807
intensity: 32.1932258606
---
header: 
  seq: 485202
  stamp: 
    secs: 1561866868
    nsecs: 647047720
  frame_id: "ti_mmwave"
point_id: 9
x: 2.751953125
y: -0.08984375
z: 0.923828125
range: 3.09396481514
velocity: 0.0
doppler_bin: 8
bearing: -1.86988639832
intensity: 31.1360912323
---
header: 
  seq: 485203
  stamp: 
    secs: 1561866868
    nsecs: 647059947
  frame_id: "ti_mmwave"
point_id: 10
x: 4.416015625
y: -0.142578125
z: 1.208984375
range: 4.88062095642
velocity: 0.0
doppler_bin: 8
bearing: -1.84924340248
intensity: 31.3097667694
---
header: 
  seq: 485204
  stamp: 
    secs: 1561866868
    nsecs: 647065395
  frame_id: "ti_mmwave"
point_id: 11
x: 4.44921875
y: -0.14453125
z: 1.24609375
range: 4.9241976738
velocity: 0.0
doppler_bin: 8
bearing: -1.86057829857
intensity: 30.8955192566
---
header: 
  seq: 485205
  stamp: 
    secs: 1561866868
    nsecs: 647072754
  frame_id: "ti_mmwave"
point_id: 12
x: 4.7109375
y: -0.296875
z: -0.4921875
range: 5.0549287796
velocity: 0.0
doppler_bin: 8
bearing: -3.60591077805
intensity: 29.0902080536
---
header: 
  seq: 485206
  stamp: 
    secs: 1561866868
    nsecs: 647079331
  frame_id: "ti_mmwave"
point_id: 13
x: 4.74609375
y: -0.298828125
z: -0.53515625
range: 5.09850549698
velocity: 0.0
doppler_bin: 8
bearing: -3.60275626183
intensity: 33.5160293579
---
header: 
  seq: 485207
  stamp: 
    secs: 1561866868
    nsecs: 647114557
  frame_id: "ti_mmwave"
point_id: 14
x: 4.7890625
y: -0.30078125
z: -0.5234375
range: 5.14208269119
velocity: 0.0
doppler_bin: 8
bearing: -3.593791008
intensity: 34.1043968201
---
header: 
  seq: 485208
  stamp: 
    secs: 1561866868
    nsecs: 647121030
  frame_id: "ti_mmwave"
point_id: 15
x: 4.82421875
y: -0.3046875
z: -0.568359375
range: 5.18565940857
velocity: 0.0
doppler_bin: 8
bearing: -3.61388087273
intensity: 30.824262619
---
header: 
  seq: 485209
  stamp: 
    secs: 1561866868
    nsecs: 647126447
  frame_id: "ti_mmwave"
point_id: 16
x: 4.908203125
y: -0.30859375
z: 0.55859375
range: 5.27281332016
velocity: 0.0
doppler_bin: 8
bearing: -3.597625494
intensity: 30.4727478027
---
header: 
  seq: 485210
  stamp: 
    secs: 1561866868
    nsecs: 647133457
  frame_id: "ti_mmwave"
point_id: 18
x: 0.041015625
y: -0.033203125
z: 0.0625
range: 0.0871539413929
velocity: 0.0
doppler_bin: 8
bearing: -38.9909973145
intensity: 30.1325874329
---
header: 
  seq: 485211
  stamp: 
    secs: 1561866868
    nsecs: 647138779
  frame_id: "ti_mmwave"
point_id: 19
x: 0.044921875
y: -0.046875
z: 0.103515625
range: 0.130730912089
velocity: 0.0
doppler_bin: 8
bearing: -46.218875885
intensity: 29.0525608063
---
header: 
  seq: 485212
  stamp: 
    secs: 1561866868
    nsecs: 647987921
  frame_id: "ti_mmwave"
point_id: 0
x: 0.01171875
y: -0.0390625
z: -0.0078125
range: 0.0435769706964
velocity: 0.0
doppler_bin: 8
bearing: -73.3007583618
intensity: 30.6855697632
---
header: 
  seq: 485213
  stamp: 
    secs: 1561866868
    nsecs: 648016879
  frame_id: "ti_mmwave"
point_id: 1
x: 0.017578125
y: -0.080078125
z: -0.0078125
range: 0.0871539413929
velocity: 0.0
doppler_bin: 8
bearing: -77.6192398071
intensity: 31.945142746
---
header: 
  seq: 485214
  stamp: 
    secs: 1561866868
    nsecs: 648024725
  frame_id: "ti_mmwave"
point_id: 2
x: 0.029296875
y: -0.119140625
z: -0.005859375
range: 0.130730912089
velocity: 0.0
doppler_bin: 8
bearing: -76.1849746704
intensity: 30.1703338623
---
header: 
  seq: 485215
  stamp: 
    secs: 1561866868
    nsecs: 648030757
  frame_id: "ti_mmwave"
point_id: 3
x: 0.056640625
y: -0.154296875
z: 0.005859375
range: 0.174307882786
velocity: 0.0
doppler_bin: 8
bearing: -69.8423843384
intensity: 25.5022830963
---
header: 
  seq: 485216
  stamp: 
    secs: 1561866868
    nsecs: 648036613
  frame_id: "ti_mmwave"
point_id: 4
x: 0.1484375
y: -0.080078125
z: 1.2578125
range: 1.35088610649
velocity: 0.0
doppler_bin: 8
bearing: -28.3456954956
intensity: 23.138671875
---
header: 
  seq: 485217
  stamp: 
    secs: 1561866868
    nsecs: 648042157
  frame_id: "ti_mmwave"
point_id: 5
x: 0.013671875
y: -0.08203125
z: 1.306640625
range: 1.39446306229
velocity: 0.0
doppler_bin: 8
bearing: -80.5376739502
intensity: 24.6686763763
---
header: 
  seq: 485218
  stamp: 
    secs: 1561866868
    nsecs: 648048363
  frame_id: "ti_mmwave"
point_id: 6
x: 0.396484375
y: -0.083984375
z: -1.287109375
range: 1.43804001808
velocity: 0.0
doppler_bin: 8
bearing: -11.9597616196
intensity: 23.0963020325
---
header: 
  seq: 485219
  stamp: 
    secs: 1561866868
    nsecs: 648086576
  frame_id: "ti_mmwave"
point_id: 7
x: 0.54296875
y: -0.04296875
z: -1.279296875
range: 1.48161697388
velocity: 0.0
doppler_bin: 8
bearing: -4.52476835251
intensity: 21.7026176453
---
header: 
  seq: 485220
  stamp: 
    secs: 1561866868
    nsecs: 648092982
  frame_id: "ti_mmwave"
point_id: 8
x: 2.326171875
y: 0.072265625
z: -0.134765625
range: 2.48388743401
velocity: 0.0
doppler_bin: 8
bearing: 1.77939736843
intensity: 26.9108142853
---
header: 
  seq: 485221
  stamp: 
    secs: 1561866868
    nsecs: 648098264
  frame_id: "ti_mmwave"
point_id: 9
x: 2.3671875
y: 0.1484375
z: -0.029296875
range: 2.5274643898
velocity: 0.0
doppler_bin: 8
bearing: 3.58810663223
intensity: 26.1384181976
---
header: 
  seq: 485222
  stamp: 
    secs: 1561866868
    nsecs: 648104037
  frame_id: "ti_mmwave"
point_id: 10
x: 2.626953125
y: -0.17578125
z: 1.015625
range: 3.00681090355
velocity: 0.0
doppler_bin: 8
bearing: -3.82821130753
intensity: 28.9652614594
---
header: 
  seq: 485223
  stamp: 
    secs: 1561866868
    nsecs: 648109037
  frame_id: "ti_mmwave"
point_id: 11
x: 2.689453125
y: -0.08984375
z: 0.978515625
range: 3.05038785934
velocity: 0.0
doppler_bin: 8
bearing: -1.91330885887
intensity: 32.1800994873
---
header: 
  seq: 485224
  stamp: 
    secs: 1561866868
    nsecs: 648114009
  frame_id: "ti_mmwave"
point_id: 12
x: 2.76953125
y: -0.0
z: 0.876953125
range: 3.09396481514
velocity: 0.0
doppler_bin: 8
bearing: -0.0
intensity: 31.1494445801
---
header: 
  seq: 485225
  stamp: 
    secs: 1561866868
    nsecs: 648120210
  frame_id: "ti_mmwave"
point_id: 13
x: 4.412109375
y: -0.142578125
z: 1.0625
range: 4.83704376221
velocity: 0.0
doppler_bin: 8
bearing: -1.85087943077
intensity: 28.1690387726
---
header: 
  seq: 485226
  stamp: 
    secs: 1561866868
    nsecs: 648127819
  frame_id: "ti_mmwave"
point_id: 14
x: 4.416015625
y: -0.142578125
z: 1.21484375
range: 4.88062095642
velocity: 0.0
doppler_bin: 8
bearing: -1.84924340248
intensity: 31.4612808228
---
header: 
  seq: 485227
  stamp: 
    secs: 1561866868
    nsecs: 648136061
  frame_id: "ti_mmwave"
point_id: 15
x: 4.44921875
y: -0.14453125
z: 1.24609375
range: 4.9241976738
velocity: 0.0
doppler_bin: 8
bearing: -1.86057829857
intensity: 31.020904541
---
header: 
  seq: 485228
  stamp: 
    secs: 1561866868
    nsecs: 648143868
  frame_id: "ti_mmwave"
point_id: 16
x: 4.71875
y: -0.44921875
z: -0.658203125
range: 5.09850549698
velocity: 0.0
doppler_bin: 8
bearing: -5.43809366226
intensity: 30.6595306396
---
header: 
  seq: 485229
  stamp: 
    secs: 1561866868
    nsecs: 648151061
  frame_id: "ti_mmwave"
point_id: 17
x: 4.7734375
