header: 
  seq: 465978
  stamp: 
    secs: 1561866838
    nsecs: 526618390
  frame_id: "ti_mmwave"
point_id: 0
x: 0.01171875
y: -0.0390625
z: -0.0078125
range: 0.0435769706964
velocity: 0.0
doppler_bin: 8
bearing: -73.3007583618
intensity: 30.6520614624
---
header: 
  seq: 465979
  stamp: 
    secs: 1561866838
    nsecs: 526655198
  frame_id: "ti_mmwave"
point_id: 1
x: 0.017578125
y: -0.080078125
z: -0.0078125
range: 0.0871539413929
velocity: 0.0
doppler_bin: 8
bearing: -77.6192398071
intensity: 31.9145107269
---
header: 
  seq: 465980
  stamp: 
    secs: 1561866838
    nsecs: 526660818
  frame_id: "ti_mmwave"
point_id: 2
x: 0.029296875
y: -0.119140625
z: -0.005859375
range: 0.130730912089
velocity: 0.0
doppler_bin: 8
bearing: -76.1849746704
intensity: 30.141002655
---
header: 
  seq: 465981
  stamp: 
    secs: 1561866838
    nsecs: 526665251
  frame_id: "ti_mmwave"
point_id: 3
x: 0.056640625
y: -0.154296875
z: 0.005859375
range: 0.174307882786
velocity: 0.0
doppler_bin: 8
bearing: -69.8423843384
intensity: 25.4654273987
---
header: 
  seq: 465982
  stamp: 
    secs: 1561866838
    nsecs: 526670769
  frame_id: "ti_mmwave"
point_id: 4
x: 0.177734375
y: -0.080078125
z: 1.25390625
range: 1.35088610649
velocity: 0.0
doppler_bin: 8
bearing: -24.2539196014
intensity: 23.1175384521
---
header: 
  seq: 465983
  stamp: 
    secs: 1561866838
    nsecs: 526676309
  frame_id: "ti_mmwave"
point_id: 6
x: 0.396484375
y: -0.083984375
z: -1.287109375
range: 1.43804001808
velocity: 0.0
doppler_bin: 8
bearing: -11.9597616196
intensity: 23.0963020325
---
header: 
  seq: 465984
  stamp: 
    secs: 1561866838
    nsecs: 526704068
  frame_id: "ti_mmwave"
point_id: 7
x: 0.529296875
y: -0.04296875
z: -1.28515625
range: 1.48161697388
velocity: 0.0
doppler_bin: 8
bearing: -4.64113998413
intensity: 21.7026176453
---
header: 
  seq: 465985
  stamp: 
    secs: 1561866838
    nsecs: 526708715
  frame_id: "ti_mmwave"
point_id: 8
x: 2.619140625
y: -0.17578125
z: 1.037109375
range: 3.00681090355
velocity: 0.0
doppler_bin: 8
bearing: -3.83959650993
intensity: 28.9927310944
---
header: 
  seq: 465986
  stamp: 
    secs: 1561866838
    nsecs: 526713097
  frame_id: "ti_mmwave"
point_id: 9
x: 2.66015625
y: -0.1796875
z: 1.04296875
range: 3.05038785934
velocity: 0.0
doppler_bin: 8
bearing: -3.86432933807
intensity: 32.1695709229
---
header: 
  seq: 465987
  stamp: 
    secs: 1561866838
    nsecs: 526718086
  frame_id: "ti_mmwave"
point_id: 10
x: 2.751953125
y: -0.08984375
z: 0.921875
range: 3.09396481514
velocity: 0.0
doppler_bin: 8
bearing: -1.86988639832
intensity: 31.1494445801
---
header: 
  seq: 465988
  stamp: 
    secs: 1561866838
    nsecs: 526722705
  frame_id: "ti_mmwave"
point_id: 11
x: 4.39453125
y: -0.142578125
z: 1.28515625
range: 4.88062095642
velocity: 0.0
doppler_bin: 8
bearing: -1.8582777977
intensity: 31.3033370972
---
header: 
  seq: 465989
  stamp: 
    secs: 1561866838
    nsecs: 526727235
  frame_id: "ti_mmwave"
point_id: 12
x: 4.369140625
y: -0.14453125
z: 1.5
range: 4.9241976738
velocity: 0.0
doppler_bin: 8
bearing: -1.89465451241
intensity: 30.9131507874
---
header: 
  seq: 465990
  stamp: 
    secs: 1561866838
    nsecs: 526731555
  frame_id: "ti_mmwave"
point_id: 13
x: 4.7421875
y: -0.298828125
z: -0.576171875
range: 5.09850549698
velocity: 0.0
doppler_bin: 8
bearing: -3.60571622849
intensity: 33.4004745483
---
header: 
  seq: 465991
  stamp: 
    secs: 1561866838
    nsecs: 526736462
  frame_id: "ti_mmwave"
point_id: 14
x: 4.779296875
y: -0.30078125
z: -0.60546875
range: 5.14208269119
velocity: 0.0
doppler_bin: 8
bearing: -3.60111522675
intensity: 34.0688056946
---
header: 
  seq: 465992
  stamp: 
    secs: 1561866838
    nsecs: 526740510
  frame_id: "ti_mmwave"
point_id: 15
x: 4.791015625
y: -0.15234375
z: -0.84375
range: 5.18565940857
velocity: 0.0
doppler_bin: 8
bearing: -1.82126605511
intensity: 30.6295776367
---
header: 
  seq: 465993
  stamp: 
    secs: 1561866838
    nsecs: 526745199
  frame_id: "ti_mmwave"
point_id: 16
x: 4.90234375
y: -0.30859375
z: 0.61328125
range: 5.27281332016
velocity: 0.0
doppler_bin: 8
bearing: -3.60191392899
intensity: 31.027765274
---
header: 
  seq: 465994
  stamp: 
    secs: 1561866838
    nsecs: 526749993
  frame_id: "ti_mmwave"
point_id: 17
x: 4.951171875
y: -0.623046875
z: 0.080078125
range: 5.31639051437
velocity: 0.0
doppler_bin: 8
bearing: -7.17230129242
intensity: 29.7127590179
---
header: 
  seq: 465995
  stamp: 
    secs: 1561866838
    nsecs: 526755828
  frame_id: "ti_mmwave"
point_id: 19
x: 0.041015625
y: -0.033203125
z: 0.0625
range: 0.0871539413929
velocity: 0.0
doppler_bin: 8
bearing: -38.9909973145
intensity: 30.1029987335
---
header: 
  seq: 465996
  stamp: 
    secs: 1561866838
    nsecs: 526760501
  frame_id: "ti_mmwave"
point_id: 20
x: 0.044921875
y: -0.046875
z: 0.103515625
range: 0.130730912089
velocity: 0.0
doppler_bin: 8
bearing: -46.218875885
intensity: 29.0145835876
---
header: 
  seq: 465997
  stamp: 
    secs: 1561866838
    nsecs: 586620167
  frame_id: "ti_mmwave"
point_id: 0
x: 0.01171875
y: -0.0390625
z: -0.0078125
range: 0.0435769706964
velocity: 0.0
doppler_bin: 8
bearing: -73.3007583618
intensity: 30.6557979584
---
header: 
  seq: 465998
  stamp: 
    secs: 1561866838
    nsecs: 586656362
  frame_id: "ti_mmwave"
point_id: 1
x: 0.017578125
y: -0.080078125
z: -0.0078125
range: 0.0871539413929
velocity: 0.0
doppler_bin: 8
bearing: -77.6192398071
intensity: 31.9173030853
---
header: 
  seq: 465999
  stamp: 
    secs: 1561866838
    nsecs: 586662111
  frame_id: "ti_mmwave"
point_id: 2
x: 0.029296875
y: -0.119140625
z: -0.005859375
range: 0.130730912089
velocity: 0.0
doppler_bin: 8
bearing: -76.1849746704
intensity: 30.1452045441
---
header: 
  seq: 466000
  stamp: 
    secs: 1561866838
    nsecs: 586666580
  frame_id: "ti_mmwave"
point_id: 3
x: 0.056640625
y: -0.154296875
z: 0.005859375
range: 0.174307882786
velocity: 0.0
doppler_bin: 8
bearing: -69.8423843384
intensity: 25.4777469635
---
header: 
  seq: 466001
  stamp: 
    secs: 1561866838
    nsecs: 586671122
  frame_id: "ti_mmwave"
point_id: 4
x: 0.119140625
y: -0.080078125
z: 1.259765625
range: 1.35088610649
velocity: 0.0
doppler_bin: 8
bearing: -33.9062767029
intensity: 23.1597042084
---
header: 
  seq: 466002
  stamp: 
    secs: 1561866838
    nsecs: 586675389
  frame_id: "ti_mmwave"
point_id: 5
x: 0.017578125
y: -0.08203125
z: 1.306640625
range: 1.39446306229
velocity: 0.0
doppler_bin: 8
bearing: -77.9052429199
intensity: 24.6389293671
---
header: 
  seq: 466003
  stamp: 
    secs: 1561866838
    nsecs: 586679728
  frame_id: "ti_mmwave"
point_id: 6
x: 0.408203125
y: -0.083984375
z: -1.283203125
range: 1.43804001808
velocity: 0.0
doppler_bin: 8
bearing: -11.6258993149
intensity: 23.0535144806
---
header: 
  seq: 466004
  stamp: 
    secs: 1561866838
    nsecs: 586683992
  frame_id: "ti_mmwave"
point_id: 7
x: 0.533203125
y: -0.04296875
z: -1.283203125
range: 1.48161697388
velocity: 0.0
doppler_bin: 8
bearing: -4.60728597641
intensity: 21.6136798859
---
header: 
  seq: 466005
  stamp: 
    secs: 1561866838
    nsecs: 586689309
  frame_id: "ti_mmwave"
point_id: 8
x: 2.201171875
y: 0.98046875
z: 0.1484375
range: 2.5710413456
velocity: 0.0
doppler_bin: 8
bearing: 24.0096416473
intensity: 25.7403125763
---
header: 
  seq: 466006
  stamp: 
    secs: 1561866838
    nsecs: 586693845
  frame_id: "ti_mmwave"
point_id: 9
x: 2.615234375
y: -0.17578125
z: 1.048828125
range: 3.00681090355
velocity: 0.0
doppler_bin: 8
bearing: -3.84531402588
intensity: 29.0254669189
---
header: 
  seq: 466007
  stamp: 
    secs: 1561866838
    nsecs: 586698297
  frame_id: "ti_mmwave"
point_id: 10
x: 2.658203125
y: -0.1796875
z: 1.052734375
range: 3.05038785934
velocity: 0.0
doppler_bin: 8
bearing: -3.86716008186
intensity: 32.166934967
---
header: 
  seq: 466008
  stamp: 
    secs: 1561866838
    nsecs: 586702677
  frame_id: "ti_mmwave"
point_id: 11
x: 2.75
y: -0.08984375
z: 0.927734375
range: 3.09396481514
velocity: 0.0
doppler_bin: 8
bearing: -1.87121355534
intensity: 31.2155990601
---
header: 
  seq: 466009
  stamp: 
    secs: 1561866838
    nsecs: 586707625
  frame_id: "ti_mmwave"
point_id: 12
x: 4.39453125
y: -0.142578125
z: 1.28515625
range: 4.88062095642
velocity: 0.0
doppler_bin: 8
bearing: -1.8582777977
intensity: 31.3417701721
---
header: 
  seq: 466010
  stamp: 
    secs: 1561866838
    nsecs: 586715203
  frame_id: "ti_mmwave"
point_id: 13
x: 4.369140625
y: -0.14453125
z: 1.501953125
range: 4.9241976738
velocity: 0.0
doppler_bin: 8
bearing: -1.89465451241
intensity: 30.9236965179
---
header: 
  seq: 466011
  stamp: 
    secs: 1561866838
    nsecs: 586721901
  frame_id: "ti_mmwave"
point_id: 14
x: 4.724609375
y: -0.44921875
z: -0.62109375
range: 5.09850549698
velocity: 0.0
doppler_bin: 8
bearing: -5.43138980865
intensity: 33.3984870911
---
header: 
  seq: 466012
  stamp: 
    secs: 1561866838
    nsecs: 586726859
  frame_id: "ti_mmwave"
point_id: 15
x: 4.76171875
y: -0.30078125
z: -0.73046875
range: 5.14208269119
velocity: 0.0
doppler_bin: 8
bearing: -3.61437344551
intensity: 34.1212425232
---
header: 
  seq: 466013
  stamp: 
    secs: 1561866838
    nsecs: 586733797
  frame_id: "ti_mmwave"
point_id: 16
x: 4.74609375
y: -0.15234375
z: -1.068359375
range: 5.18565940857
velocity: 0.0
doppler_bin: 8
bearing: -1.83849263191
intensity: 30.6220588684
---
header: 
  seq: 466014
  stamp: 
    secs: 1561866838
    nsecs: 586740803
  frame_id: "ti_mmwave"
point_id: 17
x: 4.900390625
y: -0.30859375
z: 0.625
range: 5.27281332016
velocity: 0.0
doppler_bin: 8
bearing: -3.60334610939
intensity: 31.0856494904
---
header: 
  seq: 466015
  stamp: 
    secs: 1561866838
    nsecs: 586747907
  frame_id: "ti_mmwave"
point_id: 18
x: 4.96875
y: -0.46875
z: -0.03515625
range: 5.31639051437
velocity: 0.0
doppler_bin: 8
bearing: -5.38931179047
intensity: 29.8721923828
---
header: 
  seq: 466016
  stamp: 
    secs: 1561866838
    nsecs: 586754137
  frame_id: "ti_mmwave"
point_id: 20
x: 0.041015625
y: -0.033203125
z: 0.0625
range: 0.0871539413929
velocity: 0.0
doppler_bin: 8
bearing: -38.9909973145
intensity: 30.1029987335
---
header: 
  seq: 466017
  stamp: 
    secs: 1561866838
    nsecs: 586788610
  frame_id: "ti_mmwave"
point_id: 21
x: 0.044921875
y: -0.046875
z: 0.103515625
range: 0.130730912089
velocity: 0.0
doppler_bin: 8
bearing: -46.218875885
intensity: 29.0145835876
---
header: 
  seq: 466018
  stamp: 
    secs: 1561866838
    nsecs: 586795123
  frame_id: "ti_mmwave"
point_id: 23
x: 4.744140625
y: -0.150390625
z: -0.619140625
range: 5.09850549698
velocity: 0.0
doppler_bin: 8
bearing: -1.81568455696
intensity: 33.3565826416
---
header: 
  seq: 466019
  stamp: 
    secs: 1561866838
    nsecs: 587145350
  frame_id: "ti_mmwave"
point_id: 0
x: 0.01171875
y: -0.0390625
z: -0.0078125
range: 0.0435769706964
velocity: 0.0
doppler_bin: 8
bearing: -73.3007583618
intensity: 30.6557979584
---
header: 
  seq: 466020
  stamp: 
    secs: 1561866838
    nsecs: 587158565
  frame_id: "ti_mmwave"
point_id: 1
x: 0.017578125
y: -0.080078125
z: -0.0078125
range: 0.0871539413929
velocity: 0.0
doppler_bin: 8
bearing: -77.6192398071
intensity: 31.9173030853
---
header: 
  seq: 466021
  stamp: 
    secs: 1561866838
    nsecs: 587164849
  frame_id: "ti_mmwave"
point_id: 2
x: 0.029296875
y: -0.119140625
z: -0.005859375
range: 0.130730912089
velocity: 0.0
doppler_bin: 8
bearing: -76.1849746704
intensity: 30.141002655
---
header: 
  seq: 466022
  stamp: 
    secs: 1561866838
    nsecs: 587169776
  frame_id: "ti_mmwave"
point_id: 3
x: 0.056640625
y: -0.154296875
z: 0.005859375
range: 0.174307882786
velocity: 0.0
doppler_bin: 8
bearing: -69.8423843384
intensity: 25.4530715942
---
header: 
  seq: 466023
  stamp: 
    secs: 1561866838
    nsecs: 587174923
  frame_id: "ti_mmwave"
point_id: 4
x: 0.169921875
y: -0.080078125
z: 1.25390625
range: 1.35088610649
velocity: 0.0
doppler_bin: 8
bearing: -25.232831955
intensity: 23.0963020325
---
header: 
  seq: 466024
  stamp: 
    secs: 1561866838
    nsecs: 587214315
  frame_id: "ti_mmwave"
point_id: 5
x: 0.064453125
y: -0.08203125
z: 1.3046875
range: 1.39446306229
velocity: 0.0
doppler_bin: 8
bearing: -51.8427734375
intensity: 24.6389293671
---
header: 
  seq: 466025
  stamp: 
    secs: 1561866838
    nsecs: 587222235
  frame_id: "ti_mmwave"
point_id: 6
x: 0.412109375
y: -0.083984375
z: -1.283203125
range: 1.43804001808
velocity: 0.0
doppler_bin: 8
bearing: -11.518658638
intensity: 23.0749607086
---
header: 
  seq: 466026
  stamp: 
    secs: 1561866838
    nsecs: 587224981
  frame_id: "ti_mmwave"
point_id: 7
x: 0.560546875
y: -0.04296875
z: -1.2734375
range: 1.48161697388
velocity: 0.0
doppler_bin: 8
bearing: -4.38343858719
intensity: 21.7026176453
---
header: 
  seq: 466027
  stamp: 
    secs: 1561866838
    nsecs: 587234246
  frame_id: "ti_mmwave"
point_id: 8
x: 2.068359375
y: 1.111328125
z: -0.3359375
range: 2.5274643898
velocity: 0.0
doppler_bin: 8
bearing: 28.2491092682
intensity: 27.2997436523
---
header: 
  seq: 466028
  stamp: 
    secs: 1561866838
    nsecs: 587238620
  frame_id: "ti_mmwave"
point_id: 9
x: 2.1484375
y: 1.056640625
z: -0.306640625
range: 2.5710413456
velocity: 0.0
doppler_bin: 8
bearing: 26.1887989044
intensity: 27.7887439728
---
header: 
  seq: 466029
  stamp: 
    secs: 1561866838
    nsecs: 587242082
  frame_id: "ti_mmwave"
point_id: 10
x: 2.615234375
y: -0.17578125
z: 1.048828125
range: 3.00681090355
velocity: 0.0
doppler_bin: 8
bearing: -3.84531402588
intensity: 28.9982051849
---
header: 
  seq: 466030
  stamp: 
    secs: 1561866838
    nsecs: 587245398
  frame_id: "ti_mmwave"
point_id: 11
x: 2.662109375
y: -0.1796875
z: 1.041015625
range: 3.05038785934
velocity: 0.0
doppler_bin: 8
bearing: -3.86150240898
intensity: 32.1827278137
---
header: 
  seq: 466031
  stamp: 
    secs: 1561866838
    nsecs: 587248829
  frame_id: "ti_mmwave"
point_id: 12
x: 2.7578125
y: -0.08984375
z: 0.904296875
range: 3.09396481514
velocity: 0.0
doppler_bin: 8
bearing: -1.86591637135
intensity: 31.1561050415
---
header: 
  seq: 466032
  stamp: 
    secs: 1561866838
    nsecs: 587252315
  frame_id: "ti_mmwave"
point_id: 13
x: 4.392578125
y: -0.142578125
z: 1.29296875
range: 4.88062095642
velocity: 0.0
doppler_bin: 8
bearing: -1.85910367966
intensity: 31.2775249481
---
header: 
  seq: 466033
  stamp: 
    secs: 1561866838
    nsecs: 587255819
  frame_id: "ti_mmwave"
point_id: 14
x: 4.365234375
y: -0.14453125
z: 1.515625
range: 4.9241976738
velocity: 0.0
doppler_bin: 8
bearing: -1.89634871483
intensity: 30.9516925812
---
header: 
  seq: 466034
  stamp: 
    secs: 1561866838
    nsecs: 587361971
  frame_id: "ti_mmwave"
point_id: 15
x: 4.732421875
y: -0.298828125
z: -0.65234375
range: 5.09850549698
velocity: 0.0
doppler_bin: 8
bearing: -3.61313724518
intensity: 33.5218238831
---
header: 
  seq: 466035
  stamp: 
    secs: 1561866838
    nsecs: 587374571
  frame_id: "ti_mmwave"
point_id: 16
x: 4.75
y: -0.30078125
z: -0.80078125
range: 5.14208269119
velocity: 0.0
doppler_bin: 8
bearing: -3.62326669693
intensity: 34.2845878601
---
header: 
  seq: 466036
  stamp: 
    secs: 1561866838
    nsecs: 587379847
  frame_id: "ti_mmwave"
point_id: 17
x: 4.708984375
y: -0.15234375
z: -1.2265625
range: 5.18565940857
velocity: 0.0
doppler_bin: 8
bearing: -1.85297071934
intensity: 30.9864368439
---
header: 
  seq: 466037
  stamp: 
    secs: 1561866838
    nsecs: 587384286
  frame_id: "ti_mmwave"
point_id: 18
x: 4.904296875
y: -0.30859375
z: 0.587890625
range: 5.27281332016
velocity: 0.0
doppler_bin: 8
bearing: -3.60048341751
intensity: 31.0346164703
---
header: 
  seq: 466038
  stamp: 
    secs: 1561866838
    nsecs: 587388485
  frame_id: "ti_mmwave"
point_id: 19
x: 4.951171875
y: -0.623046875
z: -0.04296875
range: 5.31639051437
velocity: 0.0
doppler_bin: 8
bearing: -7.17230129242
intensity: 29.8045787811
---
header: 
  seq: 466039
  stamp: 
    secs: 1561866838
    nsecs: 587392698
  frame_id: "ti_mmwave"
point_id: 21
x: 0.041015625
y: -0.033203125
z: 0.0625
range: 0.0871539413929
velocity: 0.0
doppler_bin: 8
bearing: -38.9909973145
intensity: 30.1029987335
---
header: 
  seq: 466040
  stamp: 
    secs: 1561866838
    nsecs: 587402815
  frame_id: "ti_mmwave"
point_id: 22
x: 0.044921875
y: -0.046875
z: 0.103515625
range: 0.130730912089
velocity: 0.0
doppler_bin: 8
bearing: -46.218875885
intensity: 29.0145835876
---
header: 
  seq: 466041
  stamp: 
    secs: 1561866838
    nsecs: 646624317
  frame_id: "ti_mmwave"
point_id: 0
x: 0.01171875
y: -0.0390625
z: -0.0078125
range: 0.0435769706964
velocity: 0.0
doppler_bin: 8
bearing: -73.3007583618
intensity: 30.6557979584
---
header: 
  seq: 466042
  stamp: 
    secs: 1561866838
    nsecs: 646653801
  frame_id: "ti_mmwave"
point_id: 1
x: 0.017578125
y: -0.080078125
z: -0.0078125
range: 0.0871539413929
velocity: 0.0
doppler_bin: 8
bearing: -77.6192398071
intensity: 31.9173030853
---
header: 
  seq: 466043
  stamp: 
    secs: 1561866838
    nsecs: 646657490
  frame_id: "ti_mmwave"
point_id: 2
x: 0.029296875
y: -0.119140625
z: -0.005859375
range: 0.130730912089
velocity: 0.0
doppler_bin: 8
bearing: -76.1849746704
intensity: 30.141002655
---
header: 
  seq: 466044
  stamp: 
    secs: 1561866838
    nsecs: 646661154
  frame_id: "ti_mmwave"
point_id: 3
x: 0.056640625
y: -0.154296875
z: 0.005859375
range: 0.174307882786
velocity: 0.0
doppler_bin: 8
bearing: -69.8423843384
intensity: 25.4530715942
---
header: 
  seq: 466045
  stamp: 
    secs: 1561866838
    nsecs: 646664120
  frame_id: "ti_mmwave"
point_id: 4
x: 0.14453125
y: -0.080078125
z: 1.2578125
range: 1.35088610649
velocity: 0.0
doppler_bin: 8
bearing: -28.9888248444
intensity: 23.1175384521
---
header: 
  seq: 466046
  stamp: 
    secs: 1561866838
    nsecs: 646667365
  frame_id: "ti_mmwave"
point_id: 6
x: 0.412109375
y: -0.083984375
z: -1.283203125
range: 1.43804001808
velocity: 0.0
doppler_bin: 8
bearing: -11.518658638
intensity: 23.0749607086
---
header: 
  seq: 466047
  stamp: 
    secs: 1561866838
    nsecs: 646670875
  frame_id: "ti_mmwave"
point_id: 7
x: 0.533203125
y: -0.04296875
z: -1.283203125
range: 1.48161697388
velocity: 0.0
doppler_bin: 8
bearing: -4.60728597641
intensity: 21.7026176453
---
header: 
  seq: 466048
  stamp: 
    secs: 1561866838
    nsecs: 646673592
  frame_id: "ti_mmwave"
point_id: 8
x: 2.12109375
y: 1.037109375
z: -0.236328125
range: 2.5274643898
velocity: 0.0
doppler_bin: 8
bearing: 26.0563354492
intensity: 28.1224460602
---
header: 
  seq: 466049
  stamp: 
    secs: 1561866838
    nsecs: 646676229
  frame_id: "ti_mmwave"
point_id: 9
x: 2.16015625
y: 1.056640625
z: -0.2109375
range: 2.5710413456
velocity: 0.0
doppler_bin: 8
bearing: 26.0655727386
intensity: 28.9376182556
---
header: 
  seq: 466050
  stamp: 
    secs: 1561866838
    nsecs: 646678885
  frame_id: "ti_mmwave"
point_id: 10
x: 2.205078125
y: 1.07421875
z: -0.0859375
range: 2.61461830139
velocity: 0.0
doppler_bin: 8
bearing: 25.9733428955
intensity: 26.8214511871
---
header: 
  seq: 466051
  stamp: 
    secs: 1561866838
    nsecs: 646681450
  frame_id: "ti_mmwave"
point_id: 11
x: 2.611328125
y: -0.17578125
z: 1.056640625
range: 3.00681090355
velocity: 0.0
doppler_bin: 8
bearing: -3.85104894638
intensity: 28.9817657471
---
header: 
  seq: 466052
  stamp: 
    secs: 1561866838
    nsecs: 646684563
  frame_id: "ti_mmwave"
point_id: 12
x: 2.66015625
y: -0.1796875
z: 1.04296875
range: 3.05038785934
velocity: 0.0
doppler_bin: 8
bearing: -3.86432933807
intensity: 32.1748390198
---
header: 
  seq: 466053
  stamp: 
    secs: 1561866838
    nsecs: 646687141
  frame_id: "ti_mmwave"
point_id: 13
x: 2.7734375
y: -0.0
z: 0.859375
range: 3.09396481514
velocity: 0.0
doppler_bin: 8
bearing: -0.0
intensity: 31.1126251221
---
header: 
  seq: 466054
  stamp: 
    secs: 1561866838
    nsecs: 646690055
  frame_id: "ti_mmwave"
point_id: 14
x: 4.39453125
y: -0.142578125
z: 1.287109375
range: 4.88062095642
velocity: 0.0
doppler_bin: 8
bearing: -1.8582777977
intensity: 31.2936763763
---
header: 
  seq: 466055
  stamp: 
    secs: 1561866838
    nsecs: 646692934
  frame_id: "ti_mmwave"
point_id: 15
x: 4.365234375
y: -0.14453125
z: 1.515625
range: 4.9241976738
velocity: 0.0
doppler_bin: 8
bearing: -1.89634871483
intensity: 30.9236965179
---
header: 
  seq: 466056
  stamp: 
    secs: 1561866838
    nsecs: 646695557
  frame_id: "ti_mmwave"
point_id: 16
x: 4.740234375
y: -0.298828125
z: -0.5859375
range: 5.09850549698
velocity: 0.0
doppler_bin: 8
bearing: -3.60719799995
intensity: 33.3725967407
---
header: 
  seq: 466057
  stamp: 
    secs: 1561866838
    nsecs: 646698048
  frame_id: "ti_mmwave"
point_id: 17
x: 4.775390625
y: -0.30078125
z: -0.642578125
range: 5.14208269119
velocity: 0.0
doppler_bin: 8
bearing: -3.60405302048
intensity: 33.9759254456
---
header: 
  seq: 466058
  stamp: 
    secs: 1561866838
    nsecs: 646700929
  frame_id: "ti_mmwave"
point_id: 18
x: 4.794921875
y: -0.15234375
z: -0.8203125
range: 5.18565940857
velocity: 0.0
doppler_bin: 8
bearing: -1.81978332996
intensity: 30.3422718048
---
header: 
  seq: 466059
  stamp: 
    secs: 1561866838
    nsecs: 646703613
  frame_id: "ti_mmwave"
point_id: 19
x: 4.91796875
y: -0.30859375
z: 0.46875
range: 5.27281332016
velocity: 0.0
doppler_bin: 8
bearing: -3.59050059319
intensity: 31.0243377686
---
header: 
  seq: 466060
  stamp: 
    secs: 1561866838
    nsecs: 646706588
  frame_id: "ti_mmwave"
point_id: 20
x: 4.9453125
y: -0.623046875
z: -0.265625
range: 5.31639051437
velocity: 0.0
doppler_bin: 8
bearing: -7.18071126938
intensity: 29.9033889771
---
header: 
  seq: 466061
  stamp: 
    secs: 1561866838
    nsecs: 646710105
  frame_id: "ti_mmwave"
point_id: 22
x: 0.041015625
y: -0.033203125
z: 0.0625
range: 0.0871539413929
velocity: 0.0
doppler_bin: 8
bearing: -38.9909973145
intensity: 30.1029987335
---
header: 
  seq: 466062
  stamp: 
    secs: 1561866838
    nsecs: 646712746
  frame_id: "ti_mmwave"
point_id: 23
x: 0.046875
y: -0.046875
z: 0.103515625
range: 0.130730912089
velocity: 0.0
doppler_bin: 8
bearing: -45.0
intensity: 29.0091304779
---
header: 
  seq: 466063
  stamp: 
    secs: 1561866838
    nsecs: 647094146
  frame_id: "ti_mmwave"
point_id: 0
x: 0.01171875
y: -0.0390625
z: -0.0078125
range: 0.0435769706964
velocity: 0.0
doppler_bin: 8
bearing: -73.3007583618
intensity: 30.6520614624
---
header: 
  seq: 466064
  stamp: 
    secs: 1561866838
    nsecs: 647113279
  frame_id: "ti_mmwave"
point_id: 1
x: 0.017578125
y: -0.080078125
z: -0.0078125
range: 0.0871539413929
velocity: 0.0
doppler_bin: 8
bearing: -77.6192398071
intensity: 31.9145107269
---
header: 
  seq: 466065
  stamp: 
    secs: 1561866838
    nsecs: 647119631
  frame_id: "ti_mmwave"
point_id: 2
x: 0.029296875
y: -0.119140625
z: -0.005859375
range: 0.130730912089
velocity: 0.0
doppler_bin: 8
bearing: -76.1849746704
intensity: 30.141002655
---
header: 
  seq: 466066
  stamp: 
    secs: 1561866838
    nsecs: 647124479
  frame_id: "ti_mmwave"
point_id: 3
x: 0.056640625
y: -0.154296875
z: 0.005859375
range: 0.174307882786
velocity: 0.0
doppler_bin: 8
bearing: -69.8423843384
intensity: 25.4654273987
---
header: 
  seq: 466067
  stamp: 
    secs: 1561866838
    nsecs: 647147019
  frame_id: "ti_mmwave"
point_id: 4
x: 0.130859375
y: -0.080078125
z: 1.2578125
range: 1.35088610649
velocity: 0.0
doppler_bin: 8
bearing: -31.4641437531
intensity: 23.0963020325
---
header: 
  seq: 466068
  stamp: 
    secs: 1561866838
    nsecs: 647152913
  frame_id: "ti_mmwave"
point_id: 6
x: 0.423828125
y: -0.083984375
z: -1.279296875
range: 1.43804001808
velocity: 0.0
doppler_bin: 8
bearing: -11.2083444595
intensity: 23.0749607086
---
header: 
  seq: 466069
  stamp: 
    secs: 1561866838
    nsecs: 647156926
  frame_id: "ti_mmwave"
point_id: 7
x: 0.556640625
y: -0.04296875
z: -1.2734375
range: 1.48161697388
velocity: 0.0
doppler_bin: 8
bearing: -4.41407871246
intensity: 21.6731739044
---
header: 
  seq: 466070
  stamp: 
    secs: 1561866838
    nsecs: 647160631
  frame_id: "ti_mmwave"
point_id: 8
x: 2.14453125
y: 1.056640625
z: -0.330078125
range: 2.5710413456
velocity: 0.0
doppler_bin: 8
bearing: 26.2301139832
intensity: 27.4036273956
---
header: 
  seq: 466071
  stamp: 
    secs: 1561866838
    nsecs: 647164087
  frame_id: "ti_mmwave"
point_id: 9
x: 2.662109375
y: -0.1796875
z: 1.041015625
range: 3.05038785934
velocity: 0.0
doppler_bin: 8
bearing: -3.86150240898
intensity: 32.1616592407
---
header: 
  seq: 466072
  stamp: 
    secs: 1561866838
    nsecs: 647172351
  frame_id: "ti_mmwave"
point_id: 10
x: 2.755859375
y: -0.08984375
z: 0.91015625
range: 3.09396481514
velocity: 0.0
doppler_bin: 8
bearing: -1.86723792553
intensity: 31.1925582886
---
header: 
  seq: 466073
  stamp: 
    secs: 1561866838
    nsecs: 647179101
  frame_id: "ti_mmwave"
point_id: 11
x: 4.396484375
y: -0.142578125
z: 1.283203125
range: 4.88062095642
velocity: 0.0
doppler_bin: 8
bearing: -1.85745286942
intensity: 31.3257980347
---
header: 
  seq: 466074
  stamp: 
    secs: 1561866838
    nsecs: 647185105
  frame_id: "ti_mmwave"
point_id: 12
x: 4.365234375
y: -0.14453125
z: 1.51171875
range: 4.9241976738
velocity: 0.0
doppler_bin: 8
bearing: -1.89634871483
intensity: 30.9412155151
---
header: 
  seq: 466075
  stamp: 
    secs: 1561866838
    nsecs: 647193896
  frame_id: "ti_mmwave"
point_id: 13
x: 4.728515625
y: -0.44921875
z: -0.59375
range: 5.09850549698
velocity: 0.0
doppler_bin: 8
bearing: -5.42692995071
intensity: 33.324382782
---
header: 
  seq: 466076
  stamp: 
    secs: 1561866838
    nsecs: 647198196
  frame_id: "ti_mmwave"
point_id: 14
x: 4.78515625
y: -0.150390625
z: -0.609375
range: 5.14208269119
velocity: 0.0
doppler_bin: 8
bearing: -1.80013203621
intensity: 33.9497680664
---
header: 
  seq: 466077
  stamp: 
    secs: 1561866838
    nsecs: 647201923
  frame_id: "ti_mmwave"
point_id: 15
x: 4.80078125
y: -0.15234375
z: -0.796875
range: 5.18565940857
velocity: 0.0
doppler_bin: 8
bearing: -1.81756365299
intensity: 30.484418869
---
header: 
  seq: 466078
  stamp: 
    secs: 1561866838
    nsecs: 647215779
  frame_id: "ti_mmwave"
point_id: 16
x: 4.900390625
y: -0.30859375
z: 0.623046875
range: 5.27281332016
velocity: 0.0
doppler_bin: 8
bearing: -3.60334610939
intensity: 30.979511261
---
header: 
  seq: 466079
  stamp: 
    secs: 1561866838
    nsecs: 647223094
  frame_id: "ti_mmwave"
point_id: 17
x: 4.951171875
y: -0.623046875
z: 0.095703125
range: 5.31639051437
velocity: 0.0
doppler_bin: 8
bearing: -7.17230129242
intensity: 29.6331558228
---
header: 
  seq: 466080
  stamp: 
    secs: 1561866838
    nsecs: 647230131
  frame_id: "ti_mmwave"
point_id: 18
x: 1.982421875
y: 1.14453125
z: -0.072265625
range: 2.44031047821
velocity: 0.614668667316
doppler_bin: 9
bearing: 29.9995536804
intensity: 24.1664047241
---
header: 
  seq: 466081
  stamp: 
    secs: 1561866838
    nsecs: 647257014
  frame_id: "ti_mmwave"
point_id: 19
x: 2.01953125
y: 1.166015625
z: 0.041015625
range: 2.48388743401
velocity: 0.614668667316
doppler_bin: 9
bearing: 30.0008239746
intensity: 25.1982803345
---
header: 
  seq: 466082
  stamp: 
    secs: 1561866838
    nsecs: 647263620
  frame_id: "ti_mmwave"
point_id: 21
x: 0.041015625
y: -0.033203125
z: 0.0625
range: 0.0871539413929
velocity: 0.0
doppler_bin: 8
bearing: -38.9909973145
intensity: 30.1072387695
---
header: 
  seq: 466083
  stamp: 
    secs: 1561866838
    nsecs: 647268384
  frame_id: "ti_mmwave"
point_id: 22
x: 0.046875
y: -0.046875
z: 0.103515625
range: 0.130730912089
velocity: 0.0
doppler_bin: 8
bearing: -45.0
intensity: 29.0145835876
---
header: 
  seq: 466084
  stamp: 
    secs: 1561866838
    nsecs: 706651776
  frame_id: "ti_mmwave"
point_id: 0
x: 0.01171875
y: -0.0390625
z: -0.0078125
range: 0.0435769706964
velocity: 0.0
doppler_bin: 8
bearing: -73.3007583618
intensity: 30.6520614624
---
header: 
  seq: 466085
  stamp: 
    secs: 1561866838
    nsecs: 706680387
  frame_id: "ti_mmwave"
point_id: 1
x: 0.017578125
y: -0.080078125
z: -0.0078125
range: 0.0871539413929
velocity: 0.0
doppler_bin: 8
bearing: -77.6192398071
intensity: 31.9145107269
---
header: 
  seq: 466086
  stamp: 
    secs: 1561866838
    nsecs: 706684047
  frame_id: "ti_mmwave"
point_id: 2
x: 0.029296875
y: -0.119140625
z: -0.005859375
range: 0.130730912089
velocity: 0.0
doppler_bin: 8
bearing: -76.1849746704
intensity: 30.1367969513
---
header: 
  seq: 466087
  stamp: 
    secs: 1561866838
    nsecs: 706688593
  frame_id: "ti_mmwave"
point_id: 3
x: 0.056640625
y: -0.154296875
z: 0.005859375
range: 0.174307882786
velocity: 0.0
doppler_bin: 8
bearing: -69.8423843384
intensity: 25.4654273987
---
header: 
  seq: 466088
  stamp: 
    secs: 1561866838
    nsecs: 706692636
  frame_id: "ti_mmwave"
point_id: 4
x: 0.1484375
y: -0.080078125
z: 1.2578125
range: 1.35088610649
velocity: 0.0
doppler_bin: 8
bearing: -28.3456954956
intensity: 23.0963020325
---
header: 
  seq: 466089
  stamp: 
    secs: 1561866838
    nsecs: 706696075
  frame_id: "ti_mmwave"
point_id: 5
x: 0.017578125
y: -0.08203125
z: 1.306640625
range: 1.39446306229
velocity: 0.0
doppler_bin: 8
bearing: -77.9052429199
intensity: 24.6239795685
---
header: 
  seq: 466090
  stamp: 
    secs: 1561866838
    nsecs: 706702146
  frame_id: "ti_mmwave"
point_id: 6
x: 0.419921875
y: -0.083984375
z: -1.279296875
range: 1.43804001808
velocity: 0.0
doppler_bin: 8
bearing: -11.3099327087
intensity: 23.0535144806
---
header: 
  seq: 466091
  stamp: 
    secs: 1561866838
    nsecs: 706706565
  frame_id: "ti_mmwave"
point_id: 7
x: 0.564453125
y: -0.04296875
z: -1.271484375
range: 1.48161697388
velocity: 0.0
doppler_bin: 8
bearing: -4.35321998596
intensity: 21.6435279846
---
header: 
  seq: 466092
  stamp: 
    secs: 1561866838
    nsecs: 706710830
  frame_id: "ti_mmwave"
point_id: 8
x: 2.609375
y: -0.17578125
z: 1.060546875
range: 3.00681090355
velocity: 0.0
doppler_bin: 8
bearing: -3.85392260551
intensity: 29.0633506775
---
header: 
  seq: 466093
  stamp: 
    secs: 1561866838
    nsecs: 706715069
  frame_id: "ti_mmwave"
point_id: 9
x: 2.654296875
y: -0.1796875
z: 1.060546875
range: 3.05038785934
velocity: 0.0
doppler_bin: 8
bearing: -3.87283420563
intensity: 32.1722068787
---
header: 
  seq: 466094
  stamp: 
    secs: 1561866838
    nsecs: 706719374
  frame_id: "ti_mmwave"
point_id: 10
x: 2.744140625
y: -0.08984375
z: 0.9453125
range: 3.09396481514
velocity: 0.0
doppler_bin: 8
bearing: -1.87520623207
intensity: 31.1925582886
---
header: 
  seq: 466095
  stamp: 
    secs: 1561866838
    nsecs: 706723714
  frame_id: "ti_mmwave"
point_id: 11
x: 4.396484375
y: -0.142578125
z: 1.28125
range: 4.88062095642
velocity: 0.0
doppler_bin: 8
bearing: -1.85745286942
intensity: 31.3289985657
---
header: 
  seq: 466096
  stamp: 
    secs: 1561866838
    nsecs: 706727299
  frame_id: "ti_mmwave"
point_id: 12
x: 4.369140625
y: -0.14453125
z: 1.50390625
range: 4.9241976738
velocity: 0.0
doppler_bin: 8
bearing: -1.89465451241
intensity: 30.9307136536
---
header: 
  seq: 466097
  stamp: 
    secs: 1561866838
    nsecs: 706799283
  frame_id: "ti_mmwave"
point_id: 13
x: 4.734375
y: -0.44921875
z: -0.544921875
range: 5.09850549698
velocity: 0.0
doppler_bin: 8
bearing: -5.42025327682
intensity: 33.5179634094
---
header: 
  seq: 466098
  stamp: 
    secs: 1561866838
    nsecs: 706805181
  frame_id: "ti_mmwave"
point_id: 14
x: 4.779296875
y: -0.30078125
z: -0.599609375
range: 5.14208269119
velocity: 0.0
doppler_bin: 8
bearing: -3.60111522675
intensity: 34.2340965271
---
header: 
  seq: 466099
  stamp: 
    secs: 1561866838
    nsecs: 706807861
  frame_id: "ti_mmwave"
point_id: 15
x: 4.787109375
y: -0.15234375
z: -0.873046875
range: 5.18565940857
velocity: 0.0
doppler_bin: 8
bearing: -1.82275128365
intensity: 30.9201850891
---
header: 
  seq: 466100
  stamp: 
    secs: 1561866838
    nsecs: 706810497
  frame_id: "ti_mmwave"
point_id: 16
x: 4.8984375
y: -0.30859375
z: 0.638671875
range: 5.27281332016
velocity: 0.0
doppler_bin: 8
bearing: -3.60477876663
intensity: 30.9586639404
---
header: 
  seq: 466101
  stamp: 
    secs: 1561866838
    nsecs: 706813329
  frame_id: "ti_mmwave"
point_id: 17
x: 4.951171875
y: -0.623046875
z: 0.0859375
range: 5.31639051437
velocity: 0.0
doppler_bin: 8
bearing: -7.17230129242
intensity: 29.339931488
---
header: 
  seq: 466102
  stamp: 
    secs: 1561866838
    nsecs: 706815942
  frame_id: "ti_mmwave"
point_id: 18
x: 2.01171875
y: 1.166015625
z: -0.169921875
range: 2.48388743401
velocity: 0.614668667316
doppler_bin: 9
bearing: 30.0970821381
intensity: 26.4542236328
---
header: 
  seq: 466103
  stamp: 
    secs: 1561866838
    nsecs: 706819616
  frame_id: "ti_mmwave"
point_id: 19
x: 2.052734375
y: 1.185546875
z: -0.095703125
range: 2.5274643898
velocity: 0.614668667316
doppler_bin: 9
bearing: 30.0083751678
intensity: 25.5630245209
---
header: 
  seq: 466104
  stamp: 
    secs: 1561866838
    nsecs: 706823741
  frame_id: "ti_mmwave"
point_id: 21
x: 0.041015625
y: -0.033203125
z: 0.0625
range: 0.0871539413929
velocity: 0.0
doppler_bin: 8
bearing: -38.9909973145
intensity: 30.0987567902
---
header: 
  seq: 466105
  stamp: 
    secs: 1561866838
    nsecs: 706827648
  frame_id: "ti_mmwave"
point_id: 22
x: 0.046875
y: -0.046875
z: 0.103515625
range: 0.130730912089
velocity: 0.0
doppler_bin: 8
bearing: -45.0
intensity: 29.0091304779
---
header: 
  seq: 466106
  stamp: 
    secs: 1561866838
    nsecs: 707141032
  frame_id: "ti_mmwave"
point_id: 0
x: 0.01171875
y: -0.0390625
z: -0.0078125
range: 0.0435769706964
velocity: 0.0
doppler_bin: 8
bearing: -73.3007583618
intensity: 30.6408348083
---
header: 
  seq: 466107
  stamp: 
    secs: 1561866838
    nsecs: 707159591
  frame_id: "ti_mmwave"
point_id: 1
x: 0.017578125
y: -0.080078125
z: -0.0078125
range: 0.0871539413929
velocity: 0.0
doppler_bin: 8
bearing: -77.6192398071
intensity: 31.9145107269
---
header: 
  seq: 466108
  stamp: 
    secs: 1561866838
    nsecs: 707166172
  frame_id: "ti_mmwave"
point_id: 2
x: 0.029296875
y: -0.119140625
z: -0.005859375
range: 0.130730912089
velocity: 0.0
doppler_bin: 8
bearing: -76.1849746704
intensity: 30.141002655
---
header: 
  seq: 466109
  stamp: 
    secs: 1561866838
    nsecs: 707170970
  frame_id: "ti_mmwave"
point_id: 3
x: 0.056640625
y: -0.154296875
z: 0.005859375
range: 0.174307882786
velocity: 0.0
doppler_bin: 8
bearing: -69.8423843384
intensity: 25.4654273987
---
header: 
  seq: 466110
  stamp: 
    secs: 1561866838
    nsecs: 707223407
  frame_id: "ti_mmwave"
point_id: 4
x: 0.16796875
y: -0.080078125
z: 1.25390625
range: 1.35088610649
velocity: 0.0
doppler_bin: 8
bearing: -25.489200592
intensity: 23.138671875
---
header: 
  seq: 466111
  stamp: 
    secs: 1561866838
    nsecs: 707253179
  frame_id: "ti_mmwave"
point_id: 5
x: 0.021484375
y: -0.08203125
z: 1.306640625
range: 1.39446306229
velocity: 0.0
doppler_bin: 8
bearing: -75.3236083984
intensity: 24.6389293671
---
header: 
  seq: 466112
  stamp: 
    secs: 1561866838
    nsecs: 707260851
  frame_id: "ti_mmwave"
point_id: 6
x: 0.408203125
y: -0.083984375
z: -1.283203125
range: 1.43804001808
velocity: 0.0
doppler_bin: 8
bearing: -11.6258993149
intensity: 23.0749607086
---
header: 
  seq: 466113
  stamp: 
    secs: 1561866838
    nsecs: 707263801
  frame_id: "ti_mmwave"
point_id: 7
x: 0.56640625
y: -0.04296875
z: -1.26953125
range: 1.48161697388
velocity: 0.0
doppler_bin: 8
bearing: -4.33826684952
intensity: 21.6731739044
---
header: 
  seq: 466114
  stamp: 
    secs: 1561866838
    nsecs: 707266851
  frame_id: "ti_mmwave"
point_id: 8
x: 2.125
y: 1.037109375
z: -0.19140625
range: 2.5274643898
velocity: 0.0
doppler_bin: 8
bearing: 26.0147571564
intensity: 30.2077541351
---
header: 
  seq: 466115
  stamp: 
    secs: 1561866838
    nsecs: 707278762
  frame_id: "ti_mmwave"
point_id: 9
x: 2.166015625
y: 1.056640625
z: -0.138671875
range: 2.5710413456
velocity: 0.0
doppler_bin: 8
bearing: 26.0043640137
intensity: 29.6661090851
---
header: 
  seq: 466116
  stamp: 
    secs: 1561866838
    nsecs: 707282248
  frame_id: "ti_mmwave"
point_id: 10
x: 2.205078125
y: 1.07421875
z: -0.087890625
range: 2.61461830139
velocity: 0.0
doppler_bin: 8
bearing: 25.9733428955
intensity: 26.0205993652
---
header: 
  seq: 466117
  stamp: 
    secs: 1561866838
    nsecs: 707284889
  frame_id: "ti_mmwave"
point_id: 11
x: 2.6640625
y: -0.1796875
z: 1.033203125
range: 3.05038785934
velocity: 0.0
doppler_bin: 8
bearing: -3.85868024826
intensity: 32.1510848999
---
header: 
  seq: 466118
  stamp: 
    secs: 1561866838
    nsecs: 707287401
  frame_id: "ti_mmwave"
point_id: 12
x: 2.75390625
y: -0.08984375
z: 0.916015625
range: 3.09396481514
velocity: 0.0
doppler_bin: 8
bearing: -1.86856126785
intensity: 31.0924091339
---
header: 
  seq: 466119
  stamp: 
    secs: 1561866838
    nsecs: 707288947
  frame_id: "ti_mmwave"
point_id: 13
x: 4.39453125
y: -0.142578125
z: 1.28515625
range: 4.88062095642
velocity: 0.0
doppler_bin: 8
bearing: -1.8582777977
intensity: 31.2678050995
---
header: 
  seq: 466120
  stamp: 
    secs: 1561866838
    nsecs: 707295684
  frame_id: "ti_mmwave"
point_id: 14
x: 4.37109375
y: -0.14453125
z: 1.49609375
range: 4.9241976738
velocity: 0.0
doppler_bin: 8
bearing: -1.89380848408
intensity: 30.9236965179
---
header: 
  seq: 466121
  stamp: 
    secs: 1561866838
    nsecs: 707302204
  frame_id: "ti_mmwave"
point_id: 15
x: 4.732421875
y: -0.298828125
z: -0.654296875
range: 5.09850549698
velocity: 0.0
doppler_bin: 8
bearing: -3.61313724518
intensity: 33.5983543396
---
header: 
  seq: 466122
  stamp: 
    secs: 1561866838
    nsecs: 707306695
  frame_id: "ti_mmwave"
point_id: 16
x: 4.759765625
y: -0.30078125
z: -0.75
range: 5.14208269119
velocity: 0.0
doppler_bin: 8
bearing: -3.61585259438
intensity: 34.2878265381
---
header: 
  seq: 466123
  stamp: 
    secs: 1561866838
    nsecs: 707311729
  frame_id: "ti_mmwave"
point_id: 17
x: 4.759765625
y: -0.15234375
z: -1.01171875
range: 5.18565940857
velocity: 0.0
doppler_bin: 8
bearing: -1.83321535587
intensity: 30.8849048615
---
header: 
  seq: 466124
  stamp: 
    secs: 1561866838
    nsecs: 707316345
  frame_id: "ti_mmwave"
point_id: 18
x: 4.89453125
y: -0.30859375
z: 0.673828125
range: 5.27281332016
velocity: 0.0
doppler_bin: 8
bearing: -3.60764837265
intensity: 31.05169487
---
header: 
  seq: 466125
  stamp: 
    secs: 1561866838
    nsecs: 707321344
  frame_id: "ti_mmwave"
point_id: 19
x: 4.94921875
y: -0.623046875
z: 0.16015625
range: 5.31639051437
velocity: 0.0
doppler_bin: 8
bearing: -7.17510271072
intensity: 29.7589111328
---
header: 
  seq: 466126
  stamp: 
    secs: 1561866838
    nsecs: 707328170
  frame_id: "ti_mmwave"
point_id: 20
x: 2.0078125
y: 1.166015625
z: -0.220703125
range: 2.48388743401
velocity: 0.614668667316
doppler_bin: 9
bearing: 30.1454181671
intensity: 28.4198474884
---
header: 
  seq: 466127
  stamp: 
    secs: 1561866838
    nsecs: 707337064
  frame_id: "ti_mmwave"
point_id: 22
x: 0.041015625
y: -0.033203125
z: 0.0625
range: 0.0871539413929
velocity: 0.0
doppler_bin: 8
bearing: -38.9909973145
intensity: 30.1114730835
---
header: 
  seq: 466128
  stamp: 
    secs: 1561866838
    nsecs: 707341777
  frame_id: "ti_mmwave"
point_id: 23
x: 0.044921875
y: -0.046875
z: 0.103515625
range: 0.130730912089
velocity: 0.0
doppler_bin: 8
bearing: -46.218875885
intensity: 29.020029068
---
header: 
  seq: 466129
  stamp: 
    secs: 1561866838
    nsecs: 766610870
  frame_id: "ti_mmwave"
point_id: 0
x: 0.01171875
y: -0.0390625
z: -0.0078125
range: 0.0435769706964
velocity: 0.0
doppler_bin: 8
bearing: -73.3007583618
intensity: 30.6595306396
---
header: 
  seq: 466130
  stamp: 
    secs: 1561866838
    nsecs: 766640213
  frame_id: "ti_mmwave"
point_id: 1
x: 0.017578125
y: -0.080078125
z: -0.0078125
range: 0.0871539413929
velocity: 0.0
doppler_bin: 8
bearing: -77.6192398071
intensity: 31.9173030853
---
header: 
  seq: 466131
  stamp: 
    secs: 1561866838
    nsecs: 766643793
  frame_id: "ti_mmwave"
point_id: 2
x: 0.029296875
y: -0.119140625
z: -0.005859375
range: 0.130730912089
velocity: 0.0
doppler_bin: 8
bearing: -76.1849746704
intensity: 30.141002655
---
header: 
  seq: 466132
  stamp: 
    secs: 1561866838
    nsecs: 766646644
  frame_id: "ti_mmwave"
point_id: 3
x: 0.056640625
y: -0.154296875
z: 0.005859375
range: 0.174307882786
velocity: 0.0
doppler_bin: 8
bearing: -69.8423843384
intensity: 25.4654273987
---
header: 
  seq: 466133
  stamp: 
    secs: 1561866838
    nsecs: 766649503
  frame_id: "ti_mmwave"
point_id: 4
x: 0.130859375
y: -0.080078125
z: 1.259765625
range: 1.35088610649
velocity: 0.0
doppler_bin: 8
bearing: -31.4641437531
intensity: 23.1175384521
---
header: 
  seq: 466134
  stamp: 
    secs: 1561866838
    nsecs: 766652434
  frame_id: "ti_mmwave"
point_id: 5
x: 0.046875
y: -0.08203125
z: 1.3046875
range: 1.39446306229
velocity: 0.0
doppler_bin: 8
bearing: -60.255115509
intensity: 24.6538276672
---
header: 
  seq: 466135
  stamp: 
    secs: 1561866838
    nsecs: 766655198
  frame_id: "ti_mmwave"
point_id: 6
x: 0.40625
y: -0.083984375
z: -1.28515625
range: 1.43804001808
velocity: 0.0
doppler_bin: 8
bearing: -11.6802606583
intensity: 23.1175384521
---
header: 
  seq: 466136
  stamp: 
    secs: 1561866838
    nsecs: 766659215
  frame_id: "ti_mmwave"
point_id: 7
x: 0.5390625
y: -0.04296875
z: -1.28125
range: 1.48161697388
velocity: 0.0
doppler_bin: 8
bearing: -4.55741930008
intensity: 21.7318630219
---
header: 
  seq: 466137
  stamp: 
    secs: 1561866838
    nsecs: 766662124
  frame_id: "ti_mmwave"
point_id: 8
x: 2.625
y: -0.17578125
z: 1.021484375
range: 3.00681090355
velocity: 0.0
doppler_bin: 8
bearing: -3.83105134964
intensity: 28.9097957611
---
header: 
  seq: 466138
  stamp: 
    secs: 1561866838
    nsecs: 766664761
  frame_id: "ti_mmwave"
point_id: 9
x: 2.6640625
y: -0.1796875
z: 1.033203125
range: 3.05038785934
velocity: 0.0
doppler_bin: 8
bearing: -3.85868024826
intensity: 32.1404876709
---
header: 
  seq: 466139
  stamp: 
    secs: 1561866838
    nsecs: 766667355
  frame_id: "ti_mmwave"
point_id: 10
x: 2.755859375
y: -0.08984375
z: 0.91015625
range: 3.09396481514
velocity: 0.0
doppler_bin: 8
bearing: -1.86723792553
intensity: 31.0991592407
---
header: 
  seq: 466140
  stamp: 
    secs: 1561866838
    nsecs: 766669934
  frame_id: "ti_mmwave"
point_id: 11
x: 4.396484375
y: -0.142578125
z: 1.283203125
range: 4.88062095642
velocity: 0.0
doppler_bin: 8
bearing: -1.85745286942
intensity: 31.2645606995
---
header: 
  seq: 466141
  stamp: 
    secs: 1561866838
    nsecs: 766672545
  frame_id: "ti_mmwave"
point_id: 12
x: 4.3671875
y: -0.14453125
z: 1.509765625
range: 4.9241976738
velocity: 0.0
doppler_bin: 8
bearing: -1.89550125599
intensity: 30.934217453
---
header: 
  seq: 466142
  stamp: 
    secs: 1561866838
    nsecs: 766675305
  frame_id: "ti_mmwave"
point_id: 13
x: 4.755859375
y: -0.298828125
z: -0.439453125
range: 5.09850549698
velocity: 0.0
doppler_bin: 8
bearing: -3.59537792206
intensity: 33.2469406128
---
header: 
  seq: 466143
  stamp: 
    secs: 1561866838
    nsecs: 766679018
  frame_id: "ti_mmwave"
point_id: 14
x: 4.794921875
y: -0.30078125
z: -0.470703125
range: 5.14208269119
velocity: 0.0
doppler_bin: 8
bearing: -3.5894112587
intensity: 33.8614196777
---
header: 
  seq: 466144
  stamp: 
    secs: 1561866838
    nsecs: 766681875
  frame_id: "ti_mmwave"
point_id: 15
x: 4.826171875
y: -0.15234375
z: -0.611328125
range: 5.18565940857
velocity: 0.0
doppler_bin: 8
bearing: -1.80800783634
intensity: 30.1953163147
---
header: 
  seq: 466145
  stamp: 
    secs: 1561866838
    nsecs: 766684559
  frame_id: "ti_mmwave"
point_id: 16
x: 4.892578125
y: -0.30859375
z: 0.6875
range: 5.27281332016
velocity: 0.0
doppler_bin: 8
bearing: -3.60908436775
intensity: 31.0380363464
---
header: 
  seq: 466146
  stamp: 
    secs: 1561866838
    nsecs: 766687340
  frame_id: "ti_mmwave"
point_id: 17
x: 4.94921875
y: -0.623046875
z: 0.162109375
range: 5.31639051437
velocity: 0.0
doppler_bin: 8
bearing: -7.17510271072
intensity: 29.6661090851
---
header: 
  seq: 466147
  stamp: 
    secs: 1561866838
    nsecs: 766690871
  frame_id: "ti_mmwave"
point_id: 19
x: 0.041015625
y: -0.033203125
z: 0.0625
range: 0.0871539413929
velocity: 0.0
doppler_bin: 8
bearing: -38.9909973145
intensity: 30.0987567902
---
header: 
  seq: 466148
  stamp: 
    secs: 1561866838
    nsecs: 766693732
  frame_id: "ti_mmwave"
point_id: 20
x: 0.044921875
y: -0.046875
z: 0.103515625
range: 0.130730912089
velocity: 0.0
doppler_bin: 8
bearing: -46.218875885
intensity: 29.0036716461
---
header: 
  seq: 466149
  stamp: 
    secs: 1561866838
    nsecs: 767084379
  frame_id: "ti_mmwave"
point_id: 0
x: 0.01171875
y: -0.0390625
z: -0.0078125
range: 0.0435769706964
velocity: 0.0
doppler_bin: 8
bearing: -73.3007583618
intensity: 30.6520614624
---
header: 
  seq: 466150
  stamp: 
    secs: 1561866838
    nsecs: 767104170
  frame_id: "ti_mmwave"
point_id: 1
x: 0.017578125
y: -0.080078125
z: -0.0078125
range: 0.0871539413929
velocity: 0.0
doppler_bin: 8
bearing: -77.6192398071
intensity: 31.9145107269
---
header: 
  seq: 466151
  stamp: 
    secs: 1561866838
    nsecs: 767108861
  frame_id: "ti_mmwave"
point_id: 2
x: 0.029296875
y: -0.119140625
z: -0.005859375
range: 0.130730912089
velocity: 0.0
doppler_bin: 8
bearing: -76.1849746704
intensity: 30.141002655
---
header: 
  seq: 466152
  stamp: 
    secs: 1561866838
    nsecs: 767114378
  frame_id: "ti_mmwave"
point_id: 3
x: 0.056640625
y: -0.154296875
z: 0.005859375
range: 0.174307882786
velocity: 0.0
doppler_bin: 8
bearing: -69.8423843384
intensity: 25.4530715942
---
header: 
  seq: 466153
  stamp: 
    secs: 1561866838
    nsecs: 767149714
  frame_id: "ti_mmwave"
point_id: 4
x: 0.162109375
y: -0.080078125
z: 1.255859375
range: 1.35088610649
velocity: 0.0
doppler_bin: 8
bearing: -26.2882633209
intensity: 23.0963020325
---
header: 
  seq: 466154
  stamp: 
    secs: 1561866838
    nsecs: 767155521
  frame_id: "ti_mmwave"
point_id: 6
x: 0.408203125
y: -0.083984375
z: -1.283203125
range: 1.43804001808
velocity: 0.0
doppler_bin: 8
bearing: -11.6258993149
intensity: 23.0535144806
---
header: 
  seq: 466155
  stamp: 
    secs: 1561866838
    nsecs: 767159684
  frame_id: "ti_mmwave"
point_id: 7
x: 0.541015625
y: -0.04296875
z: -1.28125
range: 1.48161697388
velocity: 0.0
doppler_bin: 8
bearing: -4.54103565216
intensity: 21.6435279846
---
header: 
  seq: 466156
  stamp: 
    secs: 1561866838
    nsecs: 767162290
  frame_id: "ti_mmwave"
point_id: 8
x: 2.60546875
y: -0.17578125
z: 1.068359375
range: 3.00681090355
velocity: 0.0
doppler_bin: 8
bearing: -3.85968351364
intensity: 29.1169013977
---
header: 
  seq: 466157
  stamp: 
    secs: 1561866838
    nsecs: 767170371
  frame_id: "ti_mmwave"
point_id: 9
x: 2.65625
y: -0.1796875
z: 1.056640625
range: 3.05038785934
velocity: 0.0
doppler_bin: 8
bearing: -3.86999511719
intensity: 32.1932258606
---
header: 
  seq: 466158
  stamp: 
    secs: 1561866838
    nsecs: 767175286
  frame_id: "ti_mmwave"
point_id: 10
x: 2.751953125
y: -0.08984375
z: 0.923828125
range: 3.09396481514
velocity: 0.0
doppler_bin: 8
bearing: -1.86988639832
intensity: 31.209028244
---
header: 
  seq: 466159
  stamp: 
    secs: 1561866838
    nsecs: 767207787
  frame_id: "ti_mmwave"
point_id: 11
x: 4.39453125
y: -0.142578125
z: 1.28515625
range: 4.88062095642
velocity: 0.0
doppler_bin: 8
bearing: -1.8582777977
intensity: 31.3289985657
---
header: 
  seq: 466160
  stamp: 
    secs: 1561866838
    nsecs: 767213417
  frame_id: "ti_mmwave"
point_id: 12
x: 4.37109375
y: -0.14453125
z: 1.49609375
range: 4.9241976738
velocity: 0.0
doppler_bin: 8
bearing: -1.89380848408
intensity: 30.9201850891
---
header: 
  seq: 466161
  stamp: 
    secs: 1561866838
    nsecs: 767217597
  frame_id: "ti_mmwave"
point_id: 13
x: 4.736328125
y: -0.44921875
z: -0.52734375
range: 5.09850549698
velocity: 0.0
doppler_bin: 8
bearing: -5.41803121567
intensity: 33.3203430176
---
header: 
  seq: 466162
  stamp: 
    secs: 1561866838
    nsecs: 767221431
  frame_id: "ti_mmwave"
point_id: 14
x: 4.78515625
y: -0.30078125
z: -0.5546875
range: 5.14208269119
velocity: 0.0
doppler_bin: 8
bearing: -3.5967168808
intensity: 33.9199295044
---
header: 
  seq: 466163
  stamp: 
    secs: 1561866838
    nsecs: 767226106
  frame_id: "ti_mmwave"
point_id: 15
x: 4.8125
y: -0.15234375
z: -0.720703125
range: 5.18565940857
velocity: 0.0
doppler_bin: 8
bearing: -1.81314074993
intensity: 30.3981056213
---
header: 
  seq: 466164
  stamp: 
    secs: 1561866838
    nsecs: 767230514
  frame_id: "ti_mmwave"
point_id: 16
x: 4.890625
y: -0.30859375
z: 0.703125
range: 5.27281332016
velocity: 0.0
doppler_bin: 8
bearing: -3.61052203178
intensity: 31.020904541
---
header: 
  seq: 466165
  stamp: 
    secs: 1561866838
    nsecs: 767234510
  frame_id: "ti_mmwave"
point_id: 17
x: 4.947265625
y: -0.623046875
z: 0.193359375
range: 5.31639051437
velocity: 0.0
doppler_bin: 8
bearing: -7.17790555954
intensity: 29.5182304382
---
header: 
  seq: 466166
  stamp: 
    secs: 1561866838
    nsecs: 767238865
  frame_id: "ti_mmwave"
point_id: 19
x: 0.041015625
y: -0.033203125
z: 0.0625
range: 0.0871539413929
velocity: 0.0
doppler_bin: 8
bearing: -38.9909973145
intensity: 30.1029987335
---
header: 
  seq: 466167
  stamp: 
    secs: 1561866838
    nsecs: 767248198
  frame_id: "ti_mmwave"
point_id: 20
x: 0.044921875
y: -0.046875
z: 0.103515625
range: 0.130730912089
velocity: 0.0
doppler_bin: 8
bearing: -46.218875885
intensity: 29.0145835876
---
header: 
  seq: 466168
  stamp: 
    secs: 1561866838
    nsecs: 826729073
  frame_id: "ti_mmwave"
point_id: 0
x: 0.01171875
y: -0.0390625
z: -0.0078125
range: 0.0435769706964
velocity: 0.0
doppler_bin: 8
bearing: -73.3007583618
intensity: 30.6595306396
---
header: 
  seq: 466169
  stamp: 
    secs: 1561866838
    nsecs: 826756343
  frame_id: "ti_mmwave"
point_id: 1
x: 0.017578125
y: -0.080078125
z: -0.0078125
range: 0.0871539413929
velocity: 0.0
doppler_bin: 8
bearing: -77.6192398071
intensity: 31.9173030853
---
header: 
  seq: 466170
  stamp: 
    secs: 1561866838
    nsecs: 826760073
  frame_id: "ti_mmwave"
point_id: 2
x: 0.029296875
y: -0.119140625
z: -0.005859375
range: 0.130730912089
velocity: 0.0
doppler_bin: 8
bearing: -76.1849746704
intensity: 30.141002655
---
header: 
  seq: 466171
  stamp: 
    secs: 1561866838
    nsecs: 826763269
  frame_id: "ti_mmwave"
point_id: 3
x: 0.056640625
y: -0.154296875
z: 0.005859375
range: 0.174307882786
velocity: 0.0
doppler_bin: 8
bearing: -69.8423843384
intensity: 25.4654273987
---
header: 
  seq: 466172
  stamp: 
    secs: 1561866838
    nsecs: 826767145
  frame_id: "ti_mmwave"
point_id: 4
x: 0.16796875
y: -0.080078125
z: 1.25390625
range: 1.35088610649
velocity: 0.0
doppler_bin: 8
bearing: -25.489200592
intensity: 23.1175384521
---
header: 
  seq: 466173
  stamp: 
    secs: 1561866838
    nsecs: 826770042
  frame_id: "ti_mmwave"
point_id: 5
x: 0.044921875
y: -0.08203125
z: 1.3046875
range: 1.39446306229
velocity: 0.0
doppler_bin: 8
bearing: -61.2940483093
intensity: 24.6389293671
---
header: 
  seq: 466174
  stamp: 
    secs: 1561866838
    nsecs: 826772821
  frame_id: "ti_mmwave"
point_id: 6
x: 0.412109375
y: -0.083984375
z: -1.283203125
range: 1.43804001808
velocity: 0.0
doppler_bin: 8
bearing: -11.518658638
intensity: 23.0535144806
---
header: 
  seq: 466175
  stamp: 
    secs: 1561866838
    nsecs: 826775541
  frame_id: "ti_mmwave"
point_id: 7
x: 0.546875
y: -0.04296875
z: -1.27734375
range: 1.48161697388
velocity: 0.0
doppler_bin: 8
bearing: -4.49258184433
intensity: 21.6435279846
---
header: 
  seq: 466176
  stamp: 
    secs: 1561866838
    nsecs: 826779038
  frame_id: "ti_mmwave"
point_id: 8
x: 2.16796875
y: 0.962890625
z: 0.01171875
range: 2.5274643898
velocity: 0.0
doppler_bin: 8
bearing: 23.9481182098
intensity: 26.2838897705
---
header: 
  seq: 466177
  stamp: 
    secs: 1561866838
    nsecs: 826781697
  frame_id: "ti_mmwave"
point_id: 9
x: 2.205078125
y: 0.98046875
z: -0.05859375
range: 2.5710413456
velocity: 0.0
doppler_bin: 8
bearing: 23.9719047546
intensity: 26.3848934174
---
header: 
  seq: 466178
  stamp: 
    secs: 1561866838
    nsecs: 826784360
  frame_id: "ti_mmwave"
point_id: 10
x: 2.630859375
y: -0.17578125
z: 1.009765625
range: 3.00681090355
velocity: 0.0
doppler_bin: 8
bearing: -3.82254433632
intensity: 28.9707698822
---
header: 
  seq: 466179
  stamp: 
    secs: 1561866838
    nsecs: 826787612
  frame_id: "ti_mmwave"
point_id: 11
x: 2.662109375
y: -0.1796875
z: 1.041015625
range: 3.05038785934
velocity: 0.0
doppler_bin: 8
bearing: -3.86150240898
intensity: 32.1537322998
---
header: 
  seq: 466180
  stamp: 
    secs: 1561866838
    nsecs: 826790356
  frame_id: "ti_mmwave"
point_id: 12
x: 2.75
y: -0.08984375
z: 0.927734375
range: 3.09396481514
velocity: 0.0
doppler_bin: 8
bearing: -1.87121355534
intensity: 31.1494445801
---
header: 
  seq: 466181
  stamp: 
    secs: 1561866838
    nsecs: 826793086
  frame_id: "ti_mmwave"
point_id: 13
x: 4.390625
y: -0.142578125
z: 1.298828125
range: 4.88062095642
velocity: 0.0
doppler_bin: 8
bearing: -1.85993003845
intensity: 31.3161869049
---
header: 
  seq: 466182
  stamp: 
    secs: 1561866838
    nsecs: 826795786
  frame_id: "ti_mmwave"
point_id: 14
x: 4.359375
y: -0.14453125
z: 1.529296875
range: 4.9241976738
velocity: 0.0
doppler_bin: 8
bearing: -1.89889574051
intensity: 30.9272060394
---
header: 
  seq: 466183
  stamp: 
    secs: 1561866838
    nsecs: 826798522
  frame_id: "ti_mmwave"
point_id: 15
x: 4.744140625
y: -0.298828125
z: -0.556640625
range: 5.09850549698
velocity: 0.0
doppler_bin: 8
bearing: -3.60423564911
intensity: 33.662361145
---
header: 
  seq: 466184
  stamp: 
    secs: 1561866838
    nsecs: 826801568
  frame_id: "ti_mmwave"
point_id: 16
x: 4.775390625
y: -0.30078125
z: -0.634765625
range: 5.14208269119
velocity: 0.0
doppler_bin: 8
bearing: -3.60405302048
intensity: 34.3023643494
---
header: 
  seq: 466185
  stamp: 
    secs: 1561866838
    nsecs: 826804366
  frame_id: "ti_mmwave"
point_id: 17
x: 4.783203125
y: -0.15234375
z: -0.89453125
range: 5.18565940857
velocity: 0.0
doppler_bin: 8
bearing: -1.82423877716
intensity: 30.824262619
---
header: 
  seq: 466186
  stamp: 
    secs: 1561866838
    nsecs: 826807271
  frame_id: "ti_mmwave"
point_id: 18
x: 4.90625
y: -0.30859375
z: 0.578125
range: 5.27281332016
velocity: 0.0
doppler_bin: 8
bearing: -3.59905409813
intensity: 31.1092624664
---
header: 
  seq: 466187
  stamp: 
    secs: 1561866838
    nsecs: 826810213
  frame_id: "ti_mmwave"
point_id: 19
x: 4.951171875
y: -0.623046875
z: 0.04296875
range: 5.31639051437
velocity: 0.0
doppler_bin: 8
bearing: -7.17230129242
intensity: 29.7358970642
---
header: 
  seq: 466188
  stamp: 
    secs: 1561866838
    nsecs: 826813195
  frame_id: "ti_mmwave"
point_id: 20
x: 4.857421875
y: 1.59765625
z: -0.0234375
range: 5.44712114334
velocity: 0.0
doppler_bin: 8
bearing: 18.2065696716
intensity: 28.4073314667
---
header: 
  seq: 466189
  stamp: 
    secs: 1561866838
    nsecs: 826816716
  frame_id: "ti_mmwave"
point_id: 22
x: 0.041015625
y: -0.033203125
z: 0.0625
range: 0.0871539413929
velocity: 0.0
doppler_bin: 8
bearing: -38.9909973145
intensity: 30.1072387695
---
header: 
  seq: 466190
  stamp: 
    secs: 1561866838
    nsecs: 826819578
  frame_id: "ti_mmwave"
point_id: 23
x: 0.044921875
y: -0.046875
z: 0.103515625
range: 0.130730912089
velocity: 0.0
doppler_bin: 8
bearing: -46.218875885
intensity: 29.020029068
---
header: 
  seq: 466191
  stamp: 
    secs: 1561866838
    nsecs: 826823349
  frame_id: "ti_mmwave"
point_id: 25
x: 1.322265625
y: 0.076171875
z: 2.017578125
range: 2.5710413456
velocity: 0.0
doppler_bin: 8
bearing: 3.29699921608
intensity: 24.3616256714
---
header: 
  seq: 466192
  stamp: 
    secs: 1561866838
    nsecs: 886612498
  frame_id: "ti_mmwave"
point_id: 0
x: 0.01171875
y: -0.0390625
z: -0.0078125
range: 0.0435769706964
velocity: 0.0
doppler_bin: 8
bearing: -73.3007583618
intensity: 30.6483230591
---
header: 
  seq: 466193
  stamp: 
    secs: 1561866838
    nsecs: 886639283
  frame_id: "ti_mmwave"
point_id: 1
x: 0.017578125
y: -0.080078125
z: -0.0078125
range: 0.0871539413929
velocity: 0.0
doppler_bin: 8
bearing: -77.6192398071
intensity: 31.9145107269
---
header: 
  seq: 466194
  stamp: 
    secs: 1561866838
    nsecs: 886642496
  frame_id: "ti_mmwave"
point_id: 2
x: 0.029296875
y: -0.119140625
z: -0.005859375
range: 0.130730912089
velocity: 0.0
doppler_bin: 8
bearing: -76.1849746704
intensity: 30.141002655
---
header: 
  seq: 466195
  stamp: 
    secs: 1561866838
    nsecs: 886645000
  frame_id: "ti_mmwave"
point_id: 3
x: 0.056640625
y: -0.154296875
z: 0.005859375
range: 0.174307882786
velocity: 0.0
doppler_bin: 8
bearing: -69.8423843384
intensity: 25.4654273987
---
header: 
  seq: 466196
  stamp: 
    secs: 1561866838
    nsecs: 886647491
  frame_id: "ti_mmwave"
point_id: 4
x: 0.154296875
y: -0.080078125
z: 1.255859375
range: 1.35088610649
velocity: 0.0
doppler_bin: 8
bearing: -27.4287414551
intensity: 23.138671875
---
header: 
  seq: 466197
  stamp: 
    secs: 1561866838
    nsecs: 886649804
  frame_id: "ti_mmwave"
point_id: 5
x: 0.044921875
y: -0.08203125
z: 1.3046875
range: 1.39446306229
velocity: 0.0
doppler_bin: 8
bearing: -61.2940483093
intensity: 24.6389293671
---
header: 
  seq: 466198
  stamp: 
    secs: 1561866838
    nsecs: 886652135
  frame_id: "ti_mmwave"
point_id: 6
x: 0.40234375
y: -0.083984375
z: -1.28515625
range: 1.43804001808
velocity: 0.0
doppler_bin: 8
bearing: -11.7905015945
intensity: 23.0749607086
---
header: 
  seq: 466199
  stamp: 
    secs: 1561866838
    nsecs: 886654394
  frame_id: "ti_mmwave"
point_id: 7
x: 0.55078125
y: -0.04296875
z: -1.27734375
range: 1.48161697388
velocity: 0.0
doppler_bin: 8
bearing: -4.46084880829
intensity: 21.6435279846
---
header: 
  seq: 466200
  stamp: 
    secs: 1561866838
    nsecs: 886657898
  frame_id: "ti_mmwave"
point_id: 8
x: 2.6953125
y: -0.08984375
z: 0.962890625
range: 3.05038785934
velocity: 0.0
doppler_bin: 8
bearing: -1.90915250778
intensity: 32.1722068787
---
header: 
  seq: 466201
  stamp: 
    secs: 1561866838
    nsecs: 886661158
  frame_id: "ti_mmwave"
point_id: 9
x: 2.775390625
y: -0.0
z: 0.85546875
range: 3.09396481514
velocity: 0.0
doppler_bin: 8
bearing: -0.0
intensity: 31.0991592407
---
header: 
  seq: 466202
  stamp: 
    secs: 1561866838
    nsecs: 886729398
  frame_id: "ti_mmwave"
point_id: 10
x: 4.39453125
y: -0.142578125
z: 1.2890625
range: 4.88062095642
velocity: 0.0
doppler_bin: 8
bearing: -1.8582777977
intensity: 31.2968997955
---
header: 
  seq: 466203
  stamp: 
    secs: 1561866838
    nsecs: 886734478
  frame_id: "ti_mmwave"
point_id: 11
x: 4.3671875
y: -0.14453125
z: 1.509765625
range: 4.9241976738
velocity: 0.0
doppler_bin: 8
bearing: -1.89550125599
intensity: 30.9307136536
---
header: 
  seq: 466204
  stamp: 
    secs: 1561866838
    nsecs: 886736742
  frame_id: "ti_mmwave"
point_id: 12
x: 4.705078125
y: -0.298828125
z: -0.826171875
range: 5.09850549698
velocity: 0.0
doppler_bin: 8
bearing: -3.63407897949
intensity: 33.5888633728
---
header: 
  seq: 466205
  stamp: 
    secs: 1561866838
    nsecs: 886738344
  frame_id: "ti_mmwave"
point_id: 13
x: 4.7421875
y: -0.30078125
z: -0.8515625
range: 5.14208269119
velocity: 0.0
doppler_bin: 8
bearing: -3.62922024727
intensity: 34.2078056335
---
header: 
  seq: 466206
  stamp: 
    secs: 1561866838
    nsecs: 886739719
  frame_id: "ti_mmwave"
point_id: 14
x: 4.759765625
y: -0.15234375
z: -1.01171875
range: 5.18565940857
velocity: 0.0
doppler_bin: 8
bearing: -1.83321535587
intensity: 30.7077655792
---
header: 
  seq: 466207
  stamp: 
    secs: 1561866838
    nsecs: 886761212
  frame_id: "ti_mmwave"
point_id: 15
x: 4.900390625
y: -0.30859375
z: 0.619140625
range: 5.27281332016
velocity: 0.0
doppler_bin: 8
bearing: -3.60334610939
intensity: 31.0174713135
---
header: 
  seq: 466208
  stamp: 
    secs: 1561866838
    nsecs: 886763980
  frame_id: "ti_mmwave"
point_id: 16
x: 4.951171875
y: -0.623046875
z: 0.0234375
range: 5.31639051437
velocity: 0.0
doppler_bin: 8
bearing: -7.17230129242
intensity: 29.8362636566
---
header: 
  seq: 466209
  stamp: 
    secs: 1561866838
    nsecs: 886767355
  frame_id: "ti_mmwave"
point_id: 18
x: 0.041015625
y: -0.033203125
z: 0.0625
range: 0.0871539413929
velocity: 0.0
doppler_bin: 8
bearing: -38.9909973145
intensity: 30.1072387695
---
header: 
  seq: 466210
  stamp: 
