header: 
  seq: 504667
  stamp: 
    secs: 1561866899
    nsecs: 427008076
  frame_id: "ti_mmwave"
point_id: 0
x: 0.01171875
y: -0.0390625
z: -0.0078125
range: 0.0435769706964
velocity: 0.0
doppler_bin: 8
bearing: -73.3007583618
intensity: 30.6818580627
---
header: 
  seq: 504668
  stamp: 
    secs: 1561866899
    nsecs: 427102238
  frame_id: "ti_mmwave"
point_id: 1
x: 0.017578125
y: -0.080078125
z: -0.0078125
range: 0.0871539413929
velocity: 0.0
doppler_bin: 8
bearing: -77.6192398071
intensity: 31.9368095398
---
header: 
  seq: 504669
  stamp: 
    secs: 1561866899
    nsecs: 427119811
  frame_id: "ti_mmwave"
point_id: 2
x: 0.029296875
y: -0.119140625
z: -0.005859375
range: 0.130730912089
velocity: 0.0
doppler_bin: 8
bearing: -76.1849746704
intensity: 30.1661548615
---
header: 
  seq: 504670
  stamp: 
    secs: 1561866899
    nsecs: 427133187
  frame_id: "ti_mmwave"
point_id: 3
x: 0.056640625
y: -0.154296875
z: 0.005859375
range: 0.174307882786
velocity: 0.0
doppler_bin: 8
bearing: -69.8423843384
intensity: 25.490032196
---
header: 
  seq: 504671
  stamp: 
    secs: 1561866899
    nsecs: 427148059
  frame_id: "ti_mmwave"
point_id: 4
x: 1.044921875
y: -0.396484375
z: 0.599609375
range: 1.35088610649
velocity: 0.0
doppler_bin: 8
bearing: -20.7787132263
intensity: 27.7815132141
---
header: 
  seq: 504672
  stamp: 
    secs: 1561866899
    nsecs: 427164239
  frame_id: "ti_mmwave"
point_id: 5
x: 1.18359375
y: -0.408203125
z: 0.3828125
range: 1.39446306229
velocity: 0.0
doppler_bin: 8
bearing: -19.0285186768
intensity: 27.5739593506
---
header: 
  seq: 504673
  stamp: 
    secs: 1561866899
    nsecs: 427181626
  frame_id: "ti_mmwave"
point_id: 6
x: 2.623046875
y: -0.17578125
z: 1.02734375
range: 3.00681090355
velocity: 0.0
doppler_bin: 8
bearing: -3.83389568329
intensity: 29.0036716461
---
header: 
  seq: 504674
  stamp: 
    secs: 1561866899
    nsecs: 427197371
  frame_id: "ti_mmwave"
point_id: 7
x: 2.689453125
y: -0.08984375
z: 0.978515625
range: 3.05038785934
velocity: 0.0
doppler_bin: 8
bearing: -1.91330885887
intensity: 32.1800994873
---
header: 
  seq: 504675
  stamp: 
    secs: 1561866899
    nsecs: 427216072
  frame_id: "ti_mmwave"
point_id: 8
x: 2.76171875
y: -0.0
z: 0.900390625
range: 3.09396481514
velocity: 0.0
doppler_bin: 8
bearing: -0.0
intensity: 31.1058979034
---
header: 
  seq: 504676
  stamp: 
    secs: 1561866899
    nsecs: 427286784
  frame_id: "ti_mmwave"
point_id: 9
x: 4.365234375
y: -0.142578125
z: 1.23828125
range: 4.83704376221
velocity: 0.0
doppler_bin: 8
bearing: -1.87074077129
intensity: 27.6117572784
---
header: 
  seq: 504677
  stamp: 
    secs: 1561866899
    nsecs: 427303996
  frame_id: "ti_mmwave"
point_id: 10
x: 4.42578125
y: -0.142578125
z: 1.177734375
range: 4.88062095642
velocity: 0.0
doppler_bin: 8
bearing: -1.84516572952
intensity: 31.2807598114
---
header: 
  seq: 504678
  stamp: 
    secs: 1561866899
    nsecs: 427319476
  frame_id: "ti_mmwave"
point_id: 11
x: 4.412109375
y: -0.14453125
z: 1.37109375
range: 4.9241976738
velocity: 0.0
doppler_bin: 8
bearing: -1.87621605396
intensity: 30.7954292297
---
header: 
  seq: 504679
  stamp: 
    secs: 1561866899
    nsecs: 427335034
  frame_id: "ti_mmwave"
point_id: 12
x: 4.73828125
y: -0.298828125
z: -0.60546875
range: 5.09850549698
velocity: 0.0
doppler_bin: 8
bearing: -3.60868048668
intensity: 33.3061676025
---
header: 
  seq: 504680
  stamp: 
    secs: 1561866899
    nsecs: 427349883
  frame_id: "ti_mmwave"
point_id: 13
x: 4.7734375
y: -0.30078125
z: -0.65234375
range: 5.14208269119
velocity: 0.0
doppler_bin: 8
bearing: -3.60552406311
intensity: 33.84532547
---
header: 
  seq: 504681
  stamp: 
    secs: 1561866899
    nsecs: 427365519
  frame_id: "ti_mmwave"
point_id: 14
x: 4.7734375
y: -0.3046875
z: -0.900390625
range: 5.18565940857
velocity: 0.0
doppler_bin: 8
bearing: -3.65222287178
intensity: 29.9211139679
---
header: 
  seq: 504682
  stamp: 
    secs: 1561866899
    nsecs: 427380054
  frame_id: "ti_mmwave"
point_id: 15
x: 4.837890625
y: -0.154296875
z: 1.033203125
range: 5.27281332016
velocity: 0.0
doppler_bin: 8
bearing: -1.82673919201
intensity: 30.9656238556
---
header: 
  seq: 504683
  stamp: 
    secs: 1561866899
    nsecs: 427394947
  frame_id: "ti_mmwave"
point_id: 16
x: 1.044921875
y: -0.46484375
z: -0.06640625
range: 1.22015523911
velocity: -0.614668667316
doppler_bin: 7
bearing: -23.9823589325
intensity: 27.9309158325
---
header: 
  seq: 504684
  stamp: 
    secs: 1561866899
    nsecs: 427409654
  frame_id: "ti_mmwave"
point_id: 17
x: 1.078125
y: -0.482421875
z: -0.10546875
range: 1.2637321949
velocity: -0.614668667316
doppler_bin: 7
bearing: -24.1067867279
intensity: 30.8564720154
---
header: 
  seq: 504685
  stamp: 
    secs: 1561866899
    nsecs: 427423159
  frame_id: "ti_mmwave"
point_id: 18
x: 1.09375
y: -0.498046875
z: -0.244140625
range: 1.3073091507
velocity: -0.614668667316
doppler_bin: 7
bearing: -24.4824848175
intensity: 29.1539974213
---
header: 
  seq: 504686
  stamp: 
    secs: 1561866899
    nsecs: 427437842
  frame_id: "ti_mmwave"
point_id: 19
x: 1.251953125
y: -0.421875
z: 0.27734375
range: 1.43804001808
velocity: -0.614668667316
doppler_bin: 7
bearing: -18.6224517822
intensity: 24.8855075836
---
header: 
  seq: 504687
  stamp: 
    secs: 1561866899
    nsecs: 427456662
  frame_id: "ti_mmwave"
point_id: 21
x: 0.041015625
y: -0.033203125
z: 0.0625
range: 0.0871539413929
velocity: 0.0
doppler_bin: 8
bearing: -38.9909973145
intensity: 30.1157035828
---
header: 
  seq: 504688
  stamp: 
    secs: 1561866899
    nsecs: 427466887
  frame_id: "ti_mmwave"
point_id: 22
x: 0.044921875
y: -0.046875
z: 0.103515625
range: 0.130730912089
velocity: 0.0
doppler_bin: 8
bearing: -46.218875885
intensity: 29.0363254547
---
header: 
  seq: 504689
  stamp: 
    secs: 1561866899
    nsecs: 427541387
  frame_id: "ti_mmwave"
point_id: 24
x: 0.744140625
y: -0.0
z: -1.076171875
range: 1.39446306229
velocity: 0.0
doppler_bin: 8
bearing: -0.0
intensity: 25.3275432587
---
header: 
  seq: 504690
  stamp: 
    secs: 1561866899
    nsecs: 487010040
  frame_id: "ti_mmwave"
point_id: 0
x: 0.01171875
y: -0.0390625
z: -0.0078125
range: 0.0435769706964
velocity: 0.0
doppler_bin: 8
bearing: -73.3007583618
intensity: 30.678144455
---
header: 
  seq: 504691
  stamp: 
    secs: 1561866899
    nsecs: 487096597
  frame_id: "ti_mmwave"
point_id: 1
x: 0.017578125
y: -0.080078125
z: -0.0078125
range: 0.0871539413929
velocity: 0.0
doppler_bin: 8
bearing: -77.6192398071
intensity: 31.9395904541
---
header: 
  seq: 504692
  stamp: 
    secs: 1561866899
    nsecs: 487113893
  frame_id: "ti_mmwave"
point_id: 2
x: 0.029296875
y: -0.119140625
z: -0.005859375
range: 0.130730912089
velocity: 0.0
doppler_bin: 8
bearing: -76.1849746704
intensity: 30.1619739532
---
header: 
  seq: 504693
  stamp: 
    secs: 1561866899
    nsecs: 487128036
  frame_id: "ti_mmwave"
point_id: 3
x: 0.056640625
y: -0.154296875
z: 0.005859375
range: 0.174307882786
velocity: 0.0
doppler_bin: 8
bearing: -69.8423843384
intensity: 25.4777469635
---
header: 
  seq: 504694
  stamp: 
    secs: 1561866899
    nsecs: 487140817
  frame_id: "ti_mmwave"
point_id: 4
x: 2.6171875
y: -0.17578125
z: 1.04296875
range: 3.00681090355
velocity: 0.0
doppler_bin: 8
bearing: -3.84245300293
intensity: 29.0955600739
---
header: 
  seq: 504695
  stamp: 
    secs: 1561866899
    nsecs: 487167470
  frame_id: "ti_mmwave"
point_id: 5
x: 2.6640625
y: -0.1796875
z: 1.037109375
range: 3.05038785934
velocity: 0.0
doppler_bin: 8
bearing: -3.85868024826
intensity: 32.2141418457
---
header: 
  seq: 504696
  stamp: 
    secs: 1561866899
    nsecs: 487259806
  frame_id: "ti_mmwave"
point_id: 6
x: 2.7578125
y: -0.08984375
z: 0.904296875
range: 3.09396481514
velocity: 0.0
doppler_bin: 8
bearing: -1.86591637135
intensity: 31.1991539001
---
header: 
  seq: 504697
  stamp: 
    secs: 1561866899
    nsecs: 487277244
  frame_id: "ti_mmwave"
point_id: 7
x: 4.376953125
y: -0.283203125
z: 1.173828125
range: 4.83704376221
velocity: 0.0
doppler_bin: 8
bearing: -3.70206284523
intensity: 27.6192779541
---
header: 
  seq: 504698
  stamp: 
    secs: 1561866899
    nsecs: 487291631
  frame_id: "ti_mmwave"
point_id: 8
x: 4.4375
y: -0.142578125
z: 1.130859375
range: 4.88062095642
velocity: 0.0
doppler_bin: 8
bearing: -1.84029650688
intensity: 31.3545074463
---
header: 
  seq: 504699
  stamp: 
    secs: 1561866899
    nsecs: 487305847
  frame_id: "ti_mmwave"
point_id: 9
x: 4.41796875
y: -0.14453125
z: 1.353515625
range: 4.9241976738
velocity: 0.0
doppler_bin: 8
bearing: -1.87372946739
intensity: 30.7700424194
---
header: 
  seq: 504700
  stamp: 
    secs: 1561866899
    nsecs: 487317993
  frame_id: "ti_mmwave"
point_id: 10
x: 4.728515625
y: -0.44921875
z: -0.59375
range: 5.09850549698
velocity: 0.0
doppler_bin: 8
bearing: -5.42692995071
intensity: 33.651134491
---
header: 
  seq: 504701
  stamp: 
    secs: 1561866899
    nsecs: 487330878
  frame_id: "ti_mmwave"
point_id: 11
x: 4.77734375
y: -0.30078125
z: -0.615234375
range: 5.14208269119
velocity: 0.0
doppler_bin: 8
bearing: -3.60258316994
intensity: 34.2716140747
---
header: 
  seq: 504702
  stamp: 
    secs: 1561866899
    nsecs: 487342290
  frame_id: "ti_mmwave"
point_id: 12
x: 4.787109375
y: -0.3046875
z: -0.82421875
range: 5.18565940857
velocity: 0.0
doppler_bin: 8
bearing: -3.64182066917
intensity: 30.4805316925
---
header: 
  seq: 504703
  stamp: 
    secs: 1561866899
    nsecs: 487354086
  frame_id: "ti_mmwave"
point_id: 13
x: 4.8359375
y: -0.154296875
z: 1.0390625
range: 5.27281332016
velocity: 0.0
doppler_bin: 8
bearing: -1.82747626305
intensity: 31.05169487
---
header: 
  seq: 504704
  stamp: 
    secs: 1561866899
    nsecs: 487366483
  frame_id: "ti_mmwave"
point_id: 14
x: 1.037109375
y: -0.37890625
z: -0.041015625
range: 1.1765781641
velocity: -0.614668667316
doppler_bin: 7
bearing: -20.069694519
intensity: 24.3136367798
---
header: 
  seq: 504705
  stamp: 
    secs: 1561866899
    nsecs: 487380376
  frame_id: "ti_mmwave"
point_id: 15
x: 1.07421875
y: -0.39453125
z: -0.0390625
range: 1.22015523911
velocity: -0.614668667316
doppler_bin: 7
bearing: -20.1669063568
intensity: 30.7845687866
---
header: 
  seq: 504706
  stamp: 
    secs: 1561866899
    nsecs: 487395681
  frame_id: "ti_mmwave"
point_id: 16
x: 1.126953125
y: -0.37109375
z: -0.03515625
range: 1.2637321949
velocity: -0.614668667316
doppler_bin: 7
bearing: -18.2261676788
intensity: 33.7051315308
---
header: 
  seq: 504707
  stamp: 
    secs: 1561866899
    nsecs: 487423470
  frame_id: "ti_mmwave"
point_id: 17
x: 1.177734375
y: -0.345703125
z: -0.015625
range: 1.3073091507
velocity: -0.614668667316
doppler_bin: 7
bearing: -16.358669281
intensity: 33.8542747498
---
header: 
  seq: 504708
  stamp: 
    secs: 1561866899
    nsecs: 487445646
  frame_id: "ti_mmwave"
point_id: 18
x: 1.2265625
y: -0.31640625
z: 0.02734375
range: 1.35088610649
velocity: -0.614668667316
doppler_bin: 7
bearing: -14.4647750854
intensity: 31.7638072968
---
header: 
  seq: 504709
  stamp: 
    secs: 1561866899
    nsecs: 487465614
  frame_id: "ti_mmwave"
point_id: 19
x: 1.27734375
y: -0.287109375
z: 0.04296875
range: 1.39446306229
velocity: -0.614668667316
doppler_bin: 7
bearing: -12.6678743362
intensity: 27.6566848755
---
header: 
  seq: 504710
  stamp: 
    secs: 1561866899
    nsecs: 487552549
  frame_id: "ti_mmwave"
point_id: 21
x: 0.041015625
y: -0.033203125
z: 0.0625
range: 0.0871539413929
velocity: 0.0
doppler_bin: 8
bearing: -38.9909973145
intensity: 30.1241531372
---
header: 
  seq: 504711
  stamp: 
    secs: 1561866899
    nsecs: 487576493
  frame_id: "ti_mmwave"
point_id: 22
x: 0.044921875
y: -0.046875
z: 0.103515625
range: 0.130730912089
velocity: 0.0
doppler_bin: 8
bearing: -46.218875885
intensity: 29.0363254547
---
header: 
  seq: 504712
  stamp: 
    secs: 1561866899
    nsecs: 488691382
  frame_id: "ti_mmwave"
point_id: 0
x: 0.01171875
y: -0.0390625
z: -0.0078125
range: 0.0435769706964
velocity: 0.0
doppler_bin: 8
bearing: -73.3007583618
intensity: 30.6707077026
---
header: 
  seq: 504713
  stamp: 
    secs: 1561866899
    nsecs: 488761485
  frame_id: "ti_mmwave"
point_id: 1
x: 0.017578125
y: -0.080078125
z: -0.0078125
range: 0.0871539413929
velocity: 0.0
doppler_bin: 8
bearing: -77.6192398071
intensity: 31.9368095398
---
header: 
  seq: 504714
  stamp: 
    secs: 1561866899
    nsecs: 488779114
  frame_id: "ti_mmwave"
point_id: 2
x: 0.029296875
y: -0.119140625
z: -0.005859375
range: 0.130730912089
velocity: 0.0
doppler_bin: 8
bearing: -76.1849746704
intensity: 30.1619739532
---
header: 
  seq: 504715
  stamp: 
    secs: 1561866899
    nsecs: 488802060
  frame_id: "ti_mmwave"
point_id: 3
x: 0.056640625
y: -0.154296875
z: 0.0078125
range: 0.174307882786
velocity: 0.0
doppler_bin: 8
bearing: -69.8423843384
intensity: 25.4777469635
---
header: 
  seq: 504716
  stamp: 
    secs: 1561866899
    nsecs: 488821722
  frame_id: "ti_mmwave"
point_id: 4
x: 1.056640625
y: -0.080078125
z: -0.697265625
range: 1.35088610649
velocity: 0.0
doppler_bin: 8
bearing: -4.33390951157
intensity: 21.4921913147
---
header: 
  seq: 504717
  stamp: 
    secs: 1561866899
    nsecs: 488841942
  frame_id: "ti_mmwave"
point_id: 5
x: 0.69140625
y: -0.041015625
z: -1.109375
range: 1.39446306229
velocity: 0.0
doppler_bin: 8
bearing: -3.39492344856
intensity: 23.6361198425
---
header: 
  seq: 504718
  stamp: 
    secs: 1561866899
    nsecs: 488861256
  frame_id: "ti_mmwave"
point_id: 6
x: 2.62109375
y: -0.17578125
z: 1.03125
range: 3.00681090355
velocity: 0.0
doppler_bin: 8
bearing: -3.83674383163
intensity: 29.6189556122
---
header: 
  seq: 504719
  stamp: 
    secs: 1561866899
    nsecs: 488880264
  frame_id: "ti_mmwave"
point_id: 7
x: 2.66796875
y: -0.1796875
z: 1.0234375
range: 3.05038785934
velocity: 0.0
doppler_bin: 8
bearing: -3.85304760933
intensity: 32.7623214722
---
header: 
  seq: 504720
  stamp: 
    secs: 1561866899
    nsecs: 488893181
  frame_id: "ti_mmwave"
point_id: 8
x: 2.7421875
y: -0.181640625
z: 0.939453125
range: 3.09396481514
velocity: 0.0
doppler_bin: 8
bearing: -3.78969717026
intensity: 31.875207901
---
header: 
  seq: 504721
  stamp: 
    secs: 1561866899
    nsecs: 488916306
  frame_id: "ti_mmwave"
point_id: 9
x: 4.375
y: -0.283203125
z: 1.1796875
range: 4.83704376221
velocity: 0.0
doppler_bin: 8
bearing: -3.70371103287
intensity: 27.5127906799
---
header: 
  seq: 504722
  stamp: 
    secs: 1561866899
    nsecs: 488985047
  frame_id: "ti_mmwave"
point_id: 10
x: 4.44140625
y: -0.142578125
z: 1.11328125
range: 4.88062095642
velocity: 0.0
doppler_bin: 8
bearing: -1.83867907524
intensity: 31.3672065735
---
header: 
  seq: 504723
  stamp: 
    secs: 1561866899
    nsecs: 488999788
  frame_id: "ti_mmwave"
point_id: 11
x: 4.443359375
y: -0.14453125
z: 1.267578125
range: 4.9241976738
velocity: 0.0
doppler_bin: 8
bearing: -1.86303019524
intensity: 30.9272060394
---
header: 
  seq: 504724
  stamp: 
    secs: 1561866899
    nsecs: 489011370
  frame_id: "ti_mmwave"
point_id: 12
x: 4.724609375
y: -0.44921875
z: -0.62109375
range: 5.09850549698
velocity: 0.0
doppler_bin: 8
bearing: -5.43138980865
intensity: 33.5506820679
---
header: 
  seq: 504725
  stamp: 
    secs: 1561866899
    nsecs: 489022378
  frame_id: "ti_mmwave"
point_id: 13
x: 4.775390625
y: -0.30078125
z: -0.642578125
range: 5.14208269119
velocity: 0.0
doppler_bin: 8
bearing: -3.60405302048
intensity: 34.1863250732
---
header: 
  seq: 504726
  stamp: 
    secs: 1561866899
    nsecs: 489033341
  frame_id: "ti_mmwave"
point_id: 14
x: 4.80078125
y: -0.15234375
z: -0.787109375
range: 5.18565940857
velocity: 0.0
doppler_bin: 8
bearing: -1.81756365299
intensity: 30.6333332062
---
header: 
  seq: 504727
  stamp: 
    secs: 1561866899
    nsecs: 489043656
  frame_id: "ti_mmwave"
point_id: 15
x: 4.84375
y: -0.30859375
z: 0.97265625
range: 5.27281332016
velocity: 0.0
doppler_bin: 8
bearing: -3.64536881447
intensity: 31.0788803101
---
header: 
  seq: 504728
  stamp: 
    secs: 1561866899
    nsecs: 489054512
  frame_id: "ti_mmwave"
point_id: 16
x: 0.998046875
y: -0.365234375
z: 0.0
range: 1.13300120831
velocity: -0.614668667316
doppler_bin: 7
bearing: -20.1000556946
intensity: 22.1748390198
---
header: 
  seq: 504729
  stamp: 
    secs: 1561866899
    nsecs: 489067801
  frame_id: "ti_mmwave"
point_id: 17
x: 1.037109375
y: -0.37890625
z: -0.015625
range: 1.1765781641
velocity: -0.614668667316
doppler_bin: 7
bearing: -20.069694519
intensity: 30.5690479279
---
header: 
  seq: 504730
  stamp: 
    secs: 1561866899
    nsecs: 489128448
  frame_id: "ti_mmwave"
point_id: 18
x: 1.07421875
y: -0.39453125
z: -0.046875
range: 1.22015523911
velocity: -0.614668667316
doppler_bin: 7
bearing: -20.1669063568
intensity: 33.9915428162
---
header: 
  seq: 504731
  stamp: 
    secs: 1561866899
    nsecs: 489142910
  frame_id: "ti_mmwave"
point_id: 19
x: 1.109375
y: -0.408203125
z: -0.099609375
range: 1.2637321949
velocity: -0.614668667316
doppler_bin: 7
bearing: -20.2014827728
intensity: 33.9216918945
---
header: 
  seq: 504732
  stamp: 
    secs: 1561866899
    nsecs: 489154923
  frame_id: "ti_mmwave"
point_id: 20
x: 1.134765625
y: -0.421875
z: -0.197265625
range: 1.3073091507
velocity: -0.614668667316
doppler_bin: 7
bearing: -20.3937644958
intensity: 29.986951828
---
header: 
  seq: 504733
  stamp: 
    secs: 1561866899
    nsecs: 489168936
  frame_id: "ti_mmwave"
point_id: 22
x: 0.041015625
y: -0.033203125
z: 0.0625
range: 0.0871539413929
velocity: 0.0
doppler_bin: 8
bearing: -38.9909973145
intensity: 30.1199302673
---
header: 
  seq: 504734
  stamp: 
    secs: 1561866899
    nsecs: 489177018
  frame_id: "ti_mmwave"
point_id: 23
x: 0.044921875
y: -0.046875
z: 0.103515625
range: 0.130730912089
velocity: 0.0
doppler_bin: 8
bearing: -46.218875885
intensity: 29.0363254547
---
header: 
  seq: 504735
  stamp: 
    secs: 1561866899
    nsecs: 546851029
  frame_id: "ti_mmwave"
point_id: 0
x: 0.01171875
y: -0.0390625
z: -0.0078125
range: 0.0435769706964
velocity: 0.0
doppler_bin: 8
bearing: -73.3007583618
intensity: 30.6744289398
---
header: 
  seq: 504736
  stamp: 
    secs: 1561866899
    nsecs: 546925650
  frame_id: "ti_mmwave"
point_id: 1
x: 0.017578125
y: -0.080078125
z: -0.0078125
range: 0.0871539413929
velocity: 0.0
doppler_bin: 8
bearing: -77.6192398071
intensity: 31.9368095398
---
header: 
  seq: 504737
  stamp: 
    secs: 1561866899
    nsecs: 546939336
  frame_id: "ti_mmwave"
point_id: 2
x: 0.029296875
y: -0.119140625
z: -0.005859375
range: 0.130730912089
velocity: 0.0
doppler_bin: 8
bearing: -76.1849746704
intensity: 30.1619739532
---
header: 
  seq: 504738
  stamp: 
    secs: 1561866899
    nsecs: 546948011
  frame_id: "ti_mmwave"
point_id: 3
x: 0.056640625
y: -0.154296875
z: 0.005859375
range: 0.174307882786
velocity: 0.0
doppler_bin: 8
bearing: -69.8423843384
intensity: 25.4777469635
---
header: 
  seq: 504739
  stamp: 
    secs: 1561866899
    nsecs: 546956624
  frame_id: "ti_mmwave"
point_id: 4
x: 2.61328125
y: -0.17578125
z: 1.05078125
range: 3.00681090355
velocity: 0.0
doppler_bin: 8
bearing: -3.84817934036
intensity: 29.3651371002
---
header: 
  seq: 504740
  stamp: 
    secs: 1561866899
    nsecs: 546965853
  frame_id: "ti_mmwave"
point_id: 5
x: 2.66015625
y: -0.1796875
z: 1.044921875
range: 3.05038785934
velocity: 0.0
doppler_bin: 8
bearing: -3.86432933807
intensity: 32.6126289368
---
header: 
  seq: 504741
  stamp: 
    secs: 1561866899
    nsecs: 546976799
  frame_id: "ti_mmwave"
point_id: 6
x: 2.7265625
y: -0.181640625
z: 0.984375
range: 3.09396481514
velocity: 0.0
doppler_bin: 8
bearing: -3.81135106087
intensity: 31.6790771484
---
header: 
  seq: 504742
  stamp: 
    secs: 1561866899
    nsecs: 546992887
  frame_id: "ti_mmwave"
point_id: 7
x: 4.384765625
y: -0.142578125
z: 1.171875
range: 4.83704376221
velocity: 0.0
doppler_bin: 8
bearing: -1.862413764
intensity: 27.6042251587
---
header: 
  seq: 504743
  stamp: 
    secs: 1561866899
    nsecs: 547015406
  frame_id: "ti_mmwave"
point_id: 8
x: 4.435546875
y: -0.142578125
z: 1.138671875
range: 4.88062095642
velocity: 0.0
doppler_bin: 8
bearing: -1.84110629559
intensity: 31.3289985657
---
header: 
  seq: 504744
  stamp: 
    secs: 1561866899
    nsecs: 547033940
  frame_id: "ti_mmwave"
point_id: 9
x: 4.431640625
y: -0.14453125
z: 1.30859375
range: 4.9241976738
velocity: 0.0
doppler_bin: 8
bearing: -1.86795306206
intensity: 30.934217453
---
header: 
  seq: 504745
  stamp: 
    secs: 1561866899
    nsecs: 547052967
  frame_id: "ti_mmwave"
point_id: 10
x: 4.734375
y: -0.298828125
z: -0.634765625
range: 5.09850549698
velocity: 0.0
doppler_bin: 8
bearing: -3.61165046692
intensity: 33.003780365
---
header: 
  seq: 504746
  stamp: 
    secs: 1561866899
    nsecs: 547067693
  frame_id: "ti_mmwave"
point_id: 11
x: 4.767578125
y: -0.30078125
z: -0.69140625
range: 5.14208269119
velocity: 0.0
doppler_bin: 8
bearing: -3.60994315147
intensity: 33.6021461487
---
header: 
  seq: 504747
  stamp: 
    secs: 1561866899
    nsecs: 547158033
  frame_id: "ti_mmwave"
point_id: 12
x: 4.771484375
y: -0.3046875
z: -0.916015625
range: 5.18565940857
velocity: 0.0
doppler_bin: 8
bearing: -3.65371370316
intensity: 29.7863693237
---
header: 
  seq: 504748
  stamp: 
    secs: 1561866899
    nsecs: 547175204
  frame_id: "ti_mmwave"
point_id: 13
x: 4.841796875
y: -0.154296875
z: 1.01171875
range: 5.27281332016
velocity: 0.0
doppler_bin: 8
bearing: -1.82526648045
intensity: 30.6182937622
---
header: 
  seq: 504749
  stamp: 
    secs: 1561866899
    nsecs: 547189140
  frame_id: "ti_mmwave"
point_id: 14
x: 0.984375
y: -0.3984375
z: -0.05859375
range: 1.13300120831
velocity: -0.614668667316
doppler_bin: 7
bearing: -22.0362281799
intensity: 27.4973640442
---
header: 
  seq: 504750
  stamp: 
    secs: 1561866899
    nsecs: 547205989
  frame_id: "ti_mmwave"
point_id: 15
x: 1.021484375
y: -0.4140625
z: -0.0546875
range: 1.1765781641
velocity: -0.614668667316
doppler_bin: 7
bearing: -22.0653572083
intensity: 32.9907112122
---
header: 
  seq: 504751
  stamp: 
    secs: 1561866899
    nsecs: 547215686
  frame_id: "ti_mmwave"
point_id: 16
x: 1.060546875
y: -0.4296875
z: -0.044921875
range: 1.22015523911
velocity: -0.614668667316
doppler_bin: 7
bearing: -22.0556507111
intensity: 34.1647415161
---
header: 
  seq: 504752
  stamp: 
    secs: 1561866899
    nsecs: 547224929
  frame_id: "ti_mmwave"
point_id: 17
x: 1.11328125
y: -0.408203125
z: -0.052734375
range: 1.2637321949
velocity: -0.614668667316
doppler_bin: 7
bearing: -20.1363048553
intensity: 31.945142746
---
header: 
  seq: 504753
  stamp: 
    secs: 1561866899
    nsecs: 547234561
  frame_id: "ti_mmwave"
point_id: 18
x: 1.16015625
y: -0.3828125
z: -0.1171875
range: 1.3073091507
velocity: -0.614668667316
doppler_bin: 7
bearing: -18.2611503601
intensity: 29.854265213
---
header: 
  seq: 504754
  stamp: 
    secs: 1561866899
    nsecs: 547244358
  frame_id: "ti_mmwave"
point_id: 19
x: 1.21484375
y: -0.357421875
z: 0.0546875
range: 1.35088610649
velocity: -0.614668667316
doppler_bin: 7
bearing: -16.3945274353
intensity: 28.7966918945
---
header: 
  seq: 504755
  stamp: 
    secs: 1561866899
    nsecs: 547254945
  frame_id: "ti_mmwave"
point_id: 20
x: 1.23046875
y: -0.328125
z: 0.3046875
range: 1.39446306229
velocity: -0.614668667316
doppler_bin: 7
bearing: -14.9314184189
intensity: 26.3447723389
---
header: 
  seq: 504756
  stamp: 
    secs: 1561866899
    nsecs: 547266874
  frame_id: "ti_mmwave"
point_id: 22
x: 0.041015625
y: -0.033203125
z: 0.0625
range: 0.0871539413929
velocity: 0.0
doppler_bin: 8
bearing: -38.9909973145
intensity: 30.1199302673
---
header: 
  seq: 504757
  stamp: 
    secs: 1561866899
    nsecs: 547276399
  frame_id: "ti_mmwave"
point_id: 23
x: 0.044921875
y: -0.046875
z: 0.103515625
range: 0.130730912089
velocity: 0.0
doppler_bin: 8
bearing: -46.218875885
intensity: 29.0363254547
---
header: 
  seq: 504758
  stamp: 
    secs: 1561866899
    nsecs: 547284358
  frame_id: "ti_mmwave"
point_id: 25
x: 4.798828125
y: -0.0
z: -0.814453125
range: 5.18565940857
velocity: 0.0
doppler_bin: 8
bearing: -0.0
intensity: 29.7772369385
---
header: 
  seq: 504759
  stamp: 
    secs: 1561866899
    nsecs: 548525334
  frame_id: "ti_mmwave"
point_id: 0
x: 0.01171875
y: -0.0390625
z: -0.0078125
range: 0.0435769706964
velocity: 0.0
doppler_bin: 8
bearing: -73.3007583618
intensity: 30.678144455
---
header: 
  seq: 504760
  stamp: 
    secs: 1561866899
    nsecs: 548578304
  frame_id: "ti_mmwave"
point_id: 1
x: 0.017578125
y: -0.080078125
z: -0.0078125
range: 0.0871539413929
velocity: 0.0
doppler_bin: 8
bearing: -77.6192398071
intensity: 31.9368095398
---
header: 
  seq: 504761
  stamp: 
    secs: 1561866899
    nsecs: 548590286
  frame_id: "ti_mmwave"
point_id: 2
x: 0.029296875
y: -0.119140625
z: -0.005859375
range: 0.130730912089
velocity: 0.0
doppler_bin: 8
bearing: -76.1849746704
intensity: 30.1619739532
---
header: 
  seq: 504762
  stamp: 
    secs: 1561866899
    nsecs: 548604603
  frame_id: "ti_mmwave"
point_id: 3
x: 0.056640625
y: -0.154296875
z: 0.005859375
range: 0.174307882786
velocity: 0.0
doppler_bin: 8
bearing: -69.8423843384
intensity: 25.490032196
---
header: 
  seq: 504763
  stamp: 
    secs: 1561866899
    nsecs: 548617663
  frame_id: "ti_mmwave"
point_id: 4
x: 0.345703125
y: -0.08203125
z: 1.259765625
range: 1.39446306229
velocity: 0.0
doppler_bin: 8
bearing: -13.3487272263
intensity: 24.857213974
---
header: 
  seq: 504764
  stamp: 
    secs: 1561866899
    nsecs: 548679954
  frame_id: "ti_mmwave"
point_id: 5
x: 2.61328125
y: -0.17578125
z: 1.05078125
range: 3.00681090355
velocity: 0.0
doppler_bin: 8
bearing: -3.84817934036
intensity: 29.5856380463
---
header: 
  seq: 504765
  stamp: 
    secs: 1561866899
    nsecs: 548694017
  frame_id: "ti_mmwave"
point_id: 6
x: 2.654296875
y: -0.1796875
z: 1.056640625
range: 3.05038785934
velocity: 0.0
doppler_bin: 8
bearing: -3.87283420563
intensity: 32.9203453064
---
header: 
  seq: 504766
  stamp: 
    secs: 1561866899
    nsecs: 548705770
  frame_id: "ti_mmwave"
point_id: 7
x: 2.712890625
y: -0.181640625
z: 1.021484375
range: 3.09396481514
velocity: 0.0
doppler_bin: 8
bearing: -3.83050107956
intensity: 32.2193565369
---
header: 
  seq: 504767
  stamp: 
    secs: 1561866899
    nsecs: 548717567
  frame_id: "ti_mmwave"
point_id: 8
x: 4.3671875
y: -0.283203125
z: 1.2109375
range: 4.83704376221
velocity: 0.0
doppler_bin: 8
bearing: -3.71031832695
intensity: 27.6042251587
---
header: 
  seq: 504768
  stamp: 
    secs: 1561866899
    nsecs: 548730870
  frame_id: "ti_mmwave"
point_id: 9
x: 4.4296875
y: -0.142578125
z: 1.158203125
range: 4.88062095642
velocity: 0.0
doppler_bin: 8
bearing: -1.84353971481
intensity: 31.3257980347
---
header: 
  seq: 504769
  stamp: 
    secs: 1561866899
    nsecs: 548744059
  frame_id: "ti_mmwave"
point_id: 10
x: 4.400390625
y: -0.14453125
z: 1.41015625
range: 4.9241976738
velocity: 0.0
doppler_bin: 8
bearing: -1.88120913506
intensity: 30.7664051056
---
header: 
  seq: 504770
  stamp: 
    secs: 1561866899
    nsecs: 548752108
  frame_id: "ti_mmwave"
point_id: 11
x: 4.736328125
y: -0.298828125
z: -0.6171875
range: 5.09850549698
velocity: 0.0
doppler_bin: 8
bearing: -3.61016488075
intensity: 33.6455116272
---
header: 
  seq: 504771
  stamp: 
    secs: 1561866899
    nsecs: 548774974
  frame_id: "ti_mmwave"
point_id: 12
x: 4.775390625
y: -0.30078125
z: -0.6328125
range: 5.14208269119
velocity: 0.0
doppler_bin: 8
bearing: -3.60405302048
intensity: 34.31042099
---
header: 
  seq: 504772
  stamp: 
    secs: 1561866899
    nsecs: 548825948
  frame_id: "ti_mmwave"
point_id: 13
x: 4.7890625
y: -0.3046875
z: -0.8125
range: 5.18565940857
velocity: 0.0
doppler_bin: 8
bearing: -3.64033937454
intensity: 30.9551811218
---
header: 
  seq: 504773
  stamp: 
    secs: 1561866899
    nsecs: 548840750
  frame_id: "ti_mmwave"
point_id: 14
x: 4.83203125
y: -0.154296875
z: 1.05859375
range: 5.27281332016
velocity: 0.0
doppler_bin: 8
bearing: -1.8289526701
intensity: 30.0302944183
---
header: 
  seq: 504774
  stamp: 
    secs: 1561866899
    nsecs: 548852638
  frame_id: "ti_mmwave"
point_id: 15
x: 0.958984375
y: -0.3515625
z: 0.0390625
range: 1.08942425251
velocity: -0.614668667316
doppler_bin: 7
bearing: -20.1328754425
intensity: 22.6245117188
---
header: 
  seq: 504775
  stamp: 
    secs: 1561866899
    nsecs: 548864787
  frame_id: "ti_mmwave"
point_id: 16
x: 0.998046875
y: -0.365234375
z: 0.001953125
range: 1.13300120831
velocity: -0.614668667316
doppler_bin: 7
bearing: -20.1000556946
intensity: 31.9645252228
---
header: 
  seq: 504776
  stamp: 
    secs: 1561866899
    nsecs: 548879834
  frame_id: "ti_mmwave"
point_id: 17
x: 1.037109375
y: -0.37890625
z: -0.001953125
range: 1.1765781641
velocity: -0.614668667316
doppler_bin: 7
bearing: -20.069694519
intensity: 35.6002616882
---
header: 
  seq: 504777
  stamp: 
    secs: 1561866899
    nsecs: 548904114
  frame_id: "ti_mmwave"
point_id: 18
x: 1.076171875
y: -0.39453125
z: 0.0
range: 1.22015523911
velocity: -0.614668667316
doppler_bin: 7
bearing: -20.1332473755
intensity: 35.2711410522
---
header: 
  seq: 504778
  stamp: 
    secs: 1561866899
    nsecs: 548987216
  frame_id: "ti_mmwave"
point_id: 19
x: 1.126953125
y: -0.37109375
z: -0.029296875
range: 1.2637321949
velocity: -0.614668667316
doppler_bin: 7
bearing: -18.2261676788
intensity: 31.5167617798
---
header: 
  seq: 504779
  stamp: 
    secs: 1561866899
    nsecs: 549009470
  frame_id: "ti_mmwave"
point_id: 20
x: 1.173828125
y: -0.345703125
z: 0.103515625
range: 1.3073091507
velocity: -0.614668667316
doppler_bin: 7
bearing: -16.4101829529
intensity: 26.5896492004
---
header: 
  seq: 504780
  stamp: 
    secs: 1561866899
    nsecs: 549018537
  frame_id: "ti_mmwave"
point_id: 21
x: 1.181640625
y: -0.31640625
z: 0.333984375
range: 1.35088610649
velocity: -0.614668667316
doppler_bin: 7
bearing: -14.9903440475
intensity: 25.7749176025
---
header: 
  seq: 504781
  stamp: 
    secs: 1561866899
    nsecs: 549037857
  frame_id: "ti_mmwave"
point_id: 23
x: 0.041015625
y: -0.033203125
z: 0.0625
range: 0.0871539413929
velocity: 0.0
doppler_bin: 8
bearing: -38.9909973145
intensity: 30.1199302673
---
header: 
  seq: 504782
  stamp: 
    secs: 1561866899
    nsecs: 549110495
  frame_id: "ti_mmwave"
point_id: 24
x: 0.044921875
y: -0.046875
z: 0.103515625
range: 0.130730912089
velocity: 0.0
doppler_bin: 8
bearing: -46.218875885
intensity: 29.0363254547
---
header: 
  seq: 504783
  stamp: 
    secs: 1561866899
    nsecs: 606845685
  frame_id: "ti_mmwave"
point_id: 0
x: 0.01171875
y: -0.0390625
z: -0.0078125
range: 0.0435769706964
velocity: 0.0
doppler_bin: 8
bearing: -73.3007583618
intensity: 30.678144455
---
header: 
  seq: 504784
  stamp: 
    secs: 1561866899
    nsecs: 606936631
  frame_id: "ti_mmwave"
point_id: 1
x: 0.017578125
y: -0.080078125
z: -0.0078125
range: 0.0871539413929
velocity: 0.0
doppler_bin: 8
bearing: -77.6192398071
intensity: 31.9423675537
---
header: 
  seq: 504785
  stamp: 
    secs: 1561866899
    nsecs: 606948396
  frame_id: "ti_mmwave"
point_id: 2
x: 0.029296875
y: -0.119140625
z: -0.005859375
range: 0.130730912089
velocity: 0.0
doppler_bin: 8
bearing: -76.1849746704
intensity: 30.1661548615
---
header: 
  seq: 504786
  stamp: 
    secs: 1561866899
    nsecs: 606956613
  frame_id: "ti_mmwave"
point_id: 3
x: 0.056640625
y: -0.154296875
z: 0.0078125
range: 0.174307882786
velocity: 0.0
doppler_bin: 8
bearing: -69.8423843384
intensity: 25.490032196
---
header: 
  seq: 504787
  stamp: 
    secs: 1561866899
    nsecs: 606964953
  frame_id: "ti_mmwave"
point_id: 4
x: 2.607421875
y: -0.17578125
z: 1.064453125
range: 3.00681090355
velocity: 0.0
doppler_bin: 8
bearing: -3.8568007946
intensity: 29.9825935364
---
header: 
  seq: 504788
  stamp: 
    secs: 1561866899
    nsecs: 606973061
  frame_id: "ti_mmwave"
point_id: 5
x: 2.650390625
y: -0.1796875
z: 1.06640625
range: 3.05038785934
velocity: 0.0
doppler_bin: 8
bearing: -3.87852454185
intensity: 33.7474822998
---
header: 
  seq: 504789
  stamp: 
    secs: 1561866899
    nsecs: 606982833
  frame_id: "ti_mmwave"
point_id: 6
x: 2.70703125
y: -0.181640625
z: 1.037109375
range: 3.09396481514
velocity: 0.0
doppler_bin: 8
bearing: -3.83876729012
intensity: 33.2428245544
---
header: 
  seq: 504790
  stamp: 
    secs: 1561866899
    nsecs: 606991472
  frame_id: "ti_mmwave"
point_id: 7
x: 2.6953125
y: -0.091796875
z: 1.18359375
range: 3.13754177094
velocity: 0.0
doppler_bin: 8
bearing: -1.95062410831
intensity: 28.4385547638
---
header: 
  seq: 504791
  stamp: 
    secs: 1561866899
    nsecs: 606999636
  frame_id: "ti_mmwave"
point_id: 8
x: 4.373046875
y: -0.142578125
z: 1.212890625
range: 4.83704376221
velocity: 0.0
doppler_bin: 8
bearing: -1.86740100384
intensity: 27.6566848755
---
header: 
  seq: 504792
  stamp: 
    secs: 1561866899
    nsecs: 607008526
  frame_id: "ti_mmwave"
point_id: 9
x: 4.431640625
y: -0.142578125
z: 1.154296875
range: 4.88062095642
velocity: 0.0
doppler_bin: 8
bearing: -1.84272778034
intensity: 31.332195282
---
header: 
  seq: 504793
  stamp: 
    secs: 1561866899
    nsecs: 607016501
  frame_id: "ti_mmwave"
point_id: 10
x: 4.447265625
y: -0.14453125
z: 1.25390625
range: 4.9241976738
velocity: 0.0
doppler_bin: 8
bearing: -1.86139500141
intensity: 31.1561050415
---
header: 
  seq: 504794
  stamp: 
    secs: 1561866899
    nsecs: 607024667
  frame_id: "ti_mmwave"
point_id: 11
x: 4.73828125
y: -0.298828125
z: -0.603515625
range: 5.09850549698
velocity: 0.0
doppler_bin: 8
bearing: -3.60868048668
intensity: 33.6977233887
---
header: 
  seq: 504795
  stamp: 
    secs: 1561866899
    nsecs: 607032979
  frame_id: "ti_mmwave"
point_id: 12
x: 4.77734375
y: -0.30078125
z: -0.615234375
range: 5.14208269119
velocity: 0.0
doppler_bin: 8
bearing: -3.60258316994
intensity: 34.2586021423
---
header: 
  seq: 504796
  stamp: 
    secs: 1561866899
    nsecs: 607042747
  frame_id: "ti_mmwave"
point_id: 13
x: 4.79296875
y: -0.3046875
z: -0.7890625
range: 5.18565940857
velocity: 0.0
doppler_bin: 8
bearing: -3.63738012314
intensity: 30.496055603
---
header: 
  seq: 504797
  stamp: 
    secs: 1561866899
    nsecs: 607051056
  frame_id: "ti_mmwave"
point_id: 14
x: 4.828125
y: -0.154296875
z: 1.078125
range: 5.27281332016
velocity: 0.0
doppler_bin: 8
bearing: -1.83043134212
intensity: 30.2734966278
---
header: 
  seq: 504798
  stamp: 
    secs: 1561866899
    nsecs: 607060142
  frame_id: "ti_mmwave"
point_id: 15
x: 0.912109375
y: -0.3828125
z: -0.259765625
range: 1.08942425251
velocity: -0.614668667316
doppler_bin: 7
bearing: -22.7678012848
intensity: 26.6464195251
---
header: 
  seq: 504799
  stamp: 
    secs: 1561866899
    nsecs: 607068761
  frame_id: "ti_mmwave"
point_id: 16
x: 0.978515625
y: -0.365234375
z: -0.19921875
range: 1.13300120831
velocity: -0.614668667316
doppler_bin: 7
bearing: -20.4682655334
intensity: 31.6524429321
---
header: 
  seq: 504800
  stamp: 
    secs: 1561866899
    nsecs: 607106347
  frame_id: "ti_mmwave"
point_id: 17
x: 1.0078125
y: -0.4140625
z: -0.18359375
range: 1.1765781641
velocity: -0.614668667316
doppler_bin: 7
bearing: -22.3354434967
intensity: 32.8239555359
---
header: 
  seq: 504801
  stamp: 
    secs: 1561866899
    nsecs: 607300113
  frame_id: "ti_mmwave"
point_id: 18
x: 1.015625
y: -0.46484375
z: -0.25
range: 1.22015523911
velocity: -0.614668667316
doppler_bin: 7
bearing: -24.5932044983
intensity: 30.3742656708
---
header: 
  seq: 504802
  stamp: 
    secs: 1561866899
    nsecs: 607330721
  frame_id: "ti_mmwave"
point_id: 19
x: 1.166015625
y: -0.22265625
z: 0.01953125
range: 1.2637321949
velocity: -0.614668667316
doppler_bin: 7
bearing: -10.8107557297
intensity: 28.8479537964
---
header: 
  seq: 504803
  stamp: 
    secs: 1561866899
    nsecs: 607388835
  frame_id: "ti_mmwave"
point_id: 20
x: 1.1875
y: -0.306640625
z: -0.056640625
range: 1.3073091507
velocity: -0.614668667316
doppler_bin: 7
bearing: -14.478843689
intensity: 29.2012329102
---
header: 
  seq: 504804
  stamp: 
    secs: 1561866899
    nsecs: 607404589
  frame_id: "ti_mmwave"
point_id: 21
x: 1.22265625
y: -0.27734375
z: -0.189453125
range: 1.35088610649
velocity: -0.614668667316
doppler_bin: 7
bearing: -12.7805280685
intensity: 25.2633934021
---
header: 
  seq: 504805
  stamp: 
    secs: 1561866899
    nsecs: 607431866
  frame_id: "ti_mmwave"
point_id: 23
x: 0.041015625
y: -0.033203125
z: 0.0625
range: 0.0871539413929
velocity: 0.0
doppler_bin: 8
bearing: -38.9909973145
intensity: 30.1241531372
---
header: 
  seq: 504806
  stamp: 
    secs: 1561866899
    nsecs: 607654834
  frame_id: "ti_mmwave"
point_id: 24
x: 0.044921875
y: -0.046875
z: 0.103515625
range: 0.130730912089
velocity: 0.0
doppler_bin: 8
bearing: -46.218875885
intensity: 29.0417442322
---
header: 
  seq: 504807
  stamp: 
    secs: 1561866899
    nsecs: 607677383
  frame_id: "ti_mmwave"
point_id: 26
x: 0.984375
y: -0.072265625
z: 0.580078125
range: 1.22015523911
velocity: -0.614668667316
doppler_bin: 7
bearing: -4.19870615005
intensity: 28.0685806274
---
header: 
  seq: 504808
  stamp: 
    secs: 1561866899
    nsecs: 608302810
  frame_id: "ti_mmwave"
point_id: 0
x: 0.01171875
y: -0.0390625
z: -0.0078125
range: 0.0435769706964
velocity: 0.0
doppler_bin: 8
bearing: -73.3007583618
intensity: 30.6707077026
---
header: 
  seq: 504809
  stamp: 
    secs: 1561866899
    nsecs: 608371493
  frame_id: "ti_mmwave"
point_id: 1
x: 0.017578125
y: -0.080078125
z: -0.0078125
range: 0.0871539413929
velocity: 0.0
doppler_bin: 8
bearing: -77.6192398071
intensity: 31.9368095398
---
header: 
  seq: 504810
  stamp: 
    secs: 1561866899
    nsecs: 608393714
  frame_id: "ti_mmwave"
point_id: 2
x: 0.029296875
y: -0.119140625
z: -0.005859375
range: 0.130730912089
velocity: 0.0
doppler_bin: 8
bearing: -76.1849746704
intensity: 30.1619739532
---
header: 
  seq: 504811
  stamp: 
    secs: 1561866899
    nsecs: 608410113
  frame_id: "ti_mmwave"
point_id: 3
x: 0.056640625
y: -0.154296875
z: 0.0078125
range: 0.174307882786
velocity: 0.0
doppler_bin: 8
bearing: -69.8423843384
intensity: 25.4777469635
---
header: 
  seq: 504812
  stamp: 
    secs: 1561866899
    nsecs: 608487807
  frame_id: "ti_mmwave"
point_id: 4
x: 1.15234375
y: -0.185546875
z: 0.21484375
range: 1.2637321949
velocity: 0.0
doppler_bin: 8
bearing: -9.14708042145
intensity: 29.2634239197
---
header: 
  seq: 504813
  stamp: 
    secs: 1561866899
    nsecs: 608506219
  frame_id: "ti_mmwave"
point_id: 5
x: 4.349609375
y: -0.283203125
z: 1.26953125
range: 4.83704376221
velocity: 0.0
doppler_bin: 8
bearing: -3.72527050972
intensity: 28.3186969757
---
header: 
  seq: 504814
  stamp: 
    secs: 1561866899
    nsecs: 608519408
  frame_id: "ti_mmwave"
point_id: 6
x: 4.41796875
y: -0.142578125
z: 1.20703125
range: 4.88062095642
velocity: 0.0
doppler_bin: 8
bearing: -1.84842634201
intensity: 32.0276069641
---
header: 
  seq: 504815
  stamp: 
    secs: 1561866899
    nsecs: 608531968
  frame_id: "ti_mmwave"
point_id: 7
x: 4.396484375
y: -0.14453125
z: 1.421875
range: 4.9241976738
velocity: 0.0
doppler_bin: 8
bearing: -1.8828792572
intensity: 31.4019374847
---
header: 
  seq: 504816
  stamp: 
    secs: 1561866899
    nsecs: 608546329
  frame_id: "ti_mmwave"
point_id: 8
x: 4.734375
y: -0.298828125
z: -0.6328125
range: 5.09850549698
velocity: 0.0
doppler_bin: 8
bearing: -3.61165046692
intensity: 33.3162956238
---
header: 
  seq: 504817
  stamp: 
    secs: 1561866899
    nsecs: 608558739
  frame_id: "ti_mmwave"
point_id: 9
x: 4.7734375
y: -0.30078125
z: -0.654296875
range: 5.14208269119
velocity: 0.0
doppler_bin: 8
bearing: -3.60552406311
intensity: 34.0824012756
---
header: 
  seq: 504818
  stamp: 
    secs: 1561866899
    nsecs: 608593006
  frame_id: "ti_mmwave"
point_id: 10
x: 4.759765625
y: -0.3046875
z: -0.978515625
range: 5.18565940857
velocity: 0.0
doppler_bin: 8
bearing: -3.66268467903
intensity: 30.561422348
---
header: 
  seq: 504819
  stamp: 
    secs: 1561866899
    nsecs: 608670746
  frame_id: "ti_mmwave"
point_id: 11
x: 4.84375
y: -0.154296875
z: 1.009765625
range: 5.27281332016
velocity: 0.0
doppler_bin: 8
bearing: -1.82453072071
intensity: 31.225435257
---
header: 
  seq: 504820
  stamp: 
    secs: 1561866899
    nsecs: 608690363
  frame_id: "ti_mmwave"
point_id: 12
x: 4.88671875
y: -0.15625
z: 1.001953125
range: 5.31639051437
velocity: 0.0
doppler_bin: 8
bearing: -1.8313754797
intensity: 29.6614170074
---
header: 
  seq: 504821
  stamp: 
    secs: 1561866899
    nsecs: 608702851
  frame_id: "ti_mmwave"
point_id: 13
x: 0.958984375
y: -0.3515625
z: -0.0390625
range: 1.08942425251
velocity: -0.614668667316
doppler_bin: 7
bearing: -20.1328754425
intensity: 28.7563991547
---
header: 
  seq: 504822
  stamp: 
    secs: 1561866899
    nsecs: 608714946
  frame_id: "ti_mmwave"
point_id: 14
x: 1.009765625
y: -0.33203125
z: -0.05078125
range: 1.13300120831
velocity: -0.614668667316
doppler_bin: 7
bearing: -18.2019042969
intensity: 32.645816803
---
header: 
  seq: 504823
  stamp: 
    secs: 1561866899
    nsecs: 608731631
  frame_id: "ti_mmwave"
point_id: 15
x: 1.03515625
y: -0.37890625
z: -0.056640625
range: 1.1765781641
velocity: -0.614668667316
doppler_bin: 7
bearing: -20.1045322418
intensity: 32.6387252808
---
header: 
  seq: 504824
  stamp: 
    secs: 1561866899
    nsecs: 608745094
  frame_id: "ti_mmwave"
point_id: 16
x: 1.10546875
y: -0.287109375
z: -0.08984375
range: 1.22015523911
velocity: -0.614668667316
doppler_bin: 7
bearing: -14.5590429306
intensity: 29.5472488403
---
header: 
  seq: 504825
  stamp: 
    secs: 1561866899
    nsecs: 608756630
  frame_id: "ti_mmwave"
point_id: 17
x: 1.15234375
y: -0.22265625
z: 0.171875
range: 1.2637321949
velocity: -0.614668667316
doppler_bin: 7
bearing: -10.9359436035
intensity: 29.0471553802
---
header: 
  seq: 504826
  stamp: 
    secs: 1561866899
    nsecs: 608764864
  frame_id: "ti_mmwave"
point_id: 18
x: 1.189453125
y: -0.23046875
z: 0.19921875
range: 1.3073091507
velocity: -0.614668667316
doppler_bin: 7
bearing: -10.9657640457
intensity: 29.0091304779
---
header: 
  seq: 504827
  stamp: 
    secs: 1561866899
    nsecs: 608797414
  frame_id: "ti_mmwave"
point_id: 20
x: 0.041015625
y: -0.033203125
z: 0.0625
range: 0.0871539413929
velocity: 0.0
doppler_bin: 8
bearing: -38.9909973145
intensity: 30.1241531372
---
header: 
  seq: 504828
  stamp: 
    secs: 1561866899
    nsecs: 608818500
  frame_id: "ti_mmwave"
point_id: 21
x: 0.044921875
y: -0.046875
z: 0.103515625
range: 0.130730912089
velocity: 0.0
doppler_bin: 8
bearing: -46.218875885
intensity: 29.0363254547
---
header: 
  seq: 504829
  stamp: 
    secs: 1561866899
    nsecs: 666702392
  frame_id: "ti_mmwave"
point_id: 0
x: 0.01171875
y: -0.0390625
z: -0.0078125
range: 0.0435769706964
velocity: 0.0
doppler_bin: 8
bearing: -73.3007583618
intensity: 30.6818580627
---
header: 
  seq: 504830
  stamp: 
    secs: 1561866899
    nsecs: 666771943
  frame_id: "ti_mmwave"
point_id: 1
x: 0.017578125
y: -0.080078125
z: -0.0078125
range: 0.0871539413929
velocity: 0.0
doppler_bin: 8
bearing: -77.6192398071
intensity: 31.9395904541
---
header: 
  seq: 504831
  stamp: 
    secs: 1561866899
    nsecs: 666783053
  frame_id: "ti_mmwave"
point_id: 2
x: 0.029296875
y: -0.119140625
z: -0.005859375
range: 0.130730912089
velocity: 0.0
doppler_bin: 8
bearing: -76.1849746704
intensity: 30.1661548615
---
header: 
  seq: 504832
  stamp: 
    secs: 1561866899
    nsecs: 666792548
  frame_id: "ti_mmwave"
point_id: 3
x: 0.056640625
y: -0.154296875
z: 0.0078125
range: 0.174307882786
velocity: 0.0
doppler_bin: 8
bearing: -69.8423843384
intensity: 25.490032196
---
header: 
  seq: 504833
  stamp: 
    secs: 1561866899
    nsecs: 666801424
  frame_id: "ti_mmwave"
point_id: 4
x: 2.6015625
y: -0.267578125
z: 1.166015625
range: 3.05038785934
velocity: 0.0
doppler_bin: 8
bearing: -5.87238502502
intensity: 30.013010025
---
header: 
  seq: 504834
  stamp: 
    secs: 1561866899
    nsecs: 666809483
  frame_id: "ti_mmwave"
point_id: 5
x: 2.69921875
y: -0.181640625
z: 1.056640625
range: 3.09396481514
velocity: 0.0
doppler_bin: 8
bearing: -3.84984517097
intensity: 29.2941894531
---
header: 
  seq: 504835
  stamp: 
    secs: 1561866899
    nsecs: 666820832
  frame_id: "ti_mmwave"
point_id: 6
x: 4.333984375
y: -0.283203125
z: 1.322265625
range: 4.83704376221
velocity: 0.0
doppler_bin: 8
bearing: -3.73866319656
intensity: 27.7959651947
---
header: 
  seq: 504836
  stamp: 
    secs: 1561866899
    nsecs: 666829190
  frame_id: "ti_mmwave"
point_id: 7
x: 4.400390625
y: -0.142578125
z: 1.267578125
range: 4.88062095642
velocity: 0.0
doppler_bin: 8
bearing: -1.85580503941
intensity: 31.5350990295
---
header: 
  seq: 504837
  stamp: 
    secs: 1561866899
    nsecs: 666837281
  frame_id: "ti_mmwave"
point_id: 8
x: 4.3203125
y: -0.14453125
z: 1.638671875
range: 4.9241976738
velocity: 0.0
doppler_bin: 8
bearing: -1.91605210304
intensity: 30.6069774628
---
header: 
  seq: 504838
  stamp: 
    secs: 1561866899
    nsecs: 666845285
  frame_id: "ti_mmwave"
point_id: 9
x: 4.732421875
y: -0.298828125
z: -0.650390625
range: 5.09850549698
velocity: 0.0
doppler_bin: 8
bearing: -3.61313724518
intensity: 31.383026123
---
header: 
  seq: 504839
  stamp: 
    secs: 1561866899
    nsecs: 666853094
  frame_id: "ti_mmwave"
point_id: 10
x: 4.76171875
y: -0.30078125
z: -0.734375
range: 5.14208269119
velocity: 0.0
doppler_bin: 8
bearing: -3.61437344551
intensity: 32.2271652222
---
header: 
  seq: 504840
  stamp: 
    secs: 1561866899
    nsecs: 667014512
  frame_id: "ti_mmwave"
point_id: 11
x: 4.841796875
y: -0.30859375
z: 0.9765625
range: 5.27281332016
velocity: 0.0
doppler_bin: 8
bearing: -3.64683556557
intensity: 31.2742881775
---
header: 
  seq: 504841
  stamp: 
    secs: 1561866899
    nsecs: 667040622
  frame_id: "ti_mmwave"
point_id: 12
x: 4.876953125
y: -0.15625
z: 1.044921875
range: 5.31639051437
velocity: 0.0
doppler_bin: 8
bearing: -1.83503997326
intensity: 29.9563522339
---
header: 
  seq: 504842
  stamp: 
    secs: 1561866899
    nsecs: 667056091
  frame_id: "ti_mmwave"
point_id: 13
x: 0.91796875
y: -0.337890625
z: -0.087890625
range: 1.04584729671
velocity: -0.614668667316
doppler_bin: 7
bearing: -20.2079105377
intensity: 23.5410842896
---
header: 
  seq: 504843
  stamp: 
    secs: 1561866899
    nsecs: 667070266
  frame_id: "ti_mmwave"
point_id: 14
x: 0.970703125
y: -0.3203125
z: -0.048828125
range: 1.08942425251
velocity: -0.614668667316
doppler_bin: 7
bearing: -18.2618503571
intensity: 30.496055603
---
header: 
  seq: 504844
  stamp: 
    secs: 1561866899
    nsecs: 667083448
  frame_id: "ti_mmwave"
point_id: 15
x: 1.017578125
y: -0.298828125
z: -0.0859375
range: 1.13300120831
velocity: -0.614668667316
doppler_bin: 7
bearing: -16.3657226562
intensity: 33.3865585327
---
header: 
  seq: 504845
  stamp: 
    secs: 1561866899
    nsecs: 667113315
  frame_id: "ti_mmwave"
point_id: 16
x: 1.06640625
y: -0.2421875
z: -0.16015625
range: 1.1765781641
velocity: -0.614668667316
doppler_bin: 7
bearing: -12.7951946259
intensity: 33.9672241211
---
header: 
  seq: 504846
  stamp: 
    secs: 1561866899
    nsecs: 667189770
  frame_id: "ti_mmwave"
point_id: 17
x: 1.1171875
y: -0.21484375
z: -0.125
range: 1.22015523911
velocity: -0.614668667316
doppler_bin: 7
bearing: -10.8855266571
intensity: 32.5430641174
---
header: 
  seq: 504847
  stamp: 
    secs: 1561866899
    nsecs: 667207997
  frame_id: "ti_mmwave"
point_id: 18
x: 1.1640625
y: -0.22265625
z: 0.033203125
range: 1.2637321949
velocity: -0.614668667316
doppler_bin: 7
bearing: -10.8284664154
intensity: 29.3043956757
---
header: 
  seq: 504848
  stamp: 
    secs: 1561866899
    nsecs: 667219923
  frame_id: "ti_mmwave"
point_id: 19
x: 1.205078125
y: -0.19140625
z: 0.1328125
range: 1.3073091507
velocity: -0.614668667316
doppler_bin: 7
bearing: -9.02507305145
intensity: 24.0993309021
---
header: 
  seq: 504849
  stamp: 
    secs: 1561866899
    nsecs: 667239400
  frame_id: "ti_mmwave"
point_id: 21
x: 0.041015625
y: -0.033203125
z: 0.0625
range: 0.0871539413929
velocity: 0.0
doppler_bin: 8
bearing: -38.9909973145
intensity: 30.1241531372
---
header: 
  seq: 504850
  stamp: 
    secs: 1561866899
    nsecs: 667251792
  frame_id: "ti_mmwave"
point_id: 22
x: 0.044921875
y: -0.046875
z: 0.103515625
range: 0.130730912089
velocity: 0.0
doppler_bin: 8
bearing: -46.218875885
intensity: 29.0363254547
---
header: 
  seq: 504851
  stamp: 
    secs: 1561866899
    nsecs: 667271365
  frame_id: "ti_mmwave"
point_id: 24
x: 4.84375
y: -0.0
z: 1.017578125
range: 5.27281332016
velocity: 0.0
doppler_bin: 8
bearing: -0.0
intensity: 31.2645606995
---
header: 
  seq: 504852
  stamp: 
    secs: 1561866899
    nsecs: 668264840
  frame_id: "ti_mmwave"
point_id: 0
x: 0.01171875
y: -0.0390625
z: -0.0078125
range: 0.0435769706964
velocity: 0.0
doppler_bin: 8
bearing: -73.3007583618
intensity: 30.6744289398
---
header: 
  seq: 504853
  stamp: 
    secs: 1561866899
    nsecs: 668315360
  frame_id: "ti_mmwave"
point_id: 1
x: 0.017578125
y: -0.080078125
z: -0.0078125
range: 0.0871539413929
velocity: 0.0
doppler_bin: 8
bearing: -77.6192398071
intensity: 31.9395904541
---
header: 
  seq: 504854
  stamp: 
    secs: 1561866899
    nsecs: 668331224
  frame_id: "ti_mmwave"
point_id: 2
x: 0.029296875
y: -0.119140625
z: -0.005859375
range: 0.130730912089
velocity: 0.0
doppler_bin: 8
bearing: -76.1849746704
intensity: 30.1661548615
---
header: 
  seq: 504855
  stamp: 
    secs: 1561866899
    nsecs: 668377347
  frame_id: "ti_mmwave"
point_id: 3
x: 0.056640625
y: -0.154296875
z: 0.005859375
range: 0.174307882786
velocity: 0.0
doppler_bin: 8
bearing: -69.8423843384
intensity: 25.490032196
---
header: 
  seq: 504856
  stamp: 
    secs: 1561866899
    nsecs: 668390275
  frame_id: "ti_mmwave"
point_id: 4
x: 1.3359375
y: -0.04296875
z: -0.19140625
range: 1.43804001808
velocity: 0.0
doppler_bin: 8
bearing: -1.84221172333
intensity: 27.8604125977
---
header: 
  seq: 504857
  stamp: 
    secs: 1561866899
    nsecs: 668401904
  frame_id: "ti_mmwave"
point_id: 5
x: 1.3515625
y: -0.0
z: -0.330078125
range: 1.48161697388
velocity: 0.0
doppler_bin: 8
bearing: -0.0
intensity: 29.9607372284
---
header: 
  seq: 504858
  stamp: 
    secs: 1561866899
    nsecs: 668412898
  frame_id: "ti_mmwave"
point_id: 6
x: 1.37890625
y: -0.0
z: -0.3828125
range: 1.52519392967
velocity: 0.0
doppler_bin: 8
bearing: -0.0
intensity: 29.3094902039
---
header: 
  seq: 504859
  stamp: 
    secs: 1561866899
    nsecs: 668424775
  frame_id: "ti_mmwave"
point_id: 7
x: 2.58984375
y: -0.267578125
z: 1.19140625
range: 3.05038785934
velocity: 0.0
doppler_bin: 8
bearing: -5.8987698555
intensity: 28.1756534576
---
header: 
  seq: 504860
  stamp: 
    secs: 1561866899
    nsecs: 668436899
  frame_id: "ti_mmwave"
point_id: 8
x: 2.708984375
y: -0.181640625
z: 1.03125
range: 3.09396481514
velocity: 0.0
doppler_bin: 8
bearing: -3.8360080719
intensity: 28.4818916321
---
header: 
  seq: 504861
  stamp: 
    secs: 1561866899
    nsecs: 668449540
  frame_id: "ti_mmwave"
point_id: 9
x: 4.384765625
y: -0.287109375
z: 1.296875
range: 4.88062095642
velocity: 0.0
doppler_bin: 8
bearing: -3.74631309509
intensity: 29.8677177429
---
header: 
  seq: 504862
  stamp: 
    secs: 1561866899
    nsecs: 668460446
  frame_id: "ti_mmwave"
point_id: 10
x: 4.37890625
y: -0.14453125
z: 1.474609375
range: 4.9241976738
velocity: 0.0
doppler_bin: 8
bearing: -1.89043223858
intensity: 29.3550720215
---
header: 
  seq: 504863
  stamp: 
    secs: 1561866899
    nsecs: 668520997
  frame_id: "ti_mmwave"
point_id: 11
x: 4.84375
y: -0.154296875
z: 1.00390625
range: 5.27281332016
velocity: 0.0
doppler_bin: 8
bearing: -1.82453072071
intensity: 30.7990455627
---
header: 
  seq: 504864
  stamp: 
    secs: 1561866899
    nsecs: 668535959
  frame_id: "ti_mmwave"
point_id: 12
x: 0.890625
y: -0.275390625
z: 0.3046875
range: 1.04584729671
velocity: -0.614668667316
doppler_bin: 7
bearing: -17.1821613312
intensity: 22.1748390198
---
header: 
  seq: 504865
  stamp: 
    secs: 1561866899
    nsecs: 668548656
  frame_id: "ti_mmwave"
point_id: 13
x: 0.927734375
y: -0.255859375
z: 0.34765625
range: 1.08942425251
velocity: -0.614668667316
doppler_bin: 7
bearing: -15.418296814
intensity: 26.9108142853
---
header: 
  seq: 504866
  stamp: 
    secs: 1561866899
    nsecs: 668562190
  frame_id: "ti_mmwave"
point_id: 14
x: 0.91796875
y: -0.232421875
z: 0.484375
range: 1.13300120831
velocity: -0.614668667316
doppler_bin: 7
bearing: -14.2082166672
intensity: 27.6417617798
---
header: 
  seq: 504867
  stamp: 
    secs: 1561866899
    nsecs: 668579543
  frame_id: "ti_mmwave"
point_id: 16
x: 1.126953125
y: -0.1796875
z: 0.099609375
range: 1.22015523911
velocity: -0.614668667316
doppler_bin: 7
bearing: -9.0592918396
intensity: 25.4530715942
---
header: 
  seq: 504868
  stamp: 
    secs: 1561866899
    nsecs: 668593266
  frame_id: "ti_mmwave"
point_id: 17
x: 1.12109375
y: -0.22265625
z: 0.314453125
range: 1.2637321949
velocity: -0.614668667316
doppler_bin: 7
bearing: -11.233127594
intensity: 24.9415454865
---
header: 
  seq: 504869
  stamp: 
    secs: 1561866899
    nsecs: 668651876
  frame_id: "ti_mmwave"
point_id: 19
x: 0.041015625
y: -0.033203125
z: 0.0625
range: 0.0871539413929
velocity: 0.0
doppler_bin: 8
bearing: -38.9909973145
intensity: 30.1241531372
---
header: 
  seq: 504870
  stamp: 
    secs: 1561866899
    nsecs: 668664286
  frame_id: "ti_mmwave"
point_id: 20
x: 0.044921875
y: -0.046875
z: 0.103515625
range: 0.130730912089
velocity: 0.0
doppler_bin: 8
bearing: -46.218875885
intensity: 29.0363254547
---
header: 
  seq: 504871
  stamp: 
    secs: 1561866899
    nsecs: 726849579
  frame_id: "ti_mmwave"
point_id: 0
x: 0.01171875
y: -0.0390625
z: -0.0078125
range: 0.0435769706964
velocity: 0.0
doppler_bin: 8
bearing: -73.3007583618
intensity: 30.678144455
---
header: 
  seq: 504872
  stamp: 
    secs: 1561866899
    nsecs: 726891044
  frame_id: "ti_mmwave"
point_id: 1
x: 0.017578125
y: -0.080078125
z: -0.0078125
range: 0.0871539413929
velocity: 0.0
doppler_bin: 8
bearing: -77.6192398071
intensity: 31.9368095398
---
header: 
  seq: 504873
  stamp: 
    secs: 1561866899
    nsecs: 726898698
  frame_id: "ti_mmwave"
point_id: 2
x: 0.029296875
y: -0.119140625
z: -0.005859375
range: 0.130730912089
velocity: 0.0
doppler_bin: 8
bearing: -76.1849746704
intensity: 30.1619739532
---
header: 
  seq: 504874
  stamp: 
    secs: 1561866899
    nsecs: 726904354
  frame_id: "ti_mmwave"
point_id: 3
x: 0.056640625
y: -0.154296875
z: 0.005859375
range: 0.174307882786
velocity: 0.0
doppler_bin: 8
bearing: -69.8423843384
intensity: 25.4777469635
---
header: 
  seq: 504875
  stamp: 
    secs: 1561866899
    nsecs: 726913236
  frame_id: "ti_mmwave"
point_id: 4
x: 1.115234375
y: -0.1484375
z: 0.376953125
range: 1.2637321949
velocity: 0.0
doppler_bin: 8
bearing: -7.58149719238
intensity: 29.863237381
---
header: 
  seq: 504876
  stamp: 
    secs: 1561866899
    nsecs: 726925128
  frame_id: "ti_mmwave"
point_id: 5
x: 1.119140625
y: -0.154296875
z: 0.48046875
range: 1.3073091507
velocity: 0.0
doppler_bin: 8
bearing: -7.84992980957
intensity: 27.8532981873
---
header: 
  seq: 504877
  stamp: 
    secs: 1561866899
    nsecs: 726933710
  frame_id: "ti_mmwave"
point_id: 6
x: 0.92578125
y: -0.119140625
z: 0.857421875
range: 1.35088610649
velocity: 0.0
doppler_bin: 8
bearing: -7.33320188522
intensity: 25.7863922119
---
header: 
  seq: 504878
  stamp: 
    secs: 1561866899
    nsecs: 726971904
  frame_id: "ti_mmwave"
point_id: 7
x: 1.390625
y: -0.04296875
z: -0.009765625
range: 1.48161697388
velocity: 0.0
doppler_bin: 8
bearing: -1.76981210709
intensity: 27.0156803131
---
header: 
  seq: 504879
  stamp: 
    secs: 1561866899
    nsecs: 726978535
  frame_id: "ti_mmwave"
point_id: 8
x: 4.37109375
y: -0.142578125
z: 1.365234375
range: 4.88062095642
velocity: 0.0
doppler_bin: 8
bearing: -1.86823499203
intensity: 28.8817958832
---
header: 
  seq: 504880
  stamp: 
    secs: 1561866899
    nsecs: 726983958
  frame_id: "ti_mmwave"
point_id: 9
x: 4.83984375
y: -0.154296875
z: 1.021484375
range: 5.27281332016
velocity: 0.0
doppler_bin: 8
bearing: -1.82600235939
intensity: 30.2530593872
---
header: 
  seq: 504881
  stamp: 
    secs: 1561866899
    nsecs: 726989099
  frame_id: "ti_mmwave"
point_id: 10
x: 0.939453125
y: -0.275390625
z: 0.08203125
range: 1.04584729671
velocity: -0.614668667316
doppler_bin: 7
bearing: -16.337934494
intensity: 25.6820163727
---
header: 
  seq: 504882
  stamp: 
    secs: 1561866899
    nsecs: 726994940
  frame_id: "ti_mmwave"
point_id: 11
x: 0.95703125
y: -0.3515625
z: 0.08203125
range: 1.08942425251
velocity: -0.614668667316
doppler_bin: 7
bearing: -20.1706542969
intensity: 27.3798732758
---
header: 
  seq: 504883
  stamp: 
    secs: 1561866899
    nsecs: 727000927
  frame_id: "ti_mmwave"
point_id: 12
x: 0.970703125
y: -0.166015625
z: -0.400390625
range: 1.13300120831
velocity: -0.614668667316
doppler_bin: 7
bearing: -9.70517921448
intensity: 28.2736930847
---
header: 
  seq: 504884
  stamp: 
    secs: 1561866899
    nsecs: 727005912
  frame_id: "ti_mmwave"
point_id: 13
x: 1.07421875
y: -0.171875
z: -0.189453125
range: 1.1765781641
velocity: -0.614668667316
doppler_bin: 7
bearing: -9.09027671814
intensity: 29.9033889771
---
header: 
  seq: 504885
  stamp: 
    secs: 1561866899
    nsecs: 727011172
  frame_id: "ti_mmwave"
point_id: 14
x: 1.126953125
y: -0.1796875
z: 0.087890625
range: 1.22015523911
velocity: -0.614668667316
doppler_bin: 7
bearing: -9.0592918396
intensity: 30.0902576447
---
header: 
  seq: 504886
  stamp: 
    secs: 1561866899
    nsecs: 727018170
  frame_id: "ti_mmwave"
point_id: 16
x: 0.041015625
y: -0.033203125
z: 0.0625
range: 0.0871539413929
velocity: 0.0
doppler_bin: 8
bearing: -38.9909973145
intensity: 30.1199302673
---
header: 
  seq: 504887
  stamp: 
    secs: 1561866899
    nsecs: 727024734
  frame_id: "ti_mmwave"
point_id: 17
x: 0.044921875
y: -0.046875
z: 0.103515625
range: 0.130730912089
velocity: 0.0
doppler_bin: 8
bearing: -46.218875885
intensity: 29.0363254547
---
header: 
  seq: 504888
  stamp: 
    secs: 1561866899
    nsecs: 786743773
  frame_id: "ti_mmwave"
point_id: 0
x: 0.01171875
y: -0.0390625
z: -0.0078125
range: 0.0435769706964
velocity: 0.0
doppler_bin: 8
bearing: -73.3007583618
intensity: 30.678144455
---
header: 
  seq: 504889
  stamp: 
    secs: 1561866899
    nsecs: 786826499
  frame_id: "ti_mmwave"
point_id: 1
x: 0.017578125
y: -0.080078125
z: -0.0078125
range: 0.0871539413929
velocity: 0.0
doppler_bin: 8
bearing: -77.6192398071
intensity: 31.9423675537
---
header: 
  seq: 504890
  stamp: 
    secs: 1561866899
    nsecs: 786843743
  frame_id: "ti_mmwave"
point_id: 2
x: 0.029296875
y: -0.119140625
z: -0.005859375
range: 0.130730912089
velocity: 0.0
doppler_bin: 8
bearing: -76.1849746704
intensity: 30.1661548615
---
header: 
  seq: 504891
  stamp: 
    secs: 1561866899
    nsecs: 786858156
  frame_id: "ti_mmwave"
point_id: 3
x: 0.056640625
y: -0.154296875
z: 0.005859375
range: 0.174307882786
velocity: 0.0
doppler_bin: 8
bearing: -69.8423843384
intensity: 25.490032196
---
header: 
  seq: 504892
  stamp: 
    secs: 1561866899
    nsecs: 786868842
  frame_id: "ti_mmwave"
point_id: 4
x: 1.005859375
y: -0.0
z: 0.546875
range: 1.22015523911
velocity: 0.0
doppler_bin: 8
bearing: -0.0
intensity: 24.393327713
---
header: 
  seq: 504893
  stamp: 
    secs: 1561866899
    nsecs: 786945857
  frame_id: "ti_mmwave"
point_id: 5
x: 1.0859375
y: -0.07421875
z: 0.46875
range: 1.2637321949
velocity: 0.0
doppler_bin: 8
bearing: -3.90981841087
intensity: 25.4282550812
---
header: 
  seq: 504894
  stamp: 
    secs: 1561866899
    nsecs: 786961499
  frame_id: "ti_mmwave"
point_id: 6
x: 1.361328125
y: -0.0
z: -0.283203125
range: 1.48161697388
velocity: 0.0
doppler_bin: 8
bearing: -0.0
intensity: 29.4200801849
---
header: 
  seq: 504895
  stamp: 
    secs: 1561866899
    nsecs: 786972940
  frame_id: "ti_mmwave"
point_id: 7
x: 0.90234375
y: -0.263671875
z: -0.015625
range: 1.00227034092
velocity: -0.614668667316
doppler_bin: 7
bearing: -16.288772583
intensity: 26.3848934174
---
header: 
  seq: 504896
  stamp: 
    secs: 1561866899
    nsecs: 786983731
  frame_id: "ti_mmwave"
point_id: 8
x: 0.94140625
y: -0.275390625
z: -0.015625
range: 1.04584729671
velocity: -0.614668667316
doppler_bin: 7
bearing: -16.3058395386
intensity: 32.0085067749
---
header: 
