header: 
  seq: 434526
  stamp: 
    secs: 1561866789
    nsecs: 806778338
  frame_id: "ti_mmwave"
point_id: 0
x: 0.01171875
y: -0.0390625
z: -0.0078125
range: 0.0435769706964
velocity: 0.0
doppler_bin: 8
bearing: -73.3007583618
intensity: 30.6520614624
---
header: 
  seq: 434527
  stamp: 
    secs: 1561866789
    nsecs: 806860722
  frame_id: "ti_mmwave"
point_id: 1
x: 0.017578125
y: -0.080078125
z: -0.0078125
range: 0.0871539413929
velocity: 0.0
doppler_bin: 8
bearing: -77.6192398071
intensity: 31.9089164734
---
header: 
  seq: 434528
  stamp: 
    secs: 1561866789
    nsecs: 806879870
  frame_id: "ti_mmwave"
point_id: 2
x: 0.029296875
y: -0.119140625
z: -0.005859375
range: 0.130730912089
velocity: 0.0
doppler_bin: 8
bearing: -76.1849746704
intensity: 30.1367969513
---
header: 
  seq: 434529
  stamp: 
    secs: 1561866789
    nsecs: 806895597
  frame_id: "ti_mmwave"
point_id: 3
x: 0.056640625
y: -0.154296875
z: 0.005859375
range: 0.174307882786
velocity: 0.0
doppler_bin: 8
bearing: -69.8423843384
intensity: 25.4530715942
---
header: 
  seq: 434530
  stamp: 
    secs: 1561866789
    nsecs: 806908601
  frame_id: "ti_mmwave"
point_id: 4
x: 0.017578125
y: -0.080078125
z: 1.265625
range: 1.35088610649
velocity: 0.0
doppler_bin: 8
bearing: -77.6192398071
intensity: 23.0535144806
---
header: 
  seq: 434531
  stamp: 
    secs: 1561866789
    nsecs: 806923403
  frame_id: "ti_mmwave"
point_id: 6
x: 0.4296875
y: -0.083984375
z: -1.27734375
range: 1.43804001808
velocity: 0.0
doppler_bin: 8
bearing: -11.0592975616
intensity: 23.031961441
---
header: 
  seq: 434532
  stamp: 
    secs: 1561866789
    nsecs: 806937329
  frame_id: "ti_mmwave"
point_id: 7
x: 2.611328125
y: -0.17578125
z: 1.056640625
range: 3.00681090355
velocity: 0.0
doppler_bin: 8
bearing: -3.85104894638
intensity: 28.9320678711
---
header: 
  seq: 434533
  stamp: 
    secs: 1561866789
    nsecs: 806946096
  frame_id: "ti_mmwave"
point_id: 8
x: 2.689453125
y: -0.08984375
z: 0.98046875
range: 3.05038785934
velocity: 0.0
doppler_bin: 8
bearing: -1.91330885887
intensity: 32.1827278137
---
header: 
  seq: 434534
  stamp: 
    secs: 1561866789
    nsecs: 806955143
  frame_id: "ti_mmwave"
point_id: 9
x: 2.75390625
y: -0.08984375
z: 0.91796875
range: 3.09396481514
velocity: 0.0
doppler_bin: 8
bearing: -1.86856126785
intensity: 31.1892566681
---
header: 
  seq: 434535
  stamp: 
    secs: 1561866789
    nsecs: 806964513
  frame_id: "ti_mmwave"
point_id: 10
x: 4.3671875
y: -0.283203125
z: 1.208984375
range: 4.83704376221
velocity: 0.0
doppler_bin: 8
bearing: -3.71031832695
intensity: 27.6492290497
---
header: 
  seq: 434536
  stamp: 
    secs: 1561866789
    nsecs: 806973712
  frame_id: "ti_mmwave"
point_id: 11
x: 4.419921875
y: -0.142578125
z: 1.201171875
range: 4.88062095642
velocity: 0.0
doppler_bin: 8
bearing: -1.847610116
intensity: 31.3608608246
---
header: 
  seq: 434537
  stamp: 
    secs: 1561866789
    nsecs: 806994620
  frame_id: "ti_mmwave"
point_id: 12
x: 4.416015625
y: -0.14453125
z: 1.359375
range: 4.9241976738
velocity: 0.0
doppler_bin: 8
bearing: -1.87455761433
intensity: 31.0448703766
---
header: 
  seq: 434538
  stamp: 
    secs: 1561866789
    nsecs: 807009703
  frame_id: "ti_mmwave"
point_id: 13
x: 4.73828125
y: -0.298828125
z: -0.609375
range: 5.09850549698
velocity: 0.0
doppler_bin: 8
bearing: -3.60868048668
intensity: 33.7272796631
---
header: 
  seq: 434539
  stamp: 
    secs: 1561866789
    nsecs: 807019294
  frame_id: "ti_mmwave"
point_id: 14
x: 4.7734375
y: -0.30078125
z: -0.65625
range: 5.14208269119
velocity: 0.0
doppler_bin: 8
bearing: -3.60552406311
intensity: 34.1697311401
---
header: 
  seq: 434540
  stamp: 
    secs: 1561866789
    nsecs: 807200217
  frame_id: "ti_mmwave"
point_id: 15
x: 4.779296875
y: -0.15234375
z: -0.916015625
range: 5.18565940857
velocity: 0.0
doppler_bin: 8
bearing: -1.82572877407
intensity: 30.3662891388
---
header: 
  seq: 434541
  stamp: 
    secs: 1561866789
    nsecs: 807229248
  frame_id: "ti_mmwave"
point_id: 16
x: 4.84765625
y: -0.154296875
z: 0.984375
range: 5.27281332016
velocity: 0.0
doppler_bin: 8
bearing: -1.82306158543
intensity: 30.9760437012
---
header: 
  seq: 434542
  stamp: 
    secs: 1561866789
    nsecs: 807242046
  frame_id: "ti_mmwave"
point_id: 17
x: 1.515625
y: -0.408203125
z: -0.458984375
range: 1.74307882786
velocity: -0.614668667316
doppler_bin: 7
bearing: -15.0737838745
intensity: 27.5891189575
---
header: 
  seq: 434543
  stamp: 
    secs: 1561866789
    nsecs: 807253614
  frame_id: "ti_mmwave"
point_id: 18
x: 1.60546875
y: -0.419921875
z: -0.244140625
range: 1.78665578365
velocity: -0.614668667316
doppler_bin: 7
bearing: -14.6577548981
intensity: 26.8304710388
---
header: 
  seq: 434544
  stamp: 
    secs: 1561866789
    nsecs: 807272555
  frame_id: "ti_mmwave"
point_id: 20
x: 0.041015625
y: -0.033203125
z: 0.0625
range: 0.0871539413929
velocity: 0.0
doppler_bin: 8
bearing: -38.9909973145
intensity: 30.0987567902
---
header: 
  seq: 434545
  stamp: 
    secs: 1561866789
    nsecs: 807285193
  frame_id: "ti_mmwave"
point_id: 21
x: 0.044921875
y: -0.046875
z: 0.103515625
range: 0.130730912089
velocity: 0.0
doppler_bin: 8
bearing: -46.218875885
intensity: 29.0036716461
---
header: 
  seq: 434546
  stamp: 
    secs: 1561866789
    nsecs: 808543705
  frame_id: "ti_mmwave"
point_id: 0
x: 0.01171875
y: -0.0390625
z: -0.0078125
range: 0.0435769706964
velocity: 0.0
doppler_bin: 8
bearing: -73.3007583618
intensity: 30.6520614624
---
header: 
  seq: 434547
  stamp: 
    secs: 1561866789
    nsecs: 808600045
  frame_id: "ti_mmwave"
point_id: 1
x: 0.017578125
y: -0.080078125
z: -0.0078125
range: 0.0871539413929
velocity: 0.0
doppler_bin: 8
bearing: -77.6192398071
intensity: 31.9117145538
---
header: 
  seq: 434548
  stamp: 
    secs: 1561866789
    nsecs: 808617575
  frame_id: "ti_mmwave"
point_id: 2
x: 0.029296875
y: -0.119140625
z: -0.005859375
range: 0.130730912089
velocity: 0.0
doppler_bin: 8
bearing: -76.1849746704
intensity: 30.1367969513
---
header: 
  seq: 434549
  stamp: 
    secs: 1561866789
    nsecs: 808630602
  frame_id: "ti_mmwave"
point_id: 3
x: 0.056640625
y: -0.154296875
z: 0.005859375
range: 0.174307882786
velocity: 0.0
doppler_bin: 8
bearing: -69.8423843384
intensity: 25.4530715942
---
header: 
  seq: 434550
  stamp: 
    secs: 1561866789
    nsecs: 808703121
  frame_id: "ti_mmwave"
point_id: 4
x: 0.1484375
y: -0.080078125
z: 1.2578125
range: 1.35088610649
velocity: 0.0
doppler_bin: 8
bearing: -28.3456954956
intensity: 23.138671875
---
header: 
  seq: 434551
  stamp: 
    secs: 1561866789
    nsecs: 808720908
  frame_id: "ti_mmwave"
point_id: 6
x: 0.41796875
y: -0.083984375
z: -1.28125
range: 1.43804001808
velocity: 0.0
doppler_bin: 8
bearing: -11.3614110947
intensity: 23.0102996826
---
header: 
  seq: 434552
  stamp: 
    secs: 1561866789
    nsecs: 808733097
  frame_id: "ti_mmwave"
point_id: 7
x: 0.55859375
y: -0.04296875
z: -1.2734375
range: 1.48161697388
velocity: 0.0
doppler_bin: 8
bearing: -4.39870548248
intensity: 21.5836257935
---
header: 
  seq: 434553
  stamp: 
    secs: 1561866789
    nsecs: 808745304
  frame_id: "ti_mmwave"
point_id: 8
x: 2.61328125
y: -0.17578125
z: 1.05078125
range: 3.00681090355
velocity: 0.0
doppler_bin: 8
bearing: -3.84817934036
intensity: 29.0091304779
---
header: 
  seq: 434554
  stamp: 
    secs: 1561866789
    nsecs: 808758377
  frame_id: "ti_mmwave"
point_id: 9
x: 2.69140625
y: -0.08984375
z: 0.97265625
range: 3.05038785934
velocity: 0.0
doppler_bin: 8
bearing: -1.91192126274
intensity: 32.1906051636
---
header: 
  seq: 434555
  stamp: 
    secs: 1561866789
    nsecs: 808771373
  frame_id: "ti_mmwave"
point_id: 10
x: 2.771484375
y: -0.0
z: 0.869140625
range: 3.09396481514
velocity: 0.0
doppler_bin: 8
bearing: -0.0
intensity: 31.0822658539
---
header: 
  seq: 434556
  stamp: 
    secs: 1561866789
    nsecs: 808794974
  frame_id: "ti_mmwave"
point_id: 11
x: 4.3125
y: -0.142578125
z: 1.416015625
range: 4.83704376221
velocity: 0.0
doppler_bin: 8
bearing: -1.89359998703
intensity: 27.3957233429
---
header: 
  seq: 434557
  stamp: 
    secs: 1561866789
    nsecs: 808855176
  frame_id: "ti_mmwave"
point_id: 12
x: 4.38671875
y: -0.142578125
z: 1.3125
range: 4.88062095642
velocity: 0.0
doppler_bin: 8
bearing: -1.86158514023
intensity: 31.3353881836
---
header: 
  seq: 434558
  stamp: 
    secs: 1561866789
    nsecs: 808869366
  frame_id: "ti_mmwave"
point_id: 13
x: 4.3828125
y: -0.14453125
z: 1.462890625
range: 4.9241976738
velocity: 0.0
doppler_bin: 8
bearing: -1.88874852657
intensity: 30.9377174377
---
header: 
  seq: 434559
  stamp: 
    secs: 1561866789
    nsecs: 808881028
  frame_id: "ti_mmwave"
point_id: 14
x: 4.69140625
y: -0.4453125
z: -0.55859375
range: 5.0549287796
velocity: 0.0
doppler_bin: 8
bearing: -5.42232084274
intensity: 29.3951931
---
header: 
  seq: 434560
  stamp: 
    secs: 1561866789
    nsecs: 808893143
  frame_id: "ti_mmwave"
point_id: 15
x: 4.73828125
y: -0.298828125
z: -0.59765625
range: 5.09850549698
velocity: 0.0
doppler_bin: 8
bearing: -3.60868048668
intensity: 34.2471847534
---
header: 
  seq: 434561
  stamp: 
    secs: 1561866789
    nsecs: 808906121
  frame_id: "ti_mmwave"
point_id: 16
x: 4.77734375
y: -0.30078125
z: -0.626953125
range: 5.14208269119
velocity: 0.0
doppler_bin: 8
bearing: -3.60258316994
intensity: 34.8387260437
---
header: 
  seq: 434562
  stamp: 
    secs: 1561866789
    nsecs: 808917924
  frame_id: "ti_mmwave"
point_id: 17
x: 4.78125
y: -0.3046875
z: -0.861328125
range: 5.18565940857
velocity: 0.0
doppler_bin: 8
bearing: -3.64627122879
intensity: 31.25806427
---
header: 
  seq: 434563
  stamp: 
    secs: 1561866789
    nsecs: 808930851
  frame_id: "ti_mmwave"
point_id: 18
x: 4.841796875
y: -0.154296875
z: 1.01953125
range: 5.27281332016
velocity: 0.0
doppler_bin: 8
bearing: -1.82526648045
intensity: 30.7664051056
---
header: 
  seq: 434564
  stamp: 
    secs: 1561866789
    nsecs: 808944935
  frame_id: "ti_mmwave"
point_id: 19
x: 1.501953125
y: -0.388671875
z: -0.0859375
range: 1.65592491627
velocity: -0.614668667316
doppler_bin: 7
bearing: -14.5085935593
intensity: 26.8033542633
---
header: 
  seq: 434565
  stamp: 
    secs: 1561866789
    nsecs: 808961684
  frame_id: "ti_mmwave"
point_id: 20
x: 1.53125
y: -0.44921875
z: -0.013671875
range: 1.69950187206
velocity: -0.614668667316
doppler_bin: 7
bearing: -16.3499660492
intensity: 30.8849048615
---
header: 
  seq: 434566
  stamp: 
    secs: 1561866789
    nsecs: 809020086
  frame_id: "ti_mmwave"
point_id: 21
x: 1.5703125
y: -0.4609375
z: -0.01171875
range: 1.74307882786
velocity: -0.614668667316
doppler_bin: 7
bearing: -16.358669281
intensity: 31.8892841339
---
header: 
  seq: 434567
  stamp: 
    secs: 1561866789
    nsecs: 809036351
  frame_id: "ti_mmwave"
point_id: 22
x: 1.607421875
y: -0.47265625
z: -0.05859375
range: 1.78665578365
velocity: -0.614668667316
doppler_bin: 7
bearing: -16.3857707977
intensity: 29.2116603851
---
header: 
  seq: 434568
  stamp: 
    secs: 1561866789
    nsecs: 809053767
  frame_id: "ti_mmwave"
point_id: 24
x: 0.009765625
y: 0.03125
z: 0.025390625
range: 0.0435769706964
velocity: 0.0
doppler_bin: 8
bearing: 72.6459732056
intensity: 29.2941894531
---
header: 
  seq: 434569
  stamp: 
    secs: 1561866789
    nsecs: 809066950
  frame_id: "ti_mmwave"
point_id: 25
x: 0.041015625
y: -0.033203125
z: 0.0625
range: 0.0871539413929
velocity: 0.0
doppler_bin: 8
bearing: -38.9909973145
intensity: 30.0987567902
---
header: 
  seq: 434570
  stamp: 
    secs: 1561866789
    nsecs: 809080143
  frame_id: "ti_mmwave"
point_id: 26
x: 0.044921875
y: -0.046875
z: 0.103515625
range: 0.130730912089
velocity: 0.0
doppler_bin: 8
bearing: -46.218875885
intensity: 29.0036716461
---
header: 
  seq: 434571
  stamp: 
    secs: 1561866789
    nsecs: 866843273
  frame_id: "ti_mmwave"
point_id: 0
x: 0.01171875
y: -0.0390625
z: -0.0078125
range: 0.0435769706964
velocity: 0.0
doppler_bin: 8
bearing: -73.3007583618
intensity: 30.6520614624
---
header: 
  seq: 434572
  stamp: 
    secs: 1561866789
    nsecs: 866917260
  frame_id: "ti_mmwave"
point_id: 1
x: 0.017578125
y: -0.080078125
z: -0.0078125
range: 0.0871539413929
velocity: 0.0
doppler_bin: 8
bearing: -77.6192398071
intensity: 31.9117145538
---
header: 
  seq: 434573
  stamp: 
    secs: 1561866789
    nsecs: 866929721
  frame_id: "ti_mmwave"
point_id: 2
x: 0.029296875
y: -0.119140625
z: -0.005859375
range: 0.130730912089
velocity: 0.0
doppler_bin: 8
bearing: -76.1849746704
intensity: 30.1325874329
---
header: 
  seq: 434574
  stamp: 
    secs: 1561866789
    nsecs: 866941613
  frame_id: "ti_mmwave"
point_id: 3
x: 0.056640625
y: -0.154296875
z: 0.005859375
range: 0.174307882786
velocity: 0.0
doppler_bin: 8
bearing: -69.8423843384
intensity: 25.4406795502
---
header: 
  seq: 434575
  stamp: 
    secs: 1561866789
    nsecs: 866955914
  frame_id: "ti_mmwave"
point_id: 4
x: 0.185546875
y: -0.080078125
z: 1.251953125
range: 1.35088610649
velocity: 0.0
doppler_bin: 8
bearing: -23.3440113068
intensity: 23.1175384521
---
header: 
  seq: 434576
  stamp: 
    secs: 1561866789
    nsecs: 866967436
  frame_id: "ti_mmwave"
point_id: 5
x: 0.083984375
y: -0.08203125
z: 1.3046875
range: 1.39446306229
velocity: 0.0
doppler_bin: 8
bearing: -44.3259658813
intensity: 24.6239795685
---
header: 
  seq: 434577
  stamp: 
    secs: 1561866789
    nsecs: 866975531
  frame_id: "ti_mmwave"
point_id: 6
x: 0.373046875
y: -0.083984375
z: -1.294921875
range: 1.43804001808
velocity: 0.0
doppler_bin: 8
bearing: -12.6875209808
intensity: 23.0749607086
---
header: 
  seq: 434578
  stamp: 
    secs: 1561866789
    nsecs: 866983524
  frame_id: "ti_mmwave"
point_id: 7
x: 0.525390625
y: -0.04296875
z: -1.287109375
range: 1.48161697388
velocity: 0.0
doppler_bin: 8
bearing: -4.67549467087
intensity: 21.7609119415
---
header: 
  seq: 434579
  stamp: 
    secs: 1561866789
    nsecs: 866991389
  frame_id: "ti_mmwave"
point_id: 8
x: 2.619140625
y: -0.17578125
z: 1.0390625
range: 3.00681090355
velocity: 0.0
doppler_bin: 8
bearing: -3.83959650993
intensity: 28.9707698822
---
header: 
  seq: 434580
  stamp: 
    secs: 1561866789
    nsecs: 866999133
  frame_id: "ti_mmwave"
point_id: 9
x: 2.69140625
y: -0.08984375
z: 0.974609375
range: 3.05038785934
velocity: 0.0
doppler_bin: 8
bearing: -1.91192126274
intensity: 32.1616592407
---
header: 
  seq: 434581
  stamp: 
    secs: 1561866789
    nsecs: 867007856
  frame_id: "ti_mmwave"
point_id: 10
x: 2.771484375
y: -0.0
z: 0.8671875
range: 3.09396481514
velocity: 0.0
doppler_bin: 8
bearing: -0.0
intensity: 31.0924091339
---
header: 
  seq: 434582
  stamp: 
    secs: 1561866789
    nsecs: 867016841
  frame_id: "ti_mmwave"
point_id: 11
x: 4.29296875
y: -0.142578125
z: 1.470703125
range: 4.83704376221
velocity: 0.0
doppler_bin: 8
bearing: -1.90220880508
intensity: 27.3158874512
---
header: 
  seq: 434583
  stamp: 
    secs: 1561866789
    nsecs: 867024568
  frame_id: "ti_mmwave"
point_id: 12
x: 4.365234375
y: -0.142578125
z: 1.3828125
range: 4.88062095642
velocity: 0.0
doppler_bin: 8
bearing: -1.87074077129
intensity: 31.2839927673
---
header: 
  seq: 434584
  stamp: 
    secs: 1561866789
    nsecs: 867063944
  frame_id: "ti_mmwave"
point_id: 13
x: 4.361328125
y: -0.14453125
z: 1.525390625
range: 4.9241976738
velocity: 0.0
doppler_bin: 8
bearing: -1.89804601669
intensity: 30.9691009521
---
header: 
  seq: 434585
  stamp: 
    secs: 1561866789
    nsecs: 867074232
  frame_id: "ti_mmwave"
point_id: 14
x: 4.708984375
y: -0.296875
z: -0.50390625
range: 5.0549287796
velocity: 0.0
doppler_bin: 8
bearing: -3.60740232468
intensity: 29.4448261261
---
header: 
  seq: 434586
  stamp: 
    secs: 1561866789
    nsecs: 867224281
  frame_id: "ti_mmwave"
point_id: 15
x: 4.740234375
y: -0.298828125
z: -0.58984375
range: 5.09850549698
velocity: 0.0
doppler_bin: 8
bearing: -3.60719799995
intensity: 34.0993309021
---
header: 
  seq: 434587
  stamp: 
    secs: 1561866789
    nsecs: 867245396
  frame_id: "ti_mmwave"
point_id: 16
x: 4.77734375
y: -0.30078125
z: -0.61328125
range: 5.14208269119
velocity: 0.0
doppler_bin: 8
bearing: -3.60258316994
intensity: 34.8401489258
---
header: 
  seq: 434588
  stamp: 
    secs: 1561866789
    nsecs: 867253472
  frame_id: "ti_mmwave"
point_id: 17
x: 4.80078125
y: -0.3046875
z: -0.748046875
range: 5.18565940857
velocity: 0.0
doppler_bin: 8
bearing: -3.6314766407
intensity: 31.7609119415
---
header: 
  seq: 434589
  stamp: 
    secs: 1561866789
    nsecs: 867261110
  frame_id: "ti_mmwave"
point_id: 18
x: 4.849609375
y: -0.154296875
z: 0.978515625
range: 5.27281332016
velocity: 0.0
doppler_bin: 8
bearing: -1.82232797146
intensity: 30.824262619
---
header: 
  seq: 434590
  stamp: 
    secs: 1561866789
    nsecs: 867268697
  frame_id: "ti_mmwave"
point_id: 19
x: 1.55078125
y: -0.349609375
z: -0.14453125
range: 1.69950187206
velocity: -0.614668667316
doppler_bin: 7
bearing: -12.7044200897
intensity: 26.637008667
---
header: 
  seq: 434591
  stamp: 
    secs: 1561866789
    nsecs: 867276638
  frame_id: "ti_mmwave"
point_id: 20
x: 1.568359375
y: -0.408203125
z: -0.228515625
range: 1.74307882786
velocity: -0.614668667316
doppler_bin: 7
bearing: -14.5889186859
intensity: 25.4777469635
---
header: 
  seq: 434592
  stamp: 
    secs: 1561866789
    nsecs: 867289186
  frame_id: "ti_mmwave"
point_id: 22
x: 0.041015625
y: -0.033203125
z: 0.0625
range: 0.0871539413929
velocity: 0.0
doppler_bin: 8
bearing: -38.9909973145
intensity: 30.0987567902
---
header: 
  seq: 434593
  stamp: 
    secs: 1561866789
    nsecs: 867301473
  frame_id: "ti_mmwave"
point_id: 23
x: 0.044921875
y: -0.046875
z: 0.103515625
range: 0.130730912089
velocity: 0.0
doppler_bin: 8
bearing: -46.218875885
intensity: 29.0036716461
---
header: 
  seq: 434594
  stamp: 
    secs: 1561866789
    nsecs: 867316793
  frame_id: "ti_mmwave"
point_id: 25
x: 2.73046875
y: -0.181640625
z: 0.97265625
range: 3.09396481514
velocity: 0.0
doppler_bin: 8
bearing: -3.80591416359
intensity: 31.0720996857
---
header: 
  seq: 434595
  stamp: 
    secs: 1561866789
    nsecs: 868748872
  frame_id: "ti_mmwave"
point_id: 0
x: 0.01171875
y: -0.0390625
z: -0.0078125
range: 0.0435769706964
velocity: 0.0
doppler_bin: 8
bearing: -73.3007583618
intensity: 30.6520614624
---
header: 
  seq: 434596
  stamp: 
    secs: 1561866789
    nsecs: 868795906
  frame_id: "ti_mmwave"
point_id: 1
x: 0.017578125
y: -0.080078125
z: -0.0078125
range: 0.0871539413929
velocity: 0.0
doppler_bin: 8
bearing: -77.6192398071
intensity: 31.9089164734
---
header: 
  seq: 434597
  stamp: 
    secs: 1561866789
    nsecs: 868806789
  frame_id: "ti_mmwave"
point_id: 2
x: 0.029296875
y: -0.119140625
z: -0.005859375
range: 0.130730912089
velocity: 0.0
doppler_bin: 8
bearing: -76.1849746704
intensity: 30.1325874329
---
header: 
  seq: 434598
  stamp: 
    secs: 1561866789
    nsecs: 868815346
  frame_id: "ti_mmwave"
point_id: 3
x: 0.056640625
y: -0.154296875
z: 0.005859375
range: 0.174307882786
velocity: 0.0
doppler_bin: 8
bearing: -69.8423843384
intensity: 25.4530715942
---
header: 
  seq: 434599
  stamp: 
    secs: 1561866789
    nsecs: 868825264
  frame_id: "ti_mmwave"
point_id: 4
x: 0.169921875
y: -0.080078125
z: 1.25390625
range: 1.35088610649
velocity: 0.0
doppler_bin: 8
bearing: -25.232831955
intensity: 23.138671875
---
header: 
  seq: 434600
  stamp: 
    secs: 1561866789
    nsecs: 868835019
  frame_id: "ti_mmwave"
point_id: 6
x: 0.421875
y: -0.083984375
z: -1.279296875
range: 1.43804001808
velocity: 0.0
doppler_bin: 8
bearing: -11.2589120865
intensity: 23.0749607086
---
header: 
  seq: 434601
  stamp: 
    secs: 1561866789
    nsecs: 868842936
  frame_id: "ti_mmwave"
point_id: 7
x: 2.61328125
y: -0.17578125
z: 1.052734375
range: 3.00681090355
velocity: 0.0
doppler_bin: 8
bearing: -3.84817934036
intensity: 28.9927310944
---
header: 
  seq: 434602
  stamp: 
    secs: 1561866789
    nsecs: 868850717
  frame_id: "ti_mmwave"
point_id: 8
x: 2.6875
y: -0.08984375
z: 0.982421875
range: 3.05038785934
velocity: 0.0
doppler_bin: 8
bearing: -1.91469812393
intensity: 32.1695709229
---
header: 
  seq: 434603
  stamp: 
    secs: 1561866789
    nsecs: 868859681
  frame_id: "ti_mmwave"
point_id: 9
x: 2.751953125
y: -0.08984375
z: 0.92578125
range: 3.09396481514
velocity: 0.0
doppler_bin: 8
bearing: -1.86988639832
intensity: 31.1360912323
---
header: 
  seq: 434604
  stamp: 
    secs: 1561866789
    nsecs: 868867743
  frame_id: "ti_mmwave"
point_id: 10
x: 4.2734375
y: -0.283203125
z: 1.509765625
range: 4.83704376221
velocity: 0.0
doppler_bin: 8
bearing: -3.79147982597
intensity: 27.3158874512
---
header: 
  seq: 434605
  stamp: 
    secs: 1561866789
    nsecs: 868875269
  frame_id: "ti_mmwave"
point_id: 11
x: 4.349609375
y: -0.142578125
z: 1.43359375
range: 4.88062095642
velocity: 0.0
doppler_bin: 8
bearing: -1.87745594978
intensity: 31.3225975037
---
header: 
  seq: 434606
  stamp: 
    secs: 1561866789
    nsecs: 868883180
  frame_id: "ti_mmwave"
point_id: 12
x: 4.3515625
y: -0.14453125
z: 1.552734375
range: 4.9241976738
velocity: 0.0
doppler_bin: 8
bearing: -1.90230250359
intensity: 31.0924091339
---
header: 
  seq: 434607
  stamp: 
    secs: 1561866789
    nsecs: 868891764
  frame_id: "ti_mmwave"
point_id: 13
x: 4.728515625
y: -0.44921875
z: -0.59375
range: 5.09850549698
velocity: 0.0
doppler_bin: 8
bearing: -5.42692995071
intensity: 33.3945159912
---
header: 
  seq: 434608
  stamp: 
    secs: 1561866789
    nsecs: 868899478
  frame_id: "ti_mmwave"
point_id: 14
x: 4.775390625
y: -0.30078125
z: -0.630859375
range: 5.14208269119
velocity: 0.0
doppler_bin: 8
bearing: -3.60405302048
intensity: 34.1329994202
---
header: 
  seq: 434609
  stamp: 
    secs: 1561866789
    nsecs: 868907414
  frame_id: "ti_mmwave"
point_id: 15
x: 4.80859375
y: -0.15234375
z: -0.736328125
range: 5.18565940857
velocity: 0.0
doppler_bin: 8
bearing: -1.81461262703
intensity: 30.9307136536
---
header: 
  seq: 434610
  stamp: 
    secs: 1561866789
    nsecs: 868919212
  frame_id: "ti_mmwave"
point_id: 16
x: 4.85546875
y: -0.154296875
z: 0.705078125
range: 5.22923660278
velocity: 0.0
doppler_bin: 8
bearing: -1.82013010979
intensity: 29.4101428986
---
header: 
  seq: 434611
  stamp: 
    secs: 1561866789
    nsecs: 868928671
  frame_id: "ti_mmwave"
point_id: 17
x: 4.86328125
y: -0.154296875
z: 0.908203125
range: 5.27281332016
velocity: 0.0
doppler_bin: 8
bearing: -1.8172082901
intensity: 31.1360912323
---
header: 
  seq: 434612
  stamp: 
    secs: 1561866789
    nsecs: 869001263
  frame_id: "ti_mmwave"
point_id: 18
x: 1.650390625
y: -0.16015625
z: -0.451171875
range: 1.83023273945
velocity: 0.614668667316
doppler_bin: 9
bearing: -5.54270887375
intensity: 25.0379066467
---
header: 
  seq: 434613
  stamp: 
    secs: 1561866789
    nsecs: 869010893
  frame_id: "ti_mmwave"
point_id: 19
x: 1.6953125
y: -0.220703125
z: -0.412109375
range: 1.87380969524
velocity: 0.614668667316
doppler_bin: 9
bearing: -7.41729784012
intensity: 24.440448761
---
header: 
  seq: 434614
  stamp: 
    secs: 1561866789
    nsecs: 869020235
  frame_id: "ti_mmwave"
point_id: 20
x: 1.619140625
y: -0.60546875
z: -0.328125
range: 1.87380969524
velocity: -1.22933733463
doppler_bin: 6
bearing: -20.5030078888
intensity: 24.393327713
---
header: 
  seq: 434615
  stamp: 
    secs: 1561866789
    nsecs: 869028474
  frame_id: "ti_mmwave"
point_id: 21
x: 1.453125
y: -0.42578125
z: 0.015625
range: 1.61234796047
velocity: -0.614668667316
doppler_bin: 7
bearing: -16.3311519623
intensity: 25.8883171082
---
header: 
  seq: 434616
  stamp: 
    secs: 1561866789
    nsecs: 869036539
  frame_id: "ti_mmwave"
point_id: 22
x: 1.4921875
y: -0.4375
z: -0.0078125
range: 1.65592491627
velocity: -0.614668667316
doppler_bin: 7
bearing: -16.3408050537
intensity: 30.6520614624
---
header: 
  seq: 434617
  stamp: 
    secs: 1561866789
    nsecs: 869045501
  frame_id: "ti_mmwave"
point_id: 23
x: 1.53125
y: -0.44921875
z: -0.015625
range: 1.69950187206
velocity: -0.614668667316
doppler_bin: 7
bearing: -16.3499660492
intensity: 31.2188796997
---
header: 
  seq: 434618
  stamp: 
    secs: 1561866789
    nsecs: 869053818
  frame_id: "ti_mmwave"
point_id: 24
x: 1.53515625
y: -0.51171875
z: 0.248046875
range: 1.74307882786
velocity: -0.614668667316
doppler_bin: 7
bearing: -18.4349479675
intensity: 27.0842094421
---
header: 
  seq: 434619
  stamp: 
    secs: 1561866789
    nsecs: 869064310
  frame_id: "ti_mmwave"
point_id: 26
x: 0.041015625
y: -0.033203125
z: 0.0625
range: 0.0871539413929
velocity: 0.0
doppler_bin: 8
bearing: -38.9909973145
intensity: 30.0945091248
---
header: 
  seq: 434620
  stamp: 
    secs: 1561866789
    nsecs: 869073591
  frame_id: "ti_mmwave"
point_id: 27
x: 0.044921875
y: -0.046875
z: 0.103515625
range: 0.130730912089
velocity: 0.0
doppler_bin: 8
bearing: -46.218875885
intensity: 29.0036716461
---
header: 
  seq: 434621
  stamp: 
    secs: 1561866789
    nsecs: 869083478
  frame_id: "ti_mmwave"
point_id: 29
x: 4.744140625
y: -0.150390625
z: -0.607421875
range: 5.09850549698
velocity: 0.0
doppler_bin: 8
bearing: -1.81568455696
intensity: 33.3745918274
---
header: 
  seq: 434622
  stamp: 
    secs: 1561866789
    nsecs: 869094155
  frame_id: "ti_mmwave"
point_id: 30
x: 1.58203125
y: -0.71484375
z: -0.28125
range: 1.87380969524
velocity: -1.22933733463
doppler_bin: 6
bearing: -24.3159198761
intensity: 24.3456897736
---
header: 
  seq: 434623
  stamp: 
    secs: 1561866789
    nsecs: 927302488
  frame_id: "ti_mmwave"
point_id: 0
x: 0.01171875
y: -0.0390625
z: -0.0078125
range: 0.0435769706964
velocity: 0.0
doppler_bin: 8
bearing: -73.3007583618
intensity: 30.6520614624
---
header: 
  seq: 434624
  stamp: 
    secs: 1561866789
    nsecs: 927379669
  frame_id: "ti_mmwave"
point_id: 1
x: 0.017578125
y: -0.080078125
z: -0.0078125
range: 0.0871539413929
velocity: 0.0
doppler_bin: 8
bearing: -77.6192398071
intensity: 31.9145107269
---
header: 
  seq: 434625
  stamp: 
    secs: 1561866789
    nsecs: 927391196
  frame_id: "ti_mmwave"
point_id: 2
x: 0.029296875
y: -0.119140625
z: -0.005859375
range: 0.130730912089
velocity: 0.0
doppler_bin: 8
bearing: -76.1849746704
intensity: 30.1452045441
---
header: 
  seq: 434626
  stamp: 
    secs: 1561866789
    nsecs: 927401987
  frame_id: "ti_mmwave"
point_id: 3
x: 0.056640625
y: -0.154296875
z: 0.005859375
range: 0.174307882786
velocity: 0.0
doppler_bin: 8
bearing: -69.8423843384
intensity: 25.4654273987
---
header: 
  seq: 434627
  stamp: 
    secs: 1561866789
    nsecs: 927411078
  frame_id: "ti_mmwave"
point_id: 4
x: 0.05078125
y: -0.080078125
z: 1.263671875
range: 1.35088610649
velocity: 0.0
doppler_bin: 8
bearing: -57.6193237305
intensity: 23.0963020325
---
header: 
  seq: 434628
  stamp: 
    secs: 1561866789
    nsecs: 927419306
  frame_id: "ti_mmwave"
point_id: 5
x: 0.0546875
y: -0.08203125
z: -1.3046875
range: 1.39446306229
velocity: 0.0
doppler_bin: 8
bearing: -56.3099327087
intensity: 24.6089782715
---
header: 
  seq: 434629
  stamp: 
    secs: 1561866789
    nsecs: 927427385
  frame_id: "ti_mmwave"
point_id: 6
x: 0.4375
y: -0.083984375
z: -1.2734375
range: 1.43804001808
velocity: 0.0
doppler_bin: 8
bearing: -10.8665513992
intensity: 23.0749607086
---
header: 
  seq: 434630
  stamp: 
    secs: 1561866789
    nsecs: 927435764
  frame_id: "ti_mmwave"
point_id: 7
x: 0.5625
y: -0.04296875
z: -1.271484375
range: 1.48161697388
velocity: 0.0
doppler_bin: 8
bearing: -4.36827754974
intensity: 21.6731739044
---
header: 
  seq: 434631
  stamp: 
    secs: 1561866789
    nsecs: 927444280
  frame_id: "ti_mmwave"
point_id: 8
x: 2.62109375
y: -0.17578125
z: 1.033203125
range: 3.00681090355
velocity: 0.0
doppler_bin: 8
bearing: -3.83674383163
intensity: 29.0091304779
---
header: 
  seq: 434632
  stamp: 
    secs: 1561866789
    nsecs: 927454056
  frame_id: "ti_mmwave"
point_id: 9
x: 2.6640625
y: -0.1796875
z: 1.03515625
range: 3.05038785934
velocity: 0.0
doppler_bin: 8
bearing: -3.85868024826
intensity: 32.1484375
---
header: 
  seq: 434633
  stamp: 
    secs: 1561866789
    nsecs: 927462750
  frame_id: "ti_mmwave"
point_id: 10
x: 2.755859375
y: -0.08984375
z: 0.912109375
range: 3.09396481514
velocity: 0.0
doppler_bin: 8
bearing: -1.86723792553
intensity: 31.1594314575
---
header: 
  seq: 434634
  stamp: 
    secs: 1561866789
    nsecs: 927472257
  frame_id: "ti_mmwave"
point_id: 11
x: 4.265625
y: -0.283203125
z: 1.53125
range: 4.83704376221
velocity: 0.0
doppler_bin: 8
bearing: -3.79840397835
intensity: 27.5739593506
---
header: 
  seq: 434635
  stamp: 
    secs: 1561866789
    nsecs: 927481248
  frame_id: "ti_mmwave"
point_id: 12
x: 4.3515625
y: -0.142578125
z: 1.42578125
range: 4.88062095642
velocity: 0.0
doppler_bin: 8
bearing: -1.87661409378
intensity: 31.383026123
---
header: 
  seq: 434636
  stamp: 
    secs: 1561866789
    nsecs: 927489362
  frame_id: "ti_mmwave"
point_id: 13
x: 4.349609375
y: -0.14453125
z: 1.556640625
range: 4.9241976738
velocity: 0.0
doppler_bin: 8
bearing: -1.90315580368
intensity: 31.0788803101
---
header: 
  seq: 434637
  stamp: 
    secs: 1561866789
    nsecs: 927498199
  frame_id: "ti_mmwave"
point_id: 14
x: 4.73828125
y: -0.298828125
z: -0.609375
range: 5.09850549698
velocity: 0.0
doppler_bin: 8
bearing: -3.60868048668
intensity: 32.7091178894
---
header: 
  seq: 434638
  stamp: 
    secs: 1561866789
    nsecs: 927509686
  frame_id: "ti_mmwave"
point_id: 15
x: 4.783203125
y: -0.150390625
z: -0.634765625
range: 5.14208269119
velocity: 0.0
doppler_bin: 8
bearing: -1.80086648464
intensity: 33.3162956238
---
header: 
  seq: 434639
  stamp: 
    secs: 1561866789
    nsecs: 927673264
  frame_id: "ti_mmwave"
point_id: 16
x: 4.8046875
y: -0.15234375
z: -0.767578125
range: 5.18565940857
velocity: 0.0
doppler_bin: 8
bearing: -1.81608688831
intensity: 29.5999488831
---
header: 
  seq: 434640
  stamp: 
    secs: 1561866789
    nsecs: 927692514
  frame_id: "ti_mmwave"
point_id: 17
x: 4.841796875
y: -0.154296875
z: 0.796875
range: 5.22923660278
velocity: 0.0
doppler_bin: 8
bearing: -1.82526648045
intensity: 29.4743366241
---
header: 
  seq: 434641
  stamp: 
    secs: 1561866789
    nsecs: 927701091
  frame_id: "ti_mmwave"
point_id: 18
x: 4.853515625
y: -0.30859375
z: 0.923828125
range: 5.27281332016
velocity: 0.0
doppler_bin: 8
bearing: -3.63805365562
intensity: 31.0482845306
---
header: 
  seq: 434642
  stamp: 
    secs: 1561866789
    nsecs: 927714237
  frame_id: "ti_mmwave"
point_id: 19
x: 1.44921875
y: -0.42578125
z: 0.099609375
range: 1.61234796047
velocity: -0.614668667316
doppler_bin: 7
bearing: -16.3728160858
intensity: 26.1172332764
---
header: 
  seq: 434643
  stamp: 
    secs: 1561866789
    nsecs: 927719623
  frame_id: "ti_mmwave"
point_id: 20
x: 1.490234375
y: -0.4375
z: 0.07421875
range: 1.65592491627
velocity: -0.614668667316
doppler_bin: 7
bearing: -16.361076355
intensity: 27.8318862915
---
header: 
  seq: 434644
  stamp: 
    secs: 1561866789
    nsecs: 927745394
  frame_id: "ti_mmwave"
point_id: 21
x: 1.52734375
y: -0.44921875
z: 0.09765625
range: 1.69950187206
velocity: -0.614668667316
doppler_bin: 7
bearing: -16.389541626
intensity: 26.0530509949
---
header: 
  seq: 434645
  stamp: 
    secs: 1561866789
    nsecs: 927764119
  frame_id: "ti_mmwave"
point_id: 23
x: 0.041015625
y: -0.033203125
z: 0.0625
range: 0.0871539413929
velocity: 0.0
doppler_bin: 8
bearing: -38.9909973145
intensity: 30.1029987335
---
header: 
  seq: 434646
  stamp: 
    secs: 1561866789
    nsecs: 927774532
  frame_id: "ti_mmwave"
point_id: 24
x: 0.046875
y: -0.046875
z: 0.103515625
range: 0.130730912089
velocity: 0.0
doppler_bin: 8
bearing: -45.0
intensity: 29.0145835876
---
header: 
  seq: 434647
  stamp: 
    secs: 1561866789
    nsecs: 986715104
  frame_id: "ti_mmwave"
point_id: 0
x: 0.01171875
y: -0.0390625
z: -0.0078125
range: 0.0435769706964
velocity: 0.0
doppler_bin: 8
bearing: -73.3007583618
intensity: 30.6557979584
---
header: 
  seq: 434648
  stamp: 
    secs: 1561866789
    nsecs: 986794967
  frame_id: "ti_mmwave"
point_id: 1
x: 0.017578125
y: -0.080078125
z: -0.0078125
range: 0.0871539413929
velocity: 0.0
doppler_bin: 8
bearing: -77.6192398071
intensity: 31.9145107269
---
header: 
  seq: 434649
  stamp: 
    secs: 1561866789
    nsecs: 986813686
  frame_id: "ti_mmwave"
point_id: 2
x: 0.029296875
y: -0.119140625
z: -0.005859375
range: 0.130730912089
velocity: 0.0
doppler_bin: 8
bearing: -76.1849746704
intensity: 30.141002655
---
header: 
  seq: 434650
  stamp: 
    secs: 1561866789
    nsecs: 986830765
  frame_id: "ti_mmwave"
point_id: 3
x: 0.056640625
y: -0.154296875
z: 0.005859375
range: 0.174307882786
velocity: 0.0
doppler_bin: 8
bearing: -69.8423843384
intensity: 25.4654273987
---
header: 
  seq: 434651
  stamp: 
    secs: 1561866789
    nsecs: 986849369
  frame_id: "ti_mmwave"
point_id: 4
x: 0.140625
y: -0.080078125
z: 1.2578125
range: 1.35088610649
velocity: 0.0
doppler_bin: 8
bearing: -29.6591091156
intensity: 23.0963020325
---
header: 
  seq: 434652
  stamp: 
    secs: 1561866789
    nsecs: 986865609
  frame_id: "ti_mmwave"
point_id: 5
x: 0.046875
y: -0.08203125
z: 1.3046875
range: 1.39446306229
velocity: 0.0
doppler_bin: 8
bearing: -60.255115509
intensity: 24.6239795685
---
header: 
  seq: 434653
  stamp: 
    secs: 1561866789
    nsecs: 986881425
  frame_id: "ti_mmwave"
point_id: 6
x: 0.392578125
y: -0.083984375
z: -1.2890625
range: 1.43804001808
velocity: 0.0
doppler_bin: 8
bearing: -12.0752887726
intensity: 23.0749607086
---
header: 
  seq: 434654
  stamp: 
    secs: 1561866789
    nsecs: 986897587
  frame_id: "ti_mmwave"
point_id: 7
x: 0.560546875
y: -0.04296875
z: -1.271484375
range: 1.48161697388
velocity: 0.0
doppler_bin: 8
bearing: -4.38343858719
intensity: 21.6731739044
---
header: 
  seq: 434655
  stamp: 
    secs: 1561866789
    nsecs: 986912682
  frame_id: "ti_mmwave"
point_id: 8
x: 1.54296875
y: -0.3984375
z: -0.0546875
range: 1.69950187206
velocity: 0.0
doppler_bin: 8
bearing: -14.4790687561
intensity: 27.1180725098
---
header: 
  seq: 434656
  stamp: 
    secs: 1561866789
    nsecs: 986929619
  frame_id: "ti_mmwave"
point_id: 9
x: 2.61328125
y: -0.17578125
z: 1.05078125
range: 3.00681090355
velocity: 0.0
doppler_bin: 8
bearing: -3.84817934036
intensity: 29.0687351227
---
header: 
  seq: 434657
  stamp: 
    secs: 1561866789
    nsecs: 986939984
  frame_id: "ti_mmwave"
point_id: 10
x: 2.69140625
y: -0.08984375
z: 0.97265625
range: 3.05038785934
velocity: 0.0
doppler_bin: 8
bearing: -1.91192126274
intensity: 32.2427406311
---
header: 
  seq: 434658
  stamp: 
    secs: 1561866789
    nsecs: 987113895
  frame_id: "ti_mmwave"
point_id: 11
x: 2.7578125
y: -0.08984375
z: 0.904296875
range: 3.09396481514
velocity: 0.0
doppler_bin: 8
bearing: -1.86591637135
intensity: 31.2483005524
---
header: 
  seq: 434659
  stamp: 
    secs: 1561866789
    nsecs: 987132234
  frame_id: "ti_mmwave"
point_id: 12
x: 4.2734375
y: -0.283203125
z: 1.505859375
range: 4.83704376221
velocity: 0.0
doppler_bin: 8
bearing: -3.79147982597
intensity: 27.6267852783
---
header: 
  seq: 434660
  stamp: 
    secs: 1561866789
    nsecs: 987140592
  frame_id: "ti_mmwave"
point_id: 13
x: 4.361328125
y: -0.142578125
z: 1.396484375
range: 4.88062095642
velocity: 0.0
doppler_bin: 8
bearing: -1.87241506577
intensity: 31.4019374847
---
header: 
  seq: 434661
  stamp: 
    secs: 1561866789
    nsecs: 987149472
  frame_id: "ti_mmwave"
point_id: 14
x: 4.3515625
y: -0.14453125
z: 1.552734375
range: 4.9241976738
velocity: 0.0
doppler_bin: 8
bearing: -1.90230250359
intensity: 30.9898967743
---
header: 
  seq: 434662
  stamp: 
    secs: 1561866789
    nsecs: 987162368
  frame_id: "ti_mmwave"
point_id: 15
x: 4.7421875
y: -0.298828125
z: -0.568359375
range: 5.09850549698
velocity: 0.0
doppler_bin: 8
bearing: -3.60571622849
intensity: 33.1090545654
---
header: 
  seq: 434663
  stamp: 
    secs: 1561866789
    nsecs: 987173708
  frame_id: "ti_mmwave"
point_id: 16
x: 4.779296875
y: -0.30078125
z: -0.611328125
range: 5.14208269119
velocity: 0.0
doppler_bin: 8
bearing: -3.60111522675
intensity: 33.6248245239
---
header: 
  seq: 434664
  stamp: 
    secs: 1561866789
    nsecs: 987185429
  frame_id: "ti_mmwave"
point_id: 17
x: 4.79296875
y: -0.15234375
z: -0.833984375
range: 5.18565940857
velocity: 0.0
doppler_bin: 8
bearing: -1.8205242157
intensity: 29.5327625275
---
header: 
  seq: 434665
  stamp: 
    secs: 1561866789
    nsecs: 987196639
  frame_id: "ti_mmwave"
point_id: 18
x: 4.85546875
y: -0.154296875
z: 0.951171875
range: 5.27281332016
velocity: 0.0
doppler_bin: 8
bearing: -1.82013010979
intensity: 30.8635978699
---
header: 
  seq: 434666
  stamp: 
    secs: 1561866789
    nsecs: 987210126
  frame_id: "ti_mmwave"
point_id: 19
x: 1.375
y: -0.4140625
z: 0.326171875
range: 1.56877088547
velocity: -0.614668667316
doppler_bin: 7
bearing: -16.7589588165
intensity: 23.9619941711
---
header: 
  seq: 434667
  stamp: 
    secs: 1561866789
    nsecs: 987223371
  frame_id: "ti_mmwave"
point_id: 20
x: 1.431640625
y: -0.42578125
z: 0.25
range: 1.61234796047
velocity: -0.614668667316
doppler_bin: 7
bearing: -16.5628948212
intensity: 28.6391735077
---
header: 
  seq: 434668
  stamp: 
    secs: 1561866789
    nsecs: 987301960
  frame_id: "ti_mmwave"
point_id: 21
x: 1.484375
y: -0.4375
z: 0.14453125
range: 1.65592491627
velocity: -0.614668667316
doppler_bin: 7
bearing: -16.4221878052
intensity: 29.8362636566
---
header: 
  seq: 434669
  stamp: 
    secs: 1561866789
    nsecs: 987317156
  frame_id: "ti_mmwave"
point_id: 22
x: 0.009765625
y: 0.03125
z: 0.025390625
range: 0.0435769706964
velocity: 0.0
doppler_bin: 8
bearing: 72.6459732056
intensity: 29.2992954254
---
header: 
  seq: 434670
  stamp: 
    secs: 1561866789
    nsecs: 987330967
  frame_id: "ti_mmwave"
point_id: 23
x: 0.041015625
y: -0.033203125
z: 0.0625
range: 0.0871539413929
velocity: 0.0
doppler_bin: 8
bearing: -38.9909973145
intensity: 30.1029987335
---
header: 
  seq: 434671
  stamp: 
    secs: 1561866789
    nsecs: 987341634
  frame_id: "ti_mmwave"
point_id: 24
x: 0.044921875
y: -0.046875
z: 0.103515625
range: 0.130730912089
velocity: 0.0
doppler_bin: 8
bearing: -46.218875885
intensity: 29.0145835876
---
header: 
  seq: 434672
  stamp: 
    secs: 1561866789
    nsecs: 987354467
  frame_id: "ti_mmwave"
point_id: 26
x: 1.03515625
y: 1.046875
z: -0.61328125
range: 1.69950187206
velocity: 0.0
doppler_bin: 8
bearing: 45.3224868774
intensity: 24.5939254761
---
header: 
  seq: 434673
  stamp: 
    secs: 1561866789
    nsecs: 988614775
  frame_id: "ti_mmwave"
point_id: 0
x: 0.01171875
y: -0.0390625
z: -0.0078125
range: 0.0435769706964
velocity: 0.0
doppler_bin: 8
bearing: -73.3007583618
intensity: 30.6557979584
---
header: 
  seq: 434674
  stamp: 
    secs: 1561866789
    nsecs: 988723514
  frame_id: "ti_mmwave"
point_id: 1
x: 0.017578125
y: -0.080078125
z: -0.0078125
range: 0.0871539413929
velocity: 0.0
doppler_bin: 8
bearing: -77.6192398071
intensity: 31.9117145538
---
header: 
  seq: 434675
  stamp: 
    secs: 1561866789
    nsecs: 988747084
  frame_id: "ti_mmwave"
point_id: 2
x: 0.029296875
y: -0.119140625
z: -0.005859375
range: 0.130730912089
velocity: 0.0
doppler_bin: 8
bearing: -76.1849746704
intensity: 30.141002655
---
header: 
  seq: 434676
  stamp: 
    secs: 1561866789
    nsecs: 988761421
  frame_id: "ti_mmwave"
point_id: 3
x: 0.056640625
y: -0.154296875
z: 0.005859375
range: 0.174307882786
velocity: 0.0
doppler_bin: 8
bearing: -69.8423843384
intensity: 25.4530715942
---
header: 
  seq: 434677
  stamp: 
    secs: 1561866789
    nsecs: 988775055
  frame_id: "ti_mmwave"
point_id: 4
x: 0.205078125
y: -0.080078125
z: 1.248046875
range: 1.35088610649
velocity: 0.0
doppler_bin: 8
bearing: -21.3294620514
intensity: 23.1175384521
---
header: 
  seq: 434678
  stamp: 
    secs: 1561866789
    nsecs: 988873369
  frame_id: "ti_mmwave"
point_id: 5
x: 0.111328125
y: -0.08203125
z: 1.30078125
range: 1.39446306229
velocity: 0.0
doppler_bin: 8
bearing: -36.3843536377
intensity: 24.6389293671
---
header: 
  seq: 434679
  stamp: 
    secs: 1561866789
    nsecs: 988891842
  frame_id: "ti_mmwave"
point_id: 6
x: 0.396484375
y: -0.083984375
z: -1.287109375
range: 1.43804001808
velocity: 0.0
doppler_bin: 8
bearing: -11.9597616196
intensity: 23.1175384521
---
header: 
  seq: 434680
  stamp: 
    secs: 1561866789
    nsecs: 988904776
  frame_id: "ti_mmwave"
point_id: 7
x: 2.615234375
y: -0.17578125
z: 1.044921875
range: 3.00681090355
velocity: 0.0
doppler_bin: 8
bearing: -3.84531402588
intensity: 29.0363254547
---
header: 
  seq: 434681
  stamp: 
    secs: 1561866789
    nsecs: 988925033
  frame_id: "ti_mmwave"
point_id: 8
x: 2.662109375
y: -0.1796875
z: 1.037109375
range: 3.05038785934
velocity: 0.0
doppler_bin: 8
bearing: -3.86150240898
intensity: 32.2271652222
---
header: 
  seq: 434682
  stamp: 
    secs: 1561866789
    nsecs: 988944014
  frame_id: "ti_mmwave"
point_id: 9
x: 2.76171875
y: -0.08984375
z: 0.89453125
range: 3.09396481514
velocity: 0.0
doppler_bin: 8
bearing: -1.86327898502
intensity: 31.2872219086
---
header: 
  seq: 434683
  stamp: 
    secs: 1561866789
    nsecs: 988956634
  frame_id: "ti_mmwave"
point_id: 10
x: 4.275390625
y: -0.142578125
z: 1.525390625
range: 4.83704376221
velocity: 0.0
doppler_bin: 8
bearing: -1.91002392769
intensity: 27.5966777802
---
header: 
  seq: 434684
  stamp: 
    secs: 1561866789
    nsecs: 988969353
  frame_id: "ti_mmwave"
point_id: 11
x: 4.357421875
y: -0.142578125
z: 1.41015625
range: 4.88062095642
velocity: 0.0
doppler_bin: 8
bearing: -1.87409222126
intensity: 31.383026123
---
header: 
  seq: 434685
  stamp: 
    secs: 1561866789
    nsecs: 988986400
  frame_id: "ti_mmwave"
point_id: 12
x: 4.353515625
y: -0.14453125
z: 1.548828125
range: 4.9241976738
velocity: 0.0
doppler_bin: 8
bearing: -1.90144956112
intensity: 31.0653076172
---
header: 
  seq: 434686
  stamp: 
    secs: 1561866789
    nsecs: 989001669
  frame_id: "ti_mmwave"
point_id: 13
x: 4.7265625
y: -0.44921875
z: -0.60546875
range: 5.09850549698
velocity: 0.0
doppler_bin: 8
bearing: -5.42915868759
intensity: 33.3364868164
---
header: 
  seq: 434687
  stamp: 
    secs: 1561866789
    nsecs: 989070121
  frame_id: "ti_mmwave"
point_id: 14
x: 4.77734375
y: -0.30078125
z: -0.62109375
range: 5.14208269119
velocity: 0.0
doppler_bin: 8
bearing: -3.60258316994
intensity: 33.92345047
---
header: 
  seq: 434688
  stamp: 
    secs: 1561866789
    nsecs: 989088626
  frame_id: "ti_mmwave"
point_id: 15
x: 4.794921875
y: -0.15234375
z: -0.82421875
range: 5.18565940857
velocity: 0.0
doppler_bin: 8
bearing: -1.81978332996
intensity: 29.9122600555
---
header: 
  seq: 434689
  stamp: 
    secs: 1561866789
    nsecs: 989102550
  frame_id: "ti_mmwave"
point_id: 16
x: 4.826171875
y: -0.154296875
z: 1.0859375
range: 5.27281332016
velocity: 0.0
doppler_bin: 8
bearing: -1.83117175102
intensity: 31.020904541
---
header: 
  seq: 434690
  stamp: 
    secs: 1561866789
    nsecs: 989116871
  frame_id: "ti_mmwave"
point_id: 17
x: 1.455078125
y: -0.6484375
z: -0.08984375
range: 1.69950187206
velocity: -1.22933733463
doppler_bin: 6
bearing: -24.0195484161
intensity: 25.6110134125
---
header: 
  seq: 434691
  stamp: 
    secs: 1561866789
    nsecs: 989128668
  frame_id: "ti_mmwave"
point_id: 18
x: 1.4921875
y: -0.6640625
z: -0.08203125
range: 1.74307882786
velocity: -1.22933733463
doppler_bin: 6
bearing: -23.990316391
intensity: 25.0920257568
---
header: 
  seq: 434692
  stamp: 
    secs: 1561866789
    nsecs: 989142746
  frame_id: "ti_mmwave"
point_id: 19
x: 1.39453125
y: -0.4609375
z: 0.11328125
range: 1.56877088547
velocity: -0.614668667316
doppler_bin: 7
bearing: -18.2903842926
intensity: 25.5990657806
---
header: 
  seq: 434693
  stamp: 
    secs: 1561866789
    nsecs: 989156038
  frame_id: "ti_mmwave"
point_id: 20
x: 1.4296875
y: -0.47265625
z: 0.154296875
range: 1.61234796047
velocity: -0.614668667316
doppler_bin: 7
bearing: -18.2939434052
intensity: 27.7011528015
---
header: 
  seq: 434694
  stamp: 
    secs: 1561866789
    nsecs: 989167942
  frame_id: "ti_mmwave"
point_id: 21
x: 1.42578125
y: -0.53515625
z: 0.310546875
range: 1.65592491627
velocity: -0.614668667316
doppler_bin: 7
bearing: -20.5732460022
intensity: 25.9879055023
---
header: 
  seq: 434695
  stamp: 
    secs: 1561866789
    nsecs: 989186371
  frame_id: "ti_mmwave"
point_id: 23
x: 0.041015625
y: -0.033203125
z: 0.0625
range: 0.0871539413929
velocity: 0.0
doppler_bin: 8
bearing: -38.9909973145
intensity: 30.1029987335
---
header: 
  seq: 434696
  stamp: 
    secs: 1561866789
    nsecs: 989279972
  frame_id: "ti_mmwave"
point_id: 24
x: 0.044921875
y: -0.046875
z: 0.103515625
range: 0.130730912089
velocity: 0.0
doppler_bin: 8
bearing: -46.218875885
intensity: 29.0091304779
---
header: 
  seq: 434697
  stamp: 
    secs: 1561866790
    nsecs:  46998393
  frame_id: "ti_mmwave"
point_id: 0
x: 0.01171875
y: -0.0390625
z: -0.0078125
range: 0.0435769706964
velocity: 0.0
doppler_bin: 8
bearing: -73.3007583618
intensity: 30.6557979584
---
header: 
  seq: 434698
  stamp: 
    secs: 1561866790
    nsecs:  47070578
  frame_id: "ti_mmwave"
point_id: 1
x: 0.017578125
y: -0.080078125
z: -0.0078125
range: 0.0871539413929
velocity: 0.0
doppler_bin: 8
bearing: -77.6192398071
intensity: 31.9145107269
---
header: 
  seq: 434699
  stamp: 
    secs: 1561866790
    nsecs:  47082045
  frame_id: "ti_mmwave"
point_id: 2
x: 0.029296875
y: -0.119140625
z: -0.005859375
range: 0.130730912089
velocity: 0.0
doppler_bin: 8
bearing: -76.1849746704
intensity: 30.1367969513
---
header: 
  seq: 434700
  stamp: 
    secs: 1561866790
    nsecs:  47091297
  frame_id: "ti_mmwave"
point_id: 3
x: 0.056640625
y: -0.154296875
z: 0.005859375
range: 0.174307882786
velocity: 0.0
doppler_bin: 8
bearing: -69.8423843384
intensity: 25.4530715942
---
header: 
  seq: 434701
  stamp: 
    secs: 1561866790
    nsecs:  47104935
  frame_id: "ti_mmwave"
point_id: 4
x: 0.107421875
y: -0.080078125
z: 1.26171875
range: 1.35088610649
velocity: 0.0
doppler_bin: 8
bearing: -36.7028541565
intensity: 23.0749607086
---
header: 
  seq: 434702
  stamp: 
    secs: 1561866790
    nsecs:  47118006
  frame_id: "ti_mmwave"
point_id: 5
x: 0.03515625
y: -0.08203125
z: 1.306640625
range: 1.39446306229
velocity: 0.0
doppler_bin: 8
bearing: -66.8014068604
intensity: 24.5939254761
---
header: 
  seq: 434703
  stamp: 
    secs: 1561866790
    nsecs:  47130565
  frame_id: "ti_mmwave"
point_id: 6
x: 0.419921875
y: -0.083984375
z: -1.28125
range: 1.43804001808
velocity: 0.0
doppler_bin: 8
bearing: -11.3099327087
intensity: 23.0749607086
---
header: 
  seq: 434704
  stamp: 
    secs: 1561866790
    nsecs:  47141306
  frame_id: "ti_mmwave"
point_id: 7
x: 2.6484375
y: -0.087890625
z: 0.970703125
range: 3.00681090355
velocity: 0.0
doppler_bin: 8
bearing: -1.90071105957
intensity: 28.9927310944
---
header: 
  seq: 434705
  stamp: 
    secs: 1561866790
    nsecs:  47186185
  frame_id: "ti_mmwave"
point_id: 8
x: 2.689453125
y: -0.08984375
z: 0.98046875
range: 3.05038785934
velocity: 0.0
doppler_bin: 8
bearing: -1.91330885887
intensity: 32.2141418457
---
header: 
  seq: 434706
  stamp: 
    secs: 1561866790
    nsecs:  47269636
  frame_id: "ti_mmwave"
point_id: 9
x: 2.751953125
y: -0.08984375
z: 0.92578125
range: 3.09396481514
velocity: 0.0
doppler_bin: 8
bearing: -1.86988639832
intensity: 31.1826477051
---
header: 
  seq: 434707
  stamp: 
    secs: 1561866790
    nsecs:  47281166
  frame_id: "ti_mmwave"
point_id: 10
x: 4.31640625
y: -0.142578125
z: 1.404296875
range: 4.83704376221
velocity: 0.0
doppler_bin: 8
bearing: -1.89188766479
intensity: 27.3957233429
---
header: 
  seq: 434708
  stamp: 
    secs: 1561866790
    nsecs:  47312051
  frame_id: "ti_mmwave"
point_id: 11
x: 4.384765625
y: -0.142578125
z: 1.318359375
range: 4.88062095642
velocity: 0.0
doppler_bin: 8
bearing: -1.862413764
intensity: 31.2742881775
---
header: 
  seq: 434709
  stamp: 
    secs: 1561866790
    nsecs:  47323915
  frame_id: "ti_mmwave"
point_id: 12
x: 4.380859375
y: -0.14453125
z: 1.46875
range: 4.9241976738
velocity: 0.0
doppler_bin: 8
bearing: -1.88959002495
intensity: 30.8955192566
---
header: 
  seq: 434710
  stamp: 
    secs: 1561866790
    nsecs:  47335573
  frame_id: "ti_mmwave"
point_id: 13
x: 4.73828125
y: -0.298828125
z: -0.60546875
range: 5.09850549698
velocity: 0.0
doppler_bin: 8
bearing: -3.60868048668
intensity: 33.6772842407
---
header: 
  seq: 434711
  stamp: 
    secs: 1561866790
    nsecs:  47348508
  frame_id: "ti_mmwave"
point_id: 14
x: 4.775390625
y: -0.30078125
z: -0.6328125
range: 5.14208269119
velocity: 0.0
doppler_bin: 8
bearing: -3.60405302048
intensity: 34.2143936157
---
header: 
  seq: 434712
  stamp: 
    secs: 1561866790
    nsecs:  47359806
  frame_id: "ti_mmwave"
point_id: 15
x: 4.779296875
y: -0.3046875
z: -0.87109375
range: 5.18565940857
velocity: 0.0
doppler_bin: 8
bearing: -3.64775729179
intensity: 30.3981056213
---
header: 
  seq: 434713
  stamp: 
    secs: 1561866790
    nsecs:  47376250
  frame_id: "ti_mmwave"
point_id: 16
x: 4.837890625
y: -0.154296875
z: 1.03515625
range: 5.27281332016
velocity: 0.0
doppler_bin: 8
bearing: -1.82673919201
intensity: 31.0243377686
---
header: 
  seq: 434714
  stamp: 
    secs: 1561866790
    nsecs:  47386086
  frame_id: "ti_mmwave"
point_id: 17
x: 1.431640625
y: -0.697265625
z: -0.1015625
range: 1.69950187206
velocity: -1.22933733463
doppler_bin: 6
bearing: -25.9679145813
intensity: 25.9879055023
---
header: 
  seq: 434715
  stamp: 
    secs: 1561866790
    nsecs:  47450526
  frame_id: "ti_mmwave"
point_id: 18
x: 1.4765625
y: -0.6640625
z: -0.232421875
range: 1.74307882786
velocity: -1.22933733463
doppler_bin: 6
bearing: -24.215139389
intensity: 24.683473587
---
header: 
  seq: 434716
  stamp: 
    secs: 1561866790
    nsecs:  47467832
  frame_id: "ti_mmwave"
point_id: 19
x: 1.41015625
y: -0.4140625
z: -0.10546875
range: 1.56877088547
velocity: -0.614668667316
doppler_bin: 7
bearing: -16.3637580872
intensity: 25.6110134125
---
header: 
  seq: 434717
  stamp: 
    secs: 1561866790
    nsecs:  47480768
  frame_id: "ti_mmwave"
point_id: 20
x: 1.44140625
y: -0.42578125
z: -0.1796875
range: 1.61234796047
velocity: -0.614668667316
doppler_bin: 7
bearing: -16.4567680359
intensity: 28.1690387726
---
header: 
  seq: 434718
  stamp: 
    secs: 1561866790
    nsecs:  47493103
  frame_id: "ti_mmwave"
point_id: 21
x: 1.4765625
y: -0.33984375
z: -0.349609375
range: 1.65592491627
velocity: -0.614668667316
doppler_bin: 7
bearing: -12.9614019394
intensity: 27.7158756256
---
header: 
  seq: 434719
  stamp: 
    secs: 1561866790
    nsecs:  47509973
  frame_id: "ti_mmwave"
point_id: 23
x: 0.041015625
y: -0.033203125
z: 0.0625
range: 0.0871539413929
velocity: 0.0
doppler_bin: 8
bearing: -38.9909973145
intensity: 30.1029987335
---
header: 
  seq: 434720
  stamp: 
    secs: 1561866790
    nsecs:  47523936
  frame_id: "ti_mmwave"
point_id: 24
x: 0.044921875
y: -0.046875
z: 0.103515625
range: 0.130730912089
velocity: 0.0
doppler_bin: 8
bearing: -46.218875885
intensity: 29.0091304779
---
header: 
  seq: 434721
  stamp: 
    secs: 1561866790
    nsecs:  48843343
  frame_id: "ti_mmwave"
point_id: 0
x: 0.01171875
y: -0.0390625
z: -0.0078125
range: 0.0435769706964
velocity: 0.0
doppler_bin: 8
bearing: -73.3007583618
intensity: 30.6483230591
---
header: 
  seq: 434722
  stamp: 
    secs: 1561866790
    nsecs:  48884580
  frame_id: "ti_mmwave"
point_id: 1
x: 0.017578125
y: -0.080078125
z: -0.0078125
range: 0.0871539413929
velocity: 0.0
doppler_bin: 8
bearing: -77.6192398071
intensity: 31.9117145538
---
header: 
  seq: 434723
  stamp: 
    secs: 1561866790
    nsecs:  48895258
  frame_id: "ti_mmwave"
point_id: 2
x: 0.029296875
y: -0.119140625
z: -0.005859375
range: 0.130730912089
velocity: 0.0
doppler_bin: 8
bearing: -76.1849746704
intensity: 30.1367969513
---
header: 
  seq: 434724
  stamp: 
    secs: 1561866790
    nsecs:  48903806
  frame_id: "ti_mmwave"
point_id: 3
x: 0.056640625
y: -0.154296875
z: 0.0078125
range: 0.174307882786
velocity: 0.0
doppler_bin: 8
bearing: -69.8423843384
intensity: 25.4530715942
---
header: 
  seq: 434725
  stamp: 
    secs: 1561866790
    nsecs:  48912657
  frame_id: "ti_mmwave"
point_id: 4
x: 0.150390625
y: -0.080078125
z: 1.255859375
range: 1.35088610649
velocity: 0.0
doppler_bin: 8
bearing: -28.0338516235
intensity: 23.0963020325
---
header: 
  seq: 434726
  stamp: 
    secs: 1561866790
    nsecs:  48923712
  frame_id: "ti_mmwave"
point_id: 6
x: 0.443359375
y: -0.083984375
z: -1.271484375
range: 1.43804001808
velocity: 0.0
doppler_bin: 8
bearing: -10.7262945175
intensity: 22.9885311127
---
header: 
  seq: 434727
  stamp: 
    secs: 1561866790
    nsecs:  48935162
  frame_id: "ti_mmwave"
point_id: 7
x: 0.576171875
y: -0.04296875
z: -1.265625
range: 1.48161697388
velocity: 0.0
doppler_bin: 8
bearing: -4.2650103569
intensity: 21.5533599854
---
header: 
  seq: 434728
  stamp: 
    secs: 1561866790
    nsecs:  49018102
  frame_id: "ti_mmwave"
point_id: 8
x: 1.70703125
y: -0.220703125
z: -0.365234375
range: 1.87380969524
velocity: 0.0
doppler_bin: 8
bearing: -7.366938591
intensity: 27.7451705933
---
header: 
  seq: 434729
  stamp: 
    secs: 1561866790
    nsecs:  49028958
  frame_id: "ti_mmwave"
point_id: 9
x: 2.619140625
y: -0.17578125
z: 1.0390625
range: 3.00681090355
velocity: 0.0
doppler_bin: 8
bearing: -3.83959650993
intensity: 29.0091304779
---
header: 
  seq: 434730
  stamp: 
    secs: 1561866790
    nsecs:  49036832
  frame_id: "ti_mmwave"
point_id: 10
x: 2.662109375
y: -0.1796875
z: 1.037109375
range: 3.05038785934
velocity: 0.0
doppler_bin: 8
bearing: -3.86150240898
intensity: 32.2063102722
---
header: 
  seq: 434731
  stamp: 
    secs: 1561866790
    nsecs:  49044411
  frame_id: "ti_mmwave"
point_id: 11
x: 2.732421875
y: -0.181640625
z: 0.96875
range: 3.09396481514
velocity: 0.0
doppler_bin: 8
bearing: -3.80320167542
intensity: 31.1159858704
---
header: 
  seq: 434732
  stamp: 
    secs: 1561866790
    nsecs:  49051916
  frame_id: "ti_mmwave"
point_id: 12
x: 4.330078125
y: -0.142578125
z: 1.361328125
range: 4.83704376221
velocity: 0.0
doppler_bin: 8
bearing: -1.88591849804
intensity: 27.5511226654
---
header: 
  seq: 434733
  stamp: 
    secs: 1561866790
    nsecs:  49059151
  frame_id: "ti_mmwave"
point_id: 13
x: 4.39453125
y: -0.142578125
z: 1.287109375
range: 4.88062095642
velocity: 0.0
doppler_bin: 8
bearing: -1.8582777977
intensity: 31.3987903595
---
header: 
  seq: 434734
  stamp: 
    secs: 1561866790
    nsecs:  49066681
  frame_id: "ti_mmwave"
point_id: 14
x: 4.408203125
y: -0.14453125
z: 1.384765625
range: 4.9241976738
velocity: 0.0
doppler_bin: 8
bearing: -1.87787723541
intensity: 31.1058979034
---
header: 
  seq: 434735
  stamp: 
    secs: 1561866790
    nsecs:  49077401
  frame_id: "ti_mmwave"
point_id: 15
x: 4.736328125
y: -0.298828125
z: -0.6171875
range: 5.09850549698
velocity: 0.0
doppler_bin: 8
bearing: -3.61016488075
intensity: 33.6229400635
---
header: 
  seq: 434736
  stamp: 
    secs: 1561866790
    nsecs:  49085256
  frame_id: "ti_mmwave"
point_id: 16
x: 4.7734375
y: -0.30078125
z: -0.65234375
range: 5.14208269119
velocity: 0.0
doppler_bin: 8
bearing: -3.60552406311
intensity: 34.2340965271
---
header: 
  seq: 434737
  stamp: 
    secs: 1561866790
    nsecs:  49096740
  frame_id: "ti_mmwave"
point_id: 17
x: 4.79296875
y: -0.15234375
z: -0.837890625
range: 5.18565940857
velocity: 0.0
doppler_bin: 8
bearing: -1.8205242157
intensity: 30.5076637268
---
header: 
  seq: 434738
  stamp: 
    secs: 1561866790
    nsecs:  49109276
  frame_id: "ti_mmwave"
point_id: 18
x: 4.8359375
y: -0.154296875
z: 1.041015625
range: 5.27281332016
velocity: 0.0
doppler_bin: 8
bearing: -1.82747626305
intensity: 31.0380363464
---
header: 
  seq: 434739
  stamp: 
    secs: 1561866790
    nsecs:  49119127
  frame_id: "ti_mmwave"
point_id: 19
x: 1.404296875
y: -0.4140625
z: -0.162109375
range: 1.56877088547
velocity: -0.614668667316
doppler_bin: 7
bearing: -16.4283599854
intensity: 26.9635639191
---
header: 
  seq: 434740
  stamp: 
    secs: 1561866790
    nsecs:  49142756
  frame_id: "ti_mmwave"
point_id: 20
x: 1.427734375
y: -0.47265625
z: -0.169921875
range: 1.61234796047
velocity: -0.614668667316
doppler_bin: 7
bearing: -18.3172988892
intensity: 29.7312793732
---
header: 
  seq: 434741
  stamp: 
    secs: 1561866790
    nsecs:  49171095
  frame_id: "ti_mmwave"
point_id: 21
x: 1.4765625
y: -0.4375
z: -0.21484375
range: 1.65592491627
velocity: -0.614668667316
doppler_bin: 7
bearing: -16.5043621063
intensity: 29.484128952
---
header: 
  seq: 434742
  stamp: 
    secs: 1561866790
    nsecs:  49195157
  frame_id: "ti_mmwave"
point_id: 22
x: 1.517578125
y: -0.3984375
z: -0.28515625
range: 1.69950187206
velocity: -0.614668667316
doppler_bin: 7
bearing: -14.71089077
intensity: 25.2633934021
---
header: 
  seq: 434743
  stamp: 
    secs: 1561866790
    nsecs:  49221756
  frame_id: "ti_mmwave"
point_id: 24
x: 0.041015625
y: -0.033203125
z: 0.0625
range: 0.0871539413929
velocity: 0.0
doppler_bin: 8
bearing: -38.9909973145
intensity: 30.0987567902
---
header: 
  seq: 434744
  stamp: 
    secs: 1561866790
    nsecs:  49240527
  frame_id: "ti_mmwave"
point_id: 25
x: 0.044921875
y: -0.046875
z: 0.103515625
range: 0.130730912089
velocity: 0.0
doppler_bin: 8
bearing: -46.218875885
intensity: 29.0091304779
---
header: 
  seq: 434745
  stamp: 
    secs: 1561866790
    nsecs: 107142357
  frame_id: "ti_mmwave"
point_id: 0
x: 0.01171875
y: -0.0390625
z: -0.0078125
range: 0.0435769706964
velocity: 0.0
doppler_bin: 8
bearing: -73.3007583618
intensity: 30.6445808411
---
header: 
  seq: 434746
  stamp: 
    secs: 1561866790
    nsecs: 107219224
  frame_id: "ti_mmwave"
point_id: 1
x: 0.017578125
y: -0.080078125
z: -0.0078125
range: 0.0871539413929
velocity: 0.0
doppler_bin: 8
bearing: -77.6192398071
intensity: 31.9145107269
---
header: 
  seq: 434747
  stamp: 
    secs: 1561866790
    nsecs: 107232364
  frame_id: "ti_mmwave"
point_id: 2
x: 0.029296875
y: -0.119140625
z: -0.005859375
range: 0.130730912089
velocity: 0.0
doppler_bin: 8
bearing: -76.1849746704
intensity: 30.141002655
---
header: 
  seq: 434748
  stamp: 
    secs: 1561866790
    nsecs: 107241187
  frame_id: "ti_mmwave"
point_id: 3
x: 0.056640625
y: -0.154296875
z: 0.005859375
range: 0.174307882786
velocity: 0.0
doppler_bin: 8
bearing: -69.8423843384
intensity: 25.4654273987
---
header: 
  seq: 434749
  stamp: 
    secs: 1561866790
    nsecs: 107251058
  frame_id: "ti_mmwave"
point_id: 4
x: 0.20703125
y: -0.080078125
z: 1.248046875
range: 1.35088610649
velocity: 0.0
doppler_bin: 8
bearing: -21.1460952759
intensity: 23.1175384521
---
header: 
  seq: 434750
  stamp: 
    secs: 1561866790
    nsecs: 107259739
  frame_id: "ti_mmwave"
point_id: 5
x: 0.138671875
y: -0.08203125
z: 1.298828125
range: 1.39446306229
velocity: 0.0
doppler_bin: 8
bearing: -30.6064052582
intensity: 24.6239795685
---
header: 
  seq: 434751
  stamp: 
    secs: 1561866790
    nsecs: 107267666
  frame_id: "ti_mmwave"
point_id: 6
x: 0.349609375
y: -0.083984375
z: -1.30078125
range: 1.43804001808
velocity: 0.0
doppler_bin: 8
bearing: -13.5078392029
intensity: 23.0535144806
---
header: 
  seq: 434752
  stamp: 
    secs: 1561866790
    nsecs: 107275580
  frame_id: "ti_mmwave"
point_id: 7
x: 2.62109375
y: -0.17578125
z: 1.033203125
range: 3.00681090355
velocity: 0.0
doppler_bin: 8
bearing: -3.83674383163
intensity: 29.0741138458
---
header: 
  seq: 434753
  stamp: 
    secs: 1561866790
    nsecs: 107283971
  frame_id: "ti_mmwave"
point_id: 8
x: 2.693359375
y: -0.08984375
z: 0.96875
range: 3.05038785934
velocity: 0.0
doppler_bin: 8
bearing: -1.91053581238
intensity: 32.2219619751
---
header: 
  seq: 434754
  stamp: 
    secs: 1561866790
    nsecs: 107291812
  frame_id: "ti_mmwave"
point_id: 9
x: 2.763671875
y: -0.08984375
z: 0.888671875
range: 3.09396481514
velocity: 0.0
doppler_bin: 8
bearing: -1.8619633913
intensity: 31.1859531403
---
header: 
  seq: 434755
  stamp: 
    secs: 1561866790
    nsecs: 107301158
  frame_id: "ti_mmwave"
point_id: 10
x: 4.337890625
y: -0.142578125
z: 1.333984375
range: 4.83704376221
velocity: 0.0
doppler_bin: 8
bearing: -1.88252437115
intensity: 27.5127906799
---
header: 
  seq: 434756
  stamp: 
    secs: 1561866790
    nsecs: 107310823
  frame_id: "ti_mmwave"
point_id: 11
x: 4.384765625
y: -0.142578125
z: 1.3203125
range: 4.88062095642
