header: 
  seq: 450804
  stamp: 
    secs: 1561866814
    nsecs: 886821836
  frame_id: "ti_mmwave"
point_id: 0
x: 0.01171875
y: -0.0390625
z: -0.0078125
range: 0.0435769706964
velocity: 0.0
doppler_bin: 8
bearing: -73.3007583618
intensity: 30.6483230591
---
header: 
  seq: 450805
  stamp: 
    secs: 1561866814
    nsecs: 886896466
  frame_id: "ti_mmwave"
point_id: 1
x: 0.017578125
y: -0.080078125
z: -0.0078125
range: 0.0871539413929
velocity: 0.0
doppler_bin: 8
bearing: -77.6192398071
intensity: 31.9117145538
---
header: 
  seq: 450806
  stamp: 
    secs: 1561866814
    nsecs: 886908362
  frame_id: "ti_mmwave"
point_id: 2
x: 0.029296875
y: -0.119140625
z: -0.005859375
range: 0.130730912089
velocity: 0.0
doppler_bin: 8
bearing: -76.1849746704
intensity: 30.141002655
---
header: 
  seq: 450807
  stamp: 
    secs: 1561866814
    nsecs: 886924137
  frame_id: "ti_mmwave"
point_id: 3
x: 0.056640625
y: -0.154296875
z: 0.005859375
range: 0.174307882786
velocity: 0.0
doppler_bin: 8
bearing: -69.8423843384
intensity: 25.4654273987
---
header: 
  seq: 450808
  stamp: 
    secs: 1561866814
    nsecs: 886941127
  frame_id: "ti_mmwave"
point_id: 4
x: 0.130859375
y: -0.080078125
z: 1.259765625
range: 1.35088610649
velocity: 0.0
doppler_bin: 8
bearing: -31.4641437531
intensity: 23.1175384521
---
header: 
  seq: 450809
  stamp: 
    secs: 1561866814
    nsecs: 886950423
  frame_id: "ti_mmwave"
point_id: 5
x: 0.029296875
y: -0.08203125
z: 1.306640625
range: 1.39446306229
velocity: 0.0
doppler_bin: 8
bearing: -70.3461761475
intensity: 24.6239795685
---
header: 
  seq: 450810
  stamp: 
    secs: 1561866814
    nsecs: 886958174
  frame_id: "ti_mmwave"
point_id: 6
x: 0.3984375
y: -0.083984375
z: -1.287109375
range: 1.43804001808
velocity: 0.0
doppler_bin: 8
bearing: -11.9028120041
intensity: 23.0535144806
---
header: 
  seq: 450811
  stamp: 
    secs: 1561866814
    nsecs: 886968865
  frame_id: "ti_mmwave"
point_id: 7
x: 1.4140625
y: -0.1796875
z: 0.125
range: 1.52519392967
velocity: 0.0
doppler_bin: 8
bearing: -7.24186706543
intensity: 24.4870624542
---
header: 
  seq: 450812
  stamp: 
    secs: 1561866814
    nsecs: 886979881
  frame_id: "ti_mmwave"
point_id: 8
x: 1.45703125
y: -0.138671875
z: -0.15625
range: 1.56877088547
velocity: 0.0
doppler_bin: 8
bearing: -5.43670701981
intensity: 26.7302093506
---
header: 
  seq: 450813
  stamp: 
    secs: 1561866814
    nsecs: 886992271
  frame_id: "ti_mmwave"
point_id: 9
x: 1.494140625
y: -0.09375
z: -0.216796875
range: 1.61234796047
velocity: 0.0
doppler_bin: 8
bearing: -3.59032273293
intensity: 25.1188335419
---
header: 
  seq: 450814
  stamp: 
    secs: 1561866814
    nsecs: 887007536
  frame_id: "ti_mmwave"
point_id: 10
x: 2.6171875
y: -0.17578125
z: 1.041015625
range: 3.00681090355
velocity: 0.0
doppler_bin: 8
bearing: -3.84245300293
intensity: 28.9097957611
---
header: 
  seq: 450815
  stamp: 
    secs: 1561866814
    nsecs: 887157679
  frame_id: "ti_mmwave"
point_id: 11
x: 2.658203125
y: -0.1796875
z: 1.048828125
range: 3.05038785934
velocity: 0.0
doppler_bin: 8
bearing: -3.86716008186
intensity: 32.1218757629
---
header: 
  seq: 450816
  stamp: 
    secs: 1561866814
    nsecs: 887184846
  frame_id: "ti_mmwave"
point_id: 12
x: 2.751953125
y: -0.08984375
z: 0.923828125
range: 3.09396481514
velocity: 0.0
doppler_bin: 8
bearing: -1.86988639832
intensity: 31.1058979034
---
header: 
  seq: 450817
  stamp: 
    secs: 1561866814
    nsecs: 887200725
  frame_id: "ti_mmwave"
point_id: 14
x: 0.041015625
y: -0.033203125
z: 0.0625
range: 0.0871539413929
velocity: 0.0
doppler_bin: 8
bearing: -38.9909973145
intensity: 30.1029987335
---
header: 
  seq: 450818
  stamp: 
    secs: 1561866814
    nsecs: 887212480
  frame_id: "ti_mmwave"
point_id: 15
x: 0.044921875
y: -0.046875
z: 0.103515625
range: 0.130730912089
velocity: 0.0
doppler_bin: 8
bearing: -46.218875885
intensity: 29.0091304779
---
header: 
  seq: 450819
  stamp: 
    secs: 1561866814
    nsecs: 887226335
  frame_id: "ti_mmwave"
point_id: 17
x: 0.716796875
y: 0.51953125
z: 1.2265625
range: 1.61234796047
velocity: 0.0
doppler_bin: 8
bearing: 35.9344329834
intensity: 22.8330116272
---
header: 
  seq: 450820
  stamp: 
    secs: 1561866814
    nsecs: 887992911
  frame_id: "ti_mmwave"
point_id: 0
x: 0.01171875
y: -0.0390625
z: -0.0078125
range: 0.0435769706964
velocity: 0.0
doppler_bin: 8
bearing: -73.3007583618
intensity: 30.6483230591
---
header: 
  seq: 450821
  stamp: 
    secs: 1561866814
    nsecs: 888048941
  frame_id: "ti_mmwave"
point_id: 1
x: 0.017578125
y: -0.080078125
z: -0.0078125
range: 0.0871539413929
velocity: 0.0
doppler_bin: 8
bearing: -77.6192398071
intensity: 31.9145107269
---
header: 
  seq: 450822
  stamp: 
    secs: 1561866814
    nsecs: 888068601
  frame_id: "ti_mmwave"
point_id: 2
x: 0.029296875
y: -0.119140625
z: -0.005859375
range: 0.130730912089
velocity: 0.0
doppler_bin: 8
bearing: -76.1849746704
intensity: 30.141002655
---
header: 
  seq: 450823
  stamp: 
    secs: 1561866814
    nsecs: 888097269
  frame_id: "ti_mmwave"
point_id: 3
x: 0.056640625
y: -0.154296875
z: 0.005859375
range: 0.174307882786
velocity: 0.0
doppler_bin: 8
bearing: -69.8423843384
intensity: 25.4654273987
---
header: 
  seq: 450824
  stamp: 
    secs: 1561866814
    nsecs: 888123043
  frame_id: "ti_mmwave"
point_id: 4
x: 0.130859375
y: -0.080078125
z: 1.2578125
range: 1.35088610649
velocity: 0.0
doppler_bin: 8
bearing: -31.4641437531
intensity: 23.0749607086
---
header: 
  seq: 450825
  stamp: 
    secs: 1561866814
    nsecs: 888199418
  frame_id: "ti_mmwave"
point_id: 6
x: 0.4375
y: -0.083984375
z: -1.2734375
range: 1.43804001808
velocity: 0.0
doppler_bin: 8
bearing: -10.8665513992
intensity: 23.0535144806
---
header: 
  seq: 450826
  stamp: 
    secs: 1561866814
    nsecs: 888215740
  frame_id: "ti_mmwave"
point_id: 7
x: 0.857421875
y: -0.0
z: -1.09375
range: 1.48161697388
velocity: 0.0
doppler_bin: 8
bearing: -0.0
intensity: 20.7554702759
---
header: 
  seq: 450827
  stamp: 
    secs: 1561866814
    nsecs: 888230607
  frame_id: "ti_mmwave"
point_id: 8
x: 1.384765625
y: -0.1796875
z: -0.31640625
range: 1.52519392967
velocity: 0.0
doppler_bin: 8
bearing: -7.39340162277
intensity: 22.5527248383
---
header: 
  seq: 450828
  stamp: 
    secs: 1561866814
    nsecs: 888241549
  frame_id: "ti_mmwave"
point_id: 9
x: 1.423828125
y: -0.18359375
z: -0.328125
range: 1.56877088547
velocity: 0.0
doppler_bin: 8
bearing: -7.34739160538
intensity: 25.6110134125
---
header: 
  seq: 450829
  stamp: 
    secs: 1561866814
    nsecs: 888253465
  frame_id: "ti_mmwave"
point_id: 10
x: 2.6171875
y: -0.17578125
z: 1.041015625
range: 3.00681090355
velocity: 0.0
doppler_bin: 8
bearing: -3.84245300293
intensity: 29.1960105896
---
header: 
  seq: 450830
  stamp: 
    secs: 1561866814
    nsecs: 888265126
  frame_id: "ti_mmwave"
point_id: 11
x: 2.662109375
y: -0.1796875
z: 1.037109375
range: 3.05038785934
velocity: 0.0
doppler_bin: 8
bearing: -3.86150240898
intensity: 32.3578071594
---
header: 
  seq: 450831
  stamp: 
    secs: 1561866814
    nsecs: 888282019
  frame_id: "ti_mmwave"
point_id: 12
x: 2.755859375
y: -0.08984375
z: 0.9140625
range: 3.09396481514
velocity: 0.0
doppler_bin: 8
bearing: -1.86723792553
intensity: 31.389339447
---
header: 
  seq: 450832
  stamp: 
    secs: 1561866814
    nsecs: 888339881
  frame_id: "ti_mmwave"
point_id: 14
x: 0.041015625
y: -0.033203125
z: 0.0625
range: 0.0871539413929
velocity: 0.0
doppler_bin: 8
bearing: -38.9909973145
intensity: 30.0987567902
---
header: 
  seq: 450833
  stamp: 
    secs: 1561866814
    nsecs: 888355716
  frame_id: "ti_mmwave"
point_id: 15
x: 0.046875
y: -0.046875
z: 0.103515625
range: 0.130730912089
velocity: 0.0
doppler_bin: 8
bearing: -45.0
intensity: 29.0091304779
---
header: 
  seq: 450834
  stamp: 
    secs: 1561866814
    nsecs: 888374115
  frame_id: "ti_mmwave"
point_id: 17
x: 0.275390625
y: 1.38671875
z: -0.22265625
range: 1.52519392967
velocity: 0.0
doppler_bin: 8
bearing: 78.7676849365
intensity: 20.0
---
header: 
  seq: 450835
  stamp: 
    secs: 1561866814
    nsecs: 946847542
  frame_id: "ti_mmwave"
point_id: 0
x: 0.01171875
y: -0.0390625
z: -0.0078125
range: 0.0435769706964
velocity: 0.0
doppler_bin: 8
bearing: -73.3007583618
intensity: 30.6445808411
---
header: 
  seq: 450836
  stamp: 
    secs: 1561866814
    nsecs: 946944810
  frame_id: "ti_mmwave"
point_id: 1
x: 0.017578125
y: -0.080078125
z: -0.0078125
range: 0.0871539413929
velocity: 0.0
doppler_bin: 8
bearing: -77.6192398071
intensity: 31.9117145538
---
header: 
  seq: 450837
  stamp: 
    secs: 1561866814
    nsecs: 946958364
  frame_id: "ti_mmwave"
point_id: 2
x: 0.029296875
y: -0.119140625
z: -0.005859375
range: 0.130730912089
velocity: 0.0
doppler_bin: 8
bearing: -76.1849746704
intensity: 30.1367969513
---
header: 
  seq: 450838
  stamp: 
    secs: 1561866814
    nsecs: 946967425
  frame_id: "ti_mmwave"
point_id: 3
x: 0.056640625
y: -0.154296875
z: 0.005859375
range: 0.174307882786
velocity: 0.0
doppler_bin: 8
bearing: -69.8423843384
intensity: 25.4530715942
---
header: 
  seq: 450839
  stamp: 
    secs: 1561866814
    nsecs: 946978692
  frame_id: "ti_mmwave"
point_id: 4
x: 0.083984375
y: -0.080078125
z: 1.263671875
range: 1.35088610649
velocity: 0.0
doppler_bin: 8
bearing: -43.6360702515
intensity: 23.1597042084
---
header: 
  seq: 450840
  stamp: 
    secs: 1561866814
    nsecs: 946990526
  frame_id: "ti_mmwave"
point_id: 6
x: 0.419921875
y: -0.083984375
z: -1.279296875
range: 1.43804001808
velocity: 0.0
doppler_bin: 8
bearing: -11.3099327087
intensity: 23.0963020325
---
header: 
  seq: 450841
  stamp: 
    secs: 1561866814
    nsecs: 946999168
  frame_id: "ti_mmwave"
point_id: 7
x: 0.6171875
y: -0.087890625
z: 1.2421875
range: 1.48161697388
velocity: 0.0
doppler_bin: 8
bearing: -8.10471630096
intensity: 22.4551258087
---
header: 
  seq: 450842
  stamp: 
    secs: 1561866814
    nsecs: 947007697
  frame_id: "ti_mmwave"
point_id: 8
x: 1.427734375
y: -0.08984375
z: 0.046875
range: 1.52519392967
velocity: 0.0
doppler_bin: 8
bearing: -3.60073232651
intensity: 25.6466598511
---
header: 
  seq: 450843
  stamp: 
    secs: 1561866814
    nsecs: 947016038
  frame_id: "ti_mmwave"
point_id: 9
x: 1.455078125
y: -0.138671875
z: -0.17578125
range: 1.56877088547
velocity: 0.0
doppler_bin: 8
bearing: -5.44396114349
intensity: 26.6651802063
---
header: 
  seq: 450844
  stamp: 
    secs: 1561866814
    nsecs: 947024277
  frame_id: "ti_mmwave"
point_id: 10
x: 2.615234375
y: -0.17578125
z: 1.048828125
range: 3.00681090355
velocity: 0.0
doppler_bin: 8
bearing: -3.84531402588
intensity: 28.9597473145
---
header: 
  seq: 450845
  stamp: 
    secs: 1561866814
    nsecs: 947032159
  frame_id: "ti_mmwave"
point_id: 11
x: 2.65625
y: -0.1796875
z: 1.052734375
range: 3.05038785934
velocity: 0.0
doppler_bin: 8
bearing: -3.86999511719
intensity: 32.1378326416
---
header: 
  seq: 450846
  stamp: 
    secs: 1561866814
    nsecs: 947227299
  frame_id: "ti_mmwave"
point_id: 12
x: 2.75
y: -0.08984375
z: 0.9296875
range: 3.09396481514
velocity: 0.0
doppler_bin: 8
bearing: -1.87121355534
intensity: 31.1826477051
---
header: 
  seq: 450847
  stamp: 
    secs: 1561866814
    nsecs: 947264680
  frame_id: "ti_mmwave"
point_id: 14
x: 0.041015625
y: -0.033203125
z: 0.0625
range: 0.0871539413929
velocity: 0.0
doppler_bin: 8
bearing: -38.9909973145
intensity: 30.1029987335
---
header: 
  seq: 450848
  stamp: 
    secs: 1561866814
    nsecs: 947279267
  frame_id: "ti_mmwave"
point_id: 15
x: 0.044921875
y: -0.046875
z: 0.103515625
range: 0.130730912089
velocity: 0.0
doppler_bin: 8
bearing: -46.218875885
intensity: 29.0145835876
---
header: 
  seq: 450849
  stamp: 
    secs: 1561866814
    nsecs: 948029625
  frame_id: "ti_mmwave"
point_id: 0
x: 0.01171875
y: -0.0390625
z: -0.0078125
range: 0.0435769706964
velocity: 0.0
doppler_bin: 8
bearing: -73.3007583618
intensity: 30.6520614624
---
header: 
  seq: 450850
  stamp: 
    secs: 1561866814
    nsecs: 948111689
  frame_id: "ti_mmwave"
point_id: 1
x: 0.017578125
y: -0.080078125
z: -0.0078125
range: 0.0871539413929
velocity: 0.0
doppler_bin: 8
bearing: -77.6192398071
intensity: 31.9145107269
---
header: 
  seq: 450851
  stamp: 
    secs: 1561866814
    nsecs: 948130001
  frame_id: "ti_mmwave"
point_id: 2
x: 0.029296875
y: -0.119140625
z: -0.005859375
range: 0.130730912089
velocity: 0.0
doppler_bin: 8
bearing: -76.1849746704
intensity: 30.1452045441
---
header: 
  seq: 450852
  stamp: 
    secs: 1561866814
    nsecs: 948144638
  frame_id: "ti_mmwave"
point_id: 3
x: 0.056640625
y: -0.154296875
z: 0.005859375
range: 0.174307882786
velocity: 0.0
doppler_bin: 8
bearing: -69.8423843384
intensity: 25.4654273987
---
header: 
  seq: 450853
  stamp: 
    secs: 1561866814
    nsecs: 948159626
  frame_id: "ti_mmwave"
point_id: 4
x: 0.171875
y: -0.080078125
z: 1.25390625
range: 1.35088610649
velocity: 0.0
doppler_bin: 8
bearing: -24.9812393188
intensity: 23.0963020325
---
header: 
  seq: 450854
  stamp: 
    secs: 1561866814
    nsecs: 948272420
  frame_id: "ti_mmwave"
point_id: 5
x: 0.0625
y: -0.08203125
z: 1.3046875
range: 1.39446306229
velocity: 0.0
doppler_bin: 8
bearing: -52.6960487366
intensity: 24.6089782715
---
header: 
  seq: 450855
  stamp: 
    secs: 1561866814
    nsecs: 948285815
  frame_id: "ti_mmwave"
point_id: 6
x: 0.388671875
y: -0.083984375
z: -1.2890625
range: 1.43804001808
velocity: 0.0
doppler_bin: 8
bearing: -12.1930341721
intensity: 23.0749607086
---
header: 
  seq: 450856
  stamp: 
    secs: 1561866814
    nsecs: 948294038
  frame_id: "ti_mmwave"
point_id: 7
x: 0.857421875
y: -0.0
z: -1.095703125
range: 1.48161697388
velocity: 0.0
doppler_bin: 8
bearing: -0.0
intensity: 20.9691009521
---
header: 
  seq: 450857
  stamp: 
    secs: 1561866814
    nsecs: 948302454
  frame_id: "ti_mmwave"
point_id: 8
x: 1.3515625
y: -0.08984375
z: -0.4609375
range: 1.52519392967
velocity: 0.0
doppler_bin: 8
bearing: -3.80308389664
intensity: 22.6951293945
---
header: 
  seq: 450858
  stamp: 
    secs: 1561866814
    nsecs: 948310440
  frame_id: "ti_mmwave"
point_id: 9
x: 1.427734375
y: -0.138671875
z: -0.330078125
range: 1.56877088547
velocity: 0.0
doppler_bin: 8
bearing: -5.54757881165
intensity: 26.6651802063
---
header: 
  seq: 450859
  stamp: 
    secs: 1561866814
    nsecs: 948318965
  frame_id: "ti_mmwave"
point_id: 10
x: 1.474609375
y: -0.142578125
z: -0.310546875
range: 1.61234796047
velocity: 0.0
doppler_bin: 8
bearing: -5.5226893425
intensity: 26.839471817
---
header: 
  seq: 450860
  stamp: 
    secs: 1561866814
    nsecs: 948333001
  frame_id: "ti_mmwave"
point_id: 11
x: 2.607421875
y: -0.17578125
z: 1.06640625
range: 3.00681090355
velocity: 0.0
doppler_bin: 8
bearing: -3.8568007946
intensity: 28.8422870636
---
header: 
  seq: 450861
  stamp: 
    secs: 1561866814
    nsecs: 948345564
  frame_id: "ti_mmwave"
point_id: 12
x: 2.654296875
y: -0.1796875
z: 1.05859375
range: 3.05038785934
velocity: 0.0
doppler_bin: 8
bearing: -3.87283420563
intensity: 32.0736503601
---
header: 
  seq: 450862
  stamp: 
    secs: 1561866814
    nsecs: 948358306
  frame_id: "ti_mmwave"
point_id: 13
x: 2.75390625
y: -0.08984375
z: 0.919921875
range: 3.09396481514
velocity: 0.0
doppler_bin: 8
bearing: -1.86856126785
intensity: 31.020904541
---
header: 
  seq: 450863
  stamp: 
    secs: 1561866814
    nsecs: 948370735
  frame_id: "ti_mmwave"
point_id: 15
x: 0.041015625
y: -0.033203125
z: 0.0625
range: 0.0871539413929
velocity: 0.0
doppler_bin: 8
bearing: -38.9909973145
intensity: 30.1029987335
---
header: 
  seq: 450864
  stamp: 
    secs: 1561866814
    nsecs: 948398397
  frame_id: "ti_mmwave"
point_id: 16
x: 0.044921875
y: -0.046875
z: 0.103515625
range: 0.130730912089
velocity: 0.0
doppler_bin: 8
bearing: -46.218875885
intensity: 29.0145835876
---
header: 
  seq: 450865
  stamp: 
    secs: 1561866815
    nsecs:   7030388
  frame_id: "ti_mmwave"
point_id: 0
x: 0.01171875
y: -0.0390625
z: -0.0078125
range: 0.0435769706964
velocity: 0.0
doppler_bin: 8
bearing: -73.3007583618
intensity: 30.6520614624
---
header: 
  seq: 450866
  stamp: 
    secs: 1561866815
    nsecs:   7123506
  frame_id: "ti_mmwave"
point_id: 1
x: 0.017578125
y: -0.080078125
z: -0.0078125
range: 0.0871539413929
velocity: 0.0
doppler_bin: 8
bearing: -77.6192398071
intensity: 31.9117145538
---
header: 
  seq: 450867
  stamp: 
    secs: 1561866815
    nsecs:   7135436
  frame_id: "ti_mmwave"
point_id: 2
x: 0.029296875
y: -0.119140625
z: -0.005859375
range: 0.130730912089
velocity: 0.0
doppler_bin: 8
bearing: -76.1849746704
intensity: 30.1367969513
---
header: 
  seq: 450868
  stamp: 
    secs: 1561866815
    nsecs:   7143993
  frame_id: "ti_mmwave"
point_id: 3
x: 0.056640625
y: -0.154296875
z: 0.005859375
range: 0.174307882786
velocity: 0.0
doppler_bin: 8
bearing: -69.8423843384
intensity: 25.4530715942
---
header: 
  seq: 450869
  stamp: 
    secs: 1561866815
    nsecs:   7152969
  frame_id: "ti_mmwave"
point_id: 4
x: 0.123046875
y: -0.080078125
z: 1.259765625
range: 1.35088610649
velocity: 0.0
doppler_bin: 8
bearing: -33.0558242798
intensity: 23.0963020325
---
header: 
  seq: 450870
  stamp: 
    secs: 1561866815
    nsecs:   7162165
  frame_id: "ti_mmwave"
point_id: 5
x: 0.021484375
y: -0.08203125
z: 1.306640625
range: 1.39446306229
velocity: 0.0
doppler_bin: 8
bearing: -75.3236083984
intensity: 24.6239795685
---
header: 
  seq: 450871
  stamp: 
    secs: 1561866815
    nsecs:   7172570
  frame_id: "ti_mmwave"
point_id: 6
x: 0.41796875
y: -0.083984375
z: -1.28125
range: 1.43804001808
velocity: 0.0
doppler_bin: 8
bearing: -11.3614110947
intensity: 23.0535144806
---
header: 
  seq: 450872
  stamp: 
    secs: 1561866815
    nsecs:   7182180
  frame_id: "ti_mmwave"
point_id: 7
x: 0.90625
y: -0.04296875
z: -1.0546875
range: 1.48161697388
velocity: 0.0
doppler_bin: 8
bearing: -2.71457719803
intensity: 21.7897701263
---
header: 
  seq: 450873
  stamp: 
    secs: 1561866815
    nsecs:   7193824
  frame_id: "ti_mmwave"
point_id: 8
x: 1.328125
y: -0.08984375
z: -0.529296875
range: 1.52519392967
velocity: 0.0
doppler_bin: 8
bearing: -3.86999511719
intensity: 24.0654010773
---
header: 
  seq: 450874
  stamp: 
    secs: 1561866815
    nsecs:   7203227
  frame_id: "ti_mmwave"
point_id: 9
x: 1.44140625
y: -0.091796875
z: -0.283203125
range: 1.56877088547
velocity: 0.0
doppler_bin: 8
bearing: -3.64399695396
intensity: 27.2672729492
---
header: 
  seq: 450875
  stamp: 
    secs: 1561866815
    nsecs:   7212366
  frame_id: "ti_mmwave"
point_id: 10
x: 1.490234375
y: -0.142578125
z: -0.220703125
range: 1.61234796047
velocity: 0.0
doppler_bin: 8
bearing: -5.46513700485
intensity: 27.5511226654
---
header: 
  seq: 450876
  stamp: 
    secs: 1561866815
    nsecs:   7222869
  frame_id: "ti_mmwave"
point_id: 11
x: 2.62109375
y: -0.17578125
z: 1.033203125
range: 3.00681090355
velocity: 0.0
doppler_bin: 8
bearing: -3.83674383163
intensity: 28.8592624664
---
header: 
  seq: 450877
  stamp: 
    secs: 1561866815
    nsecs:   7231990
  frame_id: "ti_mmwave"
point_id: 12
x: 2.66015625
y: -0.1796875
z: 1.04296875
range: 3.05038785934
velocity: 0.0
doppler_bin: 8
bearing: -3.86432933807
intensity: 32.0221595764
---
header: 
  seq: 450878
  stamp: 
    secs: 1561866815
    nsecs:   7246081
  frame_id: "ti_mmwave"
point_id: 13
x: 2.759765625
y: -0.08984375
z: 0.90234375
range: 3.09396481514
velocity: 0.0
doppler_bin: 8
bearing: -1.86459684372
intensity: 30.8529052734
---
header: 
  seq: 450879
  stamp: 
    secs: 1561866815
    nsecs:   7431714
  frame_id: "ti_mmwave"
point_id: 15
x: 0.041015625
y: -0.033203125
z: 0.0625
range: 0.0871539413929
velocity: 0.0
doppler_bin: 8
bearing: -38.9909973145
intensity: 30.0987567902
---
header: 
  seq: 450880
  stamp: 
    secs: 1561866815
    nsecs:   7460415
  frame_id: "ti_mmwave"
point_id: 16
x: 0.044921875
y: -0.046875
z: 0.103515625
range: 0.130730912089
velocity: 0.0
doppler_bin: 8
bearing: -46.218875885
intensity: 29.0091304779
---
header: 
  seq: 450881
  stamp: 
    secs: 1561866815
    nsecs:   8261972
  frame_id: "ti_mmwave"
point_id: 0
x: 0.01171875
y: -0.0390625
z: -0.0078125
range: 0.0435769706964
velocity: 0.0
doppler_bin: 8
bearing: -73.3007583618
intensity: 30.6483230591
---
header: 
  seq: 450882
  stamp: 
    secs: 1561866815
    nsecs:   8325410
  frame_id: "ti_mmwave"
point_id: 1
x: 0.017578125
y: -0.080078125
z: -0.0078125
range: 0.0871539413929
velocity: 0.0
doppler_bin: 8
bearing: -77.6192398071
intensity: 31.9117145538
---
header: 
  seq: 450883
  stamp: 
    secs: 1561866815
    nsecs:   8345222
  frame_id: "ti_mmwave"
point_id: 2
x: 0.029296875
y: -0.119140625
z: -0.005859375
range: 0.130730912089
velocity: 0.0
doppler_bin: 8
bearing: -76.1849746704
intensity: 30.141002655
---
header: 
  seq: 450884
  stamp: 
    secs: 1561866815
    nsecs:   8394747
  frame_id: "ti_mmwave"
point_id: 3
x: 0.056640625
y: -0.154296875
z: 0.005859375
range: 0.174307882786
velocity: 0.0
doppler_bin: 8
bearing: -69.8423843384
intensity: 25.4654273987
---
header: 
  seq: 450885
  stamp: 
    secs: 1561866815
    nsecs:   8421389
  frame_id: "ti_mmwave"
point_id: 4
x: 0.16015625
y: -0.080078125
z: 1.255859375
range: 1.35088610649
velocity: 0.0
doppler_bin: 8
bearing: -26.5650501251
intensity: 23.138671875
---
header: 
  seq: 450886
  stamp: 
    secs: 1561866815
    nsecs:   8441062
  frame_id: "ti_mmwave"
point_id: 5
x: 0.083984375
y: -0.08203125
z: 1.302734375
range: 1.39446306229
velocity: 0.0
doppler_bin: 8
bearing: -44.3259658813
intensity: 24.6538276672
---
header: 
  seq: 450887
  stamp: 
    secs: 1561866815
    nsecs:   8455852
  frame_id: "ti_mmwave"
point_id: 6
x: 0.4140625
y: -0.083984375
z: -1.28125
range: 1.43804001808
velocity: 0.0
doppler_bin: 8
bearing: -11.4657688141
intensity: 23.0963020325
---
header: 
  seq: 450888
  stamp: 
    secs: 1561866815
    nsecs:   8476964
  frame_id: "ti_mmwave"
point_id: 7
x: 1.404296875
y: -0.08984375
z: 0.259765625
range: 1.52519392967
velocity: 0.0
doppler_bin: 8
bearing: -3.66066598892
intensity: 24.014005661
---
header: 
  seq: 450889
  stamp: 
    secs: 1561866815
    nsecs:   8680774
  frame_id: "ti_mmwave"
point_id: 8
x: 1.4609375
y: -0.046875
z: -0.18359375
range: 1.56877088547
velocity: 0.0
doppler_bin: 8
bearing: -1.83773672581
intensity: 26.0314445496
---
header: 
  seq: 450890
  stamp: 
    secs: 1561866815
    nsecs:   8701231
  frame_id: "ti_mmwave"
point_id: 9
x: 1.47265625
y: -0.0
z: -0.34765625
range: 1.61234796047
velocity: 0.0
doppler_bin: 8
bearing: -0.0
intensity: 24.5331840515
---
header: 
  seq: 450891
  stamp: 
    secs: 1561866815
    nsecs:   8715592
  frame_id: "ti_mmwave"
point_id: 10
x: 2.62109375
y: -0.17578125
z: 1.03125
range: 3.00681090355
velocity: 0.0
doppler_bin: 8
bearing: -3.83674383163
intensity: 29.0633506775
---
header: 
  seq: 450892
  stamp: 
    secs: 1561866815
    nsecs:   8739077
  frame_id: "ti_mmwave"
point_id: 11
x: 2.66015625
y: -0.1796875
z: 1.044921875
range: 3.05038785934
velocity: 0.0
doppler_bin: 8
bearing: -3.86432933807
intensity: 32.1906051636
---
header: 
  seq: 450893
  stamp: 
    secs: 1561866815
    nsecs:   8841139
  frame_id: "ti_mmwave"
point_id: 12
x: 2.751953125
y: -0.08984375
z: 0.92578125
range: 3.09396481514
velocity: 0.0
doppler_bin: 8
bearing: -1.86988639832
intensity: 31.2483005524
---
header: 
  seq: 450894
  stamp: 
    secs: 1561866815
    nsecs:   8861423
  frame_id: "ti_mmwave"
point_id: 14
x: 0.041015625
y: -0.033203125
z: 0.0625
range: 0.0871539413929
velocity: 0.0
doppler_bin: 8
bearing: -38.9909973145
intensity: 30.0987567902
---
header: 
  seq: 450895
  stamp: 
    secs: 1561866815
    nsecs:   8871856
  frame_id: "ti_mmwave"
point_id: 15
x: 0.046875
y: -0.046875
z: 0.103515625
range: 0.130730912089
velocity: 0.0
doppler_bin: 8
bearing: -45.0
intensity: 29.0091304779
---
header: 
  seq: 450896
  stamp: 
    secs: 1561866815
    nsecs:   8899138
  frame_id: "ti_mmwave"
point_id: 17
x: 0.6015625
y: 0.568359375
z: 1.267578125
range: 1.61234796047
velocity: 0.0
doppler_bin: 8
bearing: 43.3743438721
intensity: 23.5024795532
---
header: 
  seq: 450897
  stamp: 
    secs: 1561866815
    nsecs:  66856008
  frame_id: "ti_mmwave"
point_id: 0
x: 0.01171875
y: -0.0390625
z: -0.0078125
range: 0.0435769706964
velocity: 0.0
doppler_bin: 8
bearing: -73.3007583618
intensity: 30.6483230591
---
header: 
  seq: 450898
  stamp: 
    secs: 1561866815
    nsecs:  66930883
  frame_id: "ti_mmwave"
point_id: 1
x: 0.017578125
y: -0.080078125
z: -0.0078125
range: 0.0871539413929
velocity: 0.0
doppler_bin: 8
bearing: -77.6192398071
intensity: 31.9145107269
---
header: 
  seq: 450899
  stamp: 
    secs: 1561866815
    nsecs:  66949596
  frame_id: "ti_mmwave"
point_id: 2
x: 0.029296875
y: -0.119140625
z: -0.005859375
range: 0.130730912089
velocity: 0.0
doppler_bin: 8
bearing: -76.1849746704
intensity: 30.141002655
---
header: 
  seq: 450900
  stamp: 
    secs: 1561866815
    nsecs:  66962612
  frame_id: "ti_mmwave"
point_id: 3
x: 0.056640625
y: -0.154296875
z: 0.005859375
range: 0.174307882786
velocity: 0.0
doppler_bin: 8
bearing: -69.8423843384
intensity: 25.4777469635
---
header: 
  seq: 450901
  stamp: 
    secs: 1561866815
    nsecs:  66982271
  frame_id: "ti_mmwave"
point_id: 4
x: 0.169921875
y: -0.080078125
z: 1.25390625
range: 1.35088610649
velocity: 0.0
doppler_bin: 8
bearing: -25.232831955
intensity: 23.138671875
---
header: 
  seq: 450902
  stamp: 
    secs: 1561866815
    nsecs:  66999946
  frame_id: "ti_mmwave"
point_id: 5
x: 0.060546875
y: -0.08203125
z: 1.3046875
range: 1.39446306229
velocity: 0.0
doppler_bin: 8
bearing: -53.5691413879
intensity: 24.6389293671
---
header: 
  seq: 450903
  stamp: 
    secs: 1561866815
    nsecs:  67019191
  frame_id: "ti_mmwave"
point_id: 6
x: 0.41796875
y: -0.083984375
z: -1.28125
range: 1.43804001808
velocity: 0.0
doppler_bin: 8
bearing: -11.3614110947
intensity: 23.0963020325
---
header: 
  seq: 450904
  stamp: 
    secs: 1561866815
    nsecs:  67035727
  frame_id: "ti_mmwave"
point_id: 7
x: 0.341796875
y: -0.087890625
z: 1.345703125
range: 1.48161697388
velocity: 0.0
doppler_bin: 8
bearing: -14.4207735062
intensity: 21.5228843689
---
header: 
  seq: 450905
  stamp: 
    secs: 1561866815
    nsecs:  67113255
  frame_id: "ti_mmwave"
point_id: 8
x: 1.359375
y: -0.044921875
z: 0.4453125
range: 1.52519392967
velocity: 0.0
doppler_bin: 8
bearing: -1.89270627499
intensity: 22.6245117188
---
header: 
  seq: 450906
  stamp: 
    secs: 1561866815
    nsecs:  67128983
  frame_id: "ti_mmwave"
point_id: 9
x: 1.466796875
y: -0.0
z: -0.134765625
range: 1.56877088547
velocity: 0.0
doppler_bin: 8
bearing: -0.0
intensity: 25.0785579681
---
header: 
  seq: 450907
  stamp: 
    secs: 1561866815
    nsecs:  67140091
  frame_id: "ti_mmwave"
point_id: 10
x: 1.736328125
y: -0.0546875
z: 0.2734375
range: 1.87380969524
velocity: 0.0
doppler_bin: 8
bearing: -1.80399513245
intensity: 27.1767044067
---
header: 
  seq: 450908
  stamp: 
    secs: 1561866815
    nsecs:  67150407
  frame_id: "ti_mmwave"
point_id: 11
x: 1.78125
y: -0.0
z: 0.2578125
range: 1.91738677025
velocity: 0.0
doppler_bin: 8
bearing: -0.0
intensity: 27.3957233429
---
header: 
  seq: 450909
  stamp: 
    secs: 1561866815
    nsecs:  67160859
  frame_id: "ti_mmwave"
point_id: 12
x: 2.61328125
y: -0.17578125
z: 1.052734375
range: 3.00681090355
velocity: 0.0
doppler_bin: 8
bearing: -3.84817934036
intensity: 29.0848503113
---
header: 
  seq: 450910
  stamp: 
    secs: 1561866815
    nsecs:  67171560
  frame_id: "ti_mmwave"
point_id: 13
x: 2.66015625
y: -0.1796875
z: 1.04296875
range: 3.05038785934
velocity: 0.0
doppler_bin: 8
bearing: -3.86432933807
intensity: 32.1879806519
---
header: 
  seq: 450911
  stamp: 
    secs: 1561866815
    nsecs:  67183525
  frame_id: "ti_mmwave"
point_id: 14
x: 2.7578125
y: -0.08984375
z: 0.91015625
range: 3.09396481514
velocity: 0.0
doppler_bin: 8
bearing: -1.86591637135
intensity: 31.1394329071
---
header: 
  seq: 450912
  stamp: 
    secs: 1561866815
    nsecs:  67198167
  frame_id: "ti_mmwave"
point_id: 16
x: 0.041015625
y: -0.033203125
z: 0.0625
range: 0.0871539413929
velocity: 0.0
doppler_bin: 8
bearing: -38.9909973145
intensity: 30.0987567902
---
header: 
  seq: 450913
  stamp: 
    secs: 1561866815
    nsecs:  67210685
  frame_id: "ti_mmwave"
point_id: 17
x: 0.046875
y: -0.046875
z: 0.103515625
range: 0.130730912089
velocity: 0.0
doppler_bin: 8
bearing: -45.0
intensity: 29.0091304779
---
header: 
  seq: 450914
  stamp: 
    secs: 1561866815
    nsecs:  68028372
  frame_id: "ti_mmwave"
point_id: 0
x: 0.01171875
y: -0.0390625
z: -0.0078125
range: 0.0435769706964
velocity: 0.0
doppler_bin: 8
bearing: -73.3007583618
intensity: 30.6483230591
---
header: 
  seq: 450915
  stamp: 
    secs: 1561866815
    nsecs:  68101049
  frame_id: "ti_mmwave"
point_id: 1
x: 0.017578125
y: -0.080078125
z: -0.0078125
range: 0.0871539413929
velocity: 0.0
doppler_bin: 8
bearing: -77.6192398071
intensity: 31.9117145538
---
header: 
  seq: 450916
  stamp: 
    secs: 1561866815
    nsecs:  68122993
  frame_id: "ti_mmwave"
point_id: 2
x: 0.029296875
y: -0.119140625
z: -0.005859375
range: 0.130730912089
velocity: 0.0
doppler_bin: 8
bearing: -76.1849746704
intensity: 30.1367969513
---
header: 
  seq: 450917
  stamp: 
    secs: 1561866815
    nsecs:  68137086
  frame_id: "ti_mmwave"
point_id: 3
x: 0.056640625
y: -0.154296875
z: 0.005859375
range: 0.174307882786
velocity: 0.0
doppler_bin: 8
bearing: -69.8423843384
intensity: 25.4654273987
---
header: 
  seq: 450918
  stamp: 
    secs: 1561866815
    nsecs:  68150560
  frame_id: "ti_mmwave"
point_id: 4
x: 0.146484375
y: -0.080078125
z: 1.2578125
range: 1.35088610649
velocity: 0.0
doppler_bin: 8
bearing: -28.6639575958
intensity: 23.0963020325
---
header: 
  seq: 450919
  stamp: 
    secs: 1561866815
    nsecs:  68246350
  frame_id: "ti_mmwave"
point_id: 6
x: 0.419921875
y: -0.083984375
z: -1.279296875
range: 1.43804001808
velocity: 0.0
doppler_bin: 8
bearing: -11.3099327087
intensity: 23.0963020325
---
header: 
  seq: 450920
  stamp: 
    secs: 1561866815
    nsecs:  68261060
  frame_id: "ti_mmwave"
point_id: 7
x: 1.4453125
y: -0.046875
z: -0.28125
range: 1.56877088547
velocity: 0.0
doppler_bin: 8
bearing: -1.85759031773
intensity: 26.4345264435
---
header: 
  seq: 450921
  stamp: 
    secs: 1561866815
    nsecs:  68269462
  frame_id: "ti_mmwave"
point_id: 8
x: 1.48046875
y: -0.046875
z: -0.314453125
range: 1.61234796047
velocity: 0.0
doppler_bin: 8
bearing: -1.81350874901
intensity: 27.4272518158
---
header: 
  seq: 450922
  stamp: 
    secs: 1561866815
    nsecs:  68277451
  frame_id: "ti_mmwave"
point_id: 9
x: 1.73046875
y: -0.0546875
z: 0.3125
range: 1.87380969524
velocity: 0.0
doppler_bin: 8
bearing: -1.81009960175
intensity: 29.2220630646
---
header: 
  seq: 450923
  stamp: 
    secs: 1561866815
    nsecs:  68285303
  frame_id: "ti_mmwave"
point_id: 10
x: 1.771484375
y: -0.0
z: 0.318359375
range: 1.91738677025
velocity: 0.0
doppler_bin: 8
bearing: -0.0
intensity: 29.1487178802
---
header: 
  seq: 450924
  stamp: 
    secs: 1561866815
    nsecs:  68292957
  frame_id: "ti_mmwave"
point_id: 11
x: 2.61328125
y: -0.17578125
z: 1.0546875
range: 3.00681090355
velocity: 0.0
doppler_bin: 8
bearing: -3.84817934036
intensity: 28.9542255402
---
header: 
  seq: 450925
  stamp: 
    secs: 1561866815
    nsecs:  68300497
  frame_id: "ti_mmwave"
point_id: 12
x: 2.65625
y: -0.1796875
z: 1.052734375
range: 3.05038785934
velocity: 0.0
doppler_bin: 8
bearing: -3.86999511719
intensity: 32.1616592407
---
header: 
  seq: 450926
  stamp: 
    secs: 1561866815
    nsecs:  68310054
  frame_id: "ti_mmwave"
point_id: 13
x: 2.75
y: -0.08984375
z: 0.927734375
range: 3.09396481514
velocity: 0.0
doppler_bin: 8
bearing: -1.87121355534
intensity: 31.1693973541
---
header: 
  seq: 450927
  stamp: 
    secs: 1561866815
    nsecs:  68320977
  frame_id: "ti_mmwave"
point_id: 15
x: 0.041015625
y: -0.033203125
z: 0.0625
range: 0.0871539413929
velocity: 0.0
doppler_bin: 8
bearing: -38.9909973145
intensity: 30.1029987335
---
header: 
  seq: 450928
  stamp: 
    secs: 1561866815
    nsecs:  68328700
  frame_id: "ti_mmwave"
point_id: 16
x: 0.044921875
y: -0.046875
z: 0.103515625
range: 0.130730912089
velocity: 0.0
doppler_bin: 8
bearing: -46.218875885
intensity: 29.0145835876
---
header: 
  seq: 450929
  stamp: 
    secs: 1561866815
    nsecs: 126702764
  frame_id: "ti_mmwave"
point_id: 0
x: 0.01171875
y: -0.0390625
z: -0.0078125
range: 0.0435769706964
velocity: 0.0
doppler_bin: 8
bearing: -73.3007583618
intensity: 30.6520614624
---
header: 
  seq: 450930
  stamp: 
    secs: 1561866815
    nsecs: 126739413
  frame_id: "ti_mmwave"
point_id: 1
x: 0.017578125
y: -0.080078125
z: -0.0078125
range: 0.0871539413929
velocity: 0.0
doppler_bin: 8
bearing: -77.6192398071
intensity: 31.9145107269
---
header: 
  seq: 450931
  stamp: 
    secs: 1561866815
    nsecs: 126744786
  frame_id: "ti_mmwave"
point_id: 2
x: 0.029296875
y: -0.119140625
z: -0.005859375
range: 0.130730912089
velocity: 0.0
doppler_bin: 8
bearing: -76.1849746704
intensity: 30.141002655
---
header: 
  seq: 450932
  stamp: 
    secs: 1561866815
    nsecs: 126750175
  frame_id: "ti_mmwave"
point_id: 3
x: 0.056640625
y: -0.154296875
z: 0.005859375
range: 0.174307882786
velocity: 0.0
doppler_bin: 8
bearing: -69.8423843384
intensity: 25.4654273987
---
header: 
  seq: 450933
  stamp: 
    secs: 1561866815
    nsecs: 126754653
  frame_id: "ti_mmwave"
point_id: 4
x: 0.125
y: -0.080078125
z: 1.259765625
range: 1.35088610649
velocity: 0.0
doppler_bin: 8
bearing: -32.6446380615
intensity: 23.0963020325
---
header: 
  seq: 450934
  stamp: 
    secs: 1561866815
    nsecs: 126759627
  frame_id: "ti_mmwave"
point_id: 6
x: 0.41796875
y: -0.083984375
z: -1.28125
range: 1.43804001808
velocity: 0.0
doppler_bin: 8
bearing: -11.3614110947
intensity: 23.1175384521
---
header: 
  seq: 450935
  stamp: 
    secs: 1561866815
    nsecs: 126764278
  frame_id: "ti_mmwave"
point_id: 7
x: 0.603515625
y: -0.04296875
z: -1.251953125
range: 1.48161697388
velocity: 0.0
doppler_bin: 8
bearing: -4.07243919373
intensity: 21.5228843689
---
header: 
  seq: 450936
  stamp: 
    secs: 1561866815
    nsecs: 126768262
  frame_id: "ti_mmwave"
point_id: 8
x: 1.44921875
y: -0.0
z: -0.263671875
range: 1.56877088547
velocity: 0.0
doppler_bin: 8
bearing: -0.0
intensity: 26.875289917
---
header: 
  seq: 450937
  stamp: 
    secs: 1561866815
    nsecs: 126772205
  frame_id: "ti_mmwave"
point_id: 9
x: 1.486328125
y: -0.046875
z: -0.28515625
range: 1.61234796047
velocity: 0.0
doppler_bin: 8
bearing: -1.80636417866
intensity: 28.5913829803
---
header: 
  seq: 450938
  stamp: 
    secs: 1561866815
    nsecs: 126776026
  frame_id: "ti_mmwave"
point_id: 10
x: 1.537109375
y: -0.0
z: -0.232421875
range: 1.65592491627
velocity: 0.0
doppler_bin: 8
bearing: -0.0
intensity: 27.1850166321
---
header: 
  seq: 450939
  stamp: 
    secs: 1561866815
    nsecs: 126780965
  frame_id: "ti_mmwave"
point_id: 11
x: 1.7265625
y: 0.0546875
z: 0.333984375
range: 1.87380969524
velocity: 0.0
doppler_bin: 8
bearing: 1.81419193745
intensity: 27.8175544739
---
header: 
  seq: 450940
  stamp: 
    secs: 1561866815
    nsecs: 126784851
  frame_id: "ti_mmwave"
point_id: 12
x: 1.7734375
y: -0.0
z: 0.3046875
range: 1.91738677025
velocity: 0.0
doppler_bin: 8
bearing: -0.0
intensity: 28.5973854065
---
header: 
  seq: 450941
  stamp: 
    secs: 1561866815
    nsecs: 126788562
  frame_id: "ti_mmwave"
point_id: 13
x: 2.611328125
y: -0.17578125
z: 1.05859375
range: 3.00681090355
velocity: 0.0
doppler_bin: 8
bearing: -3.85104894638
intensity: 29.0036716461
---
header: 
  seq: 450942
  stamp: 
    secs: 1561866815
    nsecs: 126792663
  frame_id: "ti_mmwave"
point_id: 14
x: 2.658203125
y: -0.1796875
z: 1.05078125
range: 3.05038785934
velocity: 0.0
doppler_bin: 8
bearing: -3.86716008186
intensity: 32.1932258606
---
header: 
  seq: 450943
  stamp: 
    secs: 1561866815
    nsecs: 126797521
  frame_id: "ti_mmwave"
point_id: 15
x: 2.751953125
y: -0.08984375
z: 0.921875
range: 3.09396481514
velocity: 0.0
doppler_bin: 8
bearing: -1.86988639832
intensity: 31.1494445801
---
header: 
  seq: 450944
  stamp: 
    secs: 1561866815
    nsecs: 126802612
  frame_id: "ti_mmwave"
point_id: 17
x: 0.041015625
y: -0.033203125
z: 0.0625
range: 0.0871539413929
velocity: 0.0
doppler_bin: 8
bearing: -38.9909973145
intensity: 30.1029987335
---
header: 
  seq: 450945
  stamp: 
    secs: 1561866815
    nsecs: 126806788
  frame_id: "ti_mmwave"
point_id: 18
x: 0.044921875
y: -0.046875
z: 0.103515625
range: 0.130730912089
velocity: 0.0
doppler_bin: 8
bearing: -46.218875885
intensity: 29.0091304779
---
header: 
  seq: 450946
  stamp: 
    secs: 1561866815
    nsecs: 126812775
  frame_id: "ti_mmwave"
point_id: 20
x: 0.12890625
y: 0.923828125
z: -1.244140625
range: 1.65592491627
velocity: 0.0
doppler_bin: 8
bearing: 82.0565261841
intensity: 24.393327713
---
header: 
  seq: 450947
  stamp: 
    secs: 1561866815
    nsecs: 186792954
  frame_id: "ti_mmwave"
point_id: 0
x: 0.01171875
y: -0.0390625
z: -0.0078125
range: 0.0435769706964
velocity: 0.0
doppler_bin: 8
bearing: -73.3007583618
intensity: 30.6520614624
---
header: 
  seq: 450948
  stamp: 
    secs: 1561866815
    nsecs: 186875345
  frame_id: "ti_mmwave"
point_id: 1
x: 0.017578125
y: -0.080078125
z: -0.0078125
range: 0.0871539413929
velocity: 0.0
doppler_bin: 8
bearing: -77.6192398071
intensity: 31.9173030853
---
header: 
  seq: 450949
  stamp: 
    secs: 1561866815
    nsecs: 186887148
  frame_id: "ti_mmwave"
point_id: 2
x: 0.029296875
y: -0.119140625
z: -0.005859375
range: 0.130730912089
velocity: 0.0
doppler_bin: 8
bearing: -76.1849746704
intensity: 30.141002655
---
header: 
  seq: 450950
  stamp: 
    secs: 1561866815
    nsecs: 186896113
  frame_id: "ti_mmwave"
point_id: 3
x: 0.056640625
y: -0.154296875
z: 0.005859375
range: 0.174307882786
velocity: 0.0
doppler_bin: 8
bearing: -69.8423843384
intensity: 25.4654273987
---
header: 
  seq: 450951
  stamp: 
    secs: 1561866815
    nsecs: 186907203
  frame_id: "ti_mmwave"
point_id: 4
x: 0.177734375
y: -0.080078125
z: 1.25390625
range: 1.35088610649
velocity: 0.0
doppler_bin: 8
bearing: -24.2539196014
intensity: 23.1175384521
---
header: 
  seq: 450952
  stamp: 
    secs: 1561866815
    nsecs: 186920774
  frame_id: "ti_mmwave"
point_id: 5
x: 0.060546875
y: -0.08203125
z: 1.3046875
range: 1.39446306229
velocity: 0.0
doppler_bin: 8
bearing: -53.5691413879
intensity: 24.6389293671
---
header: 
  seq: 450953
  stamp: 
    secs: 1561866815
    nsecs: 186935840
  frame_id: "ti_mmwave"
point_id: 6
x: 0.40234375
y: -0.083984375
z: -1.28515625
range: 1.43804001808
velocity: 0.0
doppler_bin: 8
bearing: -11.7905015945
intensity: 23.0749607086
---
header: 
  seq: 450954
  stamp: 
    secs: 1561866815
    nsecs: 186949173
  frame_id: "ti_mmwave"
point_id: 7
x: 1.45703125
y: 0.046875
z: -0.203125
range: 1.56877088547
velocity: 0.0
doppler_bin: 8
bearing: 1.84266018867
intensity: 26.9019603729
---
header: 
  seq: 450955
  stamp: 
    secs: 1561866815
    nsecs: 186964175
  frame_id: "ti_mmwave"
point_id: 8
x: 1.484375
y: 0.046875
z: -0.294921875
range: 1.61234796047
velocity: 0.0
doppler_bin: 8
bearing: 1.80873930454
intensity: 27.7815132141
---
header: 
  seq: 450956
  stamp: 
    secs: 1561866815
    nsecs: 186973511
  frame_id: "ti_mmwave"
point_id: 9
x: 1.72265625
y: 0.0546875
z: 0.349609375
range: 1.87380969524
velocity: 0.0
doppler_bin: 8
bearing: 1.81830310822
intensity: 28.9320678711
---
header: 
  seq: 450957
  stamp: 
    secs: 1561866815
    nsecs: 187142429
  frame_id: "ti_mmwave"
point_id: 10
x: 1.765625
y: -0.0
z: 0.34765625
range: 1.91738677025
velocity: 0.0
doppler_bin: 8
bearing: -0.0
intensity: 29.7680835724
---
header: 
  seq: 450958
  stamp: 
    secs: 1561866815
    nsecs: 187197308
  frame_id: "ti_mmwave"
point_id: 11
x: 1.806640625
y: -0.0
z: 0.34765625
range: 1.96096372604
velocity: 0.0
doppler_bin: 8
bearing: -0.0
intensity: 27.2181053162
---
header: 
  seq: 450959
  stamp: 
    secs: 1561866815
    nsecs: 187229620
  frame_id: "ti_mmwave"
point_id: 12
x: 2.609375
y: -0.17578125
z: 1.0625
range: 3.00681090355
velocity: 0.0
doppler_bin: 8
bearing: -3.85392260551
intensity: 28.9982051849
---
header: 
  seq: 450960
  stamp: 
    secs: 1561866815
    nsecs: 187246065
  frame_id: "ti_mmwave"
point_id: 13
x: 2.65625
y: -0.1796875
z: 1.056640625
range: 3.05038785934
velocity: 0.0
doppler_bin: 8
bearing: -3.86999511719
intensity: 32.1879806519
---
header: 
  seq: 450961
  stamp: 
    secs: 1561866815
    nsecs: 187259984
  frame_id: "ti_mmwave"
point_id: 14
x: 2.748046875
y: -0.08984375
z: 0.935546875
range: 3.09396481514
velocity: 0.0
doppler_bin: 8
bearing: -1.8725425005
intensity: 31.2188796997
---
header: 
  seq: 450962
  stamp: 
    secs: 1561866815
    nsecs: 187270879
  frame_id: "ti_mmwave"
point_id: 16
x: 0.041015625
y: -0.033203125
z: 0.0625
range: 0.0871539413929
velocity: 0.0
doppler_bin: 8
bearing: -38.9909973145
intensity: 30.1029987335
---
header: 
  seq: 450963
  stamp: 
    secs: 1561866815
    nsecs: 187410227
  frame_id: "ti_mmwave"
point_id: 17
x: 0.044921875
y: -0.046875
z: 0.103515625
range: 0.130730912089
velocity: 0.0
doppler_bin: 8
bearing: -46.218875885
intensity: 29.0091304779
---
header: 
  seq: 450964
  stamp: 
    secs: 1561866815
    nsecs: 187903112
  frame_id: "ti_mmwave"
point_id: 0
x: 0.01171875
y: -0.0390625
z: -0.0078125
range: 0.0435769706964
velocity: 0.0
doppler_bin: 8
bearing: -73.3007583618
intensity: 30.6408348083
---
header: 
  seq: 450965
  stamp: 
    secs: 1561866815
    nsecs: 187996241
  frame_id: "ti_mmwave"
point_id: 1
x: 0.017578125
y: -0.080078125
z: -0.0078125
range: 0.0871539413929
velocity: 0.0
doppler_bin: 8
bearing: -77.6192398071
intensity: 31.9117145538
---
header: 
  seq: 450966
  stamp: 
    secs: 1561866815
    nsecs: 188018603
  frame_id: "ti_mmwave"
point_id: 2
x: 0.029296875
y: -0.119140625
z: -0.005859375
range: 0.130730912089
velocity: 0.0
doppler_bin: 8
bearing: -76.1849746704
intensity: 30.141002655
---
header: 
  seq: 450967
  stamp: 
    secs: 1561866815
    nsecs: 188034026
  frame_id: "ti_mmwave"
point_id: 3
x: 0.056640625
y: -0.154296875
z: 0.005859375
range: 0.174307882786
velocity: 0.0
doppler_bin: 8
bearing: -69.8423843384
intensity: 25.4654273987
---
header: 
  seq: 450968
  stamp: 
    secs: 1561866815
    nsecs: 188047166
  frame_id: "ti_mmwave"
point_id: 4
x: 0.08203125
y: -0.080078125
z: 1.263671875
range: 1.35088610649
velocity: 0.0
doppler_bin: 8
bearing: -44.3097229004
intensity: 23.0963020325
---
header: 
  seq: 450969
  stamp: 
    secs: 1561866815
    nsecs: 188120931
  frame_id: "ti_mmwave"
point_id: 6
x: 0.412109375
y: -0.083984375
z: -1.283203125
range: 1.43804001808
velocity: 0.0
doppler_bin: 8
bearing: -11.518658638
intensity: 23.0102996826
---
header: 
  seq: 450970
  stamp: 
    secs: 1561866815
    nsecs: 188132416
  frame_id: "ti_mmwave"
point_id: 7
x: 1.7265625
y: 0.0546875
z: 0.33203125
range: 1.87380969524
velocity: 0.0
doppler_bin: 8
bearing: 1.81419193745
intensity: 28.70403862
---
header: 
  seq: 450971
  stamp: 
    secs: 1561866815
    nsecs: 188140565
  frame_id: "ti_mmwave"
point_id: 8
x: 1.759765625
y: 0.11328125
z: 0.361328125
range: 1.91738677025
velocity: 0.0
doppler_bin: 8
bearing: 3.68321442604
intensity: 29.9475688934
---
header: 
  seq: 450972
  stamp: 
    secs: 1561866815
    nsecs: 188149648
  frame_id: "ti_mmwave"
point_id: 9
x: 1.80078125
y: 0.056640625
z: 0.375
range: 1.96096372604
velocity: 0.0
doppler_bin: 8
bearing: 1.80155098438
intensity: 27.6863803864
---
header: 
  seq: 450973
  stamp: 
    secs: 1561866815
    nsecs: 188157774
  frame_id: "ti_mmwave"
point_id: 10
x: 2.623046875
y: -0.17578125
z: 1.02734375
range: 3.00681090355
velocity: 0.0
doppler_bin: 8
bearing: -3.83389568329
intensity: 28.9982051849
---
header: 
  seq: 450974
  stamp: 
    secs: 1561866815
    nsecs: 188165262
  frame_id: "ti_mmwave"
point_id: 11
x: 2.662109375
y: -0.1796875
z: 1.041015625
range: 3.05038785934
velocity: 0.0
doppler_bin: 8
bearing: -3.86150240898
intensity: 32.1537322998
---
header: 
  seq: 450975
  stamp: 
    secs: 1561866815
    nsecs: 188174496
  frame_id: "ti_mmwave"
point_id: 12
x: 2.75390625
y: -0.08984375
z: 0.919921875
range: 3.09396481514
velocity: 0.0
doppler_bin: 8
bearing: -1.86856126785
intensity: 31.1527767181
---
header: 
  seq: 450976
  stamp: 
    secs: 1561866815
    nsecs: 188182463
  frame_id: "ti_mmwave"
point_id: 13
x: 4.41796875
y: -0.142578125
z: 1.203125
range: 4.88062095642
velocity: 0.0
doppler_bin: 8
bearing: -1.84842634201
intensity: 29.8272342682
---
header: 
  seq: 450977
  stamp: 
    secs: 1561866815
    nsecs: 188189958
  frame_id: "ti_mmwave"
point_id: 14
x: 4.451171875
y: -0.14453125
z: 1.23828125
range: 4.9241976738
velocity: 0.0
doppler_bin: 8
bearing: -1.8597625494
intensity: 29.2634239197
---
header: 
  seq: 450978
  stamp: 
    secs: 1561866815
    nsecs: 188199204
  frame_id: "ti_mmwave"
point_id: 16
x: 0.041015625
y: -0.033203125
z: 0.0625
range: 0.0871539413929
velocity: 0.0
doppler_bin: 8
bearing: -38.9909973145
intensity: 30.1029987335
---
header: 
  seq: 450979
  stamp: 
    secs: 1561866815
    nsecs: 188206502
  frame_id: "ti_mmwave"
point_id: 17
x: 0.044921875
y: -0.046875
z: 0.103515625
range: 0.130730912089
velocity: 0.0
doppler_bin: 8
bearing: -46.218875885
intensity: 29.0091304779
---
header: 
  seq: 450980
  stamp: 
    secs: 1561866815
    nsecs: 246793929
  frame_id: "ti_mmwave"
point_id: 0
x: 0.01171875
y: -0.0390625
z: -0.0078125
range: 0.0435769706964
velocity: 0.0
doppler_bin: 8
bearing: -73.3007583618
intensity: 30.6483230591
---
header: 
  seq: 450981
  stamp: 
    secs: 1561866815
    nsecs: 246865851
  frame_id: "ti_mmwave"
point_id: 1
x: 0.017578125
y: -0.080078125
z: -0.0078125
range: 0.0871539413929
velocity: 0.0
doppler_bin: 8
bearing: -77.6192398071
intensity: 31.9117145538
---
header: 
  seq: 450982
  stamp: 
    secs: 1561866815
    nsecs: 246877094
  frame_id: "ti_mmwave"
point_id: 2
x: 0.029296875
y: -0.119140625
z: -0.005859375
range: 0.130730912089
velocity: 0.0
doppler_bin: 8
bearing: -76.1849746704
intensity: 30.141002655
---
header: 
  seq: 450983
  stamp: 
    secs: 1561866815
    nsecs: 246888572
  frame_id: "ti_mmwave"
point_id: 3
x: 0.056640625
y: -0.154296875
z: 0.005859375
range: 0.174307882786
velocity: 0.0
doppler_bin: 8
bearing: -69.8423843384
intensity: 25.4654273987
---
header: 
  seq: 450984
  stamp: 
    secs: 1561866815
    nsecs: 246897530
  frame_id: "ti_mmwave"
point_id: 4
x: 0.1484375
y: -0.080078125
z: 1.255859375
range: 1.35088610649
velocity: 0.0
doppler_bin: 8
bearing: -28.3456954956
intensity: 23.0963020325
---
header: 
  seq: 450985
  stamp: 
    secs: 1561866815
    nsecs: 246907405
  frame_id: "ti_mmwave"
point_id: 5
x: 0.048828125
y: -0.08203125
z: 1.3046875
range: 1.39446306229
velocity: 0.0
doppler_bin: 8
bearing: -59.2372817993
intensity: 24.6089782715
---
header: 
  seq: 450986
  stamp: 
    secs: 1561866815
    nsecs: 246916754
  frame_id: "ti_mmwave"
point_id: 6
x: 0.3984375
y: -0.083984375
z: -1.287109375
range: 1.43804001808
velocity: 0.0
doppler_bin: 8
bearing: -11.9028120041
intensity: 23.0535144806
---
header: 
  seq: 450987
  stamp: 
    secs: 1561866815
    nsecs: 246925677
  frame_id: "ti_mmwave"
point_id: 7
x: 0.513671875
y: -0.04296875
z: -1.29296875
range: 1.48161697388
velocity: 0.0
doppler_bin: 8
bearing: -4.78167009354
intensity: 21.6136798859
---
header: 
  seq: 450988
  stamp: 
    secs: 1561866815
    nsecs: 246933684
  frame_id: "ti_mmwave"
point_id: 8
x: 1.43359375
y: 0.046875
z: -0.3359375
range: 1.56877088547
velocity: 0.0
doppler_bin: 8
bearing: 1.87276422977
intensity: 26.812412262
---
header: 
  seq: 450989
  stamp: 
    secs: 1561866815
    nsecs: 246941879
  frame_id: "ti_mmwave"
point_id: 9
x: 1.484375
y: 0.046875
z: -0.294921875
range: 1.61234796047
velocity: 0.0
doppler_bin: 8
bearing: 1.80873930454
intensity: 29.2839584351
---
header: 
  seq: 450990
  stamp: 
    secs: 1561866815
    nsecs: 246950204
  frame_id: "ti_mmwave"
point_id: 10
x: 1.521484375
y: 0.09765625
z: -0.298828125
range: 1.65592491627
velocity: 0.0
doppler_bin: 8
bearing: 3.67248344421
intensity: 28.4509811401
---
header: 
  seq: 450991
  stamp: 
    secs: 1561866815
    nsecs: 246959426
  frame_id: "ti_mmwave"
point_id: 11
x: 2.619140625
y: -0.17578125
z: 1.037109375
range: 3.00681090355
velocity: 0.0
doppler_bin: 8
bearing: -3.83959650993
intensity: 29.0091304779
---
header: 
  seq: 450992
  stamp: 
    secs: 1561866815
    nsecs: 246969219
  frame_id: "ti_mmwave"
point_id: 12
x: 2.662109375
y: -0.1796875
z: 1.0390625
range: 3.05038785934
velocity: 0.0
doppler_bin: 8
bearing: -3.86150240898
intensity: 32.1695709229
---
header: 
  seq: 450993
  stamp: 
    secs: 1561866815
    nsecs: 246979517
  frame_id: "ti_mmwave"
point_id: 13
x: 2.755859375
y: -0.08984375
z: 0.912109375
range: 3.09396481514
velocity: 0.0
doppler_bin: 8
bearing: -1.86723792553
intensity: 31.095785141
---
header: 
  seq: 450994
  stamp: 
    secs: 1561866815
    nsecs: 246987813
  frame_id: "ti_mmwave"
point_id: 14
x: 4.39453125
y: -0.283203125
z: 1.111328125
range: 4.83704376221
velocity: 0.0
doppler_bin: 8
bearing: -3.6872959137
intensity: 28.7215633392
---
header: 
  seq: 450995
  stamp: 
    secs: 1561866815
    nsecs: 246995770
  frame_id: "ti_mmwave"
point_id: 15
x: 4.419921875
y: -0.142578125
z: 1.19921875
range: 4.88062095642
velocity: 0.0
doppler_bin: 8
bearing: -1.847610116
intensity: 32.2608413696
---
header: 
  seq: 450996
  stamp: 
    secs: 1561866815
    nsecs: 247161571
  frame_id: "ti_mmwave"
point_id: 16
x: 4.45703125
y: -0.14453125
z: 1.220703125
range: 4.9241976738
velocity: 0.0
doppler_bin: 8
bearing: -1.8573192358
intensity: 31.8069915771
---
header: 
  seq: 450997
  stamp: 
    secs: 1561866815
    nsecs: 247189796
  frame_id: "ti_mmwave"
point_id: 17
x: 4.814453125
y: -0.154296875
z: 0.94140625
range: 5.22923660278
velocity: 0.0
doppler_bin: 8
bearing: -1.83562576771
intensity: 30.1494026184
---
header: 
  seq: 450998
  stamp: 
    secs: 1561866815
    nsecs: 247203442
  frame_id: "ti_mmwave"
point_id: 18
x: 4.884765625
y: -0.30859375
z: 0.736328125
range: 5.27281332016
velocity: 0.0
doppler_bin: 8
bearing: -3.6148416996
intensity: 31.6106834412
---
header: 
  seq: 450999
  stamp: 
    secs: 1561866815
    nsecs: 247219643
  frame_id: "ti_mmwave"
point_id: 19
x: 4.966796875
y: -0.46875
z: 0.16015625
range: 5.31639051437
velocity: 0.0
doppler_bin: 8
bearing: -5.39141845703
intensity: 30.0518054962
---
header: 
  seq: 451000
  stamp: 
    secs: 1561866815
    nsecs: 247234176
  frame_id: "ti_mmwave"
point_id: 21
x: 0.041015625
y: -0.033203125
z: 0.0625
range: 0.0871539413929
velocity: 0.0
doppler_bin: 8
bearing: -38.9909973145
intensity: 30.0987567902
---
header: 
  seq: 451001
  stamp: 
    secs: 1561866815
    nsecs: 247246654
  frame_id: "ti_mmwave"
point_id: 22
x: 0.044921875
y: -0.046875
z: 0.103515625
range: 0.130730912089
velocity: 0.0
doppler_bin: 8
bearing: -46.218875885
intensity: 29.0145835876
---
header: 
  seq: 451002
  stamp: 
    secs: 1561866815
    nsecs: 247283473
  frame_id: "ti_mmwave"
point_id: 24
x: 1.529296875
y: -0.0
z: -0.27734375
range: 1.65592491627
velocity: 0.0
doppler_bin: 8
bearing: -0.0
intensity: 28.4260921478
---
header: 
  seq: 451003
  stamp: 
    secs: 1561866815
    nsecs: 247309108
  frame_id: "ti_mmwave"
point_id: 25
x: 4.412109375
y: -0.0
z: 1.07421875
range: 4.83704376221
velocity: 0.0
doppler_bin: 8
bearing: -0.0
intensity: 28.7098884583
---
header: 
  seq: 451004
  stamp: 
    secs: 1561866815
    nsecs: 248157292
  frame_id: "ti_mmwave"
point_id: 0
x: 0.01171875
y: -0.0390625
z: -0.0078125
range: 0.0435769706964
velocity: 0.0
doppler_bin: 8
bearing: -73.3007583618
intensity: 30.6483230591
---
header: 
  seq: 451005
  stamp: 
    secs: 1561866815
    nsecs: 248200756
  frame_id: "ti_mmwave"
point_id: 1
x: 0.017578125
y: -0.080078125
z: -0.0078125
range: 0.0871539413929
velocity: 0.0
doppler_bin: 8
bearing: -77.6192398071
intensity: 31.9145107269
---
header: 
  seq: 451006
  stamp: 
    secs: 1561866815
    nsecs: 248213558
  frame_id: "ti_mmwave"
point_id: 2
x: 0.029296875
y: -0.119140625
z: -0.005859375
range: 0.130730912089
velocity: 0.0
doppler_bin: 8
bearing: -76.1849746704
intensity: 30.141002655
---
header: 
  seq: 451007
  stamp: 
    secs: 1561866815
    nsecs: 248229983
  frame_id: "ti_mmwave"
point_id: 3
x: 0.056640625
y: -0.154296875
z: 0.005859375
range: 0.174307882786
velocity: 0.0
doppler_bin: 8
bearing: -69.8423843384
intensity: 25.4654273987
---
header: 
  seq: 451008
  stamp: 
    secs: 1561866815
    nsecs: 248304217
  frame_id: "ti_mmwave"
point_id: 4
x: 0.15625
y: -0.080078125
z: 1.255859375
range: 1.35088610649
velocity: 0.0
doppler_bin: 8
bearing: -27.1351394653
intensity: 23.1175384521
---
header: 
  seq: 451009
  stamp: 
    secs: 1561866815
    nsecs: 248321742
  frame_id: "ti_mmwave"
point_id: 5
x: 0.076171875
y: -0.08203125
z: 1.3046875
range: 1.39446306229
velocity: 0.0
doppler_bin: 8
bearing: -47.1210975647
intensity: 24.6538276672
---
header: 
  seq: 451010
  stamp: 
    secs: 1561866815
    nsecs: 248354935
  frame_id: "ti_mmwave"
point_id: 6
x: 0.396484375
y: -0.083984375
z: -1.287109375
range: 1.43804001808
velocity: 0.0
doppler_bin: 8
bearing: -11.9597616196
intensity: 23.0963020325
---
header: 
  seq: 451011
  stamp: 
    secs: 1561866815
    nsecs: 248364534
  frame_id: "ti_mmwave"
point_id: 7
x: 0.564453125
y: -0.04296875
z: -1.26953125
range: 1.48161697388
velocity: 0.0
doppler_bin: 8
bearing: -4.35321998596
intensity: 21.7026176453
---
header: 
  seq: 451012
  stamp: 
    secs: 1561866815
    nsecs: 248372697
  frame_id: "ti_mmwave"
point_id: 8
x: 1.484375
y: 0.09375
z: -0.28125
range: 1.61234796047
velocity: 0.0
doppler_bin: 8
bearing: 3.61388087273
intensity: 25.831987381
---
header: 
  seq: 451013
  stamp: 
    secs: 1561866815
    nsecs: 248403011
  frame_id: "ti_mmwave"
point_id: 9
x: 2.611328125
y: -0.17578125
z: 1.0546875
range: 3.00681090355
velocity: 0.0
doppler_bin: 8
bearing: -3.85104894638
intensity: 29.020029068
---
header: 
  seq: 451014
  stamp: 
    secs: 1561866815
    nsecs: 248412779
  frame_id: "ti_mmwave"
point_id: 10
x: 2.658203125
y: -0.1796875
z: 1.046875
range: 3.05038785934
velocity: 0.0
doppler_bin: 8
bearing: -3.86716008186
intensity: 32.1853561401
---
header: 
  seq: 451015
  stamp: 
    secs: 1561866815
    nsecs: 248421344
  frame_id: "ti_mmwave"
point_id: 11
x: 2.751953125
y: -0.08984375
z: 0.923828125
range: 3.09396481514
velocity: 0.0
doppler_bin: 8
bearing: -1.86988639832
intensity: 31.1494445801
---
header: 
  seq: 451016
  stamp: 
    secs: 1561866815
    nsecs: 248429038
  frame_id: "ti_mmwave"
point_id: 12
x: 4.392578125
y: -0.142578125
z: 1.14453125
range: 4.83704376221
velocity: 0.0
doppler_bin: 8
bearing: -1.85910367966
intensity: 28.6746749878
---
header: 
  seq: 451017
  stamp: 
    secs: 1561866815
    nsecs: 248436515
  frame_id: "ti_mmwave"
point_id: 13
x: 4.40625
y: -0.142578125
z: 1.25
range: 4.88062095642
velocity: 0.0
doppler_bin: 8
bearing: -1.85333895683
intensity: 31.9005146027
---
header: 
  seq: 451018
  stamp: 
    secs: 1561866815
    nsecs: 248455699
  frame_id: "ti_mmwave"
point_id: 14
x: 4.439453125
y: -0.14453125
z: 1.279296875
range: 4.9241976738
velocity: 0.0
doppler_bin: 8
bearing: -1.86466813087
intensity: 31.4332714081
---
header: 
  seq: 451019
  stamp: 
    secs: 1561866815
    nsecs: 248466069
  frame_id: "ti_mmwave"
point_id: 15
x: 4.787109375
y: -0.154296875
z: 1.078125
range: 5.22923660278
velocity: 0.0
doppler_bin: 8
bearing: -1.84610366821
intensity: 30.1283721924
---
header: 
  seq: 451020
  stamp: 
    secs: 1561866815
    nsecs: 248474755
  frame_id: "ti_mmwave"
point_id: 16
x: 4.8828125
y: -0.30859375
z: 0.751953125
range: 5.27281332016
velocity: 0.0
doppler_bin: 8
bearing: -3.61628341675
intensity: 31.8127174377
---
header: 
  seq: 451021
  stamp: 
    secs: 1561866815
    nsecs: 248483076
  frame_id: "ti_mmwave"
point_id: 17
x: 4.951171875
y: -0.623046875
z: 0.09765625
range: 5.31639051437
velocity: 0.0
doppler_bin: 8
bearing: -7.17230129242
intensity: 30.0518054962
---
header: 
  seq: 451022
  stamp: 
    secs: 1561866815
    nsecs: 248523298
  frame_id: "ti_mmwave"
point_id: 19
x: 0.041015625
y: -0.033203125
z: 0.0625
range: 0.0871539413929
velocity: 0.0
doppler_bin: 8
bearing: -38.9909973145
intensity: 30.0945091248
---
header: 
  seq: 451023
  stamp: 
    secs: 1561866815
    nsecs: 248533937
  frame_id: "ti_mmwave"
point_id: 20
x: 0.046875
y: -0.046875
z: 0.103515625
range: 0.130730912089
velocity: 0.0
doppler_bin: 8
bearing: -45.0
intensity: 29.0091304779
---
header: 
  seq: 451024
  stamp: 
    secs: 1561866815
    nsecs: 248545104
  frame_id: "ti_mmwave"
point_id: 22
x: 0.134765625
y: -0.42578125
z: 1.4453125
range: 1.61234796047
velocity: 0.0
doppler_bin: 8
bearing: -72.436706543
intensity: 23.7657699585
---
header: 
  seq: 451025
  stamp: 
    secs: 1561866815
    nsecs: 306857011
  frame_id: "ti_mmwave"
point_id: 0
x: 0.01171875
y: -0.0390625
z: -0.0078125
range: 0.0435769706964
velocity: 0.0
doppler_bin: 8
bearing: -73.3007583618
intensity: 30.6483230591
---
header: 
  seq: 451026
  stamp: 
    secs: 1561866815
    nsecs: 306929625
  frame_id: "ti_mmwave"
point_id: 1
x: 0.017578125
y: -0.080078125
z: -0.0078125
range: 0.0871539413929
velocity: 0.0
doppler_bin: 8
bearing: -77.6192398071
intensity: 31.9145107269
---
header: 
  seq: 451027
  stamp: 
    secs: 1561866815
    nsecs: 306944702
  frame_id: "ti_mmwave"
point_id: 2
x: 0.029296875
y: -0.119140625
z: -0.005859375
range: 0.130730912089
velocity: 0.0
doppler_bin: 8
bearing: -76.1849746704
intensity: 30.141002655
---
header: 
  seq: 451028
  stamp: 
    secs: 1561866815
    nsecs: 306953786
  frame_id: "ti_mmwave"
point_id: 3
x: 0.056640625
y: -0.154296875
z: 0.005859375
range: 0.174307882786
velocity: 0.0
doppler_bin: 8
bearing: -69.8423843384
intensity: 25.4654273987
---
header: 
  seq: 451029
  stamp: 
    secs: 1561866815
    nsecs: 306962452
  frame_id: "ti_mmwave"
point_id: 4
x: 0.146484375
y: -0.080078125
z: 1.2578125
range: 1.35088610649
velocity: 0.0
doppler_bin: 8
bearing: -28.6639575958
intensity: 23.138671875
---
header: 
  seq: 451030
  stamp: 
    secs: 1561866815
    nsecs: 306970522
  frame_id: "ti_mmwave"
point_id: 5
x: 0.033203125
y: -0.08203125
z: 1.306640625
range: 1.39446306229
velocity: 0.0
doppler_bin: 8
bearing: -67.9637680054
intensity: 24.6239795685
---
header: 
  seq: 451031
  stamp: 
    secs: 1561866815
    nsecs: 306980774
  frame_id: "ti_mmwave"
point_id: 6
x: 0.40234375
y: -0.083984375
z: -1.28515625
range: 1.43804001808
velocity: 0.0
doppler_bin: 8
bearing: -11.7905015945
intensity: 23.0963020325
---
header: 
  seq: 451032
  stamp: 
    secs: 1561866815
    nsecs: 306989886
  frame_id: "ti_mmwave"
point_id: 7
x: 1.74609375
y: 0.11328125
z: 0.423828125
range: 1.91738677025
velocity: 0.0
doppler_bin: 8
bearing: 3.71197390556
intensity: 26.5801143646
---
header: 
  seq: 451033
  stamp: 
    secs: 1561866815
    nsecs: 306998344
  frame_id: "ti_mmwave"
point_id: 8
x: 2.615234375
y: -0.17578125
z: 1.046875
range: 3.00681090355
velocity: 0.0
doppler_bin: 8
bearing: -3.84531402588
intensity: 28.9982051849
---
header: 
  seq: 451034
  stamp: 
    secs: 1561866815
    nsecs: 307006460
  frame_id: "ti_mmwave"
point_id: 9
x: 2.65625
y: -0.1796875
z: 1.052734375
range: 3.05038785934
velocity: 0.0
doppler_bin: 8
bearing: -3.86999511719
intensity: 32.1378326416
---
header: 
  seq: 451035
  stamp: 
    secs: 1561866815
    nsecs: 307015101
  frame_id: "ti_mmwave"
point_id: 10
x: 2.751953125
y: -0.08984375
z: 0.92578125
range: 3.09396481514
velocity: 0.0
doppler_bin: 8
bearing: -1.86988639832
intensity: 31.1327476501
---
header: 
  seq: 451036
  stamp: 
    secs: 1561866815
    nsecs: 307023447
  frame_id: "ti_mmwave"
point_id: 11
x: 4.396484375
y: -0.142578125
z: 1.279296875
range: 4.88062095642
velocity: 0.0
doppler_bin: 8
bearing: -1.85745286942
intensity: 30.6520614624
---
header: 
  seq: 451037
  stamp: 
    secs: 1561866815
    nsecs: 307032418
  frame_id: "ti_mmwave"
point_id: 12
x: 4.400390625
y: -0.14453125
