header: 
  seq: 557516
  stamp: 
    secs: 1561866982
    nsecs: 406705975
  frame_id: "ti_mmwave"
point_id: 0
x: 0.01171875
y: -0.0390625
z: -0.0078125
range: 0.0435769706964
velocity: 0.0
doppler_bin: 8
bearing: -73.3007583618
intensity: 30.6707077026
---
header: 
  seq: 557517
  stamp: 
    secs: 1561866982
    nsecs: 406781574
  frame_id: "ti_mmwave"
point_id: 1
x: 0.017578125
y: -0.080078125
z: -0.0078125
range: 0.0871539413929
velocity: 0.0
doppler_bin: 8
bearing: -77.6192398071
intensity: 31.9284610748
---
header: 
  seq: 557518
  stamp: 
    secs: 1561866982
    nsecs: 406796534
  frame_id: "ti_mmwave"
point_id: 2
x: 0.029296875
y: -0.119140625
z: -0.005859375
range: 0.130730912089
velocity: 0.0
doppler_bin: 8
bearing: -76.1849746704
intensity: 30.1535968781
---
header: 
  seq: 557519
  stamp: 
    secs: 1561866982
    nsecs: 406811332
  frame_id: "ti_mmwave"
point_id: 3
x: 0.056640625
y: -0.154296875
z: 0.0078125
range: 0.174307882786
velocity: 0.0
doppler_bin: 8
bearing: -69.8423843384
intensity: 25.490032196
---
header: 
  seq: 557520
  stamp: 
    secs: 1561866982
    nsecs: 406824177
  frame_id: "ti_mmwave"
point_id: 4
x: 0.1171875
y: -0.080078125
z: 1.259765625
range: 1.35088610649
velocity: 0.0
doppler_bin: 8
bearing: -34.3460998535
intensity: 23.0749607086
---
header: 
  seq: 557521
  stamp: 
    secs: 1561866982
    nsecs: 406893512
  frame_id: "ti_mmwave"
point_id: 5
x: 0.087890625
y: -0.08203125
z: 1.302734375
range: 1.39446306229
velocity: 0.0
doppler_bin: 8
bearing: -43.0250663757
intensity: 24.6239795685
---
header: 
  seq: 557522
  stamp: 
    secs: 1561866982
    nsecs: 406907942
  frame_id: "ti_mmwave"
point_id: 6
x: 0.380859375
y: -0.083984375
z: -1.29296875
range: 1.43804001808
velocity: 0.0
doppler_bin: 8
bearing: -12.4354419708
intensity: 23.0535144806
---
header: 
  seq: 557523
  stamp: 
    secs: 1561866982
    nsecs: 406918559
  frame_id: "ti_mmwave"
point_id: 7
x: 0.5390625
y: -0.04296875
z: -1.28125
range: 1.48161697388
velocity: 0.0
doppler_bin: 8
bearing: -4.55741930008
intensity: 21.6435279846
---
header: 
  seq: 557524
  stamp: 
    secs: 1561866982
    nsecs: 406929805
  frame_id: "ti_mmwave"
point_id: 8
x: 2.611328125
y: -0.17578125
z: 1.05859375
range: 3.00681090355
velocity: 0.0
doppler_bin: 8
bearing: -3.85104894638
intensity: 29.0254669189
---
header: 
  seq: 557525
  stamp: 
    secs: 1561866982
    nsecs: 406941506
  frame_id: "ti_mmwave"
point_id: 9
x: 2.689453125
y: -0.08984375
z: 0.98046875
range: 3.05038785934
velocity: 0.0
doppler_bin: 8
bearing: -1.91330885887
intensity: 32.2063102722
---
header: 
  seq: 557526
  stamp: 
    secs: 1561866982
    nsecs: 406953177
  frame_id: "ti_mmwave"
point_id: 10
x: 2.7734375
y: -0.0
z: 0.865234375
range: 3.09396481514
velocity: 0.0
doppler_bin: 8
bearing: -0.0
intensity: 31.1427726746
---
header: 
  seq: 557527
  stamp: 
    secs: 1561866982
    nsecs: 406965425
  frame_id: "ti_mmwave"
point_id: 11
x: 4.390625
y: -0.142578125
z: 1.30078125
range: 4.88062095642
velocity: 0.0
doppler_bin: 8
bearing: -1.85993003845
intensity: 31.3576850891
---
header: 
  seq: 557528
  stamp: 
    secs: 1561866982
    nsecs: 406977179
  frame_id: "ti_mmwave"
point_id: 12
x: 4.349609375
y: -0.14453125
z: 1.5546875
range: 4.9241976738
velocity: 0.0
doppler_bin: 8
bearing: -1.90315580368
intensity: 30.8350257874
---
header: 
  seq: 557529
  stamp: 
    secs: 1561866982
    nsecs: 406990248
  frame_id: "ti_mmwave"
point_id: 13
x: 4.73828125
y: -0.298828125
z: -0.59765625
range: 5.09850549698
velocity: 0.0
doppler_bin: 8
bearing: -3.60868048668
intensity: 33.4360542297
---
header: 
  seq: 557530
  stamp: 
    secs: 1561866982
    nsecs: 407002297
  frame_id: "ti_mmwave"
point_id: 14
x: 4.775390625
y: -0.30078125
z: -0.638671875
range: 5.14208269119
velocity: 0.0
doppler_bin: 8
bearing: -3.60405302048
intensity: 34.038066864
---
header: 
  seq: 557531
  stamp: 
    secs: 1561866982
    nsecs: 407015095
  frame_id: "ti_mmwave"
point_id: 15
x: 4.791015625
y: -0.3046875
z: -0.806640625
range: 5.18565940857
velocity: 0.0
doppler_bin: 8
bearing: -3.638859272
intensity: 30.3862018585
---
header: 
  seq: 557532
  stamp: 
    secs: 1561866982
    nsecs: 407028038
  frame_id: "ti_mmwave"
point_id: 16
x: 4.869140625
y: -0.30859375
z: 0.830078125
range: 5.27281332016
velocity: 0.0
doppler_bin: 8
bearing: -3.62641048431
intensity: 31.1226978302
---
header: 
  seq: 557533
  stamp: 
    secs: 1561866982
    nsecs: 407040589
  frame_id: "ti_mmwave"
point_id: 17
x: 4.9609375
y: -0.46875
z: 0.28515625
range: 5.31639051437
velocity: 0.0
doppler_bin: 8
bearing: -5.39774847031
intensity: 29.7772369385
---
header: 
  seq: 557534
  stamp: 
    secs: 1561866982
    nsecs: 407054742
  frame_id: "ti_mmwave"
point_id: 18
x: 1.3203125
y: 1.154296875
z: 0.142578125
range: 1.87380969524
velocity: 0.614668667316
doppler_bin: 9
bearing: 41.1619148254
intensity: 25.6229286194
---
header: 
  seq: 557535
  stamp: 
    secs: 1561866982
    nsecs: 407068668
  frame_id: "ti_mmwave"
point_id: 19
x: 1.306640625
y: 1.23828125
z: 0.0546875
range: 1.91738677025
velocity: 0.614668667316
doppler_bin: 9
bearing: 43.4613456726
intensity: 27.4115161896
---
header: 
  seq: 557536
  stamp: 
    secs: 1561866982
    nsecs: 407100589
  frame_id: "ti_mmwave"
point_id: 20
x: 1.279296875
y: 1.322265625
z: 0.01171875
range: 1.96096372604
velocity: 0.614668667316
doppler_bin: 9
bearing: 45.9462432861
intensity: 26.7760696411
---
header: 
  seq: 557537
  stamp: 
    secs: 1561866982
    nsecs: 407167160
  frame_id: "ti_mmwave"
point_id: 22
x: 0.041015625
y: -0.033203125
z: 0.0625
range: 0.0871539413929
velocity: 0.0
doppler_bin: 8
bearing: -38.9909973145
intensity: 30.1199302673
---
header: 
  seq: 557538
  stamp: 
    secs: 1561866982
    nsecs: 407183989
  frame_id: "ti_mmwave"
point_id: 23
x: 0.044921875
y: -0.046875
z: 0.103515625
range: 0.130730912089
velocity: 0.0
doppler_bin: 8
bearing: -46.218875885
intensity: 29.0363254547
---
header: 
  seq: 557539
  stamp: 
    secs: 1561866982
    nsecs: 408736143
  frame_id: "ti_mmwave"
point_id: 0
x: 0.01171875
y: -0.0390625
z: -0.0078125
range: 0.0435769706964
velocity: 0.0
doppler_bin: 8
bearing: -73.3007583618
intensity: 30.6744289398
---
header: 
  seq: 557540
  stamp: 
    secs: 1561866982
    nsecs: 408785631
  frame_id: "ti_mmwave"
point_id: 1
x: 0.017578125
y: -0.080078125
z: -0.0078125
range: 0.0871539413929
velocity: 0.0
doppler_bin: 8
bearing: -77.6192398071
intensity: 31.9340286255
---
header: 
  seq: 557541
  stamp: 
    secs: 1561866982
    nsecs: 408802439
  frame_id: "ti_mmwave"
point_id: 2
x: 0.029296875
y: -0.119140625
z: -0.005859375
range: 0.130730912089
velocity: 0.0
doppler_bin: 8
bearing: -76.1849746704
intensity: 30.157787323
---
header: 
  seq: 557542
  stamp: 
    secs: 1561866982
    nsecs: 408815418
  frame_id: "ti_mmwave"
point_id: 3
x: 0.056640625
y: -0.154296875
z: 0.005859375
range: 0.174307882786
velocity: 0.0
doppler_bin: 8
bearing: -69.8423843384
intensity: 25.4777469635
---
header: 
  seq: 557543
  stamp: 
    secs: 1561866982
    nsecs: 408967639
  frame_id: "ti_mmwave"
point_id: 4
x: 0.16015625
y: -0.080078125
z: 1.255859375
range: 1.35088610649
velocity: 0.0
doppler_bin: 8
bearing: -26.5650501251
intensity: 23.138671875
---
header: 
  seq: 557544
  stamp: 
    secs: 1561866982
    nsecs: 409007508
  frame_id: "ti_mmwave"
point_id: 5
x: 0.05859375
y: -0.08203125
z: 1.3046875
range: 1.39446306229
velocity: 0.0
doppler_bin: 8
bearing: -54.4623222351
intensity: 24.6686763763
---
header: 
  seq: 557545
  stamp: 
    secs: 1561866982
    nsecs: 409047548
  frame_id: "ti_mmwave"
point_id: 6
x: 0.390625
y: -0.083984375
z: -1.2890625
range: 1.43804001808
velocity: 0.0
doppler_bin: 8
bearing: -12.1338806152
intensity: 23.0963020325
---
header: 
  seq: 557546
  stamp: 
    secs: 1561866982
    nsecs: 409058017
  frame_id: "ti_mmwave"
point_id: 7
x: 2.619140625
y: -0.17578125
z: 1.0390625
range: 3.00681090355
velocity: 0.0
doppler_bin: 8
bearing: -3.83959650993
intensity: 29.0417442322
---
header: 
  seq: 557547
  stamp: 
    secs: 1561866982
    nsecs: 409085940
  frame_id: "ti_mmwave"
point_id: 8
x: 2.66015625
y: -0.1796875
z: 1.044921875
range: 3.05038785934
velocity: 0.0
doppler_bin: 8
bearing: -3.86432933807
intensity: 32.1800994873
---
header: 
  seq: 557548
  stamp: 
    secs: 1561866982
    nsecs: 409098554
  frame_id: "ti_mmwave"
point_id: 9
x: 2.75390625
y: -0.08984375
z: 0.919921875
range: 3.09396481514
velocity: 0.0
doppler_bin: 8
bearing: -1.86856126785
intensity: 31.205739975
---
header: 
  seq: 557549
  stamp: 
    secs: 1561866982
    nsecs: 409276065
  frame_id: "ti_mmwave"
point_id: 10
x: 4.396484375
y: -0.142578125
z: 1.279296875
range: 4.88062095642
velocity: 0.0
doppler_bin: 8
bearing: -1.85745286942
intensity: 31.3513259888
---
header: 
  seq: 557550
  stamp: 
    secs: 1561866982
    nsecs: 409294626
  frame_id: "ti_mmwave"
point_id: 11
x: 4.357421875
y: -0.14453125
z: 1.537109375
range: 4.9241976738
velocity: 0.0
doppler_bin: 8
bearing: -1.89974629879
intensity: 30.8671569824
---
header: 
  seq: 557551
  stamp: 
    secs: 1561866982
    nsecs: 409327834
  frame_id: "ti_mmwave"
point_id: 12
x: 4.7265625
y: -0.44921875
z: -0.609375
range: 5.09850549698
velocity: 0.0
doppler_bin: 8
bearing: -5.42915868759
intensity: 33.3666000366
---
header: 
  seq: 557552
  stamp: 
    secs: 1561866982
    nsecs: 409363827
  frame_id: "ti_mmwave"
point_id: 13
x: 4.783203125
y: -0.150390625
z: -0.62890625
range: 5.14208269119
velocity: 0.0
doppler_bin: 8
bearing: -1.80086648464
intensity: 33.9759254456
---
header: 
  seq: 557553
  stamp: 
    secs: 1561866982
    nsecs: 409380518
  frame_id: "ti_mmwave"
point_id: 14
x: 4.798828125
y: -0.15234375
z: -0.796875
range: 5.18565940857
velocity: 0.0
doppler_bin: 8
bearing: -1.81830310822
intensity: 30.4921798706
---
header: 
  seq: 557554
  stamp: 
    secs: 1561866982
    nsecs: 409395156
  frame_id: "ti_mmwave"
point_id: 15
x: 4.8984375
y: -0.30859375
z: 0.63671875
range: 5.27281332016
velocity: 0.0
doppler_bin: 8
bearing: -3.60477876663
intensity: 31.0856494904
---
header: 
  seq: 557555
  stamp: 
    secs: 1561866982
    nsecs: 409408876
  frame_id: "ti_mmwave"
point_id: 16
x: 4.951171875
y: -0.623046875
z: 0.041015625
range: 5.31639051437
velocity: 0.0
doppler_bin: 8
bearing: -7.17230129242
intensity: 29.7127590179
---
header: 
  seq: 557556
  stamp: 
    secs: 1561866982
    nsecs: 409424043
  frame_id: "ti_mmwave"
point_id: 17
x: 1.34375
y: 1.181640625
z: 0.19140625
range: 1.91738677025
velocity: 0.614668667316
doppler_bin: 9
bearing: 41.3271179199
intensity: 26.2428207397
---
header: 
  seq: 557557
  stamp: 
    secs: 1561866982
    nsecs: 409435756
  frame_id: "ti_mmwave"
point_id: 18
x: 1.271484375
y: 1.322265625
z: 0.15234375
range: 1.96096372604
velocity: 0.614668667316
doppler_bin: 9
bearing: 46.1216087341
intensity: 25.3402614594
---
header: 
  seq: 557558
  stamp: 
    secs: 1561866982
    nsecs: 409448054
  frame_id: "ti_mmwave"
point_id: 19
x: 1.296875
y: 1.3515625
z: 0.177734375
range: 2.00454068184
velocity: 0.614668667316
doppler_bin: 9
bearing: 46.1829299927
intensity: 25.1054496765
---
header: 
  seq: 557559
  stamp: 
    secs: 1561866982
    nsecs: 409462286
  frame_id: "ti_mmwave"
point_id: 21
x: 0.041015625
y: -0.033203125
z: 0.0625
range: 0.0871539413929
velocity: 0.0
doppler_bin: 8
bearing: -38.9909973145
intensity: 30.1157035828
---
header: 
  seq: 557560
  stamp: 
    secs: 1561866982
    nsecs: 409475344
  frame_id: "ti_mmwave"
point_id: 22
x: 0.044921875
y: -0.046875
z: 0.103515625
range: 0.130730912089
velocity: 0.0
doppler_bin: 8
bearing: -46.218875885
intensity: 29.0308990479
---
header: 
  seq: 557561
  stamp: 
    secs: 1561866982
    nsecs: 466852024
  frame_id: "ti_mmwave"
point_id: 0
x: 0.01171875
y: -0.0390625
z: -0.0078125
range: 0.0435769706964
velocity: 0.0
doppler_bin: 8
bearing: -73.3007583618
intensity: 30.6632595062
---
header: 
  seq: 557562
  stamp: 
    secs: 1561866982
    nsecs: 466923921
  frame_id: "ti_mmwave"
point_id: 1
x: 0.017578125
y: -0.080078125
z: -0.0078125
range: 0.0871539413929
velocity: 0.0
doppler_bin: 8
bearing: -77.6192398071
intensity: 31.9284610748
---
header: 
  seq: 557563
  stamp: 
    secs: 1561866982
    nsecs: 466939361
  frame_id: "ti_mmwave"
point_id: 2
x: 0.029296875
y: -0.119140625
z: -0.005859375
range: 0.130730912089
velocity: 0.0
doppler_bin: 8
bearing: -76.1849746704
intensity: 30.1535968781
---
header: 
  seq: 557564
  stamp: 
    secs: 1561866982
    nsecs: 466949840
  frame_id: "ti_mmwave"
point_id: 3
x: 0.056640625
y: -0.154296875
z: 0.005859375
range: 0.174307882786
velocity: 0.0
doppler_bin: 8
bearing: -69.8423843384
intensity: 25.4777469635
---
header: 
  seq: 557565
  stamp: 
    secs: 1561866982
    nsecs: 466958882
  frame_id: "ti_mmwave"
point_id: 4
x: 0.162109375
y: -0.080078125
z: 1.255859375
range: 1.35088610649
velocity: 0.0
doppler_bin: 8
bearing: -26.2882633209
intensity: 23.0963020325
---
header: 
  seq: 557566
  stamp: 
    secs: 1561866982
    nsecs: 466969548
  frame_id: "ti_mmwave"
point_id: 6
x: 0.42578125
y: -0.083984375
z: -1.27734375
range: 1.43804001808
velocity: 0.0
doppler_bin: 8
bearing: -11.1582231522
intensity: 23.031961441
---
header: 
  seq: 557567
  stamp: 
    secs: 1561866982
    nsecs: 466983387
  frame_id: "ti_mmwave"
point_id: 7
x: 0.5625
y: -0.04296875
z: -1.271484375
range: 1.48161697388
velocity: 0.0
doppler_bin: 8
bearing: -4.36827754974
intensity: 21.6136798859
---
header: 
  seq: 557568
  stamp: 
    secs: 1561866982
    nsecs: 467136427
  frame_id: "ti_mmwave"
point_id: 8
x: 2.611328125
y: -0.17578125
z: 1.0546875
range: 3.00681090355
velocity: 0.0
doppler_bin: 8
bearing: -3.85104894638
intensity: 29.0363254547
---
header: 
  seq: 557569
  stamp: 
    secs: 1561866982
    nsecs: 467175107
  frame_id: "ti_mmwave"
point_id: 9
x: 2.689453125
y: -0.08984375
z: 0.98046875
range: 3.05038785934
velocity: 0.0
doppler_bin: 8
bearing: -1.91330885887
intensity: 32.2010803223
---
header: 
  seq: 557570
  stamp: 
    secs: 1561866982
    nsecs: 467187340
  frame_id: "ti_mmwave"
point_id: 10
x: 2.75390625
y: -0.08984375
z: 0.919921875
range: 3.09396481514
velocity: 0.0
doppler_bin: 8
bearing: -1.86856126785
intensity: 31.225435257
---
header: 
  seq: 557571
  stamp: 
    secs: 1561866982
    nsecs: 467224541
  frame_id: "ti_mmwave"
point_id: 11
x: 4.392578125
y: -0.142578125
z: 1.29296875
range: 4.88062095642
velocity: 0.0
doppler_bin: 8
bearing: -1.85910367966
intensity: 31.3640346527
---
header: 
  seq: 557572
  stamp: 
    secs: 1561866982
    nsecs: 467236177
  frame_id: "ti_mmwave"
point_id: 12
x: 4.35546875
y: -0.14453125
z: 1.54296875
range: 4.9241976738
velocity: 0.0
doppler_bin: 8
bearing: -1.90059769154
intensity: 30.86003685
---
header: 
  seq: 557573
  stamp: 
    secs: 1561866982
    nsecs: 467244673
  frame_id: "ti_mmwave"
point_id: 13
x: 4.736328125
y: -0.298828125
z: -0.615234375
range: 5.09850549698
velocity: 0.0
doppler_bin: 8
bearing: -3.61016488075
intensity: 33.368598938
---
header: 
  seq: 557574
  stamp: 
    secs: 1561866982
    nsecs: 467253915
  frame_id: "ti_mmwave"
point_id: 14
x: 4.771484375
y: -0.30078125
z: -0.6640625
range: 5.14208269119
velocity: 0.0
doppler_bin: 8
bearing: -3.60699558258
intensity: 34.0346374512
---
header: 
  seq: 557575
  stamp: 
    secs: 1561866982
    nsecs: 467262219
  frame_id: "ti_mmwave"
point_id: 15
x: 4.783203125
y: -0.15234375
z: -0.89453125
range: 5.18565940857
velocity: 0.0
doppler_bin: 8
bearing: -1.82423877716
intensity: 30.496055603
---
header: 
  seq: 557576
  stamp: 
    secs: 1561866982
    nsecs: 467269653
  frame_id: "ti_mmwave"
point_id: 16
x: 4.8984375
y: -0.30859375
z: 0.640625
range: 5.27281332016
velocity: 0.0
doppler_bin: 8
bearing: -3.60477876663
intensity: 31.0346164703
---
header: 
  seq: 557577
  stamp: 
    secs: 1561866982
    nsecs: 467277594
  frame_id: "ti_mmwave"
point_id: 17
x: 4.966796875
y: -0.46875
z: 0.15234375
range: 5.31639051437
velocity: 0.0
doppler_bin: 8
bearing: -5.39141845703
intensity: 29.6567192078
---
header: 
  seq: 557578
  stamp: 
    secs: 1561866982
    nsecs: 467285712
  frame_id: "ti_mmwave"
point_id: 18
x: 1.3515625
y: 1.181640625
z: 0.126953125
range: 1.91738677025
velocity: 0.614668667316
doppler_bin: 9
bearing: 41.1624679565
intensity: 28.1690387726
---
header: 
  seq: 557579
  stamp: 
    secs: 1561866982
    nsecs: 467294328
  frame_id: "ti_mmwave"
point_id: 19
x: 1.388671875
y: 1.208984375
z: 0.013671875
range: 1.96096372604
velocity: 0.614668667316
doppler_bin: 9
bearing: 41.0429840088
intensity: 28.0888595581
---
header: 
  seq: 557580
  stamp: 
    secs: 1561866982
    nsecs: 467304203
  frame_id: "ti_mmwave"
point_id: 20
x: 1.388671875
y: 1.322265625
z: 0.15234375
range: 2.04811763763
velocity: 0.614668667316
doppler_bin: 9
bearing: 43.5967826843
intensity: 24.7421627045
---
header: 
  seq: 557581
  stamp: 
    secs: 1561866982
    nsecs: 467330847
  frame_id: "ti_mmwave"
point_id: 22
x: 0.041015625
y: -0.033203125
z: 0.0625
range: 0.0871539413929
velocity: 0.0
doppler_bin: 8
bearing: -38.9909973145
intensity: 30.1157035828
---
header: 
  seq: 557582
  stamp: 
    secs: 1561866982
    nsecs: 467350166
  frame_id: "ti_mmwave"
point_id: 23
x: 0.044921875
y: -0.046875
z: 0.103515625
range: 0.130730912089
velocity: 0.0
doppler_bin: 8
bearing: -46.218875885
intensity: 29.0254669189
---
header: 
  seq: 557583
  stamp: 
    secs: 1561866982
    nsecs: 468388507
  frame_id: "ti_mmwave"
point_id: 0
x: 0.01171875
y: -0.0390625
z: -0.0078125
range: 0.0435769706964
velocity: 0.0
doppler_bin: 8
bearing: -73.3007583618
intensity: 30.6632595062
---
header: 
  seq: 557584
  stamp: 
    secs: 1561866982
    nsecs: 468471037
  frame_id: "ti_mmwave"
point_id: 1
x: 0.017578125
y: -0.080078125
z: -0.0078125
range: 0.0871539413929
velocity: 0.0
doppler_bin: 8
bearing: -77.6192398071
intensity: 31.9284610748
---
header: 
  seq: 557585
  stamp: 
    secs: 1561866982
    nsecs: 468490871
  frame_id: "ti_mmwave"
point_id: 2
x: 0.029296875
y: -0.119140625
z: -0.005859375
range: 0.130730912089
velocity: 0.0
doppler_bin: 8
bearing: -76.1849746704
intensity: 30.1494026184
---
header: 
  seq: 557586
  stamp: 
    secs: 1561866982
    nsecs: 468503816
  frame_id: "ti_mmwave"
point_id: 3
x: 0.056640625
y: -0.154296875
z: 0.0078125
range: 0.174307882786
velocity: 0.0
doppler_bin: 8
bearing: -69.8423843384
intensity: 25.4654273987
---
header: 
  seq: 557587
  stamp: 
    secs: 1561866982
    nsecs: 468518458
  frame_id: "ti_mmwave"
point_id: 4
x: 0.14453125
y: -0.080078125
z: 1.2578125
range: 1.35088610649
velocity: 0.0
doppler_bin: 8
bearing: -28.9888248444
intensity: 23.1175384521
---
header: 
  seq: 557588
  stamp: 
    secs: 1561866982
    nsecs: 468533533
  frame_id: "ti_mmwave"
point_id: 5
x: 0.056640625
y: -0.08203125
z: 1.3046875
range: 1.39446306229
velocity: 0.0
doppler_bin: 8
bearing: -55.3758430481
intensity: 24.6538276672
---
header: 
  seq: 557589
  stamp: 
    secs: 1561866982
    nsecs: 468544837
  frame_id: "ti_mmwave"
point_id: 6
x: 0.412109375
y: -0.083984375
z: -1.283203125
range: 1.43804001808
velocity: 0.0
doppler_bin: 8
bearing: -11.518658638
intensity: 23.0749607086
---
header: 
  seq: 557590
  stamp: 
    secs: 1561866982
    nsecs: 468557191
  frame_id: "ti_mmwave"
point_id: 7
x: 2.615234375
y: -0.17578125
z: 1.046875
range: 3.00681090355
velocity: 0.0
doppler_bin: 8
bearing: -3.84531402588
intensity: 29.0417442322
---
header: 
  seq: 557591
  stamp: 
    secs: 1561866982
    nsecs: 468568627
  frame_id: "ti_mmwave"
point_id: 8
x: 2.69140625
y: -0.08984375
z: 0.974609375
range: 3.05038785934
velocity: 0.0
doppler_bin: 8
bearing: -1.91192126274
intensity: 32.2167510986
---
header: 
  seq: 557592
  stamp: 
    secs: 1561866982
    nsecs: 468580909
  frame_id: "ti_mmwave"
point_id: 9
x: 2.7734375
y: -0.0
z: 0.859375
range: 3.09396481514
velocity: 0.0
doppler_bin: 8
bearing: -0.0
intensity: 31.1461105347
---
header: 
  seq: 557593
  stamp: 
    secs: 1561866982
    nsecs: 468776382
  frame_id: "ti_mmwave"
point_id: 10
x: 4.39453125
y: -0.142578125
z: 1.287109375
range: 4.88062095642
velocity: 0.0
doppler_bin: 8
bearing: -1.8582777977
intensity: 31.332195282
---
header: 
  seq: 557594
  stamp: 
    secs: 1561866982
    nsecs: 468797803
  frame_id: "ti_mmwave"
point_id: 11
x: 4.353515625
y: -0.14453125
z: 1.548828125
range: 4.9241976738
velocity: 0.0
doppler_bin: 8
bearing: -1.90144956112
intensity: 30.8635978699
---
header: 
  seq: 557595
  stamp: 
    secs: 1561866982
    nsecs: 468806840
  frame_id: "ti_mmwave"
point_id: 12
x: 4.736328125
y: -0.298828125
z: -0.61328125
range: 5.09850549698
velocity: 0.0
doppler_bin: 8
bearing: -3.61016488075
intensity: 33.4340858459
---
header: 
  seq: 557596
  stamp: 
    secs: 1561866982
    nsecs: 468878565
  frame_id: "ti_mmwave"
point_id: 13
x: 4.771484375
y: -0.30078125
z: -0.66015625
range: 5.14208269119
velocity: 0.0
doppler_bin: 8
bearing: -3.60699558258
intensity: 34.0312042236
---
header: 
  seq: 557597
  stamp: 
    secs: 1561866982
    nsecs: 468888587
  frame_id: "ti_mmwave"
point_id: 14
x: 4.779296875
y: -0.3046875
z: -0.876953125
range: 5.18565940857
velocity: 0.0
doppler_bin: 8
bearing: -3.64775729179
intensity: 30.2978954315
---
header: 
  seq: 557598
  stamp: 
    secs: 1561866982
    nsecs: 468893601
  frame_id: "ti_mmwave"
point_id: 15
x: 4.884765625
y: -0.30859375
z: 0.732421875
range: 5.27281332016
velocity: 0.0
doppler_bin: 8
bearing: -3.6148416996
intensity: 30.9760437012
---
header: 
  seq: 557599
  stamp: 
    secs: 1561866982
    nsecs: 468947394
  frame_id: "ti_mmwave"
point_id: 16
x: 4.951171875
y: -0.623046875
z: -0.04296875
range: 5.31639051437
velocity: 0.0
doppler_bin: 8
bearing: -7.17230129242
intensity: 29.670797348
---
header: 
  seq: 557600
  stamp: 
    secs: 1561866982
    nsecs: 468956284
  frame_id: "ti_mmwave"
point_id: 17
x: 1.384765625
y: 1.125
z: 0.234375
range: 1.91738677025
velocity: 0.614668667316
doppler_bin: 9
bearing: 39.0908164978
intensity: 26.3848934174
---
header: 
  seq: 557601
  stamp: 
    secs: 1561866982
    nsecs: 468966239
  frame_id: "ti_mmwave"
point_id: 18
x: 1.427734375
y: 1.09375
z: 0.396484375
range: 1.96096372604
velocity: 0.614668667316
doppler_bin: 9
bearing: 37.4547843933
intensity: 25.2633934021
---
header: 
  seq: 557602
  stamp: 
    secs: 1561866982
    nsecs: 468980567
  frame_id: "ti_mmwave"
point_id: 20
x: 0.041015625
y: -0.033203125
z: 0.0625
range: 0.0871539413929
velocity: 0.0
doppler_bin: 8
bearing: -38.9909973145
intensity: 30.1157035828
---
header: 
  seq: 557603
  stamp: 
    secs: 1561866982
    nsecs: 468992969
  frame_id: "ti_mmwave"
point_id: 21
x: 0.044921875
y: -0.046875
z: 0.103515625
range: 0.130730912089
velocity: 0.0
doppler_bin: 8
bearing: -46.218875885
intensity: 29.0308990479
---
header: 
  seq: 557604
  stamp: 
    secs: 1561866982
    nsecs: 469007687
  frame_id: "ti_mmwave"
point_id: 23
x: 2.732421875
y: -0.181640625
z: 0.966796875
range: 3.09396481514
velocity: 0.0
doppler_bin: 8
bearing: -3.80320167542
intensity: 31.1394329071
---
header: 
  seq: 557605
  stamp: 
    secs: 1561866982
    nsecs: 527101455
  frame_id: "ti_mmwave"
point_id: 0
x: 0.01171875
y: -0.0390625
z: -0.0078125
range: 0.0435769706964
velocity: 0.0
doppler_bin: 8
bearing: -73.3007583618
intensity: 30.6632595062
---
header: 
  seq: 557606
  stamp: 
    secs: 1561866982
    nsecs: 527186774
  frame_id: "ti_mmwave"
point_id: 1
x: 0.017578125
y: -0.080078125
z: -0.0078125
range: 0.0871539413929
velocity: 0.0
doppler_bin: 8
bearing: -77.6192398071
intensity: 31.9284610748
---
header: 
  seq: 557607
  stamp: 
    secs: 1561866982
    nsecs: 527207820
  frame_id: "ti_mmwave"
point_id: 2
x: 0.029296875
y: -0.119140625
z: -0.005859375
range: 0.130730912089
velocity: 0.0
doppler_bin: 8
bearing: -76.1849746704
intensity: 30.1494026184
---
header: 
  seq: 557608
  stamp: 
    secs: 1561866982
    nsecs: 527219607
  frame_id: "ti_mmwave"
point_id: 3
x: 0.056640625
y: -0.154296875
z: 0.0078125
range: 0.174307882786
velocity: 0.0
doppler_bin: 8
bearing: -69.8423843384
intensity: 25.4777469635
---
header: 
  seq: 557609
  stamp: 
    secs: 1561866982
    nsecs: 527231855
  frame_id: "ti_mmwave"
point_id: 4
x: 0.087890625
y: -0.080078125
z: 1.26171875
range: 1.35088610649
velocity: 0.0
doppler_bin: 8
bearing: -42.3369979858
intensity: 23.0963020325
---
header: 
  seq: 557610
  stamp: 
    secs: 1561866982
    nsecs: 527243649
  frame_id: "ti_mmwave"
point_id: 5
x: 0.041015625
y: -0.08203125
z: -1.306640625
range: 1.39446306229
velocity: 0.0
doppler_bin: 8
bearing: -63.4349517822
intensity: 24.6389293671
---
header: 
  seq: 557611
  stamp: 
    secs: 1561866982
    nsecs: 527255113
  frame_id: "ti_mmwave"
point_id: 6
x: 0.4296875
y: -0.083984375
z: -1.27734375
range: 1.43804001808
velocity: 0.0
doppler_bin: 8
bearing: -11.0592975616
intensity: 23.0963020325
---
header: 
  seq: 557612
  stamp: 
    secs: 1561866982
    nsecs: 527269368
  frame_id: "ti_mmwave"
point_id: 7
x: 0.55859375
y: -0.04296875
z: -1.2734375
range: 1.48161697388
velocity: 0.0
doppler_bin: 8
bearing: -4.39870548248
intensity: 21.6435279846
---
header: 
  seq: 557613
  stamp: 
    secs: 1561866982
    nsecs: 527283531
  frame_id: "ti_mmwave"
point_id: 8
x: 2.6171875
y: -0.17578125
z: 1.041015625
range: 3.00681090355
velocity: 0.0
doppler_bin: 8
bearing: -3.84245300293
intensity: 29.0417442322
---
header: 
  seq: 557614
  stamp: 
    secs: 1561866982
    nsecs: 527301975
  frame_id: "ti_mmwave"
point_id: 9
x: 2.689453125
y: -0.08984375
z: 0.978515625
range: 3.05038785934
velocity: 0.0
doppler_bin: 8
bearing: -1.91330885887
intensity: 32.2141418457
---
header: 
  seq: 557615
  stamp: 
    secs: 1561866982
    nsecs: 527397254
  frame_id: "ti_mmwave"
point_id: 10
x: 2.76953125
y: -0.0
z: 0.875
range: 3.09396481514
velocity: 0.0
doppler_bin: 8
bearing: -0.0
intensity: 31.1527767181
---
header: 
  seq: 557616
  stamp: 
    secs: 1561866982
    nsecs: 527412904
  frame_id: "ti_mmwave"
point_id: 11
x: 4.39453125
y: -0.142578125
z: 1.2890625
range: 4.88062095642
velocity: 0.0
doppler_bin: 8
bearing: -1.8582777977
intensity: 31.332195282
---
header: 
  seq: 557617
  stamp: 
    secs: 1561866982
    nsecs: 527425668
  frame_id: "ti_mmwave"
point_id: 12
x: 4.353515625
y: -0.14453125
z: 1.546875
range: 4.9241976738
velocity: 0.0
doppler_bin: 8
bearing: -1.90144956112
intensity: 30.8457622528
---
header: 
  seq: 557618
  stamp: 
    secs: 1561866982
    nsecs: 527438558
  frame_id: "ti_mmwave"
point_id: 13
x: 4.73828125
y: -0.298828125
z: -0.609375
range: 5.09850549698
velocity: 0.0
doppler_bin: 8
bearing: -3.60868048668
intensity: 33.4458885193
---
header: 
  seq: 557619
  stamp: 
    secs: 1561866982
    nsecs: 527450855
  frame_id: "ti_mmwave"
point_id: 14
x: 4.7734375
y: -0.30078125
z: -0.6484375
range: 5.14208269119
velocity: 0.0
doppler_bin: 8
bearing: -3.60552406311
intensity: 34.0414924622
---
header: 
  seq: 557620
  stamp: 
    secs: 1561866982
    nsecs: 527461368
  frame_id: "ti_mmwave"
point_id: 15
x: 4.77734375
y: -0.3046875
z: -0.880859375
range: 5.18565940857
velocity: 0.0
doppler_bin: 8
bearing: -3.64924454689
intensity: 30.3221569061
---
header: 
  seq: 557621
  stamp: 
    secs: 1561866982
    nsecs: 527471613
  frame_id: "ti_mmwave"
point_id: 16
x: 4.880859375
y: -0.30859375
z: 0.759765625
range: 5.27281332016
velocity: 0.0
doppler_bin: 8
bearing: -3.61772704124
intensity: 31.0243377686
---
header: 
  seq: 557622
  stamp: 
    secs: 1561866982
    nsecs: 527479600
  frame_id: "ti_mmwave"
point_id: 17
x: 4.94921875
y: -0.623046875
z: 0.126953125
range: 5.31639051437
velocity: 0.0
doppler_bin: 8
bearing: -7.17510271072
intensity: 29.7034683228
---
header: 
  seq: 557623
  stamp: 
    secs: 1561866982
    nsecs: 527488143
  frame_id: "ti_mmwave"
point_id: 18
x: 1.37890625
y: 1.208984375
z: 0.171875
range: 1.96096372604
velocity: 0.614668667316
doppler_bin: 9
bearing: 41.2433280945
intensity: 26.6558094025
---
header: 
  seq: 557624
  stamp: 
    secs: 1561866982
    nsecs: 527493346
  frame_id: "ti_mmwave"
point_id: 19
x: 1.416015625
y: 1.234375
z: 0.09765625
range: 2.00454068184
velocity: 0.614668667316
doppler_bin: 9
bearing: 41.0794487
intensity: 25.4157924652
---
header: 
  seq: 557625
  stamp: 
    secs: 1561866982
    nsecs: 527522130
  frame_id: "ti_mmwave"
point_id: 21
x: 0.041015625
y: -0.033203125
z: 0.0625
range: 0.0871539413929
velocity: 0.0
doppler_bin: 8
bearing: -38.9909973145
intensity: 30.1157035828
---
header: 
  seq: 557626
  stamp: 
    secs: 1561866982
    nsecs: 527541425
  frame_id: "ti_mmwave"
point_id: 22
x: 0.044921875
y: -0.046875
z: 0.103515625
range: 0.130730912089
velocity: 0.0
doppler_bin: 8
bearing: -46.218875885
intensity: 29.0308990479
---
header: 
  seq: 557627
  stamp: 
    secs: 1561866982
    nsecs: 527558395
  frame_id: "ti_mmwave"
point_id: 24
x: 2.728515625
y: -0.181640625
z: 0.98046875
range: 3.09396481514
velocity: 0.0
doppler_bin: 8
bearing: -3.80863046646
intensity: 31.1394329071
---
header: 
  seq: 557628
  stamp: 
    secs: 1561866982
    nsecs: 587025410
  frame_id: "ti_mmwave"
point_id: 0
x: 0.01171875
y: -0.0390625
z: -0.0078125
range: 0.0435769706964
velocity: 0.0
doppler_bin: 8
bearing: -73.3007583618
intensity: 30.6669845581
---
header: 
  seq: 557629
  stamp: 
    secs: 1561866982
    nsecs: 587103607
  frame_id: "ti_mmwave"
point_id: 1
x: 0.017578125
y: -0.080078125
z: -0.0078125
range: 0.0871539413929
velocity: 0.0
doppler_bin: 8
bearing: -77.6192398071
intensity: 31.9284610748
---
header: 
  seq: 557630
  stamp: 
    secs: 1561866982
    nsecs: 587115180
  frame_id: "ti_mmwave"
point_id: 2
x: 0.029296875
y: -0.119140625
z: -0.005859375
range: 0.130730912089
velocity: 0.0
doppler_bin: 8
bearing: -76.1849746704
intensity: 30.1535968781
---
header: 
  seq: 557631
  stamp: 
    secs: 1561866982
    nsecs: 587124045
  frame_id: "ti_mmwave"
point_id: 3
x: 0.056640625
y: -0.154296875
z: 0.005859375
range: 0.174307882786
velocity: 0.0
doppler_bin: 8
bearing: -69.8423843384
intensity: 25.490032196
---
header: 
  seq: 557632
  stamp: 
    secs: 1561866982
    nsecs: 587135303
  frame_id: "ti_mmwave"
point_id: 4
x: 0.10546875
y: -0.080078125
z: 1.26171875
range: 1.35088610649
velocity: 0.0
doppler_bin: 8
bearing: -37.2079238892
intensity: 23.0963020325
---
header: 
  seq: 557633
  stamp: 
    secs: 1561866982
    nsecs: 587147435
  frame_id: "ti_mmwave"
point_id: 6
x: 0.435546875
y: -0.083984375
z: -1.275390625
range: 1.43804001808
velocity: 0.0
doppler_bin: 8
bearing: -10.9141130447
intensity: 23.0535144806
---
header: 
  seq: 557634
  stamp: 
    secs: 1561866982
    nsecs: 587156643
  frame_id: "ti_mmwave"
point_id: 7
x: 0.57421875
y: -0.04296875
z: -1.265625
range: 1.48161697388
velocity: 0.0
doppler_bin: 8
bearing: -4.27946329117
intensity: 21.5836257935
---
header: 
  seq: 557635
  stamp: 
    secs: 1561866982
    nsecs: 587171874
  frame_id: "ti_mmwave"
point_id: 8
x: 2.6171875
y: -0.17578125
z: 1.044921875
range: 3.00681090355
velocity: 0.0
doppler_bin: 8
bearing: -3.84245300293
intensity: 29.0145835876
---
header: 
  seq: 557636
  stamp: 
    secs: 1561866982
    nsecs: 587186297
  frame_id: "ti_mmwave"
point_id: 9
x: 2.689453125
y: -0.08984375
z: 0.9765625
range: 3.05038785934
velocity: 0.0
doppler_bin: 8
bearing: -1.91330885887
intensity: 32.1958465576
---
header: 
  seq: 557637
  stamp: 
    secs: 1561866982
    nsecs: 587199836
  frame_id: "ti_mmwave"
point_id: 10
x: 2.75390625
y: -0.08984375
z: 0.919921875
range: 3.09396481514
velocity: 0.0
doppler_bin: 8
bearing: -1.86856126785
intensity: 31.2123146057
---
header: 
  seq: 557638
  stamp: 
    secs: 1561866982
    nsecs: 587207773
  frame_id: "ti_mmwave"
point_id: 11
x: 4.39453125
y: -0.142578125
z: 1.291015625
range: 4.88062095642
velocity: 0.0
doppler_bin: 8
bearing: -1.8582777977
intensity: 31.3576850891
---
header: 
  seq: 557639
  stamp: 
    secs: 1561866982
    nsecs: 587221057
  frame_id: "ti_mmwave"
point_id: 12
x: 4.353515625
y: -0.14453125
z: 1.548828125
range: 4.9241976738
velocity: 0.0
doppler_bin: 8
bearing: -1.90144956112
intensity: 30.8493366241
---
header: 
  seq: 557640
  stamp: 
    secs: 1561866982
    nsecs: 587231262
  frame_id: "ti_mmwave"
point_id: 13
x: 4.736328125
y: -0.298828125
z: -0.615234375
range: 5.09850549698
velocity: 0.0
doppler_bin: 8
bearing: -3.61016488075
intensity: 33.3785858154
---
header: 
  seq: 557641
  stamp: 
    secs: 1561866982
    nsecs: 587396773
  frame_id: "ti_mmwave"
point_id: 14
x: 4.7734375
y: -0.30078125
z: -0.65625
range: 5.14208269119
velocity: 0.0
doppler_bin: 8
bearing: -3.60552406311
intensity: 34.0329208374
---
header: 
  seq: 557642
  stamp: 
    secs: 1561866982
    nsecs: 587415795
  frame_id: "ti_mmwave"
point_id: 15
x: 4.796875
y: -0.15234375
z: -0.8203125
range: 5.18565940857
velocity: 0.0
doppler_bin: 8
bearing: -1.81904268265
intensity: 30.4139270782
---
header: 
  seq: 557643
  stamp: 
    secs: 1561866982
    nsecs: 587424567
  frame_id: "ti_mmwave"
point_id: 16
x: 4.900390625
y: -0.30859375
z: 0.623046875
range: 5.27281332016
velocity: 0.0
doppler_bin: 8
bearing: -3.60334610939
intensity: 31.027765274
---
header: 
  seq: 557644
  stamp: 
    secs: 1561866982
    nsecs: 587433018
  frame_id: "ti_mmwave"
point_id: 17
x: 4.966796875
y: -0.46875
z: -0.1015625
range: 5.31639051437
velocity: 0.0
doppler_bin: 8
bearing: -5.39141845703
intensity: 29.5760726929
---
header: 
  seq: 557645
  stamp: 
    secs: 1561866982
    nsecs: 587443368
  frame_id: "ti_mmwave"
point_id: 19
x: 0.041015625
y: -0.033203125
z: 0.0625
range: 0.0871539413929
velocity: 0.0
doppler_bin: 8
bearing: -38.9909973145
intensity: 30.1157035828
---
header: 
  seq: 557646
  stamp: 
    secs: 1561866982
    nsecs: 587470581
  frame_id: "ti_mmwave"
point_id: 20
x: 0.044921875
y: -0.046875
z: 0.103515625
range: 0.130730912089
velocity: 0.0
doppler_bin: 8
bearing: -46.218875885
intensity: 29.0363254547
---
header: 
  seq: 557647
  stamp: 
    secs: 1561866982
    nsecs: 588353058
  frame_id: "ti_mmwave"
point_id: 0
x: 0.01171875
y: -0.0390625
z: -0.0078125
range: 0.0435769706964
velocity: 0.0
doppler_bin: 8
bearing: -73.3007583618
intensity: 30.6595306396
---
header: 
  seq: 557648
  stamp: 
    secs: 1561866982
    nsecs: 588406364
  frame_id: "ti_mmwave"
point_id: 1
x: 0.017578125
y: -0.080078125
z: -0.0078125
range: 0.0871539413929
velocity: 0.0
doppler_bin: 8
bearing: -77.6192398071
intensity: 31.9284610748
---
header: 
  seq: 557649
  stamp: 
    secs: 1561866982
    nsecs: 588417102
  frame_id: "ti_mmwave"
point_id: 2
x: 0.029296875
y: -0.119140625
z: -0.005859375
range: 0.130730912089
velocity: 0.0
doppler_bin: 8
bearing: -76.1849746704
intensity: 30.1535968781
---
header: 
  seq: 557650
  stamp: 
    secs: 1561866982
    nsecs: 588425587
  frame_id: "ti_mmwave"
point_id: 3
x: 0.056640625
y: -0.154296875
z: 0.0078125
range: 0.174307882786
velocity: 0.0
doppler_bin: 8
bearing: -69.8423843384
intensity: 25.490032196
---
header: 
  seq: 557651
  stamp: 
    secs: 1561866982
    nsecs: 588434308
  frame_id: "ti_mmwave"
point_id: 4
x: 0.126953125
y: -0.080078125
z: 1.259765625
range: 1.35088610649
velocity: 0.0
doppler_bin: 8
bearing: -32.2424697876
intensity: 23.0963020325
---
header: 
  seq: 557652
  stamp: 
    secs: 1561866982
    nsecs: 588444748
  frame_id: "ti_mmwave"
point_id: 6
x: 0.4375
y: -0.083984375
z: -1.2734375
range: 1.43804001808
velocity: 0.0
doppler_bin: 8
bearing: -10.8665513992
intensity: 23.0535144806
---
header: 
  seq: 557653
  stamp: 
    secs: 1561866982
    nsecs: 588454613
  frame_id: "ti_mmwave"
point_id: 7
x: 0.572265625
y: -0.04296875
z: -1.267578125
range: 1.48161697388
velocity: 0.0
doppler_bin: 8
bearing: -4.29401493073
intensity: 21.6136798859
---
header: 
  seq: 557654
  stamp: 
    secs: 1561866982
    nsecs: 588463814
  frame_id: "ti_mmwave"
point_id: 8
x: 2.615234375
y: -0.17578125
z: 1.044921875
range: 3.00681090355
velocity: 0.0
doppler_bin: 8
bearing: -3.84531402588
intensity: 29.0363254547
---
header: 
  seq: 557655
  stamp: 
    secs: 1561866982
    nsecs: 588471876
  frame_id: "ti_mmwave"
point_id: 9
x: 2.658203125
y: -0.1796875
z: 1.048828125
range: 3.05038785934
velocity: 0.0
doppler_bin: 8
bearing: -3.86716008186
intensity: 32.1774711609
---
header: 
  seq: 557656
  stamp: 
    secs: 1561866982
    nsecs: 588544034
  frame_id: "ti_mmwave"
point_id: 10
x: 2.75390625
y: -0.08984375
z: 0.919921875
range: 3.09396481514
velocity: 0.0
doppler_bin: 8
bearing: -1.86856126785
intensity: 31.2155990601
---
header: 
  seq: 557657
  stamp: 
    secs: 1561866982
    nsecs: 588553459
  frame_id: "ti_mmwave"
point_id: 11
x: 4.39453125
y: -0.142578125
z: 1.287109375
range: 4.88062095642
velocity: 0.0
doppler_bin: 8
bearing: -1.8582777977
intensity: 31.3545074463
---
header: 
  seq: 557658
  stamp: 
    secs: 1561866982
    nsecs: 588563690
  frame_id: "ti_mmwave"
point_id: 12
x: 4.3515625
y: -0.14453125
z: 1.55078125
range: 4.9241976738
velocity: 0.0
doppler_bin: 8
bearing: -1.90230250359
intensity: 30.8849048615
---
header: 
  seq: 557659
  stamp: 
    secs: 1561866982
    nsecs: 588572889
  frame_id: "ti_mmwave"
point_id: 13
x: 4.724609375
y: -0.44921875
z: -0.611328125
range: 5.09850549698
velocity: 0.0
doppler_bin: 8
bearing: -5.43138980865
intensity: 33.3525733948
---
header: 
  seq: 557660
  stamp: 
    secs: 1561866982
    nsecs: 588582545
  frame_id: "ti_mmwave"
point_id: 14
x: 4.7734375
y: -0.30078125
z: -0.65234375
range: 5.14208269119
velocity: 0.0
doppler_bin: 8
bearing: -3.60552406311
intensity: 33.9846076965
---
header: 
  seq: 557661
  stamp: 
    secs: 1561866982
    nsecs: 588590185
  frame_id: "ti_mmwave"
point_id: 15
x: 4.7890625
y: -0.15234375
z: -0.85546875
range: 5.18565940857
velocity: 0.0
doppler_bin: 8
bearing: -1.82200825214
intensity: 30.4532299042
---
header: 
  seq: 557662
  stamp: 
    secs: 1561866982
    nsecs: 588598698
  frame_id: "ti_mmwave"
point_id: 16
x: 4.89453125
y: -0.30859375
z: 0.673828125
range: 5.27281332016
velocity: 0.0
doppler_bin: 8
bearing: -3.60764837265
intensity: 31.0346164703
---
header: 
  seq: 557663
  stamp: 
    secs: 1561866982
    nsecs: 588606827
  frame_id: "ti_mmwave"
point_id: 17
x: 4.96875
y: -0.46875
z: 0.0859375
range: 5.31639051437
velocity: 0.0
doppler_bin: 8
bearing: -5.38931179047
intensity: 29.6425971985
---
header: 
  seq: 557664
  stamp: 
    secs: 1561866982
    nsecs: 588614677
  frame_id: "ti_mmwave"
point_id: 18
x: 1.41796875
y: 1.234375
z: -0.07421875
range: 2.00454068184
velocity: 0.614668667316
doppler_bin: 9
bearing: 41.0403327942
intensity: 26.1278381348
---
header: 
  seq: 557665
  stamp: 
    secs: 1561866982
    nsecs: 588622702
  frame_id: "ti_mmwave"
point_id: 19
x: 1.443359375
y: 1.26171875
z: -0.13671875
range: 2.04811763763
velocity: 0.614668667316
doppler_bin: 9
bearing: 41.1584701538
intensity: 25.5266819
---
header: 
  seq: 557666
  stamp: 
    secs: 1561866982
    nsecs: 588633369
  frame_id: "ti_mmwave"
point_id: 21
x: 0.041015625
y: -0.033203125
z: 0.0625
range: 0.0871539413929
velocity: 0.0
doppler_bin: 8
bearing: -38.9909973145
intensity: 30.1157035828
---
header: 
  seq: 557667
  stamp: 
    secs: 1561866982
    nsecs: 588641668
  frame_id: "ti_mmwave"
point_id: 22
x: 0.044921875
y: -0.046875
z: 0.103515625
range: 0.130730912089
velocity: 0.0
doppler_bin: 8
bearing: -46.218875885
intensity: 29.0308990479
---
header: 
  seq: 557668
  stamp: 
    secs: 1561866982
    nsecs: 646891816
  frame_id: "ti_mmwave"
point_id: 0
x: 0.01171875
y: -0.0390625
z: -0.0078125
range: 0.0435769706964
velocity: 0.0
doppler_bin: 8
bearing: -73.3007583618
intensity: 30.6595306396
---
header: 
  seq: 557669
  stamp: 
    secs: 1561866982
    nsecs: 646992136
  frame_id: "ti_mmwave"
point_id: 1
x: 0.017578125
y: -0.080078125
z: -0.0078125
range: 0.0871539413929
velocity: 0.0
doppler_bin: 8
bearing: -77.6192398071
intensity: 31.9256744385
---
header: 
  seq: 557670
  stamp: 
    secs: 1561866982
    nsecs: 647009399
  frame_id: "ti_mmwave"
point_id: 2
x: 0.029296875
y: -0.119140625
z: -0.005859375
range: 0.130730912089
velocity: 0.0
doppler_bin: 8
bearing: -76.1849746704
intensity: 30.1452045441
---
header: 
  seq: 557671
  stamp: 
    secs: 1561866982
    nsecs: 647024498
  frame_id: "ti_mmwave"
point_id: 3
x: 0.056640625
y: -0.154296875
z: 0.0078125
range: 0.174307882786
velocity: 0.0
doppler_bin: 8
bearing: -69.8423843384
intensity: 25.4777469635
---
header: 
  seq: 557672
  stamp: 
    secs: 1561866982
    nsecs: 647038487
  frame_id: "ti_mmwave"
point_id: 4
x: 0.138671875
y: -0.080078125
z: 1.2578125
range: 1.35088610649
velocity: 0.0
doppler_bin: 8
bearing: -30.0049190521
intensity: 23.0963020325
---
header: 
  seq: 557673
  stamp: 
    secs: 1561866982
    nsecs: 647052374
  frame_id: "ti_mmwave"
point_id: 5
x: 0.041015625
y: -0.08203125
z: 1.306640625
range: 1.39446306229
velocity: 0.0
doppler_bin: 8
bearing: -63.4349517822
intensity: 24.6239795685
---
header: 
  seq: 557674
  stamp: 
    secs: 1561866982
    nsecs: 647065445
  frame_id: "ti_mmwave"
point_id: 6
x: 0.40625
y: -0.083984375
z: -1.28515625
range: 1.43804001808
velocity: 0.0
doppler_bin: 8
bearing: -11.6802606583
intensity: 23.0749607086
---
header: 
  seq: 557675
  stamp: 
    secs: 1561866982
    nsecs: 647079482
  frame_id: "ti_mmwave"
point_id: 7
x: 2.619140625
y: -0.17578125
z: 1.0390625
range: 3.00681090355
velocity: 0.0
doppler_bin: 8
bearing: -3.83959650993
intensity: 29.0417442322
---
header: 
  seq: 557676
  stamp: 
    secs: 1561866982
    nsecs: 647095921
  frame_id: "ti_mmwave"
point_id: 8
x: 2.69140625
y: -0.08984375
z: 0.974609375
range: 3.05038785934
velocity: 0.0
doppler_bin: 8
bearing: -1.91192126274
intensity: 32.2141418457
---
header: 
  seq: 557677
  stamp: 
    secs: 1561866982
    nsecs: 647131654
  frame_id: "ti_mmwave"
point_id: 9
x: 2.75390625
y: -0.08984375
z: 0.916015625
range: 3.09396481514
velocity: 0.0
doppler_bin: 8
bearing: -1.86856126785
intensity: 31.1627559662
---
header: 
  seq: 557678
  stamp: 
    secs: 1561866982
    nsecs: 647222897
  frame_id: "ti_mmwave"
point_id: 10
x: 4.39453125
y: -0.142578125
z: 1.2890625
range: 4.88062095642
velocity: 0.0
doppler_bin: 8
bearing: -1.8582777977
intensity: 31.3513259888
---
header: 
  seq: 557679
  stamp: 
    secs: 1561866982
    nsecs: 647239837
  frame_id: "ti_mmwave"
point_id: 11
x: 4.3515625
y: -0.14453125
z: 1.55078125
range: 4.9241976738
velocity: 0.0
doppler_bin: 8
bearing: -1.90230250359
intensity: 30.8206691742
---
header: 
  seq: 557680
  stamp: 
    secs: 1561866982
    nsecs: 647253082
  frame_id: "ti_mmwave"
point_id: 12
x: 4.736328125
y: -0.298828125
z: -0.61328125
range: 5.09850549698
velocity: 0.0
doppler_bin: 8
bearing: -3.61016488075
intensity: 33.4360542297
---
header: 
  seq: 557681
  stamp: 
    secs: 1561866982
    nsecs: 647266883
  frame_id: "ti_mmwave"
point_id: 13
x: 4.7734375
y: -0.30078125
z: -0.6484375
range: 5.14208269119
velocity: 0.0
doppler_bin: 8
bearing: -3.60552406311
intensity: 34.0294876099
---
header: 
  seq: 557682
  stamp: 
    secs: 1561866982
    nsecs: 647280364
  frame_id: "ti_mmwave"
point_id: 14
x: 4.78515625
y: -0.3046875
z: -0.845703125
range: 5.18565940857
velocity: 0.0
doppler_bin: 8
bearing: -3.64330220222
intensity: 30.3702793121
---
header: 
  seq: 557683
  stamp: 
    secs: 1561866982
    nsecs: 647298217
  frame_id: "ti_mmwave"
point_id: 15
x: 4.89453125
y: -0.30859375
z: 0.6640625
range: 5.27281332016
velocity: 0.0
doppler_bin: 8
bearing: -3.60764837265
intensity: 31.0856494904
---
header: 
  seq: 557684
  stamp: 
    secs: 1561866982
    nsecs: 647311066
  frame_id: "ti_mmwave"
point_id: 16
x: 4.951171875
y: -0.623046875
z: 0.02734375
range: 5.31639051437
velocity: 0.0
doppler_bin: 8
bearing: -7.17230129242
intensity: 29.7818050385
---
header: 
  seq: 557685
  stamp: 
    secs: 1561866982
    nsecs: 647329611
  frame_id: "ti_mmwave"
point_id: 18
x: 0.041015625
y: -0.033203125
z: 0.0625
range: 0.0871539413929
velocity: 0.0
doppler_bin: 8
bearing: -38.9909973145
intensity: 30.1114730835
---
header: 
  seq: 557686
  stamp: 
    secs: 1561866982
    nsecs: 647339612
  frame_id: "ti_mmwave"
point_id: 19
x: 0.044921875
y: -0.046875
z: 0.103515625
range: 0.130730912089
velocity: 0.0
doppler_bin: 8
bearing: -46.218875885
intensity: 29.020029068
---
header: 
  seq: 557687
  stamp: 
    secs: 1561866982
    nsecs: 648434617
  frame_id: "ti_mmwave"
point_id: 0
x: 0.01171875
y: -0.0390625
z: -0.0078125
range: 0.0435769706964
velocity: 0.0
doppler_bin: 8
bearing: -73.3007583618
intensity: 30.6744289398
---
header: 
  seq: 557688
  stamp: 
    secs: 1561866982
    nsecs: 648491092
  frame_id: "ti_mmwave"
point_id: 1
x: 0.017578125
y: -0.080078125
z: -0.0078125
range: 0.0871539413929
velocity: 0.0
doppler_bin: 8
bearing: -77.6192398071
intensity: 31.9312458038
---
header: 
  seq: 557689
  stamp: 
    secs: 1561866982
    nsecs: 648509476
  frame_id: "ti_mmwave"
point_id: 2
x: 0.029296875
y: -0.119140625
z: -0.005859375
range: 0.130730912089
velocity: 0.0
doppler_bin: 8
bearing: -76.1849746704
intensity: 30.1535968781
---
header: 
  seq: 557690
  stamp: 
    secs: 1561866982
    nsecs: 648523858
  frame_id: "ti_mmwave"
point_id: 3
x: 0.056640625
y: -0.154296875
z: 0.005859375
range: 0.174307882786
velocity: 0.0
doppler_bin: 8
bearing: -69.8423843384
intensity: 25.4777469635
---
header: 
  seq: 557691
  stamp: 
    secs: 1561866982
    nsecs: 648548230
  frame_id: "ti_mmwave"
point_id: 4
x: 0.0703125
y: -0.080078125
z: 1.263671875
range: 1.35088610649
velocity: 0.0
doppler_bin: 8
bearing: -48.7152862549
intensity: 23.0535144806
---
header: 
  seq: 557692
  stamp: 
    secs: 1561866982
    nsecs: 648570403
  frame_id: "ti_mmwave"
point_id: 5
x: 0.0390625
y: -0.08203125
z: 1.306640625
range: 1.39446306229
velocity: 0.0
doppler_bin: 8
bearing: -64.5366516113
intensity: 24.6089782715
---
header: 
  seq: 557693
  stamp: 
    secs: 1561866982
    nsecs: 648592158
  frame_id: "ti_mmwave"
point_id: 6
x: 0.400390625
y: -0.083984375
z: -1.287109375
range: 1.43804001808
velocity: 0.0
doppler_bin: 8
bearing: -11.8463935852
intensity: 23.0535144806
---
header: 
  seq: 557694
  stamp: 
    secs: 1561866982
    nsecs: 648605632
  frame_id: "ti_mmwave"
point_id: 7
x: 0.546875
y: -0.04296875
z: -1.27734375
range: 1.48161697388
velocity: 0.0
doppler_bin: 8
bearing: -4.49258184433
intensity: 21.5836257935
---
header: 
  seq: 557695
  stamp: 
    secs: 1561866982
    nsecs: 648626260
  frame_id: "ti_mmwave"
point_id: 8
x: 2.615234375
y: -0.17578125
z: 1.044921875
range: 3.00681090355
velocity: 0.0
doppler_bin: 8
bearing: -3.84531402588
intensity: 29.0091304779
---
header: 
  seq: 557696
  stamp: 
    secs: 1561866982
    nsecs: 648648225
  frame_id: "ti_mmwave"
point_id: 9
x: 2.66015625
y: -0.1796875
z: 1.046875
range: 3.05038785934
velocity: 0.0
doppler_bin: 8
bearing: -3.86432933807
intensity: 32.1932258606
---
header: 
  seq: 557697
  stamp: 
    secs: 1561866982
    nsecs: 648661834
  frame_id: "ti_mmwave"
point_id: 10
x: 2.751953125
y: -0.08984375
z: 0.921875
range: 3.09396481514
velocity: 0.0
doppler_bin: 8
bearing: -1.86988639832
intensity: 31.176027298
---
header: 
  seq: 557698
  stamp: 
    secs: 1561866982
    nsecs: 648737671
  frame_id: "ti_mmwave"
point_id: 11
x: 4.392578125
y: -0.142578125
z: 1.296875
range: 4.88062095642
velocity: 0.0
doppler_bin: 8
bearing: -1.85910367966
intensity: 31.3033370972
---
header: 
  seq: 557699
  stamp: 
    secs: 1561866982
    nsecs: 648752952
  frame_id: "ti_mmwave"
point_id: 12
x: 4.349609375
y: -0.14453125
z: 1.560546875
range: 4.9241976738
velocity: 0.0
doppler_bin: 8
bearing: -1.90315580368
intensity: 30.8849048615
---
header: 
  seq: 557700
  stamp: 
    secs: 1561866982
    nsecs: 648765763
  frame_id: "ti_mmwave"
point_id: 13
x: 4.73828125
y: -0.298828125
z: -0.609375
range: 5.09850549698
velocity: 0.0
doppler_bin: 8
bearing: -3.60868048668
intensity: 33.3865585327
---
header: 
  seq: 557701
  stamp: 
    secs: 1561866982
    nsecs: 648781196
  frame_id: "ti_mmwave"
point_id: 14
x: 4.7734375
y: -0.30078125
z: -0.6484375
range: 5.14208269119
velocity: 0.0
doppler_bin: 8
bearing: -3.60552406311
intensity: 33.9898109436
---
header: 
  seq: 557702
  stamp: 
    secs: 1561866982
    nsecs: 648794421
  frame_id: "ti_mmwave"
point_id: 15
x: 4.794921875
y: -0.15234375
z: -0.826171875
range: 5.18565940857
velocity: 0.0
doppler_bin: 8
bearing: -1.81978332996
intensity: 30.3140850067
---
header: 
  seq: 557703
  stamp: 
    secs: 1561866982
    nsecs: 648810642
  frame_id: "ti_mmwave"
point_id: 16
x: 4.869140625
y: -0.30859375
z: 0.8359375
range: 5.27281332016
velocity: 0.0
doppler_bin: 8
bearing: -3.62641048431
intensity: 31.1058979034
---
header: 
  seq: 557704
  stamp: 
    secs: 1561866982
    nsecs: 648826550
  frame_id: "ti_mmwave"
point_id: 17
x: 4.943359375
y: -0.623046875
z: 0.283203125
range: 5.31639051437
velocity: 0.0
doppler_bin: 8
bearing: -7.18351840973
intensity: 29.7497196198
---
header: 
  seq: 557705
  stamp: 
    secs: 1561866982
    nsecs: 648871869
  frame_id: "ti_mmwave"
point_id: 18
x: 1.458984375
y: 1.17578125
z: 0.169921875
range: 2.00454068184
velocity: 0.614668667316
doppler_bin: 9
bearing: 38.8649978638
intensity: 29.1009063721
---
header: 
  seq: 557706
  stamp: 
    secs: 1561866982
    nsecs: 648886092
  frame_id: "ti_mmwave"
point_id: 19
x: 1.5
y: 1.201171875
z: 0.048828125
range: 2.04811763763
velocity: 0.614668667316
doppler_bin: 9
bearing: 38.6870918274
intensity: 29.5520648956
---
header: 
  seq: 557707
  stamp: 
    secs: 1561866982
    nsecs: 648899796
  frame_id: "ti_mmwave"
point_id: 20
x: 1.478515625
y: 1.2890625
z: -0.09375
range: 2.09169459343
velocity: 0.614668667316
doppler_bin: 9
bearing: 41.0839576721
intensity: 27.1180725098
---
header: 
  seq: 557708
  stamp: 
    secs: 1561866982
    nsecs: 648919066
  frame_id: "ti_mmwave"
point_id: 22
x: 0.041015625
y: -0.033203125
z: 0.0625
range: 0.0871539413929
velocity: 0.0
doppler_bin: 8
bearing: -38.9909973145
intensity: 30.1114730835
---
header: 
  seq: 557709
  stamp: 
    secs: 1561866982
    nsecs: 648941983
  frame_id: "ti_mmwave"
point_id: 23
x: 0.044921875
y: -0.046875
z: 0.103515625
range: 0.130730912089
velocity: 0.0
doppler_bin: 8
bearing: -46.218875885
intensity: 29.0254669189
---
header: 
  seq: 557710
  stamp: 
    secs: 1561866982
    nsecs: 706809916
  frame_id: "ti_mmwave"
point_id: 0
x: 0.01171875
y: -0.0390625
z: -0.0078125
range: 0.0435769706964
velocity: 0.0
doppler_bin: 8
bearing: -73.3007583618
intensity: 30.6669845581
---
header: 
  seq: 557711
  stamp: 
    secs: 1561866982
    nsecs: 706901426
  frame_id: "ti_mmwave"
point_id: 1
x: 0.017578125
y: -0.080078125
z: -0.0078125
range: 0.0871539413929
velocity: 0.0
doppler_bin: 8
bearing: -77.6192398071
intensity: 31.9284610748
---
header: 
  seq: 557712
  stamp: 
    secs: 1561866982
    nsecs: 706919166
  frame_id: "ti_mmwave"
point_id: 2
x: 0.029296875
y: -0.119140625
z: -0.005859375
range: 0.130730912089
velocity: 0.0
doppler_bin: 8
bearing: -76.1849746704
intensity: 30.1494026184
---
header: 
  seq: 557713
  stamp: 
    secs: 1561866982
    nsecs: 706934458
  frame_id: "ti_mmwave"
point_id: 3
x: 0.056640625
y: -0.154296875
z: 0.005859375
range: 0.174307882786
velocity: 0.0
doppler_bin: 8
bearing: -69.8423843384
intensity: 25.4654273987
---
header: 
  seq: 557714
  stamp: 
    secs: 1561866982
    nsecs: 706948480
  frame_id: "ti_mmwave"
point_id: 4
x: 0.154296875
y: -0.080078125
z: 1.255859375
range: 1.35088610649
velocity: 0.0
doppler_bin: 8
bearing: -27.4287414551
intensity: 23.1175384521
---
header: 
  seq: 557715
  stamp: 
    secs: 1561866982
    nsecs: 707023018
  frame_id: "ti_mmwave"
point_id: 6
x: 0.41796875
y: -0.083984375
z: -1.28125
range: 1.43804001808
velocity: 0.0
doppler_bin: 8
bearing: -11.3614110947
intensity: 23.0963020325
---
header: 
  seq: 557716
  stamp: 
    secs: 1561866982
    nsecs: 707042856
  frame_id: "ti_mmwave"
point_id: 7
x: 2.6171875
y: -0.17578125
z: 1.0390625
range: 3.00681090355
velocity: 0.0
doppler_bin: 8
bearing: -3.84245300293
intensity: 29.0254669189
---
header: 
  seq: 557717
  stamp: 
    secs: 1561866982
    nsecs: 707056037
  frame_id: "ti_mmwave"
point_id: 8
x: 2.69140625
y: -0.08984375
z: 0.9765625
range: 3.05038785934
velocity: 0.0
doppler_bin: 8
bearing: -1.91192126274
intensity: 32.2036972046
---
header: 
  seq: 557718
  stamp: 
    secs: 1561866982
    nsecs: 707069640
  frame_id: "ti_mmwave"
point_id: 9
x: 2.75390625
y: -0.08984375
z: 0.919921875
range: 3.09396481514
velocity: 0.0
doppler_bin: 8
bearing: -1.86856126785
intensity: 31.2123146057
---
header: 
  seq: 557719
  stamp: 
    secs: 1561866982
    nsecs: 707082952
  frame_id: "ti_mmwave"
point_id: 10
x: 4.396484375
y: -0.142578125
z: 1.28125
range: 4.88062095642
velocity: 0.0
doppler_bin: 8
bearing: -1.85745286942
intensity: 31.3576850891
---
header: 
  seq: 557720
  stamp: 
    secs: 1561866982
    nsecs: 707092905
  frame_id: "ti_mmwave"
point_id: 11
x: 4.359375
y: -0.14453125
z: 1.529296875
range: 4.9241976738
velocity: 0.0
doppler_bin: 8
bearing: -1.89889574051
intensity: 30.8742637634
---
header: 
  seq: 557721
  stamp: 
    secs: 1561866982
    nsecs: 707141339
  frame_id: "ti_mmwave"
point_id: 12
x: 4.73828125
y: -0.298828125
z: -0.599609375
range: 5.09850549698
velocity: 0.0
doppler_bin: 8
bearing: -3.60868048668
intensity: 33.3765907288
---
header: 
  seq: 557722
  stamp: 
    secs: 1561866982
    nsecs: 707156268
  frame_id: "ti_mmwave"
point_id: 13
x: 4.775390625
y: -0.30078125
z: -0.638671875
range: 5.14208269119
velocity: 0.0
doppler_bin: 8
bearing: -3.60405302048
intensity: 34.0277709961
---
header: 
  seq: 557723
  stamp: 
    secs: 1561866982
    nsecs: 707172088
  frame_id: "ti_mmwave"
point_id: 14
x: 4.80078125
y: -0.15234375
z: -0.794921875
range: 5.18565940857
velocity: 0.0
doppler_bin: 8
bearing: -1.81756365299
intensity: 30.4178733826
---
header: 
  seq: 557724
  stamp: 
    secs: 1561866982
    nsecs: 707188196
  frame_id: "ti_mmwave"
point_id: 15
x: 4.89453125
y: -0.30859375
z: 0.662109375
range: 5.27281332016
velocity: 0.0
doppler_bin: 8
bearing: -3.60764837265
intensity: 31.0448703766
---
header: 
  seq: 557725
  stamp: 
    secs: 1561866982
    nsecs: 707203964
  frame_id: "ti_mmwave"
point_id: 16
x: 4.96875
y: -0.46875
z: 0.080078125
range: 5.31639051437
velocity: 0.0
doppler_bin: 8
bearing: -5.38931179047
intensity: 29.6473083496
---
header: 
  seq: 557726
  stamp: 
    secs: 1561866982
    nsecs: 707238262
  frame_id: "ti_mmwave"
point_id: 18
x: 0.041015625
y: -0.033203125
z: 0.0625
range: 0.0871539413929
velocity: 0.0
doppler_bin: 8
bearing: -38.9909973145
intensity: 30.1114730835
---
header: 
  seq: 557727
  stamp: 
    secs: 1561866982
    nsecs: 707298468
  frame_id: "ti_mmwave"
point_id: 19
x: 0.044921875
y: -0.046875
z: 0.103515625
range: 0.130730912089
velocity: 0.0
doppler_bin: 8
bearing: -46.218875885
intensity: 29.0308990479
---
header: 
  seq: 557728
  stamp: 
    secs: 1561866982
    nsecs: 708428004
  frame_id: "ti_mmwave"
point_id: 0
x: 0.01171875
y: -0.0390625
z: -0.0078125
range: 0.0435769706964
velocity: 0.0
doppler_bin: 8
bearing: -73.3007583618
intensity: 30.6707077026
---
header: 
  seq: 557729
  stamp: 
    secs: 1561866982
    nsecs: 708524072
  frame_id: "ti_mmwave"
point_id: 1
x: 0.017578125
y: -0.080078125
z: -0.0078125
range: 0.0871539413929
velocity: 0.0
doppler_bin: 8
bearing: -77.6192398071
intensity: 31.9340286255
---
header: 
  seq: 557730
  stamp: 
    secs: 1561866982
    nsecs: 708536160
  frame_id: "ti_mmwave"
point_id: 2
x: 0.029296875
y: -0.119140625
z: -0.005859375
range: 0.130730912089
velocity: 0.0
doppler_bin: 8
bearing: -76.1849746704
intensity: 30.1619739532
---
header: 
  seq: 557731
  stamp: 
    secs: 1561866982
    nsecs: 708545951
  frame_id: "ti_mmwave"
point_id: 3
x: 0.056640625
y: -0.154296875
z: 0.005859375
range: 0.174307882786
velocity: 0.0
doppler_bin: 8
bearing: -69.8423843384
intensity: 25.490032196
---
header: 
  seq: 557732
  stamp: 
    secs: 1561866982
    nsecs: 708557209
  frame_id: "ti_mmwave"
point_id: 4
x: 0.154296875
y: -0.080078125
z: 1.255859375
range: 1.35088610649
velocity: 0.0
doppler_bin: 8
bearing: -27.4287414551
intensity: 23.0535144806
---
header: 
  seq: 557733
  stamp: 
    secs: 1561866982
    nsecs: 708566255
  frame_id: "ti_mmwave"
point_id: 5
x: 0.072265625
y: -0.08203125
z: 1.3046875
range: 1.39446306229
velocity: 0.0
doppler_bin: 8
bearing: -48.6214866638
intensity: 24.6089782715
---
header: 
  seq: 557734
  stamp: 
    secs: 1561866982
    nsecs: 708575125
  frame_id: "ti_mmwave"
point_id: 6
x: 0.3984375
y: -0.083984375
z: -1.287109375
range: 1.43804001808
velocity: 0.0
doppler_bin: 8
bearing: -11.9028120041
intensity: 23.031961441
---
header: 
  seq: 557735
  stamp: 
    secs: 1561866982
    nsecs: 708583646
  frame_id: "ti_mmwave"
point_id: 7
x: 0.552734375
y: -0.04296875
z: -1.275390625
range: 1.48161697388
velocity: 0.0
doppler_bin: 8
bearing: -4.44514894485
intensity: 21.5533599854
---
header: 
  seq: 557736
  stamp: 
    secs: 1561866982
    nsecs: 708606863
  frame_id: "ti_mmwave"
point_id: 8
x: 2.615234375
y: -0.17578125
z: 1.044921875
range: 3.00681090355
velocity: 0.0
doppler_bin: 8
bearing: -3.84531402588
intensity: 29.0254669189
---
header: 
  seq: 557737
  stamp: 
    secs: 1561866982
    nsecs: 708615706
  frame_id: "ti_mmwave"
point_id: 9
x: 2.66015625
y: -0.1796875
z: 1.04296875
range: 3.05038785934
velocity: 0.0
doppler_bin: 8
bearing: -3.86432933807
intensity: 32.2089233398
---
header: 
  seq: 557738
  stamp: 
    secs: 1561866982
    nsecs: 708624182
  frame_id: "ti_mmwave"
point_id: 10
x: 2.755859375
y: -0.08984375
z: 0.912109375
range: 3.09396481514
velocity: 0.0
doppler_bin: 8
bearing: -1.86723792553
intensity: 31.1594314575
---
header: 
  seq: 557739
  stamp: 
    secs: 1561866982
    nsecs: 708632385
  frame_id: "ti_mmwave"
point_id: 11
x: 4.390625
y: -0.142578125
z: 1.30078125
range: 4.88062095642
velocity: 0.0
doppler_bin: 8
bearing: -1.85993003845
intensity: 31.2839927673
---
header: 
  seq: 557740
  stamp: 
    secs: 1561866982
    nsecs: 708719765
  frame_id: "ti_mmwave"
point_id: 12
x: 4.349609375
y: -0.14453125
z: 1.560546875
range: 4.9241976738
velocity: 0.0
doppler_bin: 8
bearing: -1.90315580368
intensity: 30.8919830322
---
header: 
  seq: 557741
  stamp: 
    secs: 1561866982
    nsecs: 708730772
  frame_id: "ti_mmwave"
point_id: 13
x: 4.73828125
y: -0.298828125
z: -0.611328125
range: 5.09850549698
velocity: 0.0
doppler_bin: 8
bearing: -3.60868048668
intensity: 33.4123649597
---
header: 
  seq: 557742
  stamp: 
    secs: 1561866982
    nsecs: 708740131
  frame_id: "ti_mmwave"
point_id: 14
x: 4.771484375
y: -0.30078125
z: -0.669921875
range: 5.14208269119
velocity: 0.0
doppler_bin: 8
bearing: -3.60699558258
intensity: 34.038066864
---
header: 
  seq: 557743
  stamp: 
    secs: 1561866982
    nsecs: 708750843
  frame_id: "ti_mmwave"
point_id: 15
x: 4.775390625
y: -0.15234375
z: -0.93359375
range: 5.18565940857
velocity: 0.0
doppler_bin: 8
bearing: -1.82722115517
intensity: 30.4805316925
---
header: 
  seq: 557744
  stamp: 
    secs: 1561866982
    nsecs: 708758363
  frame_id: "ti_mmwave"
point_id: 16
x: 4.900390625
y: -0.30859375
z: 0.62890625
range: 5.27281332016
velocity: 0.0
doppler_bin: 8
bearing: -3.60334610939
intensity: 31.0002574921
---
header: 
  seq: 557745
  stamp: 
    secs: 1561866982
    nsecs: 708766817
  frame_id: "ti_mmwave"
point_id: 17
x: 4.951171875
y: -0.623046875
z: -0.015625
range: 5.31639051437
velocity: 0.0
doppler_bin: 8
bearing: -7.17230129242
intensity: 29.7034683228
---
header: 
  seq: 557746
  stamp: 
    secs: 1561866982
    nsecs: 708776284
  frame_id: "ti_mmwave"
point_id: 19
x: 0.041015625
y: -0.033203125
z: 0.0625
range: 0.0871539413929
velocity: 0.0
doppler_bin: 8
bearing: -38.9909973145
intensity: 30.1157035828
---
header: 
  seq: 557747
  stamp: 
    secs: 1561866982
    nsecs: 708784139
  frame_id: "ti_mmwave"
point_id: 20
x: 0.044921875
y: -0.046875
z: 0.103515625
range: 0.130730912089
velocity: 0.0
