header: 
  seq: 542655
  stamp: 
    secs: 1561866959
    nsecs:  66633669
  frame_id: "ti_mmwave"
point_id: 0
x: 0.01171875
y: -0.0390625
z: -0.0078125
range: 0.0435769706964
velocity: 0.0
doppler_bin: 8
bearing: -73.3007583618
intensity: 30.6632595062
---
header: 
  seq: 542656
  stamp: 
    secs: 1561866959
    nsecs:  66671294
  frame_id: "ti_mmwave"
point_id: 1
x: 0.017578125
y: -0.080078125
z: -0.0078125
range: 0.0871539413929
velocity: 0.0
doppler_bin: 8
bearing: -77.6192398071
intensity: 31.9284610748
---
header: 
  seq: 542657
  stamp: 
    secs: 1561866959
    nsecs:  66677204
  frame_id: "ti_mmwave"
point_id: 2
x: 0.029296875
y: -0.119140625
z: -0.005859375
range: 0.130730912089
velocity: 0.0
doppler_bin: 8
bearing: -76.1849746704
intensity: 30.1535968781
---
header: 
  seq: 542658
  stamp: 
    secs: 1561866959
    nsecs:  66682120
  frame_id: "ti_mmwave"
point_id: 3
x: 0.056640625
y: -0.154296875
z: 0.005859375
range: 0.174307882786
velocity: 0.0
doppler_bin: 8
bearing: -69.8423843384
intensity: 25.490032196
---
header: 
  seq: 542659
  stamp: 
    secs: 1561866959
    nsecs:  66686866
  frame_id: "ti_mmwave"
point_id: 4
x: 0.04296875
y: -0.080078125
z: 1.265625
range: 1.35088610649
velocity: 0.0
doppler_bin: 8
bearing: -61.7826461792
intensity: 23.1175384521
---
header: 
  seq: 542660
  stamp: 
    secs: 1561866959
    nsecs:  66692258
  frame_id: "ti_mmwave"
point_id: 6
x: 0.142578125
y: -0.083984375
z: -1.33984375
range: 1.43804001808
velocity: 0.0
doppler_bin: 8
bearing: -30.4998340607
intensity: 23.0535144806
---
header: 
  seq: 542661
  stamp: 
    secs: 1561866959
    nsecs:  66696711
  frame_id: "ti_mmwave"
point_id: 7
x: 0.9453125
y: 1.166015625
z: -0.404296875
range: 1.65592491627
velocity: 0.0
doppler_bin: 8
bearing: 50.9676170349
intensity: 23.9445171356
---
header: 
  seq: 542662
  stamp: 
    secs: 1561866959
    nsecs:  66701361
  frame_id: "ti_mmwave"
point_id: 8
x: 2.6171875
y: -0.17578125
z: 1.04296875
range: 3.00681090355
velocity: 0.0
doppler_bin: 8
bearing: -3.84245300293
intensity: 29.0525608063
---
header: 
  seq: 542663
  stamp: 
    secs: 1561866959
    nsecs:  66705664
  frame_id: "ti_mmwave"
point_id: 9
x: 2.66015625
y: -0.1796875
z: 1.046875
range: 3.05038785934
velocity: 0.0
doppler_bin: 8
bearing: -3.86432933807
intensity: 32.1800994873
---
header: 
  seq: 542664
  stamp: 
    secs: 1561866959
    nsecs:  66709958
  frame_id: "ti_mmwave"
point_id: 10
x: 2.75390625
y: -0.08984375
z: 0.916015625
range: 3.09396481514
velocity: 0.0
doppler_bin: 8
bearing: -1.86856126785
intensity: 31.1991539001
---
header: 
  seq: 542665
  stamp: 
    secs: 1561866959
    nsecs:  66714111
  frame_id: "ti_mmwave"
point_id: 11
x: 4.3984375
y: -0.142578125
z: 1.2734375
range: 4.88062095642
velocity: 0.0
doppler_bin: 8
bearing: -1.8566287756
intensity: 31.3576850891
---
header: 
  seq: 542666
  stamp: 
    secs: 1561866959
    nsecs:  66718332
  frame_id: "ti_mmwave"
point_id: 12
x: 4.359375
y: -0.14453125
z: 1.529296875
range: 4.9241976738
velocity: 0.0
doppler_bin: 8
bearing: -1.89889574051
intensity: 30.8849048615
---
header: 
  seq: 542667
  stamp: 
    secs: 1561866959
    nsecs:  66723507
  frame_id: "ti_mmwave"
point_id: 13
x: 4.7265625
y: -0.44921875
z: -0.599609375
range: 5.09850549698
velocity: 0.0
doppler_bin: 8
bearing: -5.42915868759
intensity: 33.3805770874
---
header: 
  seq: 542668
  stamp: 
    secs: 1561866959
    nsecs:  66728633
  frame_id: "ti_mmwave"
point_id: 14
x: 4.783203125
y: -0.150390625
z: -0.625
range: 5.14208269119
velocity: 0.0
doppler_bin: 8
bearing: -1.80086648464
intensity: 34.0019264221
---
header: 
  seq: 542669
  stamp: 
    secs: 1561866959
    nsecs:  66733109
  frame_id: "ti_mmwave"
point_id: 15
x: 4.7890625
y: -0.15234375
z: -0.861328125
range: 5.18565940857
velocity: 0.0
doppler_bin: 8
bearing: -1.82200825214
intensity: 30.5153846741
---
header: 
  seq: 542670
  stamp: 
    secs: 1561866959
    nsecs:  66737488
  frame_id: "ti_mmwave"
point_id: 16
x: 4.896484375
y: -0.30859375
z: 0.65234375
range: 5.27281332016
velocity: 0.0
doppler_bin: 8
bearing: -3.6062130928
intensity: 31.0243377686
---
header: 
  seq: 542671
  stamp: 
    secs: 1561866959
    nsecs:  66742329
  frame_id: "ti_mmwave"
point_id: 17
x: 4.951171875
y: -0.623046875
z: 0.00390625
range: 5.31639051437
velocity: 0.0
doppler_bin: 8
bearing: -7.17230129242
intensity: 29.7220287323
---
header: 
  seq: 542672
  stamp: 
    secs: 1561866959
    nsecs:  66746891
  frame_id: "ti_mmwave"
point_id: 18
x: 1.009765625
y: 0.95703125
z: -0.00390625
range: 1.48161697388
velocity: 0.614668667316
doppler_bin: 9
bearing: 43.4641342163
intensity: 27.7451705933
---
header: 
  seq: 542673
  stamp: 
    secs: 1561866959
    nsecs:  66752638
  frame_id: "ti_mmwave"
point_id: 19
x: 0.99609375
y: 1.029296875
z: -0.015625
range: 1.52519392967
velocity: 0.614668667316
doppler_bin: 9
bearing: 45.9391899109
intensity: 30.3702793121
---
header: 
  seq: 542674
  stamp: 
    secs: 1561866959
    nsecs:  66859268
  frame_id: "ti_mmwave"
point_id: 20
x: 1.021484375
y: 1.05859375
z: -0.0625
range: 1.56877088547
velocity: 0.614668667316
doppler_bin: 9
bearing: 46.0220718384
intensity: 28.762178421
---
header: 
  seq: 542675
  stamp: 
    secs: 1561866959
    nsecs:  66873198
  frame_id: "ti_mmwave"
point_id: 22
x: 0.041015625
y: -0.033203125
z: 0.0625
range: 0.0871539413929
velocity: 0.0
doppler_bin: 8
bearing: -38.9909973145
intensity: 30.1157035828
---
header: 
  seq: 542676
  stamp: 
    secs: 1561866959
    nsecs:  66880158
  frame_id: "ti_mmwave"
point_id: 23
x: 0.044921875
y: -0.046875
z: 0.103515625
range: 0.130730912089
velocity: 0.0
doppler_bin: 8
bearing: -46.218875885
intensity: 29.0308990479
---
header: 
  seq: 542677
  stamp: 
    secs: 1561866959
    nsecs:  66888334
  frame_id: "ti_mmwave"
point_id: 25
x: 0.96484375
y: 0.58203125
z: 1.0703125
range: 1.65592491627
velocity: 0.0
doppler_bin: 8
bearing: 31.1000137329
intensity: 23.5410842896
---
header: 
  seq: 542678
  stamp: 
    secs: 1561866959
    nsecs:  67520315
  frame_id: "ti_mmwave"
point_id: 0
x: 0.01171875
y: -0.0390625
z: -0.0078125
range: 0.0435769706964
velocity: 0.0
doppler_bin: 8
bearing: -73.3007583618
intensity: 30.6632595062
---
header: 
  seq: 542679
  stamp: 
    secs: 1561866959
    nsecs:  67563223
  frame_id: "ti_mmwave"
point_id: 1
x: 0.017578125
y: -0.080078125
z: -0.0078125
range: 0.0871539413929
velocity: 0.0
doppler_bin: 8
bearing: -77.6192398071
intensity: 31.9312458038
---
header: 
  seq: 542680
  stamp: 
    secs: 1561866959
    nsecs:  67573568
  frame_id: "ti_mmwave"
point_id: 2
x: 0.029296875
y: -0.119140625
z: -0.005859375
range: 0.130730912089
velocity: 0.0
doppler_bin: 8
bearing: -76.1849746704
intensity: 30.1535968781
---
header: 
  seq: 542681
  stamp: 
    secs: 1561866959
    nsecs:  67582136
  frame_id: "ti_mmwave"
point_id: 3
x: 0.056640625
y: -0.154296875
z: 0.005859375
range: 0.174307882786
velocity: 0.0
doppler_bin: 8
bearing: -69.8423843384
intensity: 25.4777469635
---
header: 
  seq: 542682
  stamp: 
    secs: 1561866959
    nsecs:  67624426
  frame_id: "ti_mmwave"
point_id: 4
x: 0.109375
y: -0.080078125
z: 1.26171875
range: 1.35088610649
velocity: 0.0
doppler_bin: 8
bearing: -36.2094573975
intensity: 23.138671875
---
header: 
  seq: 542683
  stamp: 
    secs: 1561866959
    nsecs:  67636693
  frame_id: "ti_mmwave"
point_id: 6
x: 0.44921875
y: -0.083984375
z: -1.26953125
range: 1.43804001808
velocity: 0.0
doppler_bin: 8
bearing: -10.5895709991
intensity: 23.1597042084
---
header: 
  seq: 542684
  stamp: 
    secs: 1561866959
    nsecs:  67643663
  frame_id: "ti_mmwave"
point_id: 7
x: 2.6171875
y: -0.17578125
z: 1.04296875
range: 3.00681090355
velocity: 0.0
doppler_bin: 8
bearing: -3.84245300293
intensity: 29.0417442322
---
header: 
  seq: 542685
  stamp: 
    secs: 1561866959
    nsecs:  67650726
  frame_id: "ti_mmwave"
point_id: 8
x: 2.658203125
y: -0.1796875
z: 1.046875
range: 3.05038785934
velocity: 0.0
doppler_bin: 8
bearing: -3.86716008186
intensity: 32.1879806519
---
header: 
  seq: 542686
  stamp: 
    secs: 1561866959
    nsecs:  67659305
  frame_id: "ti_mmwave"
point_id: 9
x: 2.75390625
y: -0.08984375
z: 0.91796875
range: 3.09396481514
velocity: 0.0
doppler_bin: 8
bearing: -1.86856126785
intensity: 31.1958580017
---
header: 
  seq: 542687
  stamp: 
    secs: 1561866959
    nsecs:  67686830
  frame_id: "ti_mmwave"
point_id: 10
x: 4.396484375
y: -0.142578125
z: 1.283203125
range: 4.88062095642
velocity: 0.0
doppler_bin: 8
bearing: -1.85745286942
intensity: 31.3385810852
---
header: 
  seq: 542688
  stamp: 
    secs: 1561866959
    nsecs:  67695111
  frame_id: "ti_mmwave"
point_id: 11
x: 4.359375
y: -0.14453125
z: 1.529296875
range: 4.9241976738
velocity: 0.0
doppler_bin: 8
bearing: -1.89889574051
intensity: 30.8849048615
---
header: 
  seq: 542689
  stamp: 
    secs: 1561866959
    nsecs:  67703563
  frame_id: "ti_mmwave"
point_id: 12
x: 4.724609375
y: -0.44921875
z: -0.62109375
range: 5.09850549698
velocity: 0.0
doppler_bin: 8
bearing: -5.43138980865
intensity: 33.368598938
---
header: 
  seq: 542690
  stamp: 
    secs: 1561866959
    nsecs:  67726959
  frame_id: "ti_mmwave"
point_id: 13
x: 4.7734375
y: -0.30078125
z: -0.654296875
range: 5.14208269119
velocity: 0.0
doppler_bin: 8
bearing: -3.60552406311
intensity: 33.9707069397
---
header: 
  seq: 542691
  stamp: 
    secs: 1561866959
    nsecs:  67734339
  frame_id: "ti_mmwave"
point_id: 14
x: 4.798828125
y: -0.15234375
z: -0.80859375
range: 5.18565940857
velocity: 0.0
doppler_bin: 8
bearing: -1.81830310822
intensity: 30.4020671844
---
header: 
  seq: 542692
  stamp: 
    secs: 1561866959
    nsecs:  67754739
  frame_id: "ti_mmwave"
point_id: 15
x: 4.87890625
y: -0.30859375
z: 0.775390625
range: 5.27281332016
velocity: 0.0
doppler_bin: 8
bearing: -3.61917114258
intensity: 31.1958580017
---
header: 
  seq: 542693
  stamp: 
    secs: 1561866959
    nsecs:  67769270
  frame_id: "ti_mmwave"
point_id: 16
x: 4.96484375
y: -0.46875
z: 0.189453125
range: 5.31639051437
velocity: 0.0
doppler_bin: 8
bearing: -5.39352655411
intensity: 29.7818050385
---
header: 
  seq: 542694
  stamp: 
    secs: 1561866959
    nsecs:  67781140
  frame_id: "ti_mmwave"
point_id: 17
x: 0.91796875
y: 1.04296875
z: -0.06640625
range: 1.48161697388
velocity: 0.614668667316
doppler_bin: 9
bearing: 48.6473884583
intensity: 27.6192779541
---
header: 
  seq: 542695
  stamp: 
    secs: 1561866959
    nsecs:  67791601
  frame_id: "ti_mmwave"
point_id: 18
x: 0.9453125
y: 1.07421875
z: -0.046875
range: 1.52519392967
velocity: 0.614668667316
doppler_bin: 9
bearing: 48.6522216797
intensity: 30.5115261078
---
header: 
  seq: 542696
  stamp: 
    secs: 1561866959
    nsecs:  67816366
  frame_id: "ti_mmwave"
point_id: 19
x: 1.099609375
y: 0.966796875
z: -0.154296875
range: 1.56877088547
velocity: 0.614668667316
doppler_bin: 9
bearing: 41.3225326538
intensity: 30.0518054962
---
header: 
  seq: 542697
  stamp: 
    secs: 1561866959
    nsecs:  67824113
  frame_id: "ti_mmwave"
point_id: 20
x: 1.21484375
y: 0.8984375
z: -0.078125
range: 1.61234796047
velocity: 0.614668667316
doppler_bin: 9
bearing: 36.4847717285
intensity: 28.7506122589
---
header: 
  seq: 542698
  stamp: 
    secs: 1561866959
    nsecs:  67830645
  frame_id: "ti_mmwave"
point_id: 21
x: 1.208984375
y: 0.923828125
z: 0.322265625
range: 1.65592491627
velocity: 0.614668667316
doppler_bin: 9
bearing: 37.3847351074
intensity: 26.7669353485
---
header: 
  seq: 542699
  stamp: 
    secs: 1561866959
    nsecs:  67838743
  frame_id: "ti_mmwave"
point_id: 23
x: 0.041015625
y: -0.033203125
z: 0.0625
range: 0.0871539413929
velocity: 0.0
doppler_bin: 8
bearing: -38.9909973145
intensity: 30.1157035828
---
header: 
  seq: 542700
  stamp: 
    secs: 1561866959
    nsecs:  67846844
  frame_id: "ti_mmwave"
point_id: 24
x: 0.044921875
y: -0.046875
z: 0.103515625
range: 0.130730912089
velocity: 0.0
doppler_bin: 8
bearing: -46.218875885
intensity: 29.0308990479
---
header: 
  seq: 542701
  stamp: 
    secs: 1561866959
    nsecs: 127390471
  frame_id: "ti_mmwave"
point_id: 0
x: 0.01171875
y: -0.0390625
z: -0.0078125
range: 0.0435769706964
velocity: 0.0
doppler_bin: 8
bearing: -73.3007583618
intensity: 30.6669845581
---
header: 
  seq: 542702
  stamp: 
    secs: 1561866959
    nsecs: 127497031
  frame_id: "ti_mmwave"
point_id: 1
x: 0.017578125
y: -0.080078125
z: -0.0078125
range: 0.0871539413929
velocity: 0.0
doppler_bin: 8
bearing: -77.6192398071
intensity: 31.9284610748
---
header: 
  seq: 542703
  stamp: 
    secs: 1561866959
    nsecs: 127520580
  frame_id: "ti_mmwave"
point_id: 2
x: 0.029296875
y: -0.119140625
z: -0.005859375
range: 0.130730912089
velocity: 0.0
doppler_bin: 8
bearing: -76.1849746704
intensity: 30.1535968781
---
header: 
  seq: 542704
  stamp: 
    secs: 1561866959
    nsecs: 127540572
  frame_id: "ti_mmwave"
point_id: 3
x: 0.056640625
y: -0.154296875
z: 0.0078125
range: 0.174307882786
velocity: 0.0
doppler_bin: 8
bearing: -69.8423843384
intensity: 25.4654273987
---
header: 
  seq: 542705
  stamp: 
    secs: 1561866959
    nsecs: 127559941
  frame_id: "ti_mmwave"
point_id: 4
x: 0.103515625
y: -0.080078125
z: 1.26171875
range: 1.35088610649
velocity: 0.0
doppler_bin: 8
bearing: -37.7249946594
intensity: 23.1175384521
---
header: 
  seq: 542706
  stamp: 
    secs: 1561866959
    nsecs: 127582298
  frame_id: "ti_mmwave"
point_id: 6
x: 0.431640625
y: -0.083984375
z: -1.275390625
range: 1.43804001808
velocity: 0.0
doppler_bin: 8
bearing: -11.0104799271
intensity: 23.0749607086
---
header: 
  seq: 542707
  stamp: 
    secs: 1561866959
    nsecs: 127673313
  frame_id: "ti_mmwave"
point_id: 7
x: 0.556640625
y: -0.04296875
z: -1.2734375
range: 1.48161697388
velocity: 0.0
doppler_bin: 8
bearing: -4.41407871246
intensity: 21.7318630219
---
header: 
  seq: 542708
  stamp: 
    secs: 1561866959
    nsecs: 127689938
  frame_id: "ti_mmwave"
point_id: 8
x: 2.62109375
y: -0.17578125
z: 1.03125
range: 3.00681090355
velocity: 0.0
doppler_bin: 8
bearing: -3.83674383163
intensity: 29.020029068
---
header: 
  seq: 542709
  stamp: 
    secs: 1561866959
    nsecs: 127702921
  frame_id: "ti_mmwave"
point_id: 9
x: 2.693359375
y: -0.08984375
z: 0.96875
range: 3.05038785934
velocity: 0.0
doppler_bin: 8
bearing: -1.91053581238
intensity: 32.1984634399
---
header: 
  seq: 542710
  stamp: 
    secs: 1561866959
    nsecs: 127719212
  frame_id: "ti_mmwave"
point_id: 10
x: 2.775390625
y: -0.0
z: 0.857421875
range: 3.09396481514
velocity: 0.0
doppler_bin: 8
bearing: -0.0
intensity: 31.1394329071
---
header: 
  seq: 542711
  stamp: 
    secs: 1561866959
    nsecs: 127732243
  frame_id: "ti_mmwave"
point_id: 11
x: 4.396484375
y: -0.142578125
z: 1.28125
range: 4.88062095642
velocity: 0.0
doppler_bin: 8
bearing: -1.85745286942
intensity: 31.3161869049
---
header: 
  seq: 542712
  stamp: 
    secs: 1561866959
    nsecs: 127746406
  frame_id: "ti_mmwave"
point_id: 12
x: 4.357421875
y: -0.14453125
z: 1.537109375
range: 4.9241976738
velocity: 0.0
doppler_bin: 8
bearing: -1.89974629879
intensity: 30.8813610077
---
header: 
  seq: 542713
  stamp: 
    secs: 1561866959
    nsecs: 127759079
  frame_id: "ti_mmwave"
point_id: 13
x: 4.736328125
y: -0.298828125
z: -0.615234375
range: 5.09850549698
velocity: 0.0
doppler_bin: 8
bearing: -3.61016488075
intensity: 33.4281730652
---
header: 
  seq: 542714
  stamp: 
    secs: 1561866959
    nsecs: 127773875
  frame_id: "ti_mmwave"
point_id: 14
x: 4.771484375
y: -0.30078125
z: -0.662109375
range: 5.14208269119
velocity: 0.0
doppler_bin: 8
bearing: -3.60699558258
intensity: 34.0500450134
---
header: 
  seq: 542715
  stamp: 
    secs: 1561866959
    nsecs: 127823092
  frame_id: "ti_mmwave"
point_id: 15
x: 4.787109375
y: -0.15234375
z: -0.873046875
range: 5.18565940857
velocity: 0.0
doppler_bin: 8
bearing: -1.82275128365
intensity: 30.4453983307
---
header: 
  seq: 542716
  stamp: 
    secs: 1561866959
    nsecs: 127837241
  frame_id: "ti_mmwave"
point_id: 16
x: 4.89453125
y: -0.30859375
z: 0.671875
range: 5.27281332016
velocity: 0.0
doppler_bin: 8
bearing: -3.60764837265
intensity: 30.9272060394
---
header: 
  seq: 542717
  stamp: 
    secs: 1561866959
    nsecs: 127853489
  frame_id: "ti_mmwave"
point_id: 17
x: 4.951171875
y: -0.623046875
z: 0.095703125
range: 5.31639051437
velocity: 0.0
doppler_bin: 8
bearing: -7.17230129242
intensity: 29.7451171875
---
header: 
  seq: 542718
  stamp: 
    secs: 1561866959
    nsecs: 127867781
  frame_id: "ti_mmwave"
point_id: 18
x: 0.765625
y: 1.208984375
z: 0.0546875
range: 1.52519392967
velocity: 0.614668667316
doppler_bin: 9
bearing: 57.6547622681
intensity: 23.3041381836
---
header: 
  seq: 542719
  stamp: 
    secs: 1561866959
    nsecs: 127881384
  frame_id: "ti_mmwave"
point_id: 19
x: 1.201171875
y: 0.828125
z: -0.1953125
range: 1.56877088547
velocity: 0.614668667316
doppler_bin: 9
bearing: 34.5835800171
intensity: 24.7856655121
---
header: 
  seq: 542720
  stamp: 
    secs: 1561866959
    nsecs: 127894156
  frame_id: "ti_mmwave"
point_id: 20
x: 1.1796875
y: 0.9453125
z: -0.0546875
range: 1.61234796047
velocity: 0.614668667316
doppler_bin: 9
bearing: 38.7060508728
intensity: 25.8883171082
---
header: 
  seq: 542721
  stamp: 
    secs: 1561866959
    nsecs: 127907333
  frame_id: "ti_mmwave"
point_id: 21
x: 1.12890625
y: 1.068359375
z: 0.04296875
range: 1.65592491627
velocity: 1.22933733463
doppler_bin: 10
bearing: 43.4215812683
intensity: 22.9666519165
---
header: 
  seq: 542722
  stamp: 
    secs: 1561866959
    nsecs: 127923016
  frame_id: "ti_mmwave"
point_id: 23
x: 0.041015625
y: -0.033203125
z: 0.0625
range: 0.0871539413929
velocity: 0.0
doppler_bin: 8
bearing: -38.9909973145
intensity: 30.1157035828
---
header: 
  seq: 542723
  stamp: 
    secs: 1561866959
    nsecs: 127939826
  frame_id: "ti_mmwave"
point_id: 24
x: 0.044921875
y: -0.046875
z: 0.103515625
range: 0.130730912089
velocity: 0.0
doppler_bin: 8
bearing: -46.218875885
intensity: 29.0254669189
---
header: 
  seq: 542724
  stamp: 
    secs: 1561866959
    nsecs: 128048988
  frame_id: "ti_mmwave"
point_id: 26
x: 2.732421875
y: -0.181640625
z: 0.966796875
range: 3.09396481514
velocity: 0.0
doppler_bin: 8
bearing: -3.80320167542
intensity: 31.1226978302
---
header: 
  seq: 542725
  stamp: 
    secs: 1561866959
    nsecs: 128065138
  frame_id: "ti_mmwave"
point_id: 27
x: 0.9453125
y: -0.08984375
z: 1.0703125
range: 1.52519392967
velocity: 0.614668667316
doppler_bin: 9
bearing: -5.42915868759
intensity: 21.0380363464
---
header: 
  seq: 542726
  stamp: 
    secs: 1561866959
    nsecs: 128078665
  frame_id: "ti_mmwave"
point_id: 28
x: 0.140625
y: 1.2890625
z: 0.69921875
range: 1.56877088547
velocity: 0.614668667316
doppler_bin: 9
bearing: 83.7741699219
intensity: 23.5602588654
---
header: 
  seq: 542727
  stamp: 
    secs: 1561866959
    nsecs: 186701366
  frame_id: "ti_mmwave"
point_id: 0
x: 0.01171875
y: -0.0390625
z: -0.0078125
range: 0.0435769706964
velocity: 0.0
doppler_bin: 8
bearing: -73.3007583618
intensity: 30.6632595062
---
header: 
  seq: 542728
  stamp: 
    secs: 1561866959
    nsecs: 186788889
  frame_id: "ti_mmwave"
point_id: 1
x: 0.017578125
y: -0.080078125
z: -0.0078125
range: 0.0871539413929
velocity: 0.0
doppler_bin: 8
bearing: -77.6192398071
intensity: 31.9312458038
---
header: 
  seq: 542729
  stamp: 
    secs: 1561866959
    nsecs: 186811943
  frame_id: "ti_mmwave"
point_id: 2
x: 0.029296875
y: -0.119140625
z: -0.005859375
range: 0.130730912089
velocity: 0.0
doppler_bin: 8
bearing: -76.1849746704
intensity: 30.157787323
---
header: 
  seq: 542730
  stamp: 
    secs: 1561866959
    nsecs: 186828935
  frame_id: "ti_mmwave"
point_id: 3
x: 0.056640625
y: -0.154296875
z: 0.0078125
range: 0.174307882786
velocity: 0.0
doppler_bin: 8
bearing: -69.8423843384
intensity: 25.4654273987
---
header: 
  seq: 542731
  stamp: 
    secs: 1561866959
    nsecs: 186844240
  frame_id: "ti_mmwave"
point_id: 4
x: 0.123046875
y: -0.080078125
z: 1.259765625
range: 1.35088610649
velocity: 0.0
doppler_bin: 8
bearing: -33.0558242798
intensity: 23.1175384521
---
header: 
  seq: 542732
  stamp: 
    secs: 1561866959
    nsecs: 186860478
  frame_id: "ti_mmwave"
point_id: 6
x: 0.419921875
y: -0.083984375
z: -1.279296875
range: 1.43804001808
velocity: 0.0
doppler_bin: 8
bearing: -11.3099327087
intensity: 23.0963020325
---
header: 
  seq: 542733
  stamp: 
    secs: 1561866959
    nsecs: 186873999
  frame_id: "ti_mmwave"
point_id: 7
x: 2.619140625
y: -0.17578125
z: 1.0390625
range: 3.00681090355
velocity: 0.0
doppler_bin: 8
bearing: -3.83959650993
intensity: 29.0687351227
---
header: 
  seq: 542734
  stamp: 
    secs: 1561866959
    nsecs: 186886894
  frame_id: "ti_mmwave"
point_id: 8
x: 2.66015625
y: -0.1796875
z: 1.044921875
range: 3.05038785934
velocity: 0.0
doppler_bin: 8
bearing: -3.86432933807
intensity: 32.2193565369
---
header: 
  seq: 542735
  stamp: 
    secs: 1561866959
    nsecs: 186899686
  frame_id: "ti_mmwave"
point_id: 9
x: 2.75390625
y: -0.08984375
z: 0.91796875
range: 3.09396481514
velocity: 0.0
doppler_bin: 8
bearing: -1.86856126785
intensity: 31.1991539001
---
header: 
  seq: 542736
  stamp: 
    secs: 1561866959
    nsecs: 186913556
  frame_id: "ti_mmwave"
point_id: 10
x: 4.396484375
y: -0.142578125
z: 1.279296875
range: 4.88062095642
velocity: 0.0
doppler_bin: 8
bearing: -1.85745286942
intensity: 31.2936763763
---
header: 
  seq: 542737
  stamp: 
    secs: 1561866959
    nsecs: 187026544
  frame_id: "ti_mmwave"
point_id: 11
x: 4.359375
y: -0.14453125
z: 1.529296875
range: 4.9241976738
velocity: 0.0
doppler_bin: 8
bearing: -1.89889574051
intensity: 30.8778133392
---
header: 
  seq: 542738
  stamp: 
    secs: 1561866959
    nsecs: 187043442
  frame_id: "ti_mmwave"
point_id: 12
x: 4.73828125
y: -0.298828125
z: -0.609375
range: 5.09850549698
velocity: 0.0
doppler_bin: 8
bearing: -3.60868048668
intensity: 33.4024581909
---
header: 
  seq: 542739
  stamp: 
    secs: 1561866959
    nsecs: 187059119
  frame_id: "ti_mmwave"
point_id: 13
x: 4.771484375
y: -0.30078125
z: -0.658203125
range: 5.14208269119
velocity: 0.0
doppler_bin: 8
bearing: -3.60699558258
intensity: 34.0191726685
---
header: 
  seq: 542740
  stamp: 
    secs: 1561866959
    nsecs: 187070756
  frame_id: "ti_mmwave"
point_id: 14
x: 4.787109375
y: -0.15234375
z: -0.873046875
range: 5.18565940857
velocity: 0.0
doppler_bin: 8
bearing: -1.82275128365
intensity: 30.4532299042
---
header: 
  seq: 542741
  stamp: 
    secs: 1561866959
    nsecs: 187082234
  frame_id: "ti_mmwave"
point_id: 15
x: 4.896484375
y: -0.30859375
z: 0.650390625
range: 5.27281332016
velocity: 0.0
doppler_bin: 8
bearing: -3.6062130928
intensity: 30.962146759
---
header: 
  seq: 542742
  stamp: 
    secs: 1561866959
    nsecs: 187093818
  frame_id: "ti_mmwave"
point_id: 16
x: 4.951171875
y: -0.623046875
z: 0.041015625
range: 5.31639051437
velocity: 0.0
doppler_bin: 8
bearing: -7.17230129242
intensity: 29.7726612091
---
header: 
  seq: 542743
  stamp: 
    secs: 1561866959
    nsecs: 187107065
  frame_id: "ti_mmwave"
point_id: 17
x: 0.85546875
y: 1.119140625
z: -0.2578125
range: 1.52519392967
velocity: 0.614668667316
doppler_bin: 9
bearing: 52.6057777405
intensity: 23.3845653534
---
header: 
  seq: 542744
  stamp: 
    secs: 1561866959
    nsecs: 187121894
  frame_id: "ti_mmwave"
point_id: 18
x: 0.96875
y: 1.103515625
z: -0.099609375
range: 1.56877088547
velocity: 0.614668667316
doppler_bin: 9
bearing: 48.7208747864
intensity: 28.5186958313
---
header: 
  seq: 542745
  stamp: 
    secs: 1561866959
    nsecs: 187133727
  frame_id: "ti_mmwave"
point_id: 19
x: 1.0
y: 1.134765625
z: -0.033203125
range: 1.61234796047
velocity: 0.614668667316
doppler_bin: 9
bearing: 48.6122322083
intensity: 30.4688510895
---
header: 
  seq: 542746
  stamp: 
    secs: 1561866959
    nsecs: 187145056
  frame_id: "ti_mmwave"
point_id: 20
x: 1.02734375
y: 1.166015625
z: -0.03125
range: 1.65592491627
velocity: 0.614668667316
doppler_bin: 9
bearing: 48.6176261902
intensity: 29.5904140472
---
header: 
  seq: 542747
  stamp: 
    secs: 1561866959
    nsecs: 187155023
  frame_id: "ti_mmwave"
point_id: 21
x: 1.0546875
y: 1.197265625
z: -0.017578125
range: 1.69950187206
velocity: 0.614668667316
doppler_bin: 9
bearing: 48.6227416992
intensity: 25.2891674042
---
header: 
  seq: 542748
  stamp: 
    secs: 1561866959
    nsecs: 187226186
  frame_id: "ti_mmwave"
point_id: 23
x: 0.041015625
y: -0.033203125
z: 0.0625
range: 0.0871539413929
velocity: 0.0
doppler_bin: 8
bearing: -38.9909973145
intensity: 30.1114730835
---
header: 
  seq: 542749
  stamp: 
    secs: 1561866959
    nsecs: 187240958
  frame_id: "ti_mmwave"
point_id: 24
x: 0.044921875
y: -0.046875
z: 0.103515625
range: 0.130730912089
velocity: 0.0
doppler_bin: 8
bearing: -46.218875885
intensity: 29.0254669189
---
header: 
  seq: 542750
  stamp: 
    secs: 1561866959
    nsecs: 188569379
  frame_id: "ti_mmwave"
point_id: 0
x: 0.01171875
y: -0.0390625
z: -0.0078125
range: 0.0435769706964
velocity: 0.0
doppler_bin: 8
bearing: -73.3007583618
intensity: 30.6669845581
---
header: 
  seq: 542751
  stamp: 
    secs: 1561866959
    nsecs: 188649024
  frame_id: "ti_mmwave"
point_id: 1
x: 0.017578125
y: -0.080078125
z: -0.0078125
range: 0.0871539413929
velocity: 0.0
doppler_bin: 8
bearing: -77.6192398071
intensity: 31.9312458038
---
header: 
  seq: 542752
  stamp: 
    secs: 1561866959
    nsecs: 188669485
  frame_id: "ti_mmwave"
point_id: 2
x: 0.029296875
y: -0.119140625
z: -0.005859375
range: 0.130730912089
velocity: 0.0
doppler_bin: 8
bearing: -76.1849746704
intensity: 30.157787323
---
header: 
  seq: 542753
  stamp: 
    secs: 1561866959
    nsecs: 188683556
  frame_id: "ti_mmwave"
point_id: 3
x: 0.056640625
y: -0.154296875
z: 0.0078125
range: 0.174307882786
velocity: 0.0
doppler_bin: 8
bearing: -69.8423843384
intensity: 25.490032196
---
header: 
  seq: 542754
  stamp: 
    secs: 1561866959
    nsecs: 188697836
  frame_id: "ti_mmwave"
point_id: 4
x: 0.099609375
y: -0.080078125
z: 1.26171875
range: 1.35088610649
velocity: 0.0
doppler_bin: 8
bearing: -38.7965545654
intensity: 23.1175384521
---
header: 
  seq: 542755
  stamp: 
    secs: 1561866959
    nsecs: 188713537
  frame_id: "ti_mmwave"
point_id: 5
x: 0.041015625
y: -0.08203125
z: -1.306640625
range: 1.39446306229
velocity: 0.0
doppler_bin: 8
bearing: -63.4349517822
intensity: 24.6389293671
---
header: 
  seq: 542756
  stamp: 
    secs: 1561866959
    nsecs: 188722340
  frame_id: "ti_mmwave"
point_id: 6
x: 0.44140625
y: -0.083984375
z: -1.2734375
range: 1.43804001808
velocity: 0.0
doppler_bin: 8
bearing: -10.7726478577
intensity: 23.0535144806
---
header: 
  seq: 542757
  stamp: 
    secs: 1561866959
    nsecs: 188730556
  frame_id: "ti_mmwave"
point_id: 7
x: 2.615234375
y: -0.17578125
z: 1.046875
range: 3.00681090355
velocity: 0.0
doppler_bin: 8
bearing: -3.84531402588
intensity: 29.0471553802
---
header: 
  seq: 542758
  stamp: 
    secs: 1561866959
    nsecs: 188738920
  frame_id: "ti_mmwave"
point_id: 8
x: 2.69140625
y: -0.08984375
z: 0.974609375
range: 3.05038785934
velocity: 0.0
doppler_bin: 8
bearing: -1.91192126274
intensity: 32.1800994873
---
header: 
  seq: 542759
  stamp: 
    secs: 1561866959
    nsecs: 188748395
  frame_id: "ti_mmwave"
point_id: 9
x: 2.755859375
y: -0.08984375
z: 0.9140625
range: 3.09396481514
velocity: 0.0
doppler_bin: 8
bearing: -1.86723792553
intensity: 31.2155990601
---
header: 
  seq: 542760
  stamp: 
    secs: 1561866959
    nsecs: 188756883
  frame_id: "ti_mmwave"
point_id: 10
x: 4.39453125
y: -0.142578125
z: 1.291015625
range: 4.88062095642
velocity: 0.0
doppler_bin: 8
bearing: -1.8582777977
intensity: 31.3513259888
---
header: 
  seq: 542761
  stamp: 
    secs: 1561866959
    nsecs: 188778500
  frame_id: "ti_mmwave"
point_id: 11
x: 4.357421875
y: -0.14453125
z: 1.537109375
range: 4.9241976738
velocity: 0.0
doppler_bin: 8
bearing: -1.89974629879
intensity: 30.8707122803
---
header: 
  seq: 542762
  stamp: 
    secs: 1561866959
    nsecs: 188794015
  frame_id: "ti_mmwave"
point_id: 12
x: 4.724609375
y: -0.44921875
z: -0.615234375
range: 5.09850549698
velocity: 0.0
doppler_bin: 8
bearing: -5.43138980865
intensity: 33.3565826416
---
header: 
  seq: 542763
  stamp: 
    secs: 1561866959
    nsecs: 188807151
  frame_id: "ti_mmwave"
point_id: 13
x: 4.775390625
y: -0.30078125
z: -0.63671875
range: 5.14208269119
velocity: 0.0
doppler_bin: 8
bearing: -3.60405302048
intensity: 33.9984664917
---
header: 
  seq: 542764
  stamp: 
    secs: 1561866959
    nsecs: 188815276
  frame_id: "ti_mmwave"
point_id: 14
x: 4.798828125
y: -0.15234375
z: -0.80859375
range: 5.18565940857
velocity: 0.0
doppler_bin: 8
bearing: -1.81830310822
intensity: 30.4453983307
---
header: 
  seq: 542765
  stamp: 
    secs: 1561866959
    nsecs: 188983120
  frame_id: "ti_mmwave"
point_id: 15
x: 4.89453125
y: -0.30859375
z: 0.6640625
range: 5.27281332016
velocity: 0.0
doppler_bin: 8
bearing: -3.60764837265
intensity: 30.979511261
---
header: 
  seq: 542766
  stamp: 
    secs: 1561866959
    nsecs: 189003968
  frame_id: "ti_mmwave"
point_id: 16
x: 4.951171875
y: -0.623046875
z: 0.009765625
range: 5.31639051437
velocity: 0.0
doppler_bin: 8
bearing: -7.17230129242
intensity: 29.5856380463
---
header: 
  seq: 542767
  stamp: 
    secs: 1561866959
    nsecs: 189015796
  frame_id: "ti_mmwave"
point_id: 17
x: 1.01953125
y: 1.05859375
z: -0.083984375
range: 1.56877088547
velocity: 0.614668667316
doppler_bin: 9
bearing: 46.0768623352
intensity: 25.4282550812
---
header: 
  seq: 542768
  stamp: 
    secs: 1561866959
    nsecs: 189025478
  frame_id: "ti_mmwave"
point_id: 18
x: 0.998046875
y: 1.134765625
z: -0.0703125
range: 1.61234796047
velocity: 0.614668667316
doppler_bin: 9
bearing: 48.6677856445
intensity: 29.5182304382
---
header: 
  seq: 542769
  stamp: 
    secs: 1561866959
    nsecs: 189033406
  frame_id: "ti_mmwave"
point_id: 19
x: 1.07421875
y: 1.1171875
z: -0.126953125
range: 1.65592491627
velocity: 0.614668667316
doppler_bin: 9
bearing: 46.1233024597
intensity: 29.8677177429
---
header: 
  seq: 542770
  stamp: 
    secs: 1561866959
    nsecs: 189041323
  frame_id: "ti_mmwave"
point_id: 20
x: 1.09765625
y: 1.146484375
z: -0.158203125
range: 1.69950187206
velocity: 0.614668667316
doppler_bin: 9
bearing: 46.2464485168
intensity: 26.7486114502
---
header: 
  seq: 542771
  stamp: 
    secs: 1561866959
    nsecs: 189050984
  frame_id: "ti_mmwave"
point_id: 22
x: 0.041015625
y: -0.033203125
z: 0.0625
range: 0.0871539413929
velocity: 0.0
doppler_bin: 8
bearing: -38.9909973145
intensity: 30.1114730835
---
header: 
  seq: 542772
  stamp: 
    secs: 1561866959
    nsecs: 189059624
  frame_id: "ti_mmwave"
point_id: 23
x: 0.044921875
y: -0.046875
z: 0.103515625
range: 0.130730912089
velocity: 0.0
doppler_bin: 8
bearing: -46.218875885
intensity: 29.0308990479
---
header: 
  seq: 542773
  stamp: 
    secs: 1561866959
    nsecs: 189112004
  frame_id: "ti_mmwave"
point_id: 25
x: 4.74609375
y: -0.150390625
z: -0.60546875
range: 5.09850549698
velocity: 0.0
doppler_bin: 8
bearing: -1.81493794918
intensity: 33.3102226257
---
header: 
  seq: 542774
  stamp: 
    secs: 1561866959
    nsecs: 246752566
  frame_id: "ti_mmwave"
point_id: 0
x: 0.01171875
y: -0.0390625
z: -0.0078125
range: 0.0435769706964
velocity: 0.0
doppler_bin: 8
bearing: -73.3007583618
intensity: 30.6669845581
---
header: 
  seq: 542775
  stamp: 
    secs: 1561866959
    nsecs: 246839353
  frame_id: "ti_mmwave"
point_id: 1
x: 0.017578125
y: -0.080078125
z: -0.0078125
range: 0.0871539413929
velocity: 0.0
doppler_bin: 8
bearing: -77.6192398071
intensity: 31.9312458038
---
header: 
  seq: 542776
  stamp: 
    secs: 1561866959
    nsecs: 246857376
  frame_id: "ti_mmwave"
point_id: 2
x: 0.029296875
y: -0.119140625
z: -0.005859375
range: 0.130730912089
velocity: 0.0
doppler_bin: 8
bearing: -76.1849746704
intensity: 30.1535968781
---
header: 
  seq: 542777
  stamp: 
    secs: 1561866959
    nsecs: 246871512
  frame_id: "ti_mmwave"
point_id: 3
x: 0.056640625
y: -0.154296875
z: 0.005859375
range: 0.174307882786
velocity: 0.0
doppler_bin: 8
bearing: -69.8423843384
intensity: 25.4777469635
---
header: 
  seq: 542778
  stamp: 
    secs: 1561866959
    nsecs: 246885380
  frame_id: "ti_mmwave"
point_id: 4
x: 0.064453125
y: -0.080078125
z: 1.263671875
range: 1.35088610649
velocity: 0.0
doppler_bin: 8
bearing: -51.1701774597
intensity: 23.138671875
---
header: 
  seq: 542779
  stamp: 
    secs: 1561866959
    nsecs: 246900200
  frame_id: "ti_mmwave"
point_id: 5
x: 0.044921875
y: -0.08203125
z: -1.306640625
range: 1.39446306229
velocity: 0.0
doppler_bin: 8
bearing: -61.2940483093
intensity: 24.6538276672
---
header: 
  seq: 542780
  stamp: 
    secs: 1561866959
    nsecs: 246915066
  frame_id: "ti_mmwave"
point_id: 6
x: 0.423828125
y: -0.083984375
z: -1.279296875
range: 1.43804001808
velocity: 0.0
doppler_bin: 8
bearing: -11.2083444595
intensity: 23.0749607086
---
header: 
  seq: 542781
  stamp: 
    secs: 1561866959
    nsecs: 246931884
  frame_id: "ti_mmwave"
point_id: 7
x: 2.6171875
y: -0.17578125
z: 1.04296875
range: 3.00681090355
velocity: 0.0
doppler_bin: 8
bearing: -3.84245300293
intensity: 29.0794849396
---
header: 
  seq: 542782
  stamp: 
    secs: 1561866959
    nsecs: 246945679
  frame_id: "ti_mmwave"
point_id: 8
x: 2.658203125
y: -0.1796875
z: 1.048828125
range: 3.05038785934
velocity: 0.0
doppler_bin: 8
bearing: -3.86716008186
intensity: 32.1984634399
---
header: 
  seq: 542783
  stamp: 
    secs: 1561866959
    nsecs: 247024803
  frame_id: "ti_mmwave"
point_id: 9
x: 2.751953125
y: -0.08984375
z: 0.921875
range: 3.09396481514
velocity: 0.0
doppler_bin: 8
bearing: -1.86988639832
intensity: 31.1693973541
---
header: 
  seq: 542784
  stamp: 
    secs: 1561866959
    nsecs: 247041275
  frame_id: "ti_mmwave"
point_id: 10
x: 4.392578125
y: -0.142578125
z: 1.296875
range: 4.88062095642
velocity: 0.0
doppler_bin: 8
bearing: -1.85910367966
intensity: 31.3097667694
---
header: 
  seq: 542785
  stamp: 
    secs: 1561866959
    nsecs: 247054255
  frame_id: "ti_mmwave"
point_id: 11
x: 4.35546875
y: -0.14453125
z: 1.5390625
range: 4.9241976738
velocity: 0.0
doppler_bin: 8
bearing: -1.90059769154
intensity: 30.8884449005
---
header: 
  seq: 542786
  stamp: 
    secs: 1561866959
    nsecs: 247067246
  frame_id: "ti_mmwave"
point_id: 12
x: 4.73828125
y: -0.298828125
z: -0.609375
range: 5.09850549698
velocity: 0.0
doppler_bin: 8
bearing: -3.60868048668
intensity: 33.38854599
---
header: 
  seq: 542787
  stamp: 
    secs: 1561866959
    nsecs: 247080483
  frame_id: "ti_mmwave"
point_id: 13
x: 4.7734375
y: -0.30078125
z: -0.65625
range: 5.14208269119
velocity: 0.0
doppler_bin: 8
bearing: -3.60552406311
intensity: 33.988079071
---
header: 
  seq: 542788
  stamp: 
    secs: 1561866959
    nsecs: 247094907
  frame_id: "ti_mmwave"
point_id: 14
x: 4.7890625
y: -0.15234375
z: -0.86328125
range: 5.18565940857
velocity: 0.0
doppler_bin: 8
bearing: -1.82200825214
intensity: 30.3622951508
---
header: 
  seq: 542789
  stamp: 
    secs: 1561866959
    nsecs: 247108073
  frame_id: "ti_mmwave"
point_id: 15
x: 4.876953125
y: -0.30859375
z: 0.78515625
range: 5.27281332016
velocity: 0.0
doppler_bin: 8
bearing: -3.62061715126
intensity: 31.1859531403
---
header: 
  seq: 542790
  stamp: 
    secs: 1561866959
    nsecs: 247118103
  frame_id: "ti_mmwave"
point_id: 16
x: 4.943359375
y: -0.623046875
z: 0.267578125
range: 5.31639051437
velocity: 0.0
doppler_bin: 8
bearing: -7.18351840973
intensity: 29.9033889771
---
header: 
  seq: 542791
  stamp: 
    secs: 1561866959
    nsecs: 247144796
  frame_id: "ti_mmwave"
point_id: 17
x: 0.990234375
y: 1.134765625
z: -0.140625
range: 1.61234796047
velocity: 0.614668667316
doppler_bin: 9
bearing: 48.8909645081
intensity: 26.0205993652
---
header: 
  seq: 542792
  stamp: 
    secs: 1561866959
    nsecs: 247163698
  frame_id: "ti_mmwave"
point_id: 18
x: 1.125
y: 1.068359375
z: -0.083984375
range: 1.65592491627
velocity: 0.614668667316
doppler_bin: 9
bearing: 43.520740509
intensity: 28.645111084
---
header: 
  seq: 542793
  stamp: 
    secs: 1561866959
    nsecs: 247189376
  frame_id: "ti_mmwave"
point_id: 19
x: 1.158203125
y: 1.09765625
z: -0.0390625
range: 1.69950187206
velocity: 0.614668667316
doppler_bin: 9
bearing: 43.4625587463
intensity: 28.6272754669
---
header: 
  seq: 542794
  stamp: 
    secs: 1561866959
    nsecs: 247265426
  frame_id: "ti_mmwave"
point_id: 20
x: 1.232421875
y: 1.07421875
z: -0.078125
range: 1.74307882786
velocity: 0.614668667316
doppler_bin: 9
bearing: 41.076461792
intensity: 24.5178642273
---
header: 
  seq: 542795
  stamp: 
    secs: 1561866959
    nsecs: 247283341
  frame_id: "ti_mmwave"
point_id: 22
x: 0.041015625
y: -0.033203125
z: 0.0625
range: 0.0871539413929
velocity: 0.0
doppler_bin: 8
bearing: -38.9909973145
intensity: 30.1114730835
---
header: 
  seq: 542796
  stamp: 
    secs: 1561866959
    nsecs: 247297259
  frame_id: "ti_mmwave"
point_id: 23
x: 0.044921875
y: -0.046875
z: 0.103515625
range: 0.130730912089
velocity: 0.0
doppler_bin: 8
bearing: -46.218875885
intensity: 29.0254669189
---
header: 
  seq: 542797
  stamp: 
    secs: 1561866959
    nsecs: 248388812
  frame_id: "ti_mmwave"
point_id: 0
x: 0.01171875
y: -0.0390625
z: -0.0078125
range: 0.0435769706964
velocity: 0.0
doppler_bin: 8
bearing: -73.3007583618
intensity: 30.6632595062
---
header: 
  seq: 542798
  stamp: 
    secs: 1561866959
    nsecs: 248438376
  frame_id: "ti_mmwave"
point_id: 1
x: 0.017578125
y: -0.080078125
z: -0.0078125
range: 0.0871539413929
velocity: 0.0
doppler_bin: 8
bearing: -77.6192398071
intensity: 31.9312458038
---
header: 
  seq: 542799
  stamp: 
    secs: 1561866959
    nsecs: 248450175
  frame_id: "ti_mmwave"
point_id: 2
x: 0.029296875
y: -0.119140625
z: -0.005859375
range: 0.130730912089
velocity: 0.0
doppler_bin: 8
bearing: -76.1849746704
intensity: 30.1494026184
---
header: 
  seq: 542800
  stamp: 
    secs: 1561866959
    nsecs: 248461859
  frame_id: "ti_mmwave"
point_id: 3
x: 0.056640625
y: -0.154296875
z: 0.005859375
range: 0.174307882786
velocity: 0.0
doppler_bin: 8
bearing: -69.8423843384
intensity: 25.4777469635
---
header: 
  seq: 542801
  stamp: 
    secs: 1561866959
    nsecs: 248470858
  frame_id: "ti_mmwave"
point_id: 4
x: 0.154296875
y: -0.080078125
z: 1.255859375
range: 1.35088610649
velocity: 0.0
doppler_bin: 8
bearing: -27.4287414551
intensity: 23.0963020325
---
header: 
  seq: 542802
  stamp: 
    secs: 1561866959
    nsecs: 248529899
  frame_id: "ti_mmwave"
point_id: 6
x: 0.423828125
y: -0.083984375
z: -1.279296875
range: 1.43804001808
velocity: 0.0
doppler_bin: 8
bearing: -11.2083444595
intensity: 23.0535144806
---
header: 
  seq: 542803
  stamp: 
    secs: 1561866959
    nsecs: 248539283
  frame_id: "ti_mmwave"
point_id: 7
x: 2.607421875
y: -0.17578125
z: 1.06640625
range: 3.00681090355
velocity: 0.0
doppler_bin: 8
bearing: -3.8568007946
intensity: 29.0091304779
---
header: 
  seq: 542804
  stamp: 
    secs: 1561866959
    nsecs: 248546907
  frame_id: "ti_mmwave"
point_id: 8
x: 2.6875
y: -0.08984375
z: 0.984375
range: 3.05038785934
velocity: 0.0
doppler_bin: 8
bearing: -1.91469812393
intensity: 32.1932258606
---
header: 
  seq: 542805
  stamp: 
    secs: 1561866959
    nsecs: 248555092
  frame_id: "ti_mmwave"
point_id: 9
x: 2.76953125
y: -0.0
z: 0.873046875
range: 3.09396481514
velocity: 0.0
doppler_bin: 8
bearing: -0.0
intensity: 31.1494445801
---
header: 
  seq: 542806
  stamp: 
    secs: 1561866959
    nsecs: 248562846
  frame_id: "ti_mmwave"
point_id: 10
x: 4.392578125
y: -0.142578125
z: 1.29296875
range: 4.88062095642
velocity: 0.0
doppler_bin: 8
bearing: -1.85910367966
intensity: 31.3129787445
---
header: 
  seq: 542807
  stamp: 
    secs: 1561866959
    nsecs: 248573851
  frame_id: "ti_mmwave"
point_id: 11
x: 4.35546875
y: -0.14453125
z: 1.54296875
range: 4.9241976738
velocity: 0.0
doppler_bin: 8
bearing: -1.90059769154
intensity: 30.8849048615
---
header: 
  seq: 542808
  stamp: 
    secs: 1561866959
    nsecs: 248581662
  frame_id: "ti_mmwave"
point_id: 12
x: 4.736328125
y: -0.298828125
z: -0.6171875
range: 5.09850549698
velocity: 0.0
doppler_bin: 8
bearing: -3.61016488075
intensity: 33.4321174622
---
header: 
  seq: 542809
  stamp: 
    secs: 1561866959
    nsecs: 248589578
  frame_id: "ti_mmwave"
point_id: 13
x: 4.771484375
y: -0.30078125
z: -0.662109375
range: 5.14208269119
velocity: 0.0
doppler_bin: 8
bearing: -3.60699558258
intensity: 34.0363502502
---
header: 
  seq: 542810
  stamp: 
    secs: 1561866959
    nsecs: 248597200
  frame_id: "ti_mmwave"
point_id: 14
x: 4.78515625
y: -0.15234375
z: -0.880859375
range: 5.18565940857
velocity: 0.0
doppler_bin: 8
bearing: -1.82349443436
intensity: 30.3742656708
---
header: 
  seq: 542811
  stamp: 
    secs: 1561866959
    nsecs: 248604554
  frame_id: "ti_mmwave"
point_id: 15
x: 4.890625
y: -0.30859375
z: 0.703125
range: 5.27281332016
velocity: 0.0
doppler_bin: 8
bearing: -3.61052203178
intensity: 31.05169487
---
header: 
  seq: 542812
  stamp: 
    secs: 1561866959
    nsecs: 248609529
  frame_id: "ti_mmwave"
point_id: 16
x: 4.94921875
y: -0.623046875
z: 0.115234375
range: 5.31639051437
velocity: 0.0
doppler_bin: 8
bearing: -7.17510271072
intensity: 29.689496994
---
header: 
  seq: 542813
  stamp: 
    secs: 1561866959
    nsecs: 248625024
  frame_id: "ti_mmwave"
point_id: 17
x: 1.07421875
y: 1.1171875
z: -0.12109375
range: 1.65592491627
velocity: 0.614668667316
doppler_bin: 9
bearing: 46.1233024597
intensity: 28.5430603027
---
header: 
  seq: 542814
  stamp: 
    secs: 1561866959
    nsecs: 248670014
  frame_id: "ti_mmwave"
point_id: 18
x: 1.09765625
y: 1.146484375
z: -0.1640625
range: 1.69950187206
velocity: 0.614668667316
doppler_bin: 9
bearing: 46.2464485168
intensity: 30.0987567902
---
header: 
  seq: 542815
  stamp: 
    secs: 1561866959
    nsecs: 248679240
  frame_id: "ti_mmwave"
point_id: 19
x: 1.16796875
y: 1.125
z: -0.21875
range: 1.74307882786
velocity: 0.614668667316
doppler_bin: 9
bearing: 43.9264373779
intensity: 28.5733242035
---
header: 
  seq: 542816
  stamp: 
    secs: 1561866959
    nsecs: 248689508
  frame_id: "ti_mmwave"
point_id: 21
x: 0.041015625
y: -0.033203125
z: 0.0625
range: 0.0871539413929
velocity: 0.0
doppler_bin: 8
bearing: -38.9909973145
intensity: 30.1157035828
---
header: 
  seq: 542817
  stamp: 
    secs: 1561866959
    nsecs: 248698520
  frame_id: "ti_mmwave"
point_id: 22
x: 0.044921875
y: -0.046875
z: 0.103515625
range: 0.130730912089
velocity: 0.0
doppler_bin: 8
bearing: -46.218875885
intensity: 29.0308990479
---
header: 
  seq: 542818
  stamp: 
    secs: 1561866959
    nsecs: 248710213
  frame_id: "ti_mmwave"
point_id: 24
x: 2.728515625
y: -0.181640625
z: 0.98046875
range: 3.09396481514
velocity: 0.0
doppler_bin: 8
bearing: -3.80863046646
intensity: 31.1461105347
---
header: 
  seq: 542819
  stamp: 
    secs: 1561866959
    nsecs: 306696818
  frame_id: "ti_mmwave"
point_id: 0
x: 0.01171875
y: -0.0390625
z: -0.0078125
range: 0.0435769706964
velocity: 0.0
doppler_bin: 8
bearing: -73.3007583618
intensity: 30.6595306396
---
header: 
  seq: 542820
  stamp: 
    secs: 1561866959
    nsecs: 306772406
  frame_id: "ti_mmwave"
point_id: 1
x: 0.017578125
y: -0.080078125
z: -0.0078125
range: 0.0871539413929
velocity: 0.0
doppler_bin: 8
bearing: -77.6192398071
intensity: 31.9312458038
---
header: 
  seq: 542821
  stamp: 
    secs: 1561866959
    nsecs: 306783408
  frame_id: "ti_mmwave"
point_id: 2
x: 0.029296875
y: -0.119140625
z: -0.005859375
range: 0.130730912089
velocity: 0.0
doppler_bin: 8
bearing: -76.1849746704
intensity: 30.1535968781
---
header: 
  seq: 542822
  stamp: 
    secs: 1561866959
    nsecs: 306791579
  frame_id: "ti_mmwave"
point_id: 3
x: 0.056640625
y: -0.154296875
z: 0.005859375
range: 0.174307882786
velocity: 0.0
doppler_bin: 8
bearing: -69.8423843384
intensity: 25.4654273987
---
header: 
  seq: 542823
  stamp: 
    secs: 1561866959
    nsecs: 306801113
  frame_id: "ti_mmwave"
point_id: 4
x: 0.119140625
y: -0.080078125
z: 1.259765625
range: 1.35088610649
velocity: 0.0
doppler_bin: 8
bearing: -33.9062767029
intensity: 23.1175384521
---
header: 
  seq: 542824
  stamp: 
    secs: 1561866959
    nsecs: 306811853
  frame_id: "ti_mmwave"
point_id: 6
x: 0.4296875
y: -0.083984375
z: -1.27734375
range: 1.43804001808
velocity: 0.0
doppler_bin: 8
bearing: -11.0592975616
intensity: 23.031961441
---
header: 
  seq: 542825
  stamp: 
    secs: 1561866959
    nsecs: 306820892
  frame_id: "ti_mmwave"
point_id: 7
x: 2.615234375
y: -0.17578125
z: 1.046875
range: 3.00681090355
velocity: 0.0
doppler_bin: 8
bearing: -3.84531402588
intensity: 29.1009063721
---
header: 
  seq: 542826
  stamp: 
    secs: 1561866959
    nsecs: 306829345
  frame_id: "ti_mmwave"
point_id: 8
x: 2.658203125
y: -0.1796875
z: 1.048828125
range: 3.05038785934
velocity: 0.0
doppler_bin: 8
bearing: -3.86716008186
intensity: 32.229763031
---
header: 
  seq: 542827
  stamp: 
    secs: 1561866959
    nsecs: 306838822
  frame_id: "ti_mmwave"
point_id: 9
x: 2.751953125
y: -0.08984375
z: 0.921875
range: 3.09396481514
velocity: 0.0
doppler_bin: 8
bearing: -1.86988639832
intensity: 31.2548122406
---
header: 
  seq: 542828
  stamp: 
    secs: 1561866959
    nsecs: 306847234
  frame_id: "ti_mmwave"
point_id: 10
x: 4.39453125
y: -0.142578125
z: 1.291015625
range: 4.88062095642
velocity: 0.0
doppler_bin: 8
bearing: -1.8582777977
intensity: 31.332195282
---
header: 
  seq: 542829
  stamp: 
    secs: 1561866959
    nsecs: 306855177
  frame_id: "ti_mmwave"
point_id: 11
x: 4.359375
y: -0.14453125
z: 1.533203125
range: 4.9241976738
velocity: 0.0
doppler_bin: 8
bearing: -1.89889574051
intensity: 30.8955192566
---
header: 
  seq: 542830
  stamp: 
    secs: 1561866959
    nsecs: 307025510
  frame_id: "ti_mmwave"
point_id: 12
x: 4.740234375
y: -0.298828125
z: -0.595703125
range: 5.09850549698
velocity: 0.0
doppler_bin: 8
bearing: -3.60719799995
intensity: 33.3605918884
---
header: 
  seq: 542831
  stamp: 
    secs: 1561866959
    nsecs: 307044813
  frame_id: "ti_mmwave"
point_id: 13
x: 4.77734375
y: -0.30078125
z: -0.623046875
range: 5.14208269119
velocity: 0.0
doppler_bin: 8
bearing: -3.60258316994
intensity: 33.9846076965
---
header: 
  seq: 542832
  stamp: 
    secs: 1561866959
    nsecs: 307053693
  frame_id: "ti_mmwave"
point_id: 14
x: 4.806640625
y: -0.15234375
z: -0.7578125
range: 5.18565940857
velocity: 0.0
doppler_bin: 8
bearing: -1.81534969807
intensity: 30.4727478027
---
header: 
  seq: 542833
  stamp: 
    secs: 1561866959
    nsecs: 307061930
  frame_id: "ti_mmwave"
point_id: 15
x: 4.892578125
y: -0.30859375
z: 0.68359375
range: 5.27281332016
velocity: 0.0
doppler_bin: 8
bearing: -3.60908436775
intensity: 31.095785141
---
header: 
  seq: 542834
  stamp: 
    secs: 1561866959
    nsecs: 307072287
  frame_id: "ti_mmwave"
point_id: 16
x: 4.96875
y: -0.46875
z: 0.091796875
range: 5.31639051437
velocity: 0.0
doppler_bin: 8
bearing: -5.38931179047
intensity: 29.7312793732
---
header: 
  seq: 542835
  stamp: 
    secs: 1561866959
    nsecs: 307080620
  frame_id: "ti_mmwave"
point_id: 17
x: 1.166015625
y: 1.205078125
z: 0.025390625
range: 1.78665578365
velocity: 0.614668667316
doppler_bin: 9
bearing: 45.9438323975
intensity: 27.2754135132
---
header: 
  seq: 542836
  stamp: 
    secs: 1561866959
    nsecs: 307091336
  frame_id: "ti_mmwave"
point_id: 18
x: 1.23828125
y: 1.181640625
z: 0.15234375
range: 1.83023273945
velocity: 0.614668667316
doppler_bin: 9
bearing: 43.6591796875
intensity: 25.7170886993
---
header: 
  seq: 542837
  stamp: 
    secs: 1561866959
    nsecs: 307099544
  frame_id: "ti_mmwave"
point_id: 19
x: 0.99609375
y: 1.166015625
z: 0.25390625
range: 1.65592491627
velocity: 1.22933733463
doppler_bin: 10
bearing: 49.493686676
intensity: 24.6982192993
---
header: 
  seq: 542838
  stamp: 
    secs: 1561866959
    nsecs: 307104428
  frame_id: "ti_mmwave"
point_id: 20
x: 1.03515625
y: 1.197265625
z: 0.208984375
range: 1.69950187206
velocity: 1.22933733463
doppler_bin: 10
bearing: 49.1532974243
intensity: 28.1090431213
---
header: 
  seq: 542839
  stamp: 
    secs: 1561866959
    nsecs: 307116893
  frame_id: "ti_mmwave"
point_id: 21
x: 1.01171875
y: 1.279296875
z: 0.140625
range: 1.74307882786
velocity: 1.22933733463
doppler_bin: 10
bearing: 51.661655426
intensity: 28.1557769775
---
header: 
  seq: 542840
  stamp: 
    secs: 1561866959
    nsecs: 307196419
  frame_id: "ti_mmwave"
point_id: 23
x: 0.041015625
y: -0.033203125
z: 0.0625
range: 0.0871539413929
velocity: 0.0
doppler_bin: 8
bearing: -38.9909973145
intensity: 30.1114730835
---
header: 
  seq: 542841
  stamp: 
    secs: 1561866959
    nsecs: 307214142
  frame_id: "ti_mmwave"
point_id: 24
x: 0.044921875
y: -0.046875
z: 0.103515625
range: 0.130730912089
velocity: 0.0
doppler_bin: 8
bearing: -46.218875885
intensity: 29.0254669189
---
header: 
  seq: 542842
  stamp: 
    secs: 1561866959
    nsecs: 308388868
  frame_id: "ti_mmwave"
point_id: 0
x: 0.01171875
y: -0.0390625
z: -0.0078125
range: 0.0435769706964
velocity: 0.0
doppler_bin: 8
bearing: -73.3007583618
intensity: 30.6744289398
---
header: 
  seq: 542843
  stamp: 
    secs: 1561866959
    nsecs: 308437491
  frame_id: "ti_mmwave"
point_id: 1
x: 0.017578125
y: -0.080078125
z: -0.0078125
range: 0.0871539413929
velocity: 0.0
doppler_bin: 8
bearing: -77.6192398071
intensity: 31.9340286255
---
header: 
  seq: 542844
  stamp: 
    secs: 1561866959
    nsecs: 308450168
  frame_id: "ti_mmwave"
point_id: 2
x: 0.029296875
y: -0.119140625
z: -0.005859375
range: 0.130730912089
velocity: 0.0
doppler_bin: 8
bearing: -76.1849746704
intensity: 30.157787323
---
header: 
  seq: 542845
  stamp: 
    secs: 1561866959
    nsecs: 308458984
  frame_id: "ti_mmwave"
point_id: 3
x: 0.056640625
y: -0.154296875
z: 0.005859375
range: 0.174307882786
velocity: 0.0
doppler_bin: 8
bearing: -69.8423843384
intensity: 25.4777469635
---
header: 
  seq: 542846
  stamp: 
    secs: 1561866959
    nsecs: 308467923
  frame_id: "ti_mmwave"
point_id: 4
x: 0.068359375
y: -0.080078125
z: 1.263671875
range: 1.35088610649
velocity: 0.0
doppler_bin: 8
bearing: -49.5139884949
intensity: 23.138671875
---
header: 
  seq: 542847
  stamp: 
    secs: 1561866959
    nsecs: 308479430
  frame_id: "ti_mmwave"
point_id: 6
x: 0.41796875
y: -0.083984375
z: -1.28125
range: 1.43804001808
velocity: 0.0
doppler_bin: 8
bearing: -11.3614110947
intensity: 23.0963020325
---
header: 
  seq: 542848
  stamp: 
    secs: 1561866959
    nsecs: 308530898
  frame_id: "ti_mmwave"
point_id: 7
x: 0.546875
y: -0.04296875
z: -1.27734375
range: 1.48161697388
velocity: 0.0
doppler_bin: 8
bearing: -4.49258184433
intensity: 21.6435279846
---
header: 
  seq: 542849
  stamp: 
    secs: 1561866959
    nsecs: 308540133
  frame_id: "ti_mmwave"
point_id: 8
x: 2.61328125
y: -0.17578125
z: 1.05078125
range: 3.00681090355
velocity: 0.0
doppler_bin: 8
bearing: -3.84817934036
intensity: 29.0254669189
---
header: 
  seq: 542850
  stamp: 
    secs: 1561866959
    nsecs: 308548001
  frame_id: "ti_mmwave"
point_id: 9
x: 2.658203125
y: -0.1796875
z: 1.05078125
range: 3.05038785934
velocity: 0.0
doppler_bin: 8
bearing: -3.86716008186
intensity: 32.1537322998
---
header: 
  seq: 542851
  stamp: 
    secs: 1561866959
    nsecs: 308555800
  frame_id: "ti_mmwave"
point_id: 10
x: 2.75390625
y: -0.08984375
z: 0.919921875
range: 3.09396481514
velocity: 0.0
doppler_bin: 8
bearing: -1.86856126785
intensity: 31.1991539001
---
header: 
  seq: 542852
  stamp: 
    secs: 1561866959
    nsecs: 308565094
  frame_id: "ti_mmwave"
point_id: 11
x: 4.396484375
y: -0.142578125
z: 1.28125
range: 4.88062095642
velocity: 0.0
doppler_bin: 8
bearing: -1.85745286942
intensity: 31.3481445312
---
header: 
  seq: 542853
  stamp: 
    secs: 1561866959
    nsecs: 308573298
  frame_id: "ti_mmwave"
point_id: 12
x: 4.357421875
y: -0.14453125
z: 1.533203125
range: 4.9241976738
velocity: 0.0
doppler_bin: 8
bearing: -1.89974629879
intensity: 30.8707122803
---
header: 
  seq: 542854
  stamp: 
    secs: 1561866959
    nsecs: 308581783
  frame_id: "ti_mmwave"
point_id: 13
x: 4.7265625
y: -0.44921875
z: -0.609375
range: 5.09850549698
velocity: 0.0
doppler_bin: 8
bearing: -5.42915868759
intensity: 33.3605918884
---
header: 
  seq: 542855
  stamp: 
    secs: 1561866959
    nsecs: 308589401
  frame_id: "ti_mmwave"
point_id: 14
x: 4.775390625
y: -0.30078125
z: -0.640625
range: 5.14208269119
velocity: 0.0
doppler_bin: 8
bearing: -3.60405302048
intensity: 34.010559082
---
header: 
  seq: 542856
  stamp: 
    secs: 1561866959
    nsecs: 308597198
  frame_id: "ti_mmwave"
point_id: 15
x: 4.798828125
y: -0.15234375
z: -0.80078125
range: 5.18565940857
velocity: 0.0
doppler_bin: 8
bearing: -1.81830310822
intensity: 30.4805316925
---
header: 
  seq: 542857
  stamp: 
    secs: 1561866959
    nsecs: 308604815
  frame_id: "ti_mmwave"
point_id: 16
x: 4.888671875
y: -0.30859375
z: 0.716796875
range: 5.27281332016
velocity: 0.0
doppler_bin: 8
bearing: -3.61196112633
intensity: 31.0551013947
---
header: 
  seq: 542858
  stamp: 
    secs: 1561866959
    nsecs: 308612531
  frame_id: "ti_mmwave"
point_id: 17
x: 4.96484375
y: -0.46875
z: 0.16796875
range: 5.31639051437
velocity: 0.0
doppler_bin: 8
bearing: -5.39352655411
intensity: 29.6520175934
---
header: 
  seq: 542859
  stamp: 
    secs: 1561866959
    nsecs: 308617677
  frame_id: "ti_mmwave"
point_id: 18
x: 1.24609375
y: 0.998046875
z: -0.017578125
range: 1.69950187206
velocity: 0.614668667316
doppler_bin: 9
bearing: 38.6926498413
intensity: 29.0525608063
---
header: 
  seq: 542860
  stamp: 
    secs: 1561866959
    nsecs: 308640943
  frame_id: "ti_mmwave"
point_id: 19
x: 1.27734375
y: 1.0234375
z: 0.009765625
range: 1.74307882786
velocity: 0.614668667316
doppler_bin: 9
bearing: 38.7025184631
intensity: 31.5986785889
---
header: 
  seq: 542861
  stamp: 
    secs: 1561866959
    nsecs: 308657543
  frame_id: "ti_mmwave"
point_id: 20
x: 1.265625
y: 1.1015625
z: -0.005859375
range: 1.78665578365
velocity: 0.614668667316
doppler_bin: 9
bearing: 41.0353469849
intensity: 30.5956344604
---
header: 
  seq: 542862
  stamp: 
    secs: 1561866959
    nsecs: 308672537
  frame_id: "ti_mmwave"
point_id: 21
x: 1.28515625
y: 1.126953125
z: 0.1640625
range: 1.83023273945
velocity: 0.614668667316
doppler_bin: 9
bearing: 41.2475166321
intensity: 26.9108142853
---
header: 
  seq: 542863
  stamp: 
    secs: 1561866959
    nsecs: 308687467
  frame_id: "ti_mmwave"
point_id: 23
x: 0.041015625
y: -0.033203125
z: 0.0625
range: 0.0871539413929
velocity: 0.0
doppler_bin: 8
bearing: -38.9909973145
intensity: 30.1157035828
---
header: 
  seq: 542864
  stamp: 
    secs: 1561866959
    nsecs: 308700512
  frame_id: "ti_mmwave"
point_id: 24
x: 0.044921875
y: -0.046875
z: 0.103515625
range: 0.130730912089
velocity: 0.0
doppler_bin: 8
bearing: -46.218875885
intensity: 29.0308990479
---
header: 
  seq: 542865
  stamp: 
    secs: 1561866959
    nsecs: 308715643
  frame_id: "ti_mmwave"
point_id: 26
x: 4.74609375
y: -0.150390625
z: -0.6015625
range: 5.09850549698
velocity: 0.0
doppler_bin: 8
bearing: -1.81493794918
intensity: 33.3203430176
---
header: 
  seq: 542866
  stamp: 
    secs: 1561866959
    nsecs: 366747362
  frame_id: "ti_mmwave"
point_id: 0
x: 0.01171875
y: -0.0390625
z: -0.0078125
range: 0.0435769706964
velocity: 0.0
doppler_bin: 8
bearing: -73.3007583618
intensity: 30.6669845581
---
header: 
  seq: 542867
  stamp: 
    secs: 1561866959
    nsecs: 366836854
  frame_id: "ti_mmwave"
point_id: 1
x: 0.017578125
y: -0.080078125
z: -0.0078125
range: 0.0871539413929
velocity: 0.0
doppler_bin: 8
bearing: -77.6192398071
intensity: 31.9312458038
---
header: 
  seq: 542868
  stamp: 
    secs: 1561866959
    nsecs: 366851501
  frame_id: "ti_mmwave"
point_id: 2
x: 0.029296875
y: -0.119140625
z: -0.005859375
range: 0.130730912089
velocity: 0.0
doppler_bin: 8
bearing: -76.1849746704
intensity: 30.157787323
---
header: 
  seq: 542869
  stamp: 
    secs: 1561866959
    nsecs: 366865470
  frame_id: "ti_mmwave"
point_id: 3
x: 0.056640625
y: -0.154296875
z: 0.005859375
range: 0.174307882786
velocity: 0.0
doppler_bin: 8
bearing: -69.8423843384
intensity: 25.4777469635
---
header: 
  seq: 542870
  stamp: 
    secs: 1561866959
    nsecs: 366880707
  frame_id: "ti_mmwave"
point_id: 4
x: 0.091796875
y: -0.080078125
z: 1.26171875
range: 1.35088610649
velocity: 0.0
doppler_bin: 8
bearing: -41.0995063782
intensity: 23.0963020325
---
header: 
  seq: 542871
  stamp: 
    secs: 1561866959
    nsecs: 366903080
  frame_id: "ti_mmwave"
point_id: 5
x: 0.0625
y: -0.08203125
z: -1.3046875
range: 1.39446306229
velocity: 0.0
doppler_bin: 8
bearing: -52.6960487366
intensity: 24.6239795685
---
header: 
  seq: 542872
  stamp: 
    secs: 1561866959
    nsecs: 366923865
  frame_id: "ti_mmwave"
point_id: 6
x: 0.42578125
y: -0.083984375
z: -1.27734375
range: 1.43804001808
velocity: 0.0
doppler_bin: 8
bearing: -11.1582231522
intensity: 23.0535144806
---
header: 
  seq: 542873
  stamp: 
    secs: 1561866959
    nsecs: 366944997
  frame_id: "ti_mmwave"
point_id: 7
x: 2.6171875
y: -0.17578125
z: 1.044921875
range: 3.00681090355
velocity: 0.0
doppler_bin: 8
bearing: -3.84245300293
intensity: 29.0145835876
---
header: 
  seq: 542874
  stamp: 
    secs: 1561866959
    nsecs: 367037115
  frame_id: "ti_mmwave"
point_id: 8
x: 2.66015625
y: -0.1796875
z: 1.046875
range: 3.05038785934
velocity: 0.0
doppler_bin: 8
bearing: -3.86432933807
intensity: 32.2063102722
---
header: 
  seq: 542875
  stamp: 
    secs: 1561866959
    nsecs: 367053549
  frame_id: "ti_mmwave"
point_id: 9
x: 2.755859375
y: -0.08984375
z: 0.912109375
range: 3.09396481514
velocity: 0.0
doppler_bin: 8
bearing: -1.86723792553
intensity: 31.1494445801
---
header: 
  seq: 542876
  stamp: 
    secs: 1561866959
    nsecs: 367066556
  frame_id: "ti_mmwave"
point_id: 10
x: 4.392578125
y: -0.142578125
z: 1.296875
range: 4.88062095642
velocity: 0.0
doppler_bin: 8
bearing: -1.85910367966
intensity: 31.2904510498
---
header: 
  seq: 542877
  stamp: 
    secs: 1561866959
    nsecs: 367079744
  frame_id: "ti_mmwave"
point_id: 11
x: 4.3515625
y: -0.14453125
z: 1.55078125
range: 4.9241976738
velocity: 0.0
doppler_bin: 8
bearing: -1.90230250359
intensity: 30.8919830322
---
header: 
  seq: 542878
  stamp: 
    secs: 1561866959
    nsecs: 367092970
  frame_id: "ti_mmwave"
point_id: 12
x: 4.736328125
y: -0.298828125
z: -0.6171875
range: 5.09850549698
velocity: 0.0
doppler_bin: 8
bearing: -3.61016488075
intensity: 33.4262008667
---
header: 
  seq: 542879
  stamp: 
    secs: 1561866959
    nsecs: 367105646
  frame_id: "ti_mmwave"
point_id: 13
x: 4.76953125
y: -0.30078125
z: -0.673828125
range: 5.14208269119
velocity: 0.0
doppler_bin: 8
bearing: -3.60846877098
intensity: 34.0243339539
---
header: 
  seq: 542880
  stamp: 
    secs: 1561866959
    nsecs: 367118266
  frame_id: "ti_mmwave"
point_id: 14
x: 4.775390625
y: -0.15234375
z: -0.927734375
range: 5.18565940857
velocity: 0.0
doppler_bin: 8
bearing: -1.82722115517
intensity: 30.3462848663
---
header: 
  seq: 542881
  stamp: 
    secs: 1561866959
    nsecs: 367133032
  frame_id: "ti_mmwave"
point_id: 15
x: 4.890625
y: -0.30859375
z: 0.693359375
range: 5.27281332016
velocity: 0.0
doppler_bin: 8
bearing: -3.61052203178
intensity: 31.0346164703
---
header: 
  seq: 542882
  stamp: 
    secs: 1561866959
    nsecs: 367146210
  frame_id: "ti_mmwave"
point_id: 16
x: 4.951171875
y: -0.623046875
z: 0.056640625
range: 5.31639051437
velocity: 0.0
doppler_bin: 8
bearing: -7.17230129242
intensity: 29.7358970642
---
header: 
  seq: 542883
  stamp: 
    secs: 1561866959
    nsecs: 367160823
  frame_id: "ti_mmwave"
point_id: 17
x: 1.126953125
y: 1.17578125
z: -0.150390625
range: 1.74307882786
velocity: 0.614668667316
doppler_bin: 9
bearing: 46.2147407532
intensity: 30.3742656708
---
header: 
  seq: 542884
  stamp: 
    secs: 1561866959
    nsecs: 367173823
  frame_id: "ti_mmwave"
point_id: 18
x: 1.15234375
y: 1.205078125
z: -0.171875
range: 1.78665578365
velocity: 0.614668667316
doppler_bin: 9
bearing: 46.281463623
intensity: 32.5430641174
---
header: 
  seq: 542885
  stamp: 
    secs: 1561866959
    nsecs: 367202347
  frame_id: "ti_mmwave"
point_id: 19
x: 1.236328125
y: 1.181640625
z: -0.16015625
range: 1.83023273945
velocity: 0.614668667316
doppler_bin: 9
