header: 
  seq: 527971
  stamp: 
    secs: 1561866936
    nsecs: 206712093
  frame_id: "ti_mmwave"
point_id: 0
x: 0.01171875
y: -0.0390625
z: -0.0078125
range: 0.0435769706964
velocity: 0.0
doppler_bin: 8
bearing: -73.3007583618
intensity: 30.6744289398
---
header: 
  seq: 527972
  stamp: 
    secs: 1561866936
    nsecs: 206789393
  frame_id: "ti_mmwave"
point_id: 1
x: 0.017578125
y: -0.080078125
z: -0.0078125
range: 0.0871539413929
velocity: 0.0
doppler_bin: 8
bearing: -77.6192398071
intensity: 31.9368095398
---
header: 
  seq: 527973
  stamp: 
    secs: 1561866936
    nsecs: 206801479
  frame_id: "ti_mmwave"
point_id: 2
x: 0.029296875
y: -0.119140625
z: -0.005859375
range: 0.130730912089
velocity: 0.0
doppler_bin: 8
bearing: -76.1849746704
intensity: 30.1619739532
---
header: 
  seq: 527974
  stamp: 
    secs: 1561866936
    nsecs: 206810055
  frame_id: "ti_mmwave"
point_id: 3
x: 0.056640625
y: -0.154296875
z: 0.005859375
range: 0.174307882786
velocity: 0.0
doppler_bin: 8
bearing: -69.8423843384
intensity: 25.490032196
---
header: 
  seq: 527975
  stamp: 
    secs: 1561866936
    nsecs: 206819937
  frame_id: "ti_mmwave"
point_id: 4
x: 0.111328125
y: -0.080078125
z: 1.26171875
range: 1.35088610649
velocity: 0.0
doppler_bin: 8
bearing: -35.7273979187
intensity: 23.0749607086
---
header: 
  seq: 527976
  stamp: 
    secs: 1561866936
    nsecs: 206830426
  frame_id: "ti_mmwave"
point_id: 6
x: 0.390625
y: -0.083984375
z: -1.2890625
range: 1.43804001808
velocity: 0.0
doppler_bin: 8
bearing: -12.1338806152
intensity: 23.031961441
---
header: 
  seq: 527977
  stamp: 
    secs: 1561866936
    nsecs: 206839878
  frame_id: "ti_mmwave"
point_id: 7
x: 0.525390625
y: -0.04296875
z: -1.287109375
range: 1.48161697388
velocity: 0.0
doppler_bin: 8
bearing: -4.67549467087
intensity: 21.5836257935
---
header: 
  seq: 527978
  stamp: 
    secs: 1561866936
    nsecs: 206848555
  frame_id: "ti_mmwave"
point_id: 8
x: 2.61328125
y: -0.17578125
z: 1.0546875
range: 3.00681090355
velocity: 0.0
doppler_bin: 8
bearing: -3.84817934036
intensity: 29.0254669189
---
header: 
  seq: 527979
  stamp: 
    secs: 1561866936
    nsecs: 206858152
  frame_id: "ti_mmwave"
point_id: 9
x: 2.658203125
y: -0.1796875
z: 1.05078125
range: 3.05038785934
velocity: 0.0
doppler_bin: 8
bearing: -3.86716008186
intensity: 32.2036972046
---
header: 
  seq: 527980
  stamp: 
    secs: 1561866936
    nsecs: 206867276
  frame_id: "ti_mmwave"
point_id: 10
x: 2.75390625
y: -0.08984375
z: 0.919921875
range: 3.09396481514
velocity: 0.0
doppler_bin: 8
bearing: -1.86856126785
intensity: 31.1527767181
---
header: 
  seq: 527981
  stamp: 
    secs: 1561866936
    nsecs: 206877520
  frame_id: "ti_mmwave"
point_id: 11
x: 4.396484375
y: -0.142578125
z: 1.28125
range: 4.88062095642
velocity: 0.0
doppler_bin: 8
bearing: -1.85745286942
intensity: 31.205739975
---
header: 
  seq: 527982
  stamp: 
    secs: 1561866936
    nsecs: 206891268
  frame_id: "ti_mmwave"
point_id: 12
x: 4.3515625
y: -0.14453125
z: 1.552734375
range: 4.9241976738
velocity: 0.0
doppler_bin: 8
bearing: -1.90230250359
intensity: 30.7114524841
---
header: 
  seq: 527983
  stamp: 
    secs: 1561866936
    nsecs: 206914957
  frame_id: "ti_mmwave"
point_id: 13
x: 4.73828125
y: -0.298828125
z: -0.609375
range: 5.09850549698
velocity: 0.0
doppler_bin: 8
bearing: -3.60868048668
intensity: 33.5082931519
---
header: 
  seq: 527984
  stamp: 
    secs: 1561866936
    nsecs: 206929943
  frame_id: "ti_mmwave"
point_id: 14
x: 4.771484375
y: -0.30078125
z: -0.6640625
range: 5.14208269119
velocity: 0.0
doppler_bin: 8
bearing: -3.60699558258
intensity: 34.0602912903
---
header: 
  seq: 527985
  stamp: 
    secs: 1561866936
    nsecs: 206938901
  frame_id: "ti_mmwave"
point_id: 15
x: 4.771484375
y: -0.3046875
z: -0.912109375
range: 5.18565940857
velocity: 0.0
doppler_bin: 8
bearing: -3.65371370316
intensity: 30.2653331757
---
header: 
  seq: 527986
  stamp: 
    secs: 1561866936
    nsecs: 207089027
  frame_id: "ti_mmwave"
point_id: 16
x: 4.88671875
y: -0.30859375
z: 0.724609375
range: 5.27281332016
velocity: 0.0
doppler_bin: 8
bearing: -3.61340069771
intensity: 31.0720996857
---
header: 
  seq: 527987
  stamp: 
    secs: 1561866936
    nsecs: 207112745
  frame_id: "ti_mmwave"
point_id: 17
x: 4.951171875
y: -0.623046875
z: 0.1015625
range: 5.31639051437
velocity: 0.0
doppler_bin: 8
bearing: -7.17230129242
intensity: 29.7726612091
---
header: 
  seq: 527988
  stamp: 
    secs: 1561866936
    nsecs: 207126097
  frame_id: "ti_mmwave"
point_id: 18
x: 1.576171875
y: 0.25
z: 0.00390625
range: 1.69950187206
velocity: 0.614668667316
doppler_bin: 9
bearing: 9.01272678375
intensity: 25.9549617767
---
header: 
  seq: 527989
  stamp: 
    secs: 1561866936
    nsecs: 207138850
  frame_id: "ti_mmwave"
point_id: 19
x: 1.61328125
y: 0.255859375
z: -0.09765625
range: 1.74307882786
velocity: 0.614668667316
doppler_bin: 9
bearing: 9.01180458069
intensity: 26.8841991425
---
header: 
  seq: 527990
  stamp: 
    secs: 1561866936
    nsecs: 207151131
  frame_id: "ti_mmwave"
point_id: 20
x: 1.720703125
y: 0.28125
z: 0.4453125
range: 1.91738677025
velocity: 0.614668667316
doppler_bin: 9
bearing: 9.28294467926
intensity: 26.875289917
---
header: 
  seq: 527991
  stamp: 
    secs: 1561866936
    nsecs: 207160040
  frame_id: "ti_mmwave"
point_id: 21
x: 1.779296875
y: 0.287109375
z: 0.37109375
range: 1.96096372604
velocity: 0.614668667316
doppler_bin: 9
bearing: 9.16630172729
intensity: 26.4933490753
---
header: 
  seq: 527992
  stamp: 
    secs: 1561866936
    nsecs: 207168789
  frame_id: "ti_mmwave"
point_id: 22
x: 3.29296875
y: 0.310546875
z: -0.193359375
range: 3.52973461151
velocity: 1.22933733463
doppler_bin: 10
bearing: 5.38740539551
intensity: 22.4054927826
---
header: 
  seq: 527993
  stamp: 
    secs: 1561866936
    nsecs: 207179910
  frame_id: "ti_mmwave"
point_id: 24
x: 0.041015625
y: -0.033203125
z: 0.0625
range: 0.0871539413929
velocity: 0.0
doppler_bin: 8
bearing: -38.9909973145
intensity: 30.1199302673
---
header: 
  seq: 527994
  stamp: 
    secs: 1561866936
    nsecs: 207188705
  frame_id: "ti_mmwave"
point_id: 25
x: 0.044921875
y: -0.046875
z: 0.103515625
range: 0.130730912089
velocity: 0.0
doppler_bin: 8
bearing: -46.218875885
intensity: 29.0363254547
---
header: 
  seq: 527995
  stamp: 
    secs: 1561866936
    nsecs: 208359729
  frame_id: "ti_mmwave"
point_id: 0
x: 0.01171875
y: -0.0390625
z: -0.0078125
range: 0.0435769706964
velocity: 0.0
doppler_bin: 8
bearing: -73.3007583618
intensity: 30.6707077026
---
header: 
  seq: 527996
  stamp: 
    secs: 1561866936
    nsecs: 208431143
  frame_id: "ti_mmwave"
point_id: 1
x: 0.017578125
y: -0.080078125
z: -0.0078125
range: 0.0871539413929
velocity: 0.0
doppler_bin: 8
bearing: -77.6192398071
intensity: 31.9395904541
---
header: 
  seq: 527997
  stamp: 
    secs: 1561866936
    nsecs: 208450889
  frame_id: "ti_mmwave"
point_id: 2
x: 0.029296875
y: -0.119140625
z: -0.005859375
range: 0.130730912089
velocity: 0.0
doppler_bin: 8
bearing: -76.1849746704
intensity: 30.1661548615
---
header: 
  seq: 527998
  stamp: 
    secs: 1561866936
    nsecs: 208464022
  frame_id: "ti_mmwave"
point_id: 3
x: 0.056640625
y: -0.154296875
z: 0.005859375
range: 0.174307882786
velocity: 0.0
doppler_bin: 8
bearing: -69.8423843384
intensity: 25.490032196
---
header: 
  seq: 527999
  stamp: 
    secs: 1561866936
    nsecs: 208478818
  frame_id: "ti_mmwave"
point_id: 4
x: 0.1171875
y: -0.080078125
z: 1.259765625
range: 1.35088610649
velocity: 0.0
doppler_bin: 8
bearing: -34.3460998535
intensity: 23.1175384521
---
header: 
  seq: 528000
  stamp: 
    secs: 1561866936
    nsecs: 208565205
  frame_id: "ti_mmwave"
point_id: 6
x: 0.412109375
y: -0.083984375
z: -1.283203125
range: 1.43804001808
velocity: 0.0
doppler_bin: 8
bearing: -11.518658638
intensity: 23.0535144806
---
header: 
  seq: 528001
  stamp: 
    secs: 1561866936
    nsecs: 208581285
  frame_id: "ti_mmwave"
point_id: 7
x: 0.556640625
y: -0.04296875
z: -1.2734375
range: 1.48161697388
velocity: 0.0
doppler_bin: 8
bearing: -4.41407871246
intensity: 21.6136798859
---
header: 
  seq: 528002
  stamp: 
    secs: 1561866936
    nsecs: 208593953
  frame_id: "ti_mmwave"
point_id: 8
x: 2.609375
y: -0.17578125
z: 1.060546875
range: 3.00681090355
velocity: 0.0
doppler_bin: 8
bearing: -3.85392260551
intensity: 29.0633506775
---
header: 
  seq: 528003
  stamp: 
    secs: 1561866936
    nsecs: 208606533
  frame_id: "ti_mmwave"
point_id: 9
x: 2.654296875
y: -0.1796875
z: 1.060546875
range: 3.05038785934
velocity: 0.0
doppler_bin: 8
bearing: -3.87283420563
intensity: 32.1879806519
---
header: 
  seq: 528004
  stamp: 
    secs: 1561866936
    nsecs: 208621634
  frame_id: "ti_mmwave"
point_id: 10
x: 2.744140625
y: -0.08984375
z: 0.9453125
range: 3.09396481514
velocity: 0.0
doppler_bin: 8
bearing: -1.87520623207
intensity: 31.2548122406
---
header: 
  seq: 528005
  stamp: 
    secs: 1561866936
    nsecs: 208629972
  frame_id: "ti_mmwave"
point_id: 11
x: 4.396484375
y: -0.142578125
z: 1.283203125
range: 4.88062095642
velocity: 0.0
doppler_bin: 8
bearing: -1.85745286942
intensity: 31.3033370972
---
header: 
  seq: 528006
  stamp: 
    secs: 1561866936
    nsecs: 208659104
  frame_id: "ti_mmwave"
point_id: 12
x: 4.38671875
y: -0.14453125
z: 1.451171875
range: 4.9241976738
velocity: 0.0
doppler_bin: 8
bearing: -1.88706791401
intensity: 30.8206691742
---
header: 
  seq: 528007
  stamp: 
    secs: 1561866936
    nsecs: 208685590
  frame_id: "ti_mmwave"
point_id: 13
x: 4.728515625
y: -0.44921875
z: -0.58203125
range: 5.09850549698
velocity: 0.0
doppler_bin: 8
bearing: -5.42692995071
intensity: 33.350566864
---
header: 
  seq: 528008
  stamp: 
    secs: 1561866936
    nsecs: 208709872
  frame_id: "ti_mmwave"
point_id: 14
x: 4.771484375
y: -0.30078125
z: -0.66015625
range: 5.14208269119
velocity: 0.0
doppler_bin: 8
bearing: -3.60699558258
intensity: 33.9550094604
---
header: 
  seq: 528009
  stamp: 
    secs: 1561866936
    nsecs: 208732147
  frame_id: "ti_mmwave"
point_id: 15
x: 4.78125
y: -0.15234375
z: -0.896484375
range: 5.18565940857
velocity: 0.0
doppler_bin: 8
bearing: -1.82498347759
intensity: 30.4178733826
---
header: 
  seq: 528010
  stamp: 
    secs: 1561866936
    nsecs: 208749030
  frame_id: "ti_mmwave"
point_id: 16
x: 4.880859375
y: -0.30859375
z: 0.759765625
range: 5.27281332016
velocity: 0.0
doppler_bin: 8
bearing: -3.61772704124
intensity: 30.9656238556
---
header: 
  seq: 528011
  stamp: 
    secs: 1561866936
    nsecs: 208757222
  frame_id: "ti_mmwave"
point_id: 17
x: 4.951171875
y: -0.623046875
z: 0.07421875
range: 5.31639051437
velocity: 0.0
doppler_bin: 8
bearing: -7.17230129242
intensity: 29.5712814331
---
header: 
  seq: 528012
  stamp: 
    secs: 1561866936
    nsecs: 208828197
  frame_id: "ti_mmwave"
point_id: 18
x: 1.609375
y: 0.255859375
z: -0.158203125
range: 1.74307882786
velocity: 0.614668667316
doppler_bin: 9
bearing: 9.03331661224
intensity: 27.5891189575
---
header: 
  seq: 528013
  stamp: 
    secs: 1561866936
    nsecs: 208843502
  frame_id: "ti_mmwave"
point_id: 19
x: 1.650390625
y: 0.26171875
z: -0.15234375
range: 1.78665578365
velocity: 0.614668667316
doppler_bin: 9
bearing: 9.01092338562
intensity: 28.1690387726
---
header: 
  seq: 528014
  stamp: 
    secs: 1561866936
    nsecs: 208858935
  frame_id: "ti_mmwave"
point_id: 20
x: 1.681640625
y: 0.322265625
z: -0.14453125
range: 1.83023273945
velocity: 0.614668667316
doppler_bin: 9
bearing: 10.8485002518
intensity: 25.7054290771
---
header: 
  seq: 528015
  stamp: 
    secs: 1561866936
    nsecs: 208873151
  frame_id: "ti_mmwave"
point_id: 21
x: 1.73828125
y: 0.28125
z: 0.375
range: 1.91738677025
velocity: 0.614668667316
doppler_bin: 9
bearing: 9.19068145752
intensity: 27.2427577972
---
header: 
  seq: 528016
  stamp: 
    secs: 1561866936
    nsecs: 208887725
  frame_id: "ti_mmwave"
point_id: 22
x: 1.76953125
y: 0.287109375
z: 0.419921875
range: 1.96096372604
velocity: 0.614668667316
doppler_bin: 9
bearing: 9.21602249146
intensity: 27.7670116425
---
header: 
  seq: 528017
  stamp: 
    secs: 1561866936
    nsecs: 208901847
  frame_id: "ti_mmwave"
point_id: 23
x: 1.7890625
y: 0.353515625
z: 0.4609375
range: 2.00454068184
velocity: 0.614668667316
doppler_bin: 9
bearing: 11.1775541306
intensity: 24.7421627045
---
header: 
  seq: 528018
  stamp: 
    secs: 1561866936
    nsecs: 208921102
  frame_id: "ti_mmwave"
point_id: 25
x: 0.041015625
y: -0.033203125
z: 0.0625
range: 0.0871539413929
velocity: 0.0
doppler_bin: 8
bearing: -38.9909973145
intensity: 30.1157035828
---
header: 
  seq: 528019
  stamp: 
    secs: 1561866936
    nsecs: 208936808
  frame_id: "ti_mmwave"
point_id: 26
x: 0.044921875
y: -0.046875
z: 0.103515625
range: 0.130730912089
velocity: 0.0
doppler_bin: 8
bearing: -46.218875885
intensity: 29.0363254547
---
header: 
  seq: 528020
  stamp: 
    secs: 1561866936
    nsecs: 208951513
  frame_id: "ti_mmwave"
point_id: 28
x: 4.748046875
y: -0.150390625
z: -0.58203125
range: 5.09850549698
velocity: 0.0
doppler_bin: 8
bearing: -1.81419193745
intensity: 33.31224823
---
header: 
  seq: 528021
  stamp: 
    secs: 1561866936
    nsecs: 266782640
  frame_id: "ti_mmwave"
point_id: 0
x: 0.01171875
y: -0.0390625
z: -0.0078125
range: 0.0435769706964
velocity: 0.0
doppler_bin: 8
bearing: -73.3007583618
intensity: 30.6707077026
---
header: 
  seq: 528022
  stamp: 
    secs: 1561866936
    nsecs: 266863795
  frame_id: "ti_mmwave"
point_id: 1
x: 0.017578125
y: -0.080078125
z: -0.0078125
range: 0.0871539413929
velocity: 0.0
doppler_bin: 8
bearing: -77.6192398071
intensity: 31.9368095398
---
header: 
  seq: 528023
  stamp: 
    secs: 1561866936
    nsecs: 266875216
  frame_id: "ti_mmwave"
point_id: 2
x: 0.029296875
y: -0.119140625
z: -0.005859375
range: 0.130730912089
velocity: 0.0
doppler_bin: 8
bearing: -76.1849746704
intensity: 30.1619739532
---
header: 
  seq: 528024
  stamp: 
    secs: 1561866936
    nsecs: 266883531
  frame_id: "ti_mmwave"
point_id: 3
x: 0.056640625
y: -0.154296875
z: 0.005859375
range: 0.174307882786
velocity: 0.0
doppler_bin: 8
bearing: -69.8423843384
intensity: 25.490032196
---
header: 
  seq: 528025
  stamp: 
    secs: 1561866936
    nsecs: 266895557
  frame_id: "ti_mmwave"
point_id: 4
x: 0.099609375
y: -0.080078125
z: 1.26171875
range: 1.35088610649
velocity: 0.0
doppler_bin: 8
bearing: -38.7965545654
intensity: 23.1175384521
---
header: 
  seq: 528026
  stamp: 
    secs: 1561866936
    nsecs: 266908482
  frame_id: "ti_mmwave"
point_id: 6
x: 0.4296875
y: -0.083984375
z: -1.27734375
range: 1.43804001808
velocity: 0.0
doppler_bin: 8
bearing: -11.0592975616
intensity: 23.0749607086
---
header: 
  seq: 528027
  stamp: 
    secs: 1561866936
    nsecs: 266918132
  frame_id: "ti_mmwave"
point_id: 7
x: 1.4140625
y: 0.486328125
z: -0.423828125
range: 1.65592491627
velocity: 0.0
doppler_bin: 8
bearing: 18.9792537689
intensity: 26.1384181976
---
header: 
  seq: 528028
  stamp: 
    secs: 1561866936
    nsecs: 266928096
  frame_id: "ti_mmwave"
point_id: 8
x: 1.54296875
y: 0.349609375
z: -0.212890625
range: 1.69950187206
velocity: 0.0
doppler_bin: 8
bearing: 12.7666435242
intensity: 28.4385547638
---
header: 
  seq: 528029
  stamp: 
    secs: 1561866936
    nsecs: 266936131
  frame_id: "ti_mmwave"
point_id: 9
x: 1.599609375
y: 0.306640625
z: -0.15625
range: 1.74307882786
velocity: 0.0
doppler_bin: 8
bearing: 10.8517913818
intensity: 28.1023254395
---
header: 
  seq: 528030
  stamp: 
    secs: 1561866936
    nsecs: 266956423
  frame_id: "ti_mmwave"
point_id: 10
x: 2.60546875
y: -0.17578125
z: 1.072265625
range: 3.00681090355
velocity: 0.0
doppler_bin: 8
bearing: -3.85968351364
intensity: 29.0471553802
---
header: 
  seq: 528031
  stamp: 
    secs: 1561866936
    nsecs: 266977378
  frame_id: "ti_mmwave"
point_id: 11
x: 2.65625
y: -0.1796875
z: 1.052734375
range: 3.05038785934
velocity: 0.0
doppler_bin: 8
bearing: -3.86999511719
intensity: 32.1984634399
---
header: 
  seq: 528032
  stamp: 
    secs: 1561866936
    nsecs: 266990352
  frame_id: "ti_mmwave"
point_id: 12
x: 2.75390625
y: -0.08984375
z: 0.916015625
range: 3.09396481514
velocity: 0.0
doppler_bin: 8
bearing: -1.86856126785
intensity: 31.2155990601
---
header: 
  seq: 528033
  stamp: 
    secs: 1561866936
    nsecs: 267004503
  frame_id: "ti_mmwave"
point_id: 13
x: 4.404296875
y: -0.142578125
z: 1.25390625
range: 4.88062095642
velocity: 0.0
doppler_bin: 8
bearing: -1.85416030884
intensity: 31.2613143921
---
header: 
  seq: 528034
  stamp: 
    secs: 1561866936
    nsecs: 267121502
  frame_id: "ti_mmwave"
point_id: 14
x: 4.37890625
y: -0.14453125
z: 1.47265625
range: 4.9241976738
velocity: 0.0
doppler_bin: 8
bearing: -1.89043223858
intensity: 30.6595306396
---
header: 
  seq: 528035
  stamp: 
    secs: 1561866936
    nsecs: 267139145
  frame_id: "ti_mmwave"
point_id: 15
x: 4.73046875
y: -0.44921875
z: -0.5703125
range: 5.09850549698
velocity: 0.0
doppler_bin: 8
bearing: -5.42470264435
intensity: 33.3945159912
---
header: 
  seq: 528036
  stamp: 
    secs: 1561866936
    nsecs: 267151331
  frame_id: "ti_mmwave"
point_id: 16
x: 4.78125
y: -0.150390625
z: -0.65234375
range: 5.14208269119
velocity: 0.0
doppler_bin: 8
bearing: -1.80160176754
intensity: 34.0191726685
---
header: 
  seq: 528037
  stamp: 
    secs: 1561866936
    nsecs: 267162406
  frame_id: "ti_mmwave"
point_id: 17
x: 4.78515625
y: -0.15234375
z: -0.87890625
range: 5.18565940857
velocity: 0.0
doppler_bin: 8
bearing: -1.82349443436
intensity: 30.6069774628
---
header: 
  seq: 528038
  stamp: 
    secs: 1561866936
    nsecs: 267173045
  frame_id: "ti_mmwave"
point_id: 18
x: 4.896484375
y: -0.30859375
z: 0.66015625
range: 5.27281332016
velocity: 0.0
doppler_bin: 8
bearing: -3.6062130928
intensity: 31.0414562225
---
header: 
  seq: 528039
  stamp: 
    secs: 1561866936
    nsecs: 267184664
  frame_id: "ti_mmwave"
point_id: 19
x: 4.951171875
y: -0.623046875
z: -0.05859375
range: 5.31639051437
velocity: 0.0
doppler_bin: 8
bearing: -7.17230129242
intensity: 29.7909297943
---
header: 
  seq: 528040
  stamp: 
    secs: 1561866936
    nsecs: 267197436
  frame_id: "ti_mmwave"
point_id: 20
x: 1.76171875
y: 0.345703125
z: 0.41015625
range: 1.96096372604
velocity: 0.614668667316
doppler_bin: 9
bearing: 11.1021194458
intensity: 26.0638141632
---
header: 
  seq: 528041
  stamp: 
    secs: 1561866936
    nsecs: 267211901
  frame_id: "ti_mmwave"
point_id: 22
x: 0.041015625
y: -0.033203125
z: 0.0625
range: 0.0871539413929
velocity: 0.0
doppler_bin: 8
bearing: -38.9909973145
intensity: 30.1157035828
---
header: 
  seq: 528042
  stamp: 
    secs: 1561866936
    nsecs: 267224713
  frame_id: "ti_mmwave"
point_id: 23
x: 0.044921875
y: -0.046875
z: 0.103515625
range: 0.130730912089
velocity: 0.0
doppler_bin: 8
bearing: -46.218875885
intensity: 29.0308990479
---
header: 
  seq: 528043
  stamp: 
    secs: 1561866936
    nsecs: 267240265
  frame_id: "ti_mmwave"
point_id: 25
x: 0.720703125
y: 1.01953125
z: -0.92578125
range: 1.65592491627
velocity: 0.0
doppler_bin: 8
bearing: 54.7436408997
intensity: 23.6548805237
---
header: 
  seq: 528044
  stamp: 
    secs: 1561866936
    nsecs: 268301996
  frame_id: "ti_mmwave"
point_id: 0
x: 0.01171875
y: -0.0390625
z: -0.0078125
range: 0.0435769706964
velocity: 0.0
doppler_bin: 8
bearing: -73.3007583618
intensity: 30.678144455
---
header: 
  seq: 528045
  stamp: 
    secs: 1561866936
    nsecs: 268372491
  frame_id: "ti_mmwave"
point_id: 1
x: 0.017578125
y: -0.080078125
z: -0.0078125
range: 0.0871539413929
velocity: 0.0
doppler_bin: 8
bearing: -77.6192398071
intensity: 31.9368095398
---
header: 
  seq: 528046
  stamp: 
    secs: 1561866936
    nsecs: 268393630
  frame_id: "ti_mmwave"
point_id: 2
x: 0.029296875
y: -0.119140625
z: -0.005859375
range: 0.130730912089
velocity: 0.0
doppler_bin: 8
bearing: -76.1849746704
intensity: 30.1619739532
---
header: 
  seq: 528047
  stamp: 
    secs: 1561866936
    nsecs: 268408712
  frame_id: "ti_mmwave"
point_id: 3
x: 0.056640625
y: -0.154296875
z: 0.005859375
range: 0.174307882786
velocity: 0.0
doppler_bin: 8
bearing: -69.8423843384
intensity: 25.490032196
---
header: 
  seq: 528048
  stamp: 
    secs: 1561866936
    nsecs: 268529454
  frame_id: "ti_mmwave"
point_id: 4
x: 0.12890625
y: -0.080078125
z: 1.259765625
range: 1.35088610649
velocity: 0.0
doppler_bin: 8
bearing: -31.8490524292
intensity: 23.0963020325
---
header: 
  seq: 528049
  stamp: 
    secs: 1561866936
    nsecs: 268614669
  frame_id: "ti_mmwave"
point_id: 6
x: 0.4140625
y: -0.083984375
z: -1.28125
range: 1.43804001808
velocity: 0.0
doppler_bin: 8
bearing: -11.4657688141
intensity: 23.0749607086
---
header: 
  seq: 528050
  stamp: 
    secs: 1561866936
    nsecs: 268659199
  frame_id: "ti_mmwave"
point_id: 7
x: 1.791015625
y: 0.287109375
z: 0.314453125
range: 1.96096372604
velocity: 0.0
doppler_bin: 8
bearing: 9.10733413696
intensity: 26.0205993652
---
header: 
  seq: 528051
  stamp: 
    secs: 1561866936
    nsecs: 268674819
  frame_id: "ti_mmwave"
point_id: 8
x: 2.611328125
y: -0.17578125
z: 1.05859375
range: 3.00681090355
velocity: 0.0
doppler_bin: 8
bearing: -3.85104894638
intensity: 29.0145835876
---
header: 
  seq: 528052
  stamp: 
    secs: 1561866936
    nsecs: 268989596
  frame_id: "ti_mmwave"
point_id: 9
x: 2.6875
y: -0.08984375
z: 0.984375
range: 3.05038785934
velocity: 0.0
doppler_bin: 8
bearing: -1.91469812393
intensity: 32.1853561401
---
header: 
  seq: 528053
  stamp: 
    secs: 1561866936
    nsecs: 269003636
  frame_id: "ti_mmwave"
point_id: 10
x: 2.76953125
y: -0.0
z: 0.876953125
range: 3.09396481514
velocity: 0.0
doppler_bin: 8
bearing: -0.0
intensity: 31.119342804
---
header: 
  seq: 528054
  stamp: 
    secs: 1561866936
    nsecs: 269012228
  frame_id: "ti_mmwave"
point_id: 11
x: 4.40625
y: -0.142578125
z: 1.248046875
range: 4.88062095642
velocity: 0.0
doppler_bin: 8
bearing: -1.85333895683
intensity: 31.2483005524
---
header: 
  seq: 528055
  stamp: 
    secs: 1561866936
    nsecs: 269034115
  frame_id: "ti_mmwave"
point_id: 12
x: 4.3828125
y: -0.14453125
z: 1.4609375
range: 4.9241976738
velocity: 0.0
doppler_bin: 8
bearing: -1.88874852657
intensity: 30.7151374817
---
header: 
  seq: 528056
  stamp: 
    secs: 1561866936
    nsecs: 269048390
  frame_id: "ti_mmwave"
point_id: 13
x: 4.740234375
y: -0.298828125
z: -0.5859375
range: 5.09850549698
velocity: 0.0
doppler_bin: 8
bearing: -3.60719799995
intensity: 33.3925247192
---
header: 
  seq: 528057
  stamp: 
    secs: 1561866936
    nsecs: 269098474
  frame_id: "ti_mmwave"
point_id: 14
x: 4.771484375
y: -0.30078125
z: -0.66015625
range: 5.14208269119
velocity: 0.0
doppler_bin: 8
bearing: -3.60699558258
intensity: 34.0001945496
---
header: 
  seq: 528058
  stamp: 
    secs: 1561866936
    nsecs: 269110140
  frame_id: "ti_mmwave"
point_id: 15
x: 4.787109375
y: -0.15234375
z: -0.8671875
range: 5.18565940857
velocity: 0.0
doppler_bin: 8
bearing: -1.82275128365
intensity: 30.4414768219
---
header: 
  seq: 528059
  stamp: 
    secs: 1561866936
    nsecs: 269119916
  frame_id: "ti_mmwave"
point_id: 16
x: 4.8671875
y: -0.30859375
z: 0.845703125
range: 5.27281332016
velocity: 0.0
doppler_bin: 8
bearing: -3.62786221504
intensity: 31.0822658539
---
header: 
  seq: 528060
  stamp: 
    secs: 1561866936
    nsecs: 269127901
  frame_id: "ti_mmwave"
point_id: 17
x: 4.94921875
y: -0.623046875
z: 0.171875
range: 5.31639051437
velocity: 0.0
doppler_bin: 8
bearing: -7.17510271072
intensity: 29.7954845428
---
header: 
  seq: 528061
  stamp: 
    secs: 1561866936
    nsecs: 269136699
  frame_id: "ti_mmwave"
point_id: 18
x: 1.767578125
y: 0.287109375
z: 0.427734375
range: 1.96096372604
velocity: 0.614668667316
doppler_bin: 9
bearing: 9.22603130341
intensity: 26.0530509949
---
header: 
  seq: 528062
  stamp: 
    secs: 1561866936
    nsecs: 269144182
  frame_id: "ti_mmwave"
point_id: 19
x: 1.806640625
y: 0.294921875
z: 0.4375
range: 2.00454068184
velocity: 0.614668667316
doppler_bin: 9
bearing: 9.27137088776
intensity: 26.0097293854
---
header: 
  seq: 528063
  stamp: 
    secs: 1561866936
    nsecs: 269154110
  frame_id: "ti_mmwave"
point_id: 21
x: 0.041015625
y: -0.033203125
z: 0.0625
range: 0.0871539413929
velocity: 0.0
doppler_bin: 8
bearing: -38.9909973145
intensity: 30.1199302673
---
header: 
  seq: 528064
  stamp: 
    secs: 1561866936
    nsecs: 269162115
  frame_id: "ti_mmwave"
point_id: 22
x: 0.044921875
y: -0.046875
z: 0.103515625
range: 0.130730912089
velocity: 0.0
doppler_bin: 8
bearing: -46.218875885
intensity: 29.0363254547
---
header: 
  seq: 528065
  stamp: 
    secs: 1561866936
    nsecs: 327096698
  frame_id: "ti_mmwave"
point_id: 0
x: 0.01171875
y: -0.0390625
z: -0.0078125
range: 0.0435769706964
velocity: 0.0
doppler_bin: 8
bearing: -73.3007583618
intensity: 30.6595306396
---
header: 
  seq: 528066
  stamp: 
    secs: 1561866936
    nsecs: 327199287
  frame_id: "ti_mmwave"
point_id: 1
x: 0.017578125
y: -0.080078125
z: -0.0078125
range: 0.0871539413929
velocity: 0.0
doppler_bin: 8
bearing: -77.6192398071
intensity: 31.9312458038
---
header: 
  seq: 528067
  stamp: 
    secs: 1561866936
    nsecs: 327221358
  frame_id: "ti_mmwave"
point_id: 2
x: 0.029296875
y: -0.119140625
z: -0.005859375
range: 0.130730912089
velocity: 0.0
doppler_bin: 8
bearing: -76.1849746704
intensity: 30.157787323
---
header: 
  seq: 528068
  stamp: 
    secs: 1561866936
    nsecs: 327236009
  frame_id: "ti_mmwave"
point_id: 3
x: 0.056640625
y: -0.154296875
z: 0.005859375
range: 0.174307882786
velocity: 0.0
doppler_bin: 8
bearing: -69.8423843384
intensity: 25.4777469635
---
header: 
  seq: 528069
  stamp: 
    secs: 1561866936
    nsecs: 327250976
  frame_id: "ti_mmwave"
point_id: 4
x: 0.154296875
y: -0.080078125
z: 1.255859375
range: 1.35088610649
velocity: 0.0
doppler_bin: 8
bearing: -27.4287414551
intensity: 23.1175384521
---
header: 
  seq: 528070
  stamp: 
    secs: 1561866936
    nsecs: 327519709
  frame_id: "ti_mmwave"
point_id: 6
x: 0.431640625
y: -0.083984375
z: -1.275390625
range: 1.43804001808
velocity: 0.0
doppler_bin: 8
bearing: -11.0104799271
intensity: 23.0535144806
---
header: 
  seq: 528071
  stamp: 
    secs: 1561866936
    nsecs: 327547825
  frame_id: "ti_mmwave"
point_id: 7
x: 0.56640625
y: -0.04296875
z: -1.26953125
range: 1.48161697388
velocity: 0.0
doppler_bin: 8
bearing: -4.33826684952
intensity: 21.6136798859
---
header: 
  seq: 528072
  stamp: 
    secs: 1561866936
    nsecs: 327559937
  frame_id: "ti_mmwave"
point_id: 8
x: 1.517578125
y: 0.33984375
z: -0.00390625
range: 1.65592491627
velocity: 0.0
doppler_bin: 8
bearing: 12.6224660873
intensity: 28.312297821
---
header: 
  seq: 528073
  stamp: 
    secs: 1561866936
    nsecs: 327616226
  frame_id: "ti_mmwave"
point_id: 9
x: 1.5546875
y: 0.349609375
z: -0.068359375
range: 1.69950187206
velocity: 0.0
doppler_bin: 8
bearing: 12.673532486
intensity: 31.0619087219
---
header: 
  seq: 528074
  stamp: 
    secs: 1561866936
    nsecs: 327629858
  frame_id: "ti_mmwave"
point_id: 10
x: 1.59375
y: 0.357421875
z: -0.080078125
range: 1.74307882786
velocity: 0.0
doppler_bin: 8
bearing: 12.6402788162
intensity: 30.2897777557
---
header: 
  seq: 528075
  stamp: 
    secs: 1561866936
    nsecs: 327642746
  frame_id: "ti_mmwave"
point_id: 11
x: 1.65234375
y: 0.322265625
z: -0.345703125
range: 1.83023273945
velocity: 0.0
doppler_bin: 8
bearing: 11.0361661911
intensity: 27.6042251587
---
header: 
  seq: 528076
  stamp: 
    secs: 1561866936
    nsecs: 327654888
  frame_id: "ti_mmwave"
point_id: 12
x: 2.60546875
y: -0.17578125
z: 1.068359375
range: 3.00681090355
velocity: 0.0
doppler_bin: 8
bearing: -3.85968351364
intensity: 29.0525608063
---
header: 
  seq: 528077
  stamp: 
    secs: 1561866936
    nsecs: 327670918
  frame_id: "ti_mmwave"
point_id: 13
x: 2.65625
y: -0.1796875
z: 1.056640625
range: 3.05038785934
velocity: 0.0
doppler_bin: 8
bearing: -3.86999511719
intensity: 32.2141418457
---
header: 
  seq: 528078
  stamp: 
    secs: 1561866936
    nsecs: 327708472
  frame_id: "ti_mmwave"
point_id: 14
x: 2.75
y: -0.08984375
z: 0.927734375
range: 3.09396481514
velocity: 0.0
doppler_bin: 8
bearing: -1.87121355534
intensity: 31.1494445801
---
header: 
  seq: 528079
  stamp: 
    secs: 1561866936
    nsecs: 327731121
  frame_id: "ti_mmwave"
point_id: 15
x: 4.388671875
y: -0.142578125
z: 1.30859375
range: 4.88062095642
velocity: 0.0
doppler_bin: 8
bearing: -1.86075723171
intensity: 31.25806427
---
header: 
  seq: 528080
  stamp: 
    secs: 1561866936
    nsecs: 327746672
  frame_id: "ti_mmwave"
point_id: 16
x: 4.349609375
y: -0.14453125
z: 1.55859375
range: 4.9241976738
velocity: 0.0
doppler_bin: 8
bearing: -1.90315580368
intensity: 30.8206691742
---
header: 
  seq: 528081
  stamp: 
    secs: 1561866936
    nsecs: 327821443
  frame_id: "ti_mmwave"
point_id: 17
x: 4.740234375
y: -0.298828125
z: -0.58203125
range: 5.09850549698
velocity: 0.0
doppler_bin: 8
bearing: -3.60719799995
intensity: 33.422252655
---
header: 
  seq: 528082
  stamp: 
    secs: 1561866936
    nsecs: 327836942
  frame_id: "ti_mmwave"
point_id: 18
x: 4.7734375
y: -0.30078125
z: -0.650390625
range: 5.14208269119
velocity: 0.0
doppler_bin: 8
bearing: -3.60552406311
intensity: 34.0397796631
---
header: 
  seq: 528083
  stamp: 
    secs: 1561866936
    nsecs: 327848922
  frame_id: "ti_mmwave"
point_id: 19
x: 4.787109375
y: -0.15234375
z: -0.865234375
range: 5.18565940857
velocity: 0.0
doppler_bin: 8
bearing: -1.82275128365
intensity: 30.4727478027
---
header: 
  seq: 528084
  stamp: 
    secs: 1561866936
    nsecs: 327860651
  frame_id: "ti_mmwave"
point_id: 20
x: 4.884765625
y: -0.30859375
z: 0.736328125
range: 5.27281332016
velocity: 0.0
doppler_bin: 8
bearing: -3.6148416996
intensity: 31.095785141
---
header: 
  seq: 528085
  stamp: 
    secs: 1561866936
    nsecs: 327875813
  frame_id: "ti_mmwave"
point_id: 21
x: 4.951171875
y: -0.623046875
z: 0.08984375
range: 5.31639051437
velocity: 0.0
doppler_bin: 8
bearing: -7.17230129242
intensity: 29.8091201782
---
header: 
  seq: 528086
  stamp: 
    secs: 1561866936
    nsecs: 327891854
  frame_id: "ti_mmwave"
point_id: 23
x: 0.041015625
y: -0.033203125
z: 0.0625
range: 0.0871539413929
velocity: 0.0
doppler_bin: 8
bearing: -38.9909973145
intensity: 30.1157035828
---
header: 
  seq: 528087
  stamp: 
    secs: 1561866936
    nsecs: 327902098
  frame_id: "ti_mmwave"
point_id: 24
x: 0.044921875
y: -0.046875
z: 0.103515625
range: 0.130730912089
velocity: 0.0
doppler_bin: 8
bearing: -46.218875885
intensity: 29.0363254547
---
header: 
  seq: 528088
  stamp: 
    secs: 1561866936
    nsecs: 386818610
  frame_id: "ti_mmwave"
point_id: 0
x: 0.01171875
y: -0.0390625
z: -0.0078125
range: 0.0435769706964
velocity: 0.0
doppler_bin: 8
bearing: -73.3007583618
intensity: 30.6744289398
---
header: 
  seq: 528089
  stamp: 
    secs: 1561866936
    nsecs: 386903952
  frame_id: "ti_mmwave"
point_id: 1
x: 0.017578125
y: -0.080078125
z: -0.0078125
range: 0.0871539413929
velocity: 0.0
doppler_bin: 8
bearing: -77.6192398071
intensity: 31.9368095398
---
header: 
  seq: 528090
  stamp: 
    secs: 1561866936
    nsecs: 386916447
  frame_id: "ti_mmwave"
point_id: 2
x: 0.029296875
y: -0.119140625
z: -0.005859375
range: 0.130730912089
velocity: 0.0
doppler_bin: 8
bearing: -76.1849746704
intensity: 30.1619739532
---
header: 
  seq: 528091
  stamp: 
    secs: 1561866936
    nsecs: 386925262
  frame_id: "ti_mmwave"
point_id: 3
x: 0.056640625
y: -0.154296875
z: 0.005859375
range: 0.174307882786
velocity: 0.0
doppler_bin: 8
bearing: -69.8423843384
intensity: 25.490032196
---
header: 
  seq: 528092
  stamp: 
    secs: 1561866936
    nsecs: 386937240
  frame_id: "ti_mmwave"
point_id: 4
x: 0.11328125
y: -0.080078125
z: 1.259765625
range: 1.35088610649
velocity: 0.0
doppler_bin: 8
bearing: -35.2563591003
intensity: 23.1175384521
---
header: 
  seq: 528093
  stamp: 
    secs: 1561866936
    nsecs: 386946976
  frame_id: "ti_mmwave"
point_id: 5
x: 0.0859375
y: -0.08203125
z: -1.302734375
range: 1.39446306229
velocity: 0.0
doppler_bin: 8
bearing: -43.6677780151
intensity: 24.6389293671
---
header: 
  seq: 528094
  stamp: 
    secs: 1561866936
    nsecs: 386955556
  frame_id: "ti_mmwave"
point_id: 6
x: 0.4453125
y: -0.083984375
z: -1.271484375
range: 1.43804001808
velocity: 0.0
doppler_bin: 8
bearing: -10.6803331375
intensity: 23.031961441
---
header: 
  seq: 528095
  stamp: 
    secs: 1561866936
    nsecs: 386964325
  frame_id: "ti_mmwave"
point_id: 7
x: 1.484375
y: 0.4375
z: -0.142578125
range: 1.65592491627
velocity: 0.0
doppler_bin: 8
bearing: 16.4221878052
intensity: 27.5281639099
---
header: 
  seq: 528096
  stamp: 
    secs: 1561866936
    nsecs: 386973072
  frame_id: "ti_mmwave"
point_id: 8
x: 1.546875
y: 0.349609375
z: -0.1796875
range: 1.69950187206
velocity: 0.0
doppler_bin: 8
bearing: 12.7354574203
intensity: 30.3941402435
---
header: 
  seq: 528097
  stamp: 
    secs: 1561866936
    nsecs: 386980605
  frame_id: "ti_mmwave"
point_id: 9
x: 1.57421875
y: 0.408203125
z: -0.173828125
range: 1.74307882786
velocity: 0.0
doppler_bin: 8
bearing: 14.5369224548
intensity: 30.4688510895
---
header: 
  seq: 528098
  stamp: 
    secs: 1561866936
    nsecs: 387170169
  frame_id: "ti_mmwave"
point_id: 10
x: 1.607421875
y: 0.419921875
z: -0.224609375
range: 1.78665578365
velocity: 0.0
doppler_bin: 8
bearing: 14.640709877
intensity: 28.7794704437
---
header: 
  seq: 528099
  stamp: 
    secs: 1561866936
    nsecs: 387191562
  frame_id: "ti_mmwave"
point_id: 11
x: 1.6640625
y: 0.322265625
z: -0.27734375
range: 1.83023273945
velocity: 0.0
doppler_bin: 8
bearing: 10.9603357315
intensity: 28.0618000031
---
header: 
  seq: 528100
  stamp: 
    secs: 1561866936
    nsecs: 387200397
  frame_id: "ti_mmwave"
point_id: 12
x: 2.6171875
y: -0.17578125
z: 1.04296875
range: 3.00681090355
velocity: 0.0
doppler_bin: 8
bearing: -3.84245300293
intensity: 29.0363254547
---
header: 
  seq: 528101
  stamp: 
    secs: 1561866936
    nsecs: 387210409
  frame_id: "ti_mmwave"
point_id: 13
x: 2.693359375
y: -0.08984375
z: 0.970703125
range: 3.05038785934
velocity: 0.0
doppler_bin: 8
bearing: -1.91053581238
intensity: 32.1932258606
---
header: 
  seq: 528102
  stamp: 
    secs: 1561866936
    nsecs: 387235825
  frame_id: "ti_mmwave"
point_id: 14
x: 2.755859375
y: -0.08984375
z: 0.9140625
range: 3.09396481514
velocity: 0.0
doppler_bin: 8
bearing: -1.86723792553
intensity: 31.2417812347
---
header: 
  seq: 528103
  stamp: 
    secs: 1561866936
    nsecs: 387245020
  frame_id: "ti_mmwave"
point_id: 15
x: 4.38671875
y: -0.142578125
z: 1.31640625
range: 4.88062095642
velocity: 0.0
doppler_bin: 8
bearing: -1.86158514023
intensity: 31.3576850891
---
header: 
  seq: 528104
  stamp: 
    secs: 1561866936
    nsecs: 387256022
  frame_id: "ti_mmwave"
point_id: 16
x: 4.349609375
y: -0.14453125
z: 1.556640625
range: 4.9241976738
velocity: 0.0
doppler_bin: 8
bearing: -1.90315580368
intensity: 30.9760437012
---
header: 
  seq: 528105
  stamp: 
    secs: 1561866936
    nsecs: 387269610
  frame_id: "ti_mmwave"
point_id: 17
x: 4.73046875
y: -0.44921875
z: -0.568359375
range: 5.09850549698
velocity: 0.0
doppler_bin: 8
bearing: -5.42470264435
intensity: 33.3485565186
---
header: 
  seq: 528106
  stamp: 
    secs: 1561866936
    nsecs: 387287163
  frame_id: "ti_mmwave"
point_id: 18
x: 4.77734375
y: -0.30078125
z: -0.625
range: 5.14208269119
velocity: 0.0
doppler_bin: 8
bearing: -3.60258316994
intensity: 34.0157279968
---
header: 
  seq: 528107
  stamp: 
    secs: 1561866936
    nsecs: 387355036
  frame_id: "ti_mmwave"
point_id: 19
x: 4.796875
y: -0.15234375
z: -0.81640625
range: 5.18565940857
velocity: 0.0
doppler_bin: 8
bearing: -1.81904268265
intensity: 30.561422348
---
header: 
  seq: 528108
  stamp: 
    secs: 1561866936
    nsecs: 387369670
  frame_id: "ti_mmwave"
point_id: 20
x: 4.873046875
y: -0.30859375
z: 0.814453125
range: 5.27281332016
velocity: 0.0
doppler_bin: 8
bearing: -3.62351131439
intensity: 31.1660766602
---
header: 
  seq: 528109
  stamp: 
    secs: 1561866936
    nsecs: 387383652
  frame_id: "ti_mmwave"
point_id: 21
x: 4.962890625
y: -0.46875
z: 0.224609375
range: 5.31639051437
velocity: 0.0
doppler_bin: 8
bearing: -5.39563703537
intensity: 29.8272342682
---
header: 
  seq: 528110
  stamp: 
    secs: 1561866936
    nsecs: 387399814
  frame_id: "ti_mmwave"
point_id: 23
x: 0.041015625
y: -0.033203125
z: 0.0625
range: 0.0871539413929
velocity: 0.0
doppler_bin: 8
bearing: -38.9909973145
intensity: 30.1241531372
---
header: 
  seq: 528111
  stamp: 
    secs: 1561866936
    nsecs: 387413011
  frame_id: "ti_mmwave"
point_id: 24
x: 0.044921875
y: -0.046875
z: 0.103515625
range: 0.130730912089
velocity: 0.0
doppler_bin: 8
bearing: -46.218875885
intensity: 29.0363254547
---
header: 
  seq: 528112
  stamp: 
    secs: 1561866936
    nsecs: 387432497
  frame_id: "ti_mmwave"
point_id: 27
x: 4.75
y: -0.150390625
z: -0.5703125
range: 5.09850549698
velocity: 0.0
doppler_bin: 8
bearing: -1.81344640255
intensity: 33.3425254822
---
header: 
  seq: 528113
  stamp: 
    secs: 1561866936
    nsecs: 388476739
  frame_id: "ti_mmwave"
point_id: 0
x: 0.01171875
y: -0.0390625
z: -0.0078125
range: 0.0435769706964
velocity: 0.0
doppler_bin: 8
bearing: -73.3007583618
intensity: 30.6669845581
---
header: 
  seq: 528114
  stamp: 
    secs: 1561866936
    nsecs: 388544246
  frame_id: "ti_mmwave"
point_id: 1
x: 0.017578125
y: -0.080078125
z: -0.0078125
range: 0.0871539413929
velocity: 0.0
doppler_bin: 8
bearing: -77.6192398071
intensity: 31.9368095398
---
header: 
  seq: 528115
  stamp: 
    secs: 1561866936
    nsecs: 388562038
  frame_id: "ti_mmwave"
point_id: 2
x: 0.029296875
y: -0.119140625
z: -0.005859375
range: 0.130730912089
velocity: 0.0
doppler_bin: 8
bearing: -76.1849746704
intensity: 30.1619739532
---
header: 
  seq: 528116
  stamp: 
    secs: 1561866936
    nsecs: 388572108
  frame_id: "ti_mmwave"
point_id: 3
x: 0.056640625
y: -0.154296875
z: 0.005859375
range: 0.174307882786
velocity: 0.0
doppler_bin: 8
bearing: -69.8423843384
intensity: 25.5022830963
---
header: 
  seq: 528117
  stamp: 
    secs: 1561866936
    nsecs: 388583735
  frame_id: "ti_mmwave"
point_id: 4
x: 0.1015625
y: -0.080078125
z: 1.26171875
range: 1.35088610649
velocity: 0.0
doppler_bin: 8
bearing: -38.2544212341
intensity: 23.1175384521
---
header: 
  seq: 528118
  stamp: 
    secs: 1561866936
    nsecs: 388594614
  frame_id: "ti_mmwave"
point_id: 6
x: 0.408203125
y: -0.083984375
z: -1.283203125
range: 1.43804001808
velocity: 0.0
doppler_bin: 8
bearing: -11.6258993149
intensity: 23.0749607086
---
header: 
  seq: 528119
  stamp: 
    secs: 1561866936
    nsecs: 388663825
  frame_id: "ti_mmwave"
point_id: 7
x: 0.533203125
y: -0.04296875
z: -1.283203125
range: 1.48161697388
velocity: 0.0
doppler_bin: 8
bearing: -4.60728597641
intensity: 21.6136798859
---
header: 
  seq: 528120
  stamp: 
    secs: 1561866936
    nsecs: 388673157
  frame_id: "ti_mmwave"
point_id: 8
x: 1.53125
y: 0.3984375
z: -0.19921875
range: 1.69950187206
velocity: 0.0
doppler_bin: 8
bearing: 14.5851688385
intensity: 28.4010601044
---
header: 
  seq: 528121
  stamp: 
    secs: 1561866936
    nsecs: 388681240
  frame_id: "ti_mmwave"
point_id: 9
x: 1.57421875
y: 0.408203125
z: -0.18359375
range: 1.74307882786
velocity: 0.0
doppler_bin: 8
bearing: 14.5369224548
intensity: 28.5612449646
---
header: 
  seq: 528122
  stamp: 
    secs: 1561866936
    nsecs: 388689334
  frame_id: "ti_mmwave"
point_id: 10
x: 1.65234375
y: 0.375
z: -0.283203125
range: 1.83023273945
velocity: 0.0
doppler_bin: 8
bearing: 12.7867002487
intensity: 27.5204849243
---
header: 
  seq: 528123
  stamp: 
    secs: 1561866936
    nsecs: 388697553
  frame_id: "ti_mmwave"
point_id: 11
x: 1.796875
y: 0.412109375
z: 0.375
range: 2.00454068184
velocity: 0.0
doppler_bin: 8
bearing: 12.9172697067
intensity: 26.211763382
---
header: 
  seq: 528124
  stamp: 
    secs: 1561866936
    nsecs: 388705756
  frame_id: "ti_mmwave"
point_id: 12
x: 2.611328125
y: -0.17578125
z: 1.056640625
range: 3.00681090355
velocity: 0.0
doppler_bin: 8
bearing: -3.85104894638
intensity: 28.9982051849
---
header: 
  seq: 528125
  stamp: 
    secs: 1561866936
    nsecs: 388714852
  frame_id: "ti_mmwave"
point_id: 13
x: 2.66015625
y: -0.1796875
z: 1.046875
range: 3.05038785934
velocity: 0.0
doppler_bin: 8
bearing: -3.86432933807
intensity: 32.1853561401
---
header: 
  seq: 528126
  stamp: 
    secs: 1561866936
    nsecs: 388724594
  frame_id: "ti_mmwave"
point_id: 14
x: 2.75390625
y: -0.08984375
z: 0.916015625
range: 3.09396481514
velocity: 0.0
doppler_bin: 8
bearing: -1.86856126785
intensity: 31.176027298
---
header: 
  seq: 528127
  stamp: 
    secs: 1561866936
    nsecs: 388732068
  frame_id: "ti_mmwave"
point_id: 15
x: 4.3984375
y: -0.142578125
z: 1.271484375
range: 4.88062095642
velocity: 0.0
doppler_bin: 8
bearing: -1.8566287756
intensity: 31.3289985657
---
header: 
  seq: 528128
  stamp: 
    secs: 1561866936
    nsecs: 388739378
  frame_id: "ti_mmwave"
point_id: 16
x: 4.373046875
y: -0.14453125
z: 1.48828125
range: 4.9241976738
velocity: 0.0
doppler_bin: 8
bearing: -1.89296340942
intensity: 30.8990516663
---
header: 
  seq: 528129
  stamp: 
    secs: 1561866936
    nsecs: 388747579
  frame_id: "ti_mmwave"
point_id: 17
x: 4.740234375
y: -0.298828125
z: -0.583984375
range: 5.09850549698
velocity: 0.0
doppler_bin: 8
bearing: -3.60719799995
intensity: 33.390537262
---
header: 
  seq: 528130
  stamp: 
    secs: 1561866936
    nsecs: 388755393
  frame_id: "ti_mmwave"
point_id: 18
x: 4.78515625
y: -0.150390625
z: -0.61328125
range: 5.14208269119
velocity: 0.0
doppler_bin: 8
bearing: -1.80013203621
intensity: 33.9932746887
---
header: 
  seq: 528131
  stamp: 
    secs: 1561866936
    nsecs: 388762977
  frame_id: "ti_mmwave"
point_id: 19
x: 4.80078125
y: -0.15234375
z: -0.79296875
range: 5.18565940857
velocity: 0.0
doppler_bin: 8
bearing: -1.81756365299
intensity: 30.4257545471
---
header: 
  seq: 528132
  stamp: 
    secs: 1561866936
    nsecs: 388770636
  frame_id: "ti_mmwave"
point_id: 20
x: 4.88671875
y: -0.30859375
z: 0.71875
range: 5.27281332016
velocity: 0.0
doppler_bin: 8
bearing: -3.61340069771
intensity: 31.0037059784
---
header: 
  seq: 528133
  stamp: 
    secs: 1561866936
    nsecs: 388782235
  frame_id: "ti_mmwave"
point_id: 21
x: 4.951171875
y: -0.623046875
z: 0.078125
range: 5.31639051437
velocity: 0.0
doppler_bin: 8
bearing: -7.17230129242
intensity: 29.6331558228
---
header: 
  seq: 528134
  stamp: 
    secs: 1561866936
    nsecs: 388793545
  frame_id: "ti_mmwave"
point_id: 23
x: 0.041015625
y: -0.033203125
z: 0.0625
range: 0.0871539413929
velocity: 0.0
doppler_bin: 8
bearing: -38.9909973145
intensity: 30.1241531372
---
header: 
  seq: 528135
  stamp: 
    secs: 1561866936
    nsecs: 388801936
  frame_id: "ti_mmwave"
point_id: 24
x: 0.044921875
y: -0.046875
z: 0.103515625
range: 0.130730912089
velocity: 0.0
doppler_bin: 8
bearing: -46.218875885
intensity: 29.0363254547
---
header: 
  seq: 528136
  stamp: 
    secs: 1561866936
    nsecs: 446966532
  frame_id: "ti_mmwave"
point_id: 0
x: 0.01171875
y: -0.0390625
z: -0.0078125
range: 0.0435769706964
velocity: 0.0
doppler_bin: 8
bearing: -73.3007583618
intensity: 30.6669845581
---
header: 
  seq: 528137
  stamp: 
    secs: 1561866936
    nsecs: 447091587
  frame_id: "ti_mmwave"
point_id: 1
x: 0.017578125
y: -0.080078125
z: -0.0078125
range: 0.0871539413929
velocity: 0.0
doppler_bin: 8
bearing: -77.6192398071
intensity: 31.9340286255
---
header: 
  seq: 528138
  stamp: 
    secs: 1561866936
    nsecs: 447106414
  frame_id: "ti_mmwave"
point_id: 2
x: 0.029296875
y: -0.119140625
z: -0.005859375
range: 0.130730912089
velocity: 0.0
doppler_bin: 8
bearing: -76.1849746704
intensity: 30.157787323
---
header: 
  seq: 528139
  stamp: 
    secs: 1561866936
    nsecs: 447118164
  frame_id: "ti_mmwave"
point_id: 3
x: 0.056640625
y: -0.154296875
z: 0.005859375
range: 0.174307882786
velocity: 0.0
doppler_bin: 8
bearing: -69.8423843384
intensity: 25.490032196
---
header: 
  seq: 528140
  stamp: 
    secs: 1561866936
    nsecs: 447131091
  frame_id: "ti_mmwave"
point_id: 4
x: 0.10546875
y: -0.080078125
z: 1.26171875
range: 1.35088610649
velocity: 0.0
doppler_bin: 8
bearing: -37.2079238892
intensity: 23.1597042084
---
header: 
  seq: 528141
  stamp: 
    secs: 1561866936
    nsecs: 447165032
  frame_id: "ti_mmwave"
point_id: 6
x: 0.40625
y: -0.083984375
z: -1.28515625
range: 1.43804001808
velocity: 0.0
doppler_bin: 8
bearing: -11.6802606583
intensity: 23.0749607086
---
header: 
  seq: 528142
  stamp: 
    secs: 1561866936
    nsecs: 447188429
  frame_id: "ti_mmwave"
point_id: 7
x: 1.5390625
y: 0.3984375
z: -0.138671875
range: 1.69950187206
velocity: 0.0
doppler_bin: 8
bearing: 14.5142660141
intensity: 27.9865055084
---
header: 
  seq: 528143
  stamp: 
    secs: 1561866936
    nsecs: 447369007
  frame_id: "ti_mmwave"
point_id: 8
x: 1.57421875
y: 0.408203125
z: -0.171875
range: 1.74307882786
velocity: 0.0
doppler_bin: 8
bearing: 14.5369224548
intensity: 28.4198474884
---
header: 
  seq: 528144
  stamp: 
    secs: 1561866936
    nsecs: 447395543
  frame_id: "ti_mmwave"
point_id: 9
x: 2.607421875
y: -0.17578125
z: 1.06640625
range: 3.00681090355
velocity: 0.0
doppler_bin: 8
bearing: -3.8568007946
intensity: 29.020029068
---
header: 
  seq: 528145
  stamp: 
    secs: 1561866936
    nsecs: 447404625
  frame_id: "ti_mmwave"
point_id: 10
x: 2.685546875
y: -0.08984375
z: 0.9921875
range: 3.05038785934
velocity: 0.0
doppler_bin: 8
bearing: -1.91608965397
intensity: 32.2036972046
---
header: 
  seq: 528146
  stamp: 
    secs: 1561866936
    nsecs: 447415324
  frame_id: "ti_mmwave"
point_id: 11
x: 2.765625
y: -0.0
z: 0.888671875
range: 3.09396481514
velocity: 0.0
doppler_bin: 8
bearing: -0.0
intensity: 31.1561050415
---
header: 
  seq: 528147
  stamp: 
    secs: 1561866936
    nsecs: 447423470
  frame_id: "ti_mmwave"
point_id: 12
x: 4.390625
y: -0.142578125
z: 1.302734375
range: 4.88062095642
velocity: 0.0
doppler_bin: 8
bearing: -1.85993003845
intensity: 31.2968997955
---
header: 
  seq: 528148
  stamp: 
    secs: 1561866936
    nsecs: 447433912
  frame_id: "ti_mmwave"
point_id: 13
x: 4.3515625
y: -0.14453125
z: 1.552734375
range: 4.9241976738
velocity: 0.0
doppler_bin: 8
bearing: -1.90230250359
intensity: 30.7773113251
---
header: 
  seq: 528149
  stamp: 
    secs: 1561866936
    nsecs: 447439475
  frame_id: "ti_mmwave"
point_id: 14
x: 4.740234375
y: -0.298828125
z: -0.59375
range: 5.09850549698
velocity: 0.0
doppler_bin: 8
bearing: -3.60719799995
intensity: 33.4380226135
---
header: 
  seq: 528150
  stamp: 
    secs: 1561866936
    nsecs: 447451133
  frame_id: "ti_mmwave"
point_id: 15
x: 4.775390625
y: -0.30078125
z: -0.642578125
range: 5.14208269119
velocity: 0.0
doppler_bin: 8
bearing: -3.60405302048
intensity: 34.0636978149
---
header: 
  seq: 528151
  stamp: 
    secs: 1561866936
    nsecs: 447615558
  frame_id: "ti_mmwave"
point_id: 16
x: 4.8046875
y: -0.0
z: -0.779296875
range: 5.18565940857
velocity: 0.0
doppler_bin: 8
bearing: -0.0
intensity: 30.4178733826
---
header: 
  seq: 528152
  stamp: 
    secs: 1561866936
    nsecs: 447687513
  frame_id: "ti_mmwave"
point_id: 17
x: 4.888671875
y: -0.30859375
z: 0.712890625
range: 5.27281332016
velocity: 0.0
doppler_bin: 8
bearing: -3.61196112633
intensity: 31.0890312195
---
header: 
  seq: 528153
  stamp: 
    secs: 1561866936
    nsecs: 447706484
  frame_id: "ti_mmwave"
point_id: 18
x: 4.966796875
y: -0.46875
z: 0.109375
range: 5.31639051437
velocity: 0.0
doppler_bin: 8
bearing: -5.39141845703
intensity: 29.6988162994
---
header: 
  seq: 528154
  stamp: 
    secs: 1561866936
    nsecs: 447806196
  frame_id: "ti_mmwave"
point_id: 20
x: 0.041015625
y: -0.033203125
z: 0.0625
range: 0.0871539413929
velocity: 0.0
doppler_bin: 8
bearing: -38.9909973145
intensity: 30.1157035828
---
header: 
  seq: 528155
  stamp: 
    secs: 1561866936
    nsecs: 447823871
  frame_id: "ti_mmwave"
point_id: 21
x: 0.044921875
y: -0.046875
z: 0.103515625
range: 0.130730912089
velocity: 0.0
doppler_bin: 8
bearing: -46.218875885
intensity: 29.0254669189
---
header: 
  seq: 528156
  stamp: 
    secs: 1561866936
    nsecs: 447842528
  frame_id: "ti_mmwave"
point_id: 23
x: 2.720703125
y: -0.181640625
z: 0.998046875
range: 3.09396481514
velocity: 0.0
doppler_bin: 8
bearing: -3.81953430176
intensity: 31.1461105347
---
header: 
  seq: 528157
  stamp: 
    secs: 1561866936
    nsecs: 448584250
  frame_id: "ti_mmwave"
point_id: 0
x: 0.01171875
y: -0.0390625
z: -0.0078125
range: 0.0435769706964
velocity: 0.0
doppler_bin: 8
bearing: -73.3007583618
intensity: 30.6669845581
---
header: 
  seq: 528158
  stamp: 
    secs: 1561866936
    nsecs: 448635491
  frame_id: "ti_mmwave"
point_id: 1
x: 0.017578125
y: -0.080078125
z: -0.0078125
range: 0.0871539413929
velocity: 0.0
doppler_bin: 8
bearing: -77.6192398071
intensity: 31.9340286255
---
header: 
  seq: 528159
  stamp: 
    secs: 1561866936
    nsecs: 448663875
  frame_id: "ti_mmwave"
point_id: 2
x: 0.029296875
y: -0.119140625
z: -0.005859375
range: 0.130730912089
velocity: 0.0
doppler_bin: 8
bearing: -76.1849746704
intensity: 30.157787323
---
header: 
  seq: 528160
  stamp: 
    secs: 1561866936
    nsecs: 448730676
  frame_id: "ti_mmwave"
point_id: 3
x: 0.056640625
y: -0.154296875
z: 0.005859375
range: 0.174307882786
velocity: 0.0
doppler_bin: 8
bearing: -69.8423843384
intensity: 25.4777469635
---
header: 
  seq: 528161
  stamp: 
    secs: 1561866936
    nsecs: 448750304
  frame_id: "ti_mmwave"
point_id: 4
x: 0.1484375
y: -0.080078125
z: 1.2578125
range: 1.35088610649
velocity: 0.0
doppler_bin: 8
bearing: -28.3456954956
intensity: 23.0749607086
---
header: 
  seq: 528162
  stamp: 
    secs: 1561866936
    nsecs: 448764966
  frame_id: "ti_mmwave"
point_id: 5
x: 0.060546875
y: -0.08203125
z: 1.3046875
range: 1.39446306229
velocity: 0.0
doppler_bin: 8
bearing: -53.5691413879
intensity: 24.6389293671
---
header: 
  seq: 528163
  stamp: 
    secs: 1561866936
    nsecs: 448818939
  frame_id: "ti_mmwave"
point_id: 6
x: 0.40625
y: -0.083984375
z: -1.28515625
range: 1.43804001808
velocity: 0.0
doppler_bin: 8
bearing: -11.6802606583
intensity: 23.031961441
---
header: 
  seq: 528164
  stamp: 
    secs: 1561866936
    nsecs: 448845805
  frame_id: "ti_mmwave"
point_id: 7
x: 2.6171875
y: -0.17578125
z: 1.041015625
range: 3.00681090355
velocity: 0.0
doppler_bin: 8
bearing: -3.84245300293
intensity: 29.0525608063
---
header: 
  seq: 528165
  stamp: 
    secs: 1561866936
    nsecs: 448902085
  frame_id: "ti_mmwave"
point_id: 8
x: 2.66015625
y: -0.1796875
z: 1.046875
range: 3.05038785934
velocity: 0.0
doppler_bin: 8
bearing: -3.86432933807
intensity: 32.2115325928
---
header: 
  seq: 528166
  stamp: 
    secs: 1561866936
    nsecs: 448922845
  frame_id: "ti_mmwave"
point_id: 9
x: 2.75
y: -0.08984375
z: 0.9296875
range: 3.09396481514
velocity: 0.0
doppler_bin: 8
bearing: -1.87121355534
intensity: 31.1958580017
---
header: 
  seq: 528167
  stamp: 
    secs: 1561866936
    nsecs: 448936439
  frame_id: "ti_mmwave"
point_id: 10
x: 4.396484375
y: -0.142578125
z: 1.28125
range: 4.88062095642
velocity: 0.0
doppler_bin: 8
bearing: -1.85745286942
intensity: 31.2968997955
---
header: 
  seq: 528168
  stamp: 
    secs: 1561866936
    nsecs: 448975163
  frame_id: "ti_mmwave"
point_id: 11
x: 4.36328125
y: -0.14453125
z: 1.521484375
range: 4.9241976738
velocity: 0.0
doppler_bin: 8
bearing: -1.89719688892
intensity: 30.9516925812
---
header: 
  seq: 528169
  stamp: 
    secs: 1561866936
    nsecs: 448995658
  frame_id: "ti_mmwave"
point_id: 12
x: 4.74609375
y: -0.298828125
z: -0.541015625
range: 5.09850549698
velocity: 0.0
doppler_bin: 8
bearing: -3.60275626183
intensity: 33.4340858459
---
header: 
  seq: 528170
  stamp: 
    secs: 1561866936
    nsecs: 449010057
  frame_id: "ti_mmwave"
point_id: 13
x: 4.77734375
y: -0.30078125
z: -0.62109375
range: 5.14208269119
velocity: 0.0
doppler_bin: 8
bearing: -3.60258316994
intensity: 34.0363502502
---
header: 
  seq: 528171
  stamp: 
    secs: 1561866936
    nsecs: 449023810
  frame_id: "ti_mmwave"
point_id: 14
x: 4.796875
y: -0.15234375
z: -0.818359375
range: 5.18565940857
velocity: 0.0
doppler_bin: 8
bearing: -1.81904268265
intensity: 30.5307846069
---
header: 
  seq: 528172
  stamp: 
    secs: 1561866936
    nsecs: 449038566
  frame_id: "ti_mmwave"
point_id: 15
x: 4.8828125
y: -0.30859375
z: 0.75
range: 5.27281332016
velocity: 0.0
doppler_bin: 8
bearing: -3.61628341675
intensity: 31.1826477051
---
header: 
  seq: 528173
  stamp: 
    secs: 1561866936
    nsecs: 449053133
  frame_id: "ti_mmwave"
point_id: 16
x: 4.94921875
y: -0.623046875
z: 0.12890625
range: 5.31639051437
velocity: 0.0
doppler_bin: 8
bearing: -7.17510271072
intensity: 29.8677177429
---
header: 
  seq: 528174
  stamp: 
    secs: 1561866936
    nsecs: 449068545
  frame_id: "ti_mmwave"
point_id: 18
x: 0.041015625
y: -0.033203125
z: 0.0625
range: 0.0871539413929
velocity: 0.0
doppler_bin: 8
bearing: -38.9909973145
intensity: 30.1199302673
---
header: 
  seq: 528175
  stamp: 
    secs: 1561866936
    nsecs: 449108396
  frame_id: "ti_mmwave"
point_id: 19
x: 0.044921875
y: -0.046875
z: 0.10546875
range: 0.130730912089
velocity: 0.0
doppler_bin: 8
bearing: -46.218875885
intensity: 29.0363254547
---
header: 
  seq: 528176
  stamp: 
    secs: 1561866936
    nsecs: 506820028
  frame_id: "ti_mmwave"
point_id: 0
x: 0.01171875
y: -0.0390625
z: -0.0078125
range: 0.0435769706964
velocity: 0.0
doppler_bin: 8
bearing: -73.3007583618
intensity: 30.6669845581
---
header: 
  seq: 528177
  stamp: 
    secs: 1561866936
    nsecs: 506908788
  frame_id: "ti_mmwave"
point_id: 1
x: 0.017578125
y: -0.080078125
z: -0.0078125
range: 0.0871539413929
velocity: 0.0
doppler_bin: 8
bearing: -77.6192398071
intensity: 31.9340286255
---
header: 
  seq: 528178
  stamp: 
    secs: 1561866936
    nsecs: 506920111
  frame_id: "ti_mmwave"
point_id: 2
x: 0.029296875
y: -0.119140625
z: -0.005859375
range: 0.130730912089
velocity: 0.0
doppler_bin: 8
bearing: -76.1849746704
intensity: 30.157787323
---
header: 
  seq: 528179
  stamp: 
    secs: 1561866936
    nsecs: 506931410
  frame_id: "ti_mmwave"
point_id: 3
x: 0.056640625
y: -0.154296875
z: 0.005859375
range: 0.174307882786
velocity: 0.0
doppler_bin: 8
bearing: -69.8423843384
intensity: 25.4777469635
---
header: 
  seq: 528180
  stamp: 
    secs: 1561866936
    nsecs: 506942542
  frame_id: "ti_mmwave"
point_id: 4
x: 0.08203125
y: -0.080078125
z: 1.263671875
range: 1.35088610649
velocity: 0.0
doppler_bin: 8
bearing: -44.3097229004
intensity: 23.138671875
---
header: 
  seq: 528181
  stamp: 
    secs: 1561866936
    nsecs: 506951602
  frame_id: "ti_mmwave"
point_id: 5
x: 0.06640625
y: -0.08203125
z: -1.3046875
range: 1.39446306229
velocity: 0.0
doppler_bin: 8
bearing: -51.0090065002
intensity: 24.6686763763
---
header: 
  seq: 528182
  stamp: 
    secs: 1561866936
    nsecs: 506960032
  frame_id: "ti_mmwave"
point_id: 6
x: 0.435546875
y: -0.083984375
z: -1.275390625
range: 1.43804001808
velocity: 0.0
doppler_bin: 8
bearing: -10.9141130447
intensity: 23.0963020325
---
header: 
  seq: 528183
  stamp: 
    secs: 1561866936
    nsecs: 506967663
  frame_id: "ti_mmwave"
point_id: 7
x: 0.576171875
y: -0.04296875
z: -1.265625
range: 1.48161697388
velocity: 0.0
doppler_bin: 8
bearing: -4.2650103569
intensity: 21.6731739044
---
header: 
  seq: 528184
  stamp: 
    secs: 1561866936
    nsecs: 506975805
  frame_id: "ti_mmwave"
point_id: 8
x: 2.630859375
y: -0.17578125
z: 1.009765625
range: 3.00681090355
velocity: 0.0
doppler_bin: 8
bearing: -3.82254433632
intensity: 29.0687351227
---
header: 
  seq: 528185
  stamp: 
    secs: 1561866936
    nsecs: 506984054
  frame_id: "ti_mmwave"
point_id: 9
x: 2.69140625
y: -0.08984375
z: 0.97265625
range: 3.05038785934
velocity: 0.0
doppler_bin: 8
bearing: -1.91192126274
intensity: 32.2089233398
---
header: 
  seq: 528186
  stamp: 
    secs: 1561866936
    nsecs: 506993638
  frame_id: "ti_mmwave"
point_id: 10
x: 2.751953125
y: -0.08984375
z: 0.92578125
range: 3.09396481514
velocity: 0.0
doppler_bin: 8
bearing: -1.86988639832
intensity: 31.2287101746
---
header: 
  seq: 528187
  stamp: 
    secs: 1561866936
    nsecs: 507002113
  frame_id: "ti_mmwave"
point_id: 11
x: 4.396484375
y: -0.142578125
z: 1.279296875
range: 4.88062095642
velocity: 0.0
doppler_bin: 8
bearing: -1.85745286942
intensity: 31.3513259888
---
header: 
  seq: 528188
  stamp: 
    secs: 1561866936
    nsecs: 507038746
  frame_id: "ti_mmwave"
point_id: 12
x: 4.361328125
y: -0.14453125
z: 1.52734375
range: 4.9241976738
velocity: 0.0
doppler_bin: 8
bearing: -1.89804601669
intensity: 30.8707122803
---
header: 
  seq: 528189
  stamp: 
    secs: 1561866936
    nsecs: 507053239
  frame_id: "ti_mmwave"
point_id: 13
x: 4.73046875
y: -0.44921875
z: -0.568359375
range: 5.09850549698
velocity: 0.0
doppler_bin: 8
bearing: -5.42470264435
intensity: 33.4340858459
---
header: 
  seq: 528190
  stamp: 
    secs: 1561866936
    nsecs: 507083317
  frame_id: "ti_mmwave"
point_id: 14
x: 4.775390625
y: -0.30078125
z: -0.63671875
range: 5.14208269119
velocity: 0.0
doppler_bin: 8
bearing: -3.60405302048
intensity: 34.0993309021
---
header: 
  seq: 528191
  stamp: 
    secs: 1561866936
    nsecs: 507242084
  frame_id: "ti_mmwave"
point_id: 15
x: 4.7890625
y: -0.15234375
z: -0.859375
range: 5.18565940857
velocity: 0.0
doppler_bin: 8
bearing: -1.82200825214
intensity: 30.5652370453
---
header: 
  seq: 528192
  stamp: 
    secs: 1561866936
    nsecs: 507261635
  frame_id: "ti_mmwave"
point_id: 16
x: 4.87890625
y: -0.30859375
z: 0.76953125
range: 5.27281332016
velocity: 0.0
doppler_bin: 8
bearing: -3.61917114258
intensity: 31.1260509491
---
header: 
  seq: 528193
  stamp: 
    secs: 1561866936
    nsecs: 507272888
  frame_id: "ti_mmwave"
point_id: 17
x: 4.966796875
y: -0.46875
z: 0.126953125
range: 5.31639051437
velocity: 0.0
doppler_bin: 8
bearing: -5.39141845703
intensity: 29.7497196198
---
header: 
  seq: 528194
  stamp: 
    secs: 1561866936
    nsecs: 507283788
  frame_id: "ti_mmwave"
point_id: 19
x: 0.041015625
y: -0.033203125
z: 0.0625
range: 0.0871539413929
velocity: 0.0
doppler_bin: 8
bearing: -38.9909973145
intensity: 30.1157035828
---
header: 
  seq: 528195
  stamp: 
    secs: 1561866936
    nsecs: 507291967
  frame_id: "ti_mmwave"
point_id: 20
x: 0.044921875
y: -0.046875
z: 0.103515625
range: 0.130730912089
velocity: 0.0
doppler_bin: 8
bearing: -46.218875885
intensity: 29.0308990479
---
header: 
  seq: 528196
  stamp: 
    secs: 1561866936
    nsecs: 507319010
  frame_id: "ti_mmwave"
point_id: 22
x: 4.751953125
y: -0.150390625
z: -0.556640625
range: 5.09850549698
velocity: 0.0
doppler_bin: 8
bearing: -1.8127014637
intensity: 33.3984870911
---
header: 
  seq: 528197
  stamp: 
    secs: 1561866936
    nsecs: 508050038
  frame_id: "ti_mmwave"
point_id: 0
x: 0.01171875
y: -0.0390625
z: -0.0078125
range: 0.0435769706964
velocity: 0.0
doppler_bin: 8
bearing: -73.3007583618
intensity: 30.6707077026
---
header: 
  seq: 528198
  stamp: 
    secs: 1561866936
    nsecs: 508109077
  frame_id: "ti_mmwave"
point_id: 1
x: 0.017578125
y: -0.080078125
z: -0.0078125
range: 0.0871539413929
velocity: 0.0
doppler_bin: 8
bearing: -77.6192398071
intensity: 31.9368095398
---
header: 
  seq: 528199
  stamp: 
    secs: 1561866936
    nsecs: 508132881
  frame_id: "ti_mmwave"
point_id: 2
x: 0.029296875
y: -0.119140625
z: -0.005859375
range: 0.130730912089
velocity: 0.0
doppler_bin: 8
bearing: -76.1849746704
intensity: 30.1619739532
---
header: 
  seq: 528200
  stamp: 
    secs: 1561866936
    nsecs: 508148315
  frame_id: "ti_mmwave"
point_id: 3
x: 0.056640625
y: -0.154296875
z: 0.0078125
range: 0.174307882786
velocity: 0.0
doppler_bin: 8
bearing: -69.8423843384
intensity: 25.4777469635
---
header: 
  seq: 528201
  stamp: 
    secs: 1561866936
    nsecs: 508161372
  frame_id: "ti_mmwave"
point_id: 4
x: 0.15625
y: -0.080078125
z: 1.255859375
range: 1.35088610649
velocity: 0.0
doppler_bin: 8
bearing: -27.1351394653
intensity: 23.0963020325
---
header: 
  seq: 528202
  stamp: 
    secs: 1561866936
    nsecs: 508173940
  frame_id: "ti_mmwave"
point_id: 5
x: 0.04296875
y: -0.08203125
z: 1.306640625
range: 1.39446306229
velocity: 0.0
doppler_bin: 8
bearing: -62.3540267944
intensity: 24.6538276672
---
header: 
  seq: 528203
