header: 
  seq: 587808
  stamp: 
    secs: 1561867029
    nsecs: 806686041
  frame_id: "ti_mmwave"
point_id: 0
x: 0.01171875
y: -0.0390625
z: -0.0078125
range: 0.0435769706964
velocity: 0.0
doppler_bin: 8
bearing: -73.3007583618
intensity: 30.6744289398
---
header: 
  seq: 587809
  stamp: 
    secs: 1561867029
    nsecs: 806767036
  frame_id: "ti_mmwave"
point_id: 1
x: 0.017578125
y: -0.080078125
z: -0.0078125
range: 0.0871539413929
velocity: 0.0
doppler_bin: 8
bearing: -77.6192398071
intensity: 31.9312458038
---
header: 
  seq: 587810
  stamp: 
    secs: 1561867029
    nsecs: 806785121
  frame_id: "ti_mmwave"
point_id: 2
x: 0.029296875
y: -0.119140625
z: -0.005859375
range: 0.130730912089
velocity: 0.0
doppler_bin: 8
bearing: -76.1849746704
intensity: 30.1535968781
---
header: 
  seq: 587811
  stamp: 
    secs: 1561867029
    nsecs: 806797291
  frame_id: "ti_mmwave"
point_id: 3
x: 0.056640625
y: -0.154296875
z: 0.005859375
range: 0.174307882786
velocity: 0.0
doppler_bin: 8
bearing: -69.8423843384
intensity: 25.4777469635
---
header: 
  seq: 587812
  stamp: 
    secs: 1561867029
    nsecs: 806808606
  frame_id: "ti_mmwave"
point_id: 4
x: 0.107421875
y: -0.080078125
z: 1.26171875
range: 1.35088610649
velocity: 0.0
doppler_bin: 8
bearing: -36.7028541565
intensity: 23.0963020325
---
header: 
  seq: 587813
  stamp: 
    secs: 1561867029
    nsecs: 806823168
  frame_id: "ti_mmwave"
point_id: 6
x: 0.423828125
y: -0.083984375
z: -1.279296875
range: 1.43804001808
velocity: 0.0
doppler_bin: 8
bearing: -11.2083444595
intensity: 23.0749607086
---
header: 
  seq: 587814
  stamp: 
    secs: 1561867029
    nsecs: 806836624
  frame_id: "ti_mmwave"
point_id: 7
x: 2.27734375
y: 0.21484375
z: -0.1328125
range: 2.44031047821
velocity: 0.0
doppler_bin: 8
bearing: 5.38931179047
intensity: 28.4198474884
---
header: 
  seq: 587815
  stamp: 
    secs: 1561867029
    nsecs: 806919529
  frame_id: "ti_mmwave"
point_id: 8
x: 2.32421875
y: 0.146484375
z: -0.12890625
range: 2.48388743401
velocity: 0.0
doppler_bin: 8
bearing: 3.60630869865
intensity: 29.3651371002
---
header: 
  seq: 587816
  stamp: 
    secs: 1561867029
    nsecs: 806937500
  frame_id: "ti_mmwave"
point_id: 9
x: 2.66015625
y: -0.1796875
z: 1.044921875
range: 3.05038785934
velocity: 0.0
doppler_bin: 8
bearing: -3.86432933807
intensity: 32.2167510986
---
header: 
  seq: 587817
  stamp: 
    secs: 1561867029
    nsecs: 806949865
  frame_id: "ti_mmwave"
point_id: 10
x: 2.75
y: -0.08984375
z: 0.931640625
range: 3.09396481514
velocity: 0.0
doppler_bin: 8
bearing: -1.87121355534
intensity: 31.2807598114
---
header: 
  seq: 587818
  stamp: 
    secs: 1561867029
    nsecs: 806962000
  frame_id: "ti_mmwave"
point_id: 11
x: 4.400390625
y: -0.142578125
z: 1.267578125
range: 4.88062095642
velocity: 0.0
doppler_bin: 8
bearing: -1.85580503941
intensity: 31.3385810852
---
header: 
  seq: 587819
  stamp: 
    secs: 1561867029
    nsecs: 806974713
  frame_id: "ti_mmwave"
point_id: 12
x: 4.3515625
y: -0.14453125
z: 1.55078125
range: 4.9241976738
velocity: 0.0
doppler_bin: 8
bearing: -1.90230250359
intensity: 30.7114524841
---
header: 
  seq: 587820
  stamp: 
    secs: 1561867029
    nsecs: 806987666
  frame_id: "ti_mmwave"
point_id: 13
x: 4.728515625
y: -0.44921875
z: -0.591796875
range: 5.09850549698
velocity: 0.0
doppler_bin: 8
bearing: -5.42692995071
intensity: 33.3405151367
---
header: 
  seq: 587821
  stamp: 
    secs: 1561867029
    nsecs: 806999987
  frame_id: "ti_mmwave"
point_id: 14
x: 4.78125
y: -0.150390625
z: -0.64453125
range: 5.14208269119
velocity: 0.0
doppler_bin: 8
bearing: -1.80160176754
intensity: 33.981136322
---
header: 
  seq: 587822
  stamp: 
    secs: 1561867029
    nsecs: 807011091
  frame_id: "ti_mmwave"
point_id: 15
x: 4.7890625
y: -0.15234375
z: -0.85546875
range: 5.18565940857
velocity: 0.0
doppler_bin: 8
bearing: -1.82200825214
intensity: 30.5766601562
---
header: 
  seq: 587823
  stamp: 
    secs: 1561867029
    nsecs: 807023471
  frame_id: "ti_mmwave"
point_id: 16
x: 4.875
y: -0.30859375
z: 0.796875
range: 5.27281332016
velocity: 0.0
doppler_bin: 8
bearing: -3.62206339836
intensity: 31.0924091339
---
header: 
  seq: 587824
  stamp: 
    secs: 1561867029
    nsecs: 807057317
  frame_id: "ti_mmwave"
point_id: 17
x: 4.94921875
y: -0.623046875
z: 0.171875
range: 5.31639051437
velocity: 0.0
doppler_bin: 8
bearing: -7.17510271072
intensity: 29.7543182373
---
header: 
  seq: 587825
  stamp: 
    secs: 1561867029
    nsecs: 807072405
  frame_id: "ti_mmwave"
point_id: 18
x: 2.357421875
y: 0.22265625
z: -0.146484375
range: 2.5274643898
velocity: 0.614668667316
doppler_bin: 9
bearing: 5.39552640915
intensity: 25.0650501251
---
header: 
  seq: 587826
  stamp: 
    secs: 1561867029
    nsecs: 807085496
  frame_id: "ti_mmwave"
point_id: 20
x: 0.041015625
y: -0.033203125
z: 0.0625
range: 0.0871539413929
velocity: 0.0
doppler_bin: 8
bearing: -38.9909973145
intensity: 30.1157035828
---
header: 
  seq: 587827
  stamp: 
    secs: 1561867029
    nsecs: 807094142
  frame_id: "ti_mmwave"
point_id: 21
x: 0.044921875
y: -0.046875
z: 0.103515625
range: 0.130730912089
velocity: 0.0
doppler_bin: 8
bearing: -46.218875885
intensity: 29.0308990479
---
header: 
  seq: 587828
  stamp: 
    secs: 1561867029
    nsecs: 808255921
  frame_id: "ti_mmwave"
point_id: 0
x: 0.01171875
y: -0.0390625
z: -0.0078125
range: 0.0435769706964
velocity: 0.0
doppler_bin: 8
bearing: -73.3007583618
intensity: 30.6744289398
---
header: 
  seq: 587829
  stamp: 
    secs: 1561867029
    nsecs: 808328172
  frame_id: "ti_mmwave"
point_id: 1
x: 0.017578125
y: -0.080078125
z: -0.0078125
range: 0.0871539413929
velocity: 0.0
doppler_bin: 8
bearing: -77.6192398071
intensity: 31.9312458038
---
header: 
  seq: 587830
  stamp: 
    secs: 1561867029
    nsecs: 808345676
  frame_id: "ti_mmwave"
point_id: 2
x: 0.029296875
y: -0.119140625
z: -0.005859375
range: 0.130730912089
velocity: 0.0
doppler_bin: 8
bearing: -76.1849746704
intensity: 30.157787323
---
header: 
  seq: 587831
  stamp: 
    secs: 1561867029
    nsecs: 808359911
  frame_id: "ti_mmwave"
point_id: 3
x: 0.056640625
y: -0.154296875
z: 0.005859375
range: 0.174307882786
velocity: 0.0
doppler_bin: 8
bearing: -69.8423843384
intensity: 25.4777469635
---
header: 
  seq: 587832
  stamp: 
    secs: 1561867029
    nsecs: 808375479
  frame_id: "ti_mmwave"
point_id: 4
x: 0.12890625
y: -0.080078125
z: 1.259765625
range: 1.35088610649
velocity: 0.0
doppler_bin: 8
bearing: -31.8490524292
intensity: 23.0963020325
---
header: 
  seq: 587833
  stamp: 
    secs: 1561867029
    nsecs: 808400072
  frame_id: "ti_mmwave"
point_id: 5
x: 0.0703125
y: -0.08203125
z: 1.3046875
range: 1.39446306229
velocity: 0.0
doppler_bin: 8
bearing: -49.3987045288
intensity: 24.6389293671
---
header: 
  seq: 587834
  stamp: 
    secs: 1561867029
    nsecs: 808420931
  frame_id: "ti_mmwave"
point_id: 6
x: 0.400390625
y: -0.083984375
z: -1.287109375
range: 1.43804001808
velocity: 0.0
doppler_bin: 8
bearing: -11.8463935852
intensity: 23.0749607086
---
header: 
  seq: 587835
  stamp: 
    secs: 1561867029
    nsecs: 808442339
  frame_id: "ti_mmwave"
point_id: 7
x: 0.548828125
y: -0.04296875
z: -1.27734375
range: 1.48161697388
velocity: 0.0
doppler_bin: 8
bearing: -4.47665882111
intensity: 21.6435279846
---
header: 
  seq: 587836
  stamp: 
    secs: 1561867029
    nsecs: 808457578
  frame_id: "ti_mmwave"
point_id: 8
x: 2.310546875
y: 0.291015625
z: -0.103515625
range: 2.48388743401
velocity: 0.0
doppler_bin: 8
bearing: 7.17865848541
intensity: 25.4530715942
---
header: 
  seq: 587837
  stamp: 
    secs: 1561867029
    nsecs: 808535661
  frame_id: "ti_mmwave"
point_id: 9
x: 2.333984375
y: 0.296875
z: -0.298828125
range: 2.5274643898
velocity: 0.0
doppler_bin: 8
bearing: 7.24890518188
intensity: 26.2634029388
---
header: 
  seq: 587838
  stamp: 
    secs: 1561867029
    nsecs: 808551708
  frame_id: "ti_mmwave"
point_id: 10
x: 2.37109375
y: 0.453125
z: -0.04296875
range: 2.5710413456
velocity: 0.0
doppler_bin: 8
bearing: 10.8189935684
intensity: 26.0314445496
---
header: 
  seq: 587839
  stamp: 
    secs: 1561867029
    nsecs: 808565016
  frame_id: "ti_mmwave"
point_id: 11
x: 2.69140625
y: -0.08984375
z: 0.974609375
range: 3.05038785934
velocity: 0.0
doppler_bin: 8
bearing: -1.91192126274
intensity: 32.1853561401
---
header: 
  seq: 587840
  stamp: 
    secs: 1561867029
    nsecs: 808578596
  frame_id: "ti_mmwave"
point_id: 12
x: 2.751953125
y: -0.08984375
z: 0.923828125
range: 3.09396481514
velocity: 0.0
doppler_bin: 8
bearing: -1.86988639832
intensity: 31.235250473
---
header: 
  seq: 587841
  stamp: 
    secs: 1561867029
    nsecs: 808591855
  frame_id: "ti_mmwave"
point_id: 13
x: 4.404296875
y: -0.142578125
z: 1.25390625
range: 4.88062095642
velocity: 0.0
doppler_bin: 8
bearing: -1.85416030884
intensity: 31.4113616943
---
header: 
  seq: 587842
  stamp: 
    secs: 1561867029
    nsecs: 808605088
  frame_id: "ti_mmwave"
point_id: 14
x: 4.37890625
y: -0.14453125
z: 1.470703125
range: 4.9241976738
velocity: 0.0
doppler_bin: 8
bearing: -1.89043223858
intensity: 30.9968070984
---
header: 
  seq: 587843
  stamp: 
    secs: 1561867029
    nsecs: 808617172
  frame_id: "ti_mmwave"
point_id: 15
x: 4.748046875
y: -0.150390625
z: -0.576171875
range: 5.09850549698
velocity: 0.0
doppler_bin: 8
bearing: -1.81419193745
intensity: 33.3304405212
---
header: 
  seq: 587844
  stamp: 
    secs: 1561867029
    nsecs: 808641791
  frame_id: "ti_mmwave"
point_id: 16
x: 4.775390625
y: -0.30078125
z: -0.638671875
range: 5.14208269119
velocity: 0.0
doppler_bin: 8
bearing: -3.60405302048
intensity: 33.981136322
---
header: 
  seq: 587845
  stamp: 
    secs: 1561867029
    nsecs: 808663287
  frame_id: "ti_mmwave"
point_id: 17
x: 4.80078125
y: -0.15234375
z: -0.78515625
range: 5.18565940857
velocity: 0.0
doppler_bin: 8
bearing: -1.81756365299
intensity: 30.4020671844
---
header: 
  seq: 587846
  stamp: 
    secs: 1561867029
    nsecs: 808684854
  frame_id: "ti_mmwave"
point_id: 18
x: 4.8828125
y: -0.30859375
z: 0.75
range: 5.27281332016
velocity: 0.0
doppler_bin: 8
bearing: -3.61628341675
intensity: 31.1461105347
---
header: 
  seq: 587847
  stamp: 
    secs: 1561867029
    nsecs: 808704771
  frame_id: "ti_mmwave"
point_id: 19
x: 4.966796875
y: -0.46875
z: 0.13671875
range: 5.31639051437
velocity: 0.0
doppler_bin: 8
bearing: -5.39141845703
intensity: 29.8227119446
---
header: 
  seq: 587848
  stamp: 
    secs: 1561867029
    nsecs: 808729267
  frame_id: "ti_mmwave"
point_id: 21
x: 0.041015625
y: -0.033203125
z: 0.0625
range: 0.0871539413929
velocity: 0.0
doppler_bin: 8
bearing: -38.9909973145
intensity: 30.1199302673
---
header: 
  seq: 587849
  stamp: 
    secs: 1561867029
    nsecs: 808799612
  frame_id: "ti_mmwave"
point_id: 22
x: 0.044921875
y: -0.046875
z: 0.103515625
range: 0.130730912089
velocity: 0.0
doppler_bin: 8
bearing: -46.218875885
intensity: 29.0308990479
---
header: 
  seq: 587850
  stamp: 
    secs: 1561867029
    nsecs: 866942667
  frame_id: "ti_mmwave"
point_id: 0
x: 0.01171875
y: -0.0390625
z: -0.0078125
range: 0.0435769706964
velocity: 0.0
doppler_bin: 8
bearing: -73.3007583618
intensity: 30.6744289398
---
header: 
  seq: 587851
  stamp: 
    secs: 1561867029
    nsecs: 867037489
  frame_id: "ti_mmwave"
point_id: 1
x: 0.017578125
y: -0.080078125
z: -0.0078125
range: 0.0871539413929
velocity: 0.0
doppler_bin: 8
bearing: -77.6192398071
intensity: 31.9340286255
---
header: 
  seq: 587852
  stamp: 
    secs: 1561867029
    nsecs: 867057638
  frame_id: "ti_mmwave"
point_id: 2
x: 0.029296875
y: -0.119140625
z: -0.005859375
range: 0.130730912089
velocity: 0.0
doppler_bin: 8
bearing: -76.1849746704
intensity: 30.157787323
---
header: 
  seq: 587853
  stamp: 
    secs: 1561867029
    nsecs: 867071605
  frame_id: "ti_mmwave"
point_id: 3
x: 0.056640625
y: -0.154296875
z: 0.005859375
range: 0.174307882786
velocity: 0.0
doppler_bin: 8
bearing: -69.8423843384
intensity: 25.490032196
---
header: 
  seq: 587854
  stamp: 
    secs: 1561867029
    nsecs: 867087103
  frame_id: "ti_mmwave"
point_id: 4
x: 0.109375
y: -0.080078125
z: 1.26171875
range: 1.35088610649
velocity: 0.0
doppler_bin: 8
bearing: -36.2094573975
intensity: 23.138671875
---
header: 
  seq: 587855
  stamp: 
    secs: 1561867029
    nsecs: 867104089
  frame_id: "ti_mmwave"
point_id: 6
x: 0.4140625
y: -0.083984375
z: -1.28125
range: 1.43804001808
velocity: 0.0
doppler_bin: 8
bearing: -11.4657688141
intensity: 23.0749607086
---
header: 
  seq: 587856
  stamp: 
    secs: 1561867029
    nsecs: 867119936
  frame_id: "ti_mmwave"
point_id: 7
x: 0.560546875
y: -0.04296875
z: -1.271484375
range: 1.48161697388
velocity: 0.0
doppler_bin: 8
bearing: -4.38343858719
intensity: 21.6731739044
---
header: 
  seq: 587857
  stamp: 
    secs: 1561867029
    nsecs: 867133871
  frame_id: "ti_mmwave"
point_id: 8
x: 2.306640625
y: 0.291015625
z: -0.18359375
range: 2.48388743401
velocity: 0.0
doppler_bin: 8
bearing: 7.19068813324
intensity: 27.4193916321
---
header: 
  seq: 587858
  stamp: 
    secs: 1561867029
    nsecs: 867158702
  frame_id: "ti_mmwave"
point_id: 9
x: 2.3359375
y: 0.37109375
z: -0.185546875
range: 2.5274643898
velocity: 0.0
doppler_bin: 8
bearing: 9.02673912048
intensity: 26.6086540222
---
header: 
  seq: 587859
  stamp: 
    secs: 1561867029
    nsecs: 867250899
  frame_id: "ti_mmwave"
point_id: 10
x: 2.693359375
y: -0.08984375
z: 0.970703125
range: 3.05038785934
velocity: 0.0
doppler_bin: 8
bearing: -1.91053581238
intensity: 32.2089233398
---
header: 
  seq: 587860
  stamp: 
    secs: 1561867029
    nsecs: 867268535
  frame_id: "ti_mmwave"
point_id: 11
x: 2.76953125
y: -0.0
z: 0.873046875
range: 3.09396481514
velocity: 0.0
doppler_bin: 8
bearing: -0.0
intensity: 31.1693973541
---
header: 
  seq: 587861
  stamp: 
    secs: 1561867029
    nsecs: 867282397
  frame_id: "ti_mmwave"
point_id: 12
x: 4.400390625
y: -0.142578125
z: 1.26953125
range: 4.88062095642
velocity: 0.0
doppler_bin: 8
bearing: -1.85580503941
intensity: 31.3576850891
---
header: 
  seq: 587862
  stamp: 
    secs: 1561867029
    nsecs: 867297072
  frame_id: "ti_mmwave"
point_id: 13
x: 4.353515625
y: -0.14453125
z: 1.548828125
range: 4.9241976738
velocity: 0.0
doppler_bin: 8
bearing: -1.90144956112
intensity: 30.8170719147
---
header: 
  seq: 587863
  stamp: 
    secs: 1561867029
    nsecs: 867310786
  frame_id: "ti_mmwave"
point_id: 14
x: 4.73828125
y: -0.298828125
z: -0.6015625
range: 5.09850549698
velocity: 0.0
doppler_bin: 8
bearing: -3.60868048668
intensity: 33.4281730652
---
header: 
  seq: 587864
  stamp: 
    secs: 1561867029
    nsecs: 867324119
  frame_id: "ti_mmwave"
point_id: 15
x: 4.7734375
y: -0.30078125
z: -0.65234375
range: 5.14208269119
velocity: 0.0
doppler_bin: 8
bearing: -3.60552406311
intensity: 34.0993309021
---
header: 
  seq: 587865
  stamp: 
    secs: 1561867029
    nsecs: 867339093
  frame_id: "ti_mmwave"
point_id: 16
x: 4.80078125
y: -0.0
z: -0.810546875
range: 5.18565940857
velocity: 0.0
doppler_bin: 8
bearing: -0.0
intensity: 30.7335166931
---
header: 
  seq: 587866
  stamp: 
    secs: 1561867029
    nsecs: 867356135
  frame_id: "ti_mmwave"
point_id: 17
x: 4.876953125
y: -0.30859375
z: 0.787109375
range: 5.27281332016
velocity: 0.0
doppler_bin: 8
bearing: -3.62061715126
intensity: 31.0822658539
---
header: 
  seq: 587867
  stamp: 
    secs: 1561867029
    nsecs: 867385996
  frame_id: "ti_mmwave"
point_id: 18
x: 4.94921875
y: -0.623046875
z: 0.166015625
range: 5.31639051437
velocity: 0.0
doppler_bin: 8
bearing: -7.17510271072
intensity: 29.863237381
---
header: 
  seq: 587868
  stamp: 
    secs: 1561867029
    nsecs: 867410708
  frame_id: "ti_mmwave"
point_id: 20
x: 0.041015625
y: -0.033203125
z: 0.0625
range: 0.0871539413929
velocity: 0.0
doppler_bin: 8
bearing: -38.9909973145
intensity: 30.1199302673
---
header: 
  seq: 587869
  stamp: 
    secs: 1561867029
    nsecs: 867432297
  frame_id: "ti_mmwave"
point_id: 21
x: 0.044921875
y: -0.046875
z: 0.103515625
range: 0.130730912089
velocity: 0.0
doppler_bin: 8
bearing: -46.218875885
intensity: 29.0363254547
---
header: 
  seq: 587870
  stamp: 
    secs: 1561867029
    nsecs: 867457994
  frame_id: "ti_mmwave"
point_id: 23
x: 2.728515625
y: -0.181640625
z: 0.98046875
range: 3.09396481514
velocity: 0.0
doppler_bin: 8
bearing: -3.80863046646
intensity: 31.1561050415
---
header: 
  seq: 587871
  stamp: 
    secs: 1561867029
    nsecs: 868499345
  frame_id: "ti_mmwave"
point_id: 0
x: 0.01171875
y: -0.0390625
z: -0.0078125
range: 0.0435769706964
velocity: 0.0
doppler_bin: 8
bearing: -73.3007583618
intensity: 30.678144455
---
header: 
  seq: 587872
  stamp: 
    secs: 1561867029
    nsecs: 868565743
  frame_id: "ti_mmwave"
point_id: 1
x: 0.017578125
y: -0.080078125
z: -0.0078125
range: 0.0871539413929
velocity: 0.0
doppler_bin: 8
bearing: -77.6192398071
intensity: 31.9312458038
---
header: 
  seq: 587873
  stamp: 
    secs: 1561867029
    nsecs: 868587584
  frame_id: "ti_mmwave"
point_id: 2
x: 0.029296875
y: -0.119140625
z: -0.005859375
range: 0.130730912089
velocity: 0.0
doppler_bin: 8
bearing: -76.1849746704
intensity: 30.157787323
---
header: 
  seq: 587874
  stamp: 
    secs: 1561867029
    nsecs: 868613369
  frame_id: "ti_mmwave"
point_id: 3
x: 0.056640625
y: -0.154296875
z: 0.005859375
range: 0.174307882786
velocity: 0.0
doppler_bin: 8
bearing: -69.8423843384
intensity: 25.490032196
---
header: 
  seq: 587875
  stamp: 
    secs: 1561867029
    nsecs: 868713433
  frame_id: "ti_mmwave"
point_id: 4
x: 0.126953125
y: -0.080078125
z: 1.259765625
range: 1.35088610649
velocity: 0.0
doppler_bin: 8
bearing: -32.2424697876
intensity: 23.0963020325
---
header: 
  seq: 587876
  stamp: 
    secs: 1561867029
    nsecs: 868733678
  frame_id: "ti_mmwave"
point_id: 6
x: 0.4296875
y: -0.083984375
z: -1.27734375
range: 1.43804001808
velocity: 0.0
doppler_bin: 8
bearing: -11.0592975616
intensity: 23.0535144806
---
header: 
  seq: 587877
  stamp: 
    secs: 1561867029
    nsecs: 868755720
  frame_id: "ti_mmwave"
point_id: 7
x: 0.546875
y: -0.04296875
z: -1.27734375
range: 1.48161697388
velocity: 0.0
doppler_bin: 8
bearing: -4.49258184433
intensity: 21.6136798859
---
header: 
  seq: 587878
  stamp: 
    secs: 1561867029
    nsecs: 868804952
  frame_id: "ti_mmwave"
point_id: 8
x: 2.294921875
y: 0.291015625
z: -0.291015625
range: 2.48388743401
velocity: 0.0
doppler_bin: 8
bearing: 7.22701978683
intensity: 25.8092498779
---
header: 
  seq: 587879
  stamp: 
    secs: 1561867029
    nsecs: 868820562
  frame_id: "ti_mmwave"
point_id: 9
x: 2.302734375
y: 0.296875
z: -0.490234375
range: 2.5274643898
velocity: 0.0
doppler_bin: 8
bearing: 7.34621143341
intensity: 25.7863922119
---
header: 
  seq: 587880
  stamp: 
    secs: 1561867029
    nsecs: 868833886
  frame_id: "ti_mmwave"
point_id: 10
x: 2.69140625
y: -0.08984375
z: 0.9765625
range: 3.05038785934
velocity: 0.0
doppler_bin: 8
bearing: -1.91192126274
intensity: 32.2010803223
---
header: 
  seq: 587881
  stamp: 
    secs: 1561867029
    nsecs: 868929308
  frame_id: "ti_mmwave"
point_id: 11
x: 2.728515625
y: -0.181640625
z: 0.9765625
range: 3.09396481514
velocity: 0.0
doppler_bin: 8
bearing: -3.80863046646
intensity: 31.1126251221
---
header: 
  seq: 587882
  stamp: 
    secs: 1561867029
    nsecs: 868960661
  frame_id: "ti_mmwave"
point_id: 12
x: 4.390625
y: -0.142578125
z: 1.298828125
range: 4.88062095642
velocity: 0.0
doppler_bin: 8
bearing: -1.85993003845
intensity: 31.3001194
---
header: 
  seq: 587883
  stamp: 
    secs: 1561867029
    nsecs: 869008078
  frame_id: "ti_mmwave"
point_id: 13
x: 4.318359375
y: -0.14453125
z: 1.642578125
range: 4.9241976738
velocity: 0.0
doppler_bin: 8
bearing: -1.91691803932
intensity: 30.7224998474
---
header: 
  seq: 587884
  stamp: 
    secs: 1561867029
    nsecs: 869019828
  frame_id: "ti_mmwave"
point_id: 14
x: 4.740234375
y: -0.298828125
z: -0.591796875
range: 5.09850549698
velocity: 0.0
doppler_bin: 8
bearing: -3.60719799995
intensity: 33.384563446
---
header: 
  seq: 587885
  stamp: 
    secs: 1561867029
    nsecs: 869080302
  frame_id: "ti_mmwave"
point_id: 15
x: 4.775390625
y: -0.30078125
z: -0.6328125
range: 5.14208269119
velocity: 0.0
doppler_bin: 8
bearing: -3.60405302048
intensity: 34.0483360291
---
header: 
  seq: 587886
  stamp: 
    secs: 1561867029
    nsecs: 869092618
  frame_id: "ti_mmwave"
point_id: 16
x: 4.796875
y: -0.15234375
z: -0.818359375
range: 5.18565940857
velocity: 0.0
doppler_bin: 8
bearing: -1.81904268265
intensity: 30.484418869
---
header: 
  seq: 587887
  stamp: 
    secs: 1561867029
    nsecs: 869168202
  frame_id: "ti_mmwave"
point_id: 17
x: 4.875
y: -0.30859375
z: 0.79296875
range: 5.27281332016
velocity: 0.0
doppler_bin: 8
bearing: -3.62206339836
intensity: 31.119342804
---
header: 
  seq: 587888
  stamp: 
    secs: 1561867029
    nsecs: 869213085
  frame_id: "ti_mmwave"
point_id: 18
x: 4.94921875
y: -0.623046875
z: 0.142578125
range: 5.31639051437
velocity: 0.0
doppler_bin: 8
bearing: -7.17510271072
intensity: 29.8811283112
---
header: 
  seq: 587889
  stamp: 
    secs: 1561867029
    nsecs: 869234876
  frame_id: "ti_mmwave"
point_id: 20
x: 0.041015625
y: -0.033203125
z: 0.0625
range: 0.0871539413929
velocity: 0.0
doppler_bin: 8
bearing: -38.9909973145
intensity: 30.1199302673
---
header: 
  seq: 587890
  stamp: 
    secs: 1561867029
    nsecs: 869259793
  frame_id: "ti_mmwave"
point_id: 21
x: 0.044921875
y: -0.046875
z: 0.103515625
range: 0.130730912089
velocity: 0.0
doppler_bin: 8
bearing: -46.218875885
intensity: 29.0308990479
---
header: 
  seq: 587891
  stamp: 
    secs: 1561867029
    nsecs: 869277966
  frame_id: "ti_mmwave"
point_id: 23
x: 2.771484375
y: -0.0
z: 0.8671875
range: 3.09396481514
velocity: 0.0
doppler_bin: 8
bearing: -0.0
intensity: 31.1058979034
---
header: 
  seq: 587892
  stamp: 
    secs: 1561867029
    nsecs: 926911740
  frame_id: "ti_mmwave"
point_id: 0
x: 0.01171875
y: -0.0390625
z: -0.0078125
range: 0.0435769706964
velocity: 0.0
doppler_bin: 8
bearing: -73.3007583618
intensity: 30.6707077026
---
header: 
  seq: 587893
  stamp: 
    secs: 1561867029
    nsecs: 927001078
  frame_id: "ti_mmwave"
point_id: 1
x: 0.017578125
y: -0.080078125
z: -0.0078125
range: 0.0871539413929
velocity: 0.0
doppler_bin: 8
bearing: -77.6192398071
intensity: 31.9312458038
---
header: 
  seq: 587894
  stamp: 
    secs: 1561867029
    nsecs: 927017305
  frame_id: "ti_mmwave"
point_id: 2
x: 0.029296875
y: -0.119140625
z: -0.005859375
range: 0.130730912089
velocity: 0.0
doppler_bin: 8
bearing: -76.1849746704
intensity: 30.157787323
---
header: 
  seq: 587895
  stamp: 
    secs: 1561867029
    nsecs: 927030516
  frame_id: "ti_mmwave"
point_id: 3
x: 0.056640625
y: -0.154296875
z: 0.005859375
range: 0.174307882786
velocity: 0.0
doppler_bin: 8
bearing: -69.8423843384
intensity: 25.4777469635
---
header: 
  seq: 587896
  stamp: 
    secs: 1561867029
    nsecs: 927044325
  frame_id: "ti_mmwave"
point_id: 4
x: 0.1484375
y: -0.080078125
z: 1.255859375
range: 1.35088610649
velocity: 0.0
doppler_bin: 8
bearing: -28.3456954956
intensity: 23.0963020325
---
header: 
  seq: 587897
  stamp: 
    secs: 1561867029
    nsecs: 927062089
  frame_id: "ti_mmwave"
point_id: 6
x: 0.421875
y: -0.083984375
z: -1.279296875
range: 1.43804001808
velocity: 0.0
doppler_bin: 8
bearing: -11.2589120865
intensity: 23.0535144806
---
header: 
  seq: 587898
  stamp: 
    secs: 1561867029
    nsecs: 927075756
  frame_id: "ti_mmwave"
point_id: 7
x: 0.5546875
y: -0.04296875
z: -1.275390625
range: 1.48161697388
velocity: 0.0
doppler_bin: 8
bearing: -4.42955970764
intensity: 21.5836257935
---
header: 
  seq: 587899
  stamp: 
    secs: 1561867029
    nsecs: 927126464
  frame_id: "ti_mmwave"
point_id: 8
x: 2.689453125
y: -0.08984375
z: 0.978515625
range: 3.05038785934
velocity: 0.0
doppler_bin: 8
bearing: -1.91330885887
intensity: 32.2010803223
---
header: 
  seq: 587900
  stamp: 
    secs: 1561867029
    nsecs: 927144697
  frame_id: "ti_mmwave"
point_id: 9
x: 2.75390625
y: -0.08984375
z: 0.91796875
range: 3.09396481514
velocity: 0.0
doppler_bin: 8
bearing: -1.86856126785
intensity: 31.209028244
---
header: 
  seq: 587901
  stamp: 
    secs: 1561867029
    nsecs: 927217536
  frame_id: "ti_mmwave"
point_id: 10
x: 4.39453125
y: -0.142578125
z: 1.291015625
range: 4.88062095642
velocity: 0.0
doppler_bin: 8
bearing: -1.8582777977
intensity: 31.3481445312
---
header: 
  seq: 587902
  stamp: 
    secs: 1561867029
    nsecs: 927232534
  frame_id: "ti_mmwave"
point_id: 11
x: 4.361328125
y: -0.14453125
z: 1.5234375
range: 4.9241976738
velocity: 0.0
doppler_bin: 8
bearing: -1.89804601669
intensity: 30.9025802612
---
header: 
  seq: 587903
  stamp: 
    secs: 1561867029
    nsecs: 927245612
  frame_id: "ti_mmwave"
point_id: 12
x: 4.7421875
y: -0.298828125
z: -0.576171875
range: 5.09850549698
velocity: 0.0
doppler_bin: 8
bearing: -3.60571622849
intensity: 33.2980461121
---
header: 
  seq: 587904
  stamp: 
    secs: 1561867029
    nsecs: 927258867
  frame_id: "ti_mmwave"
point_id: 13
x: 4.77734375
y: -0.30078125
z: -0.62109375
range: 5.14208269119
velocity: 0.0
doppler_bin: 8
bearing: -3.60258316994
intensity: 33.9794006348
---
header: 
  seq: 587905
  stamp: 
    secs: 1561867029
    nsecs: 927272191
  frame_id: "ti_mmwave"
point_id: 14
x: 4.802734375
y: -0.15234375
z: -0.78515625
range: 5.18565940857
velocity: 0.0
doppler_bin: 8
bearing: -1.81682503223
intensity: 30.4178733826
---
header: 
  seq: 587906
  stamp: 
    secs: 1561867029
    nsecs: 927285511
  frame_id: "ti_mmwave"
point_id: 15
x: 4.8828125
y: -0.30859375
z: 0.748046875
range: 5.27281332016
velocity: 0.0
doppler_bin: 8
bearing: -3.61628341675
intensity: 31.1494445801
---
header: 
  seq: 587907
  stamp: 
    secs: 1561867029
    nsecs: 927300466
  frame_id: "ti_mmwave"
point_id: 16
x: 4.966796875
y: -0.46875
z: 0.158203125
range: 5.31639051437
velocity: 0.0
doppler_bin: 8
bearing: -5.39141845703
intensity: 29.7909297943
---
header: 
  seq: 587908
  stamp: 
    secs: 1561867029
    nsecs: 927312495
  frame_id: "ti_mmwave"
point_id: 17
x: 2.3203125
y: 0.21875
z: 0.029296875
range: 2.48388743401
velocity: -0.614668667316
doppler_bin: 7
bearing: 5.38570404053
intensity: 24.6538276672
---
header: 
  seq: 587909
  stamp: 
    secs: 1561867029
    nsecs: 927367953
  frame_id: "ti_mmwave"
point_id: 19
x: 0.041015625
y: -0.033203125
z: 0.0625
range: 0.0871539413929
velocity: 0.0
doppler_bin: 8
bearing: -38.9909973145
intensity: 30.1199302673
---
header: 
  seq: 587910
  stamp: 
    secs: 1561867029
    nsecs: 927382040
  frame_id: "ti_mmwave"
point_id: 20
x: 0.044921875
y: -0.046875
z: 0.103515625
range: 0.130730912089
velocity: 0.0
doppler_bin: 8
bearing: -46.218875885
intensity: 29.0308990479
---
header: 
  seq: 587911
  stamp: 
    secs: 1561867029
    nsecs: 986739678
  frame_id: "ti_mmwave"
point_id: 0
x: 0.01171875
y: -0.0390625
z: -0.0078125
range: 0.0435769706964
velocity: 0.0
doppler_bin: 8
bearing: -73.3007583618
intensity: 30.6744289398
---
header: 
  seq: 587912
  stamp: 
    secs: 1561867029
    nsecs: 986809683
  frame_id: "ti_mmwave"
point_id: 1
x: 0.017578125
y: -0.080078125
z: -0.0078125
range: 0.0871539413929
velocity: 0.0
doppler_bin: 8
bearing: -77.6192398071
intensity: 31.9340286255
---
header: 
  seq: 587913
  stamp: 
    secs: 1561867029
    nsecs: 986822410
  frame_id: "ti_mmwave"
point_id: 2
x: 0.029296875
y: -0.119140625
z: -0.005859375
range: 0.130730912089
velocity: 0.0
doppler_bin: 8
bearing: -76.1849746704
intensity: 30.157787323
---
header: 
  seq: 587914
  stamp: 
    secs: 1561867029
    nsecs: 986830900
  frame_id: "ti_mmwave"
point_id: 3
x: 0.056640625
y: -0.154296875
z: 0.005859375
range: 0.174307882786
velocity: 0.0
doppler_bin: 8
bearing: -69.8423843384
intensity: 25.4777469635
---
header: 
  seq: 587915
  stamp: 
    secs: 1561867029
    nsecs: 986841475
  frame_id: "ti_mmwave"
point_id: 4
x: 0.125
y: -0.080078125
z: 1.259765625
range: 1.35088610649
velocity: 0.0
doppler_bin: 8
bearing: -32.6446380615
intensity: 23.0963020325
---
header: 
  seq: 587916
  stamp: 
    secs: 1561867029
    nsecs: 986856847
  frame_id: "ti_mmwave"
point_id: 5
x: 0.0546875
y: -0.08203125
z: 1.3046875
range: 1.39446306229
velocity: 0.0
doppler_bin: 8
bearing: -56.3099327087
intensity: 24.6239795685
---
header: 
  seq: 587917
  stamp: 
    secs: 1561867029
    nsecs: 987011887
  frame_id: "ti_mmwave"
point_id: 6
x: 0.4140625
y: -0.083984375
z: -1.28125
range: 1.43804001808
velocity: 0.0
doppler_bin: 8
bearing: -11.4657688141
intensity: 23.0535144806
---
header: 
  seq: 587918
  stamp: 
    secs: 1561867029
    nsecs: 987036008
  frame_id: "ti_mmwave"
point_id: 7
x: 2.65625
y: -0.1796875
z: 1.0546875
range: 3.05038785934
velocity: 0.0
doppler_bin: 8
bearing: -3.86999511719
intensity: 32.1958465576
---
header: 
  seq: 587919
  stamp: 
    secs: 1561867029
    nsecs: 987049398
  frame_id: "ti_mmwave"
point_id: 8
x: 2.74609375
y: -0.08984375
z: 0.939453125
range: 3.09396481514
velocity: 0.0
doppler_bin: 8
bearing: -1.8738732338
intensity: 31.222158432
---
header: 
  seq: 587920
  stamp: 
    secs: 1561867029
    nsecs: 987075236
  frame_id: "ti_mmwave"
point_id: 9
x: 4.3984375
y: -0.142578125
z: 1.27734375
range: 4.88062095642
velocity: 0.0
doppler_bin: 8
bearing: -1.8566287756
intensity: 31.3481445312
---
header: 
  seq: 587921
  stamp: 
    secs: 1561867029
    nsecs: 987092823
  frame_id: "ti_mmwave"
point_id: 10
x: 4.359375
y: -0.14453125
z: 1.533203125
range: 4.9241976738
velocity: 0.0
doppler_bin: 8
bearing: -1.89889574051
intensity: 30.8206691742
---
header: 
  seq: 587922
  stamp: 
    secs: 1561867029
    nsecs: 987112596
  frame_id: "ti_mmwave"
point_id: 11
x: 4.732421875
y: -0.44921875
z: -0.552734375
range: 5.09850549698
velocity: 0.0
doppler_bin: 8
bearing: -5.42247676849
intensity: 33.2980461121
---
header: 
  seq: 587923
  stamp: 
    secs: 1561867029
    nsecs: 987127091
  frame_id: "ti_mmwave"
point_id: 12
x: 4.787109375
y: -0.150390625
z: -0.59765625
range: 5.14208269119
velocity: 0.0
doppler_bin: 8
bearing: -1.7993979454
intensity: 34.0277709961
---
header: 
  seq: 587924
  stamp: 
    secs: 1561867029
    nsecs: 987139310
  frame_id: "ti_mmwave"
point_id: 13
x: 4.8046875
y: -0.15234375
z: -0.76171875
range: 5.18565940857
velocity: 0.0
doppler_bin: 8
bearing: -1.81608688831
intensity: 30.7518177032
---
header: 
  seq: 587925
  stamp: 
    secs: 1561867029
    nsecs: 987241992
  frame_id: "ti_mmwave"
point_id: 14
x: 4.87890625
y: -0.30859375
z: 0.779296875
range: 5.27281332016
velocity: 0.0
doppler_bin: 8
bearing: -3.61917114258
intensity: 31.0619087219
---
header: 
  seq: 587926
  stamp: 
    secs: 1561867029
    nsecs: 987284150
  frame_id: "ti_mmwave"
point_id: 15
x: 4.94921875
y: -0.623046875
z: 0.15625
range: 5.31639051437
velocity: 0.0
doppler_bin: 8
bearing: -7.17510271072
intensity: 29.7451171875
---
header: 
  seq: 587927
  stamp: 
    secs: 1561867029
    nsecs: 987308364
  frame_id: "ti_mmwave"
point_id: 16
x: 2.283203125
y: 0.37109375
z: -0.5234375
range: 2.5274643898
velocity: -0.614668667316
doppler_bin: 7
bearing: 9.23167705536
intensity: 25.7978363037
---
header: 
  seq: 587928
  stamp: 
    secs: 1561867029
    nsecs: 987398325
  frame_id: "ti_mmwave"
point_id: 18
x: 0.041015625
y: -0.033203125
z: 0.0625
range: 0.0871539413929
velocity: 0.0
doppler_bin: 8
bearing: -38.9909973145
intensity: 30.1157035828
---
header: 
  seq: 587929
  stamp: 
    secs: 1561867029
    nsecs: 987416476
  frame_id: "ti_mmwave"
point_id: 19
x: 0.044921875
y: -0.046875
z: 0.103515625
range: 0.130730912089
velocity: 0.0
doppler_bin: 8
bearing: -46.218875885
intensity: 29.0363254547
---
header: 
  seq: 587930
  stamp: 
    secs: 1561867029
    nsecs: 988304459
  frame_id: "ti_mmwave"
point_id: 0
x: 0.01171875
y: -0.0390625
z: -0.0078125
range: 0.0435769706964
velocity: 0.0
doppler_bin: 8
bearing: -73.3007583618
intensity: 30.6744289398
---
header: 
  seq: 587931
  stamp: 
    secs: 1561867029
    nsecs: 988387881
  frame_id: "ti_mmwave"
point_id: 1
x: 0.017578125
y: -0.080078125
z: -0.0078125
range: 0.0871539413929
velocity: 0.0
doppler_bin: 8
bearing: -77.6192398071
intensity: 31.9312458038
---
header: 
  seq: 587932
  stamp: 
    secs: 1561867029
    nsecs: 988412523
  frame_id: "ti_mmwave"
point_id: 2
x: 0.029296875
y: -0.119140625
z: -0.005859375
range: 0.130730912089
velocity: 0.0
doppler_bin: 8
bearing: -76.1849746704
intensity: 30.1535968781
---
header: 
  seq: 587933
  stamp: 
    secs: 1561867029
    nsecs: 988508735
  frame_id: "ti_mmwave"
point_id: 3
x: 0.056640625
y: -0.154296875
z: 0.005859375
range: 0.174307882786
velocity: 0.0
doppler_bin: 8
bearing: -69.8423843384
intensity: 25.4777469635
---
header: 
  seq: 587934
  stamp: 
    secs: 1561867029
    nsecs: 988534150
  frame_id: "ti_mmwave"
point_id: 4
x: 0.197265625
y: -0.080078125
z: 1.25
range: 1.35088610649
velocity: 0.0
doppler_bin: 8
bearing: -22.0942306519
intensity: 23.0963020325
---
header: 
  seq: 587935
  stamp: 
    secs: 1561867029
    nsecs: 988547981
  frame_id: "ti_mmwave"
point_id: 5
x: 0.13671875
y: -0.08203125
z: 1.298828125
range: 1.39446306229
velocity: 0.0
doppler_bin: 8
bearing: -30.9637584686
intensity: 24.6239795685
---
header: 
  seq: 587936
  stamp: 
    secs: 1561867029
    nsecs: 988559184
  frame_id: "ti_mmwave"
point_id: 6
x: 0.38671875
y: -0.083984375
z: -1.291015625
range: 1.43804001808
velocity: 0.0
doppler_bin: 8
bearing: -12.2527589798
intensity: 23.031961441
---
header: 
  seq: 587937
  stamp: 
    secs: 1561867029
    nsecs: 988571881
  frame_id: "ti_mmwave"
point_id: 7
x: 2.6171875
y: -0.17578125
z: 1.044921875
range: 3.00681090355
velocity: 0.0
doppler_bin: 8
bearing: -3.84245300293
intensity: 29.0579586029
---
header: 
  seq: 587938
  stamp: 
    secs: 1561867029
    nsecs: 988617873
  frame_id: "ti_mmwave"
point_id: 8
x: 2.69140625
y: -0.08984375
z: 0.97265625
range: 3.05038785934
velocity: 0.0
doppler_bin: 8
bearing: -1.91192126274
intensity: 32.2271652222
---
header: 
  seq: 587939
  stamp: 
    secs: 1561867029
    nsecs: 988631595
  frame_id: "ti_mmwave"
point_id: 9
x: 2.7734375
y: -0.0
z: 0.861328125
range: 3.09396481514
velocity: 0.0
doppler_bin: 8
bearing: -0.0
intensity: 31.1494445801
---
header: 
  seq: 587940
  stamp: 
    secs: 1561867029
    nsecs: 988643161
  frame_id: "ti_mmwave"
point_id: 10
x: 4.388671875
y: -0.142578125
z: 1.306640625
range: 4.88062095642
velocity: 0.0
doppler_bin: 8
bearing: -1.86075723171
intensity: 31.3257980347
---
header: 
  seq: 587941
  stamp: 
    secs: 1561867029
    nsecs: 988650027
  frame_id: "ti_mmwave"
point_id: 11
x: 4.333984375
y: -0.14453125
z: 1.599609375
range: 4.9241976738
velocity: 0.0
doppler_bin: 8
bearing: -1.91001224518
intensity: 30.7298469543
---
header: 
  seq: 587942
  stamp: 
    secs: 1561867029
    nsecs: 988692887
  frame_id: "ti_mmwave"
point_id: 12
x: 4.74609375
y: -0.298828125
z: -0.54296875
range: 5.09850549698
velocity: 0.0
doppler_bin: 8
bearing: -3.60275626183
intensity: 33.4791526794
---
header: 
  seq: 587943
  stamp: 
    secs: 1561867029
    nsecs: 988706498
  frame_id: "ti_mmwave"
point_id: 13
x: 4.78125
y: -0.30078125
z: -0.59375
range: 5.14208269119
velocity: 0.0
doppler_bin: 8
bearing: -3.59964799881
intensity: 34.1077728271
---
header: 
  seq: 587944
  stamp: 
    secs: 1561867029
    nsecs: 988716428
  frame_id: "ti_mmwave"
point_id: 14
x: 4.798828125
y: -0.3046875
z: -0.755859375
range: 5.18565940857
velocity: 0.0
doppler_bin: 8
bearing: -3.63295125961
intensity: 30.6595306396
---
header: 
  seq: 587945
  stamp: 
    secs: 1561867029
    nsecs: 988728821
  frame_id: "ti_mmwave"
point_id: 15
x: 4.87890625
y: -0.30859375
z: 0.779296875
range: 5.27281332016
velocity: 0.0
doppler_bin: 8
bearing: -3.61917114258
intensity: 30.9725723267
---
header: 
  seq: 587946
  stamp: 
    secs: 1561867029
    nsecs: 988740775
  frame_id: "ti_mmwave"
point_id: 16
x: 4.94921875
y: -0.623046875
z: 0.154296875
range: 5.31639051437
velocity: 0.0
doppler_bin: 8
bearing: -7.17510271072
intensity: 29.6331558228
---
header: 
  seq: 587947
  stamp: 
    secs: 1561867029
    nsecs: 988921721
  frame_id: "ti_mmwave"
point_id: 17
x: 2.25390625
y: 0.365234375
z: -0.47265625
range: 2.48388743401
velocity: -0.614668667316
doppler_bin: 7
bearing: 9.20448970795
intensity: 23.7291202545
---
header: 
  seq: 587948
  stamp: 
    secs: 1561867029
    nsecs: 988949966
  frame_id: "ti_mmwave"
point_id: 19
x: 0.041015625
y: -0.033203125
z: 0.0625
range: 0.0871539413929
velocity: 0.0
doppler_bin: 8
bearing: -38.9909973145
intensity: 30.1157035828
---
header: 
  seq: 587949
  stamp: 
    secs: 1561867029
    nsecs: 988963980
  frame_id: "ti_mmwave"
point_id: 20
x: 0.044921875
y: -0.046875
z: 0.103515625
range: 0.130730912089
velocity: 0.0
doppler_bin: 8
bearing: -46.218875885
intensity: 29.0254669189
---
header: 
  seq: 587950
  stamp: 
    secs: 1561867029
    nsecs: 988978201
  frame_id: "ti_mmwave"
point_id: 22
x: 2.734375
y: -0.181640625
z: 0.962890625
range: 3.09396481514
velocity: 0.0
doppler_bin: 8
bearing: -3.80049324036
intensity: 31.1394329071
---
header: 
  seq: 587951
  stamp: 
    secs: 1561867030
    nsecs:  46870027
  frame_id: "ti_mmwave"
point_id: 0
x: 0.01171875
y: -0.0390625
z: -0.0078125
range: 0.0435769706964
velocity: 0.0
doppler_bin: 8
bearing: -73.3007583618
intensity: 30.6707077026
---
header: 
  seq: 587952
  stamp: 
    secs: 1561867030
    nsecs:  46950239
  frame_id: "ti_mmwave"
point_id: 1
x: 0.017578125
y: -0.080078125
z: -0.0078125
range: 0.0871539413929
velocity: 0.0
doppler_bin: 8
bearing: -77.6192398071
intensity: 31.9284610748
---
header: 
  seq: 587953
  stamp: 
    secs: 1561867030
    nsecs:  46962544
  frame_id: "ti_mmwave"
point_id: 2
x: 0.029296875
y: -0.119140625
z: -0.005859375
range: 0.130730912089
velocity: 0.0
doppler_bin: 8
bearing: -76.1849746704
intensity: 30.1535968781
---
header: 
  seq: 587954
  stamp: 
    secs: 1561867030
    nsecs:  46971386
  frame_id: "ti_mmwave"
point_id: 3
x: 0.056640625
y: -0.154296875
z: 0.0078125
range: 0.174307882786
velocity: 0.0
doppler_bin: 8
bearing: -69.8423843384
intensity: 25.4777469635
---
header: 
  seq: 587955
  stamp: 
    secs: 1561867030
    nsecs:  46980074
  frame_id: "ti_mmwave"
point_id: 4
x: 0.0625
y: -0.080078125
z: 1.263671875
range: 1.35088610649
velocity: 0.0
doppler_bin: 8
bearing: -52.0283966064
intensity: 23.138671875
---
header: 
  seq: 587956
  stamp: 
    secs: 1561867030
    nsecs:  46990986
  frame_id: "ti_mmwave"
point_id: 5
x: 0.072265625
y: -0.08203125
z: -1.3046875
range: 1.39446306229
velocity: 0.0
doppler_bin: 8
bearing: -48.6214866638
intensity: 24.6686763763
---
header: 
  seq: 587957
  stamp: 
    secs: 1561867030
    nsecs:  46999623
  frame_id: "ti_mmwave"
point_id: 6
x: 0.4296875
y: -0.083984375
z: -1.27734375
range: 1.43804001808
velocity: 0.0
doppler_bin: 8
bearing: -11.0592975616
intensity: 23.0963020325
---
header: 
  seq: 587958
  stamp: 
    secs: 1561867030
    nsecs:  47013905
  frame_id: "ti_mmwave"
point_id: 7
x: 2.66015625
y: -0.1796875
z: 1.044921875
range: 3.05038785934
velocity: 0.0
doppler_bin: 8
bearing: -3.86432933807
intensity: 32.2063102722
---
header: 
  seq: 587959
  stamp: 
    secs: 1561867030
    nsecs:  47028444
  frame_id: "ti_mmwave"
point_id: 8
x: 2.751953125
y: -0.08984375
z: 0.923828125
range: 3.09396481514
velocity: 0.0
doppler_bin: 8
bearing: -1.86988639832
intensity: 31.2024478912
---
header: 
  seq: 587960
  stamp: 
    secs: 1561867030
    nsecs:  47041873
  frame_id: "ti_mmwave"
point_id: 9
x: 4.388671875
y: -0.142578125
z: 1.3046875
range: 4.88062095642
velocity: 0.0
doppler_bin: 8
bearing: -1.86075723171
intensity: 31.2936763763
---
header: 
  seq: 587961
  stamp: 
    secs: 1561867030
    nsecs:  47055344
  frame_id: "ti_mmwave"
point_id: 10
x: 4.33203125
y: -0.14453125
z: 1.607421875
range: 4.9241976738
velocity: 0.0
doppler_bin: 8
bearing: -1.91087257862
intensity: 30.7445068359
---
header: 
  seq: 587962
  stamp: 
    secs: 1561867030
    nsecs:  47077752
  frame_id: "ti_mmwave"
point_id: 11
x: 4.74609375
y: -0.298828125
z: -0.537109375
range: 5.09850549698
velocity: 0.0
doppler_bin: 8
bearing: -3.60275626183
intensity: 33.390537262
---
header: 
  seq: 587963
  stamp: 
    secs: 1561867030
    nsecs:  47089460
  frame_id: "ti_mmwave"
point_id: 12
x: 4.779296875
y: -0.30078125
z: -0.607421875
range: 5.14208269119
velocity: 0.0
doppler_bin: 8
bearing: -3.60111522675
intensity: 34.0346374512
---
header: 
  seq: 587964
  stamp: 
    secs: 1561867030
    nsecs:  47257469
  frame_id: "ti_mmwave"
point_id: 13
x: 4.791015625
y: -0.15234375
z: -0.845703125
range: 5.18565940857
velocity: 0.0
doppler_bin: 8
bearing: -1.82126605511
intensity: 30.5076637268
---
header: 
  seq: 587965
  stamp: 
    secs: 1561867030
    nsecs:  47286116
  frame_id: "ti_mmwave"
point_id: 14
x: 4.88671875
y: -0.30859375
z: 0.728515625
range: 5.27281332016
velocity: 0.0
doppler_bin: 8
bearing: -3.61340069771
intensity: 31.0311927795
---
header: 
  seq: 587966
  stamp: 
    secs: 1561867030
    nsecs:  47292767
  frame_id: "ti_mmwave"
point_id: 15
x: 4.94921875
y: -0.623046875
z: 0.138671875
range: 5.31639051437
velocity: 0.0
doppler_bin: 8
bearing: -7.17510271072
intensity: 29.6142101288
---
header: 
  seq: 587967
  stamp: 
    secs: 1561867030
    nsecs:  47338316
  frame_id: "ti_mmwave"
point_id: 16
x: 2.28125
y: 0.4375
z: -0.19921875
range: 2.48388743401
velocity: -0.614668667316
doppler_bin: 7
bearing: 10.8564128876
intensity: 27.2997436523
---
header: 
  seq: 587968
  stamp: 
    secs: 1561867030
    nsecs:  47352761
  frame_id: "ti_mmwave"
point_id: 17
x: 2.328125
y: 0.4453125
z: -0.119140625
range: 2.5274643898
velocity: -0.614668667316
doppler_bin: 7
bearing: 10.8284664154
intensity: 27.2916469574
---
header: 
  seq: 587969
  stamp: 
    secs: 1561867030
    nsecs:  47384227
  frame_id: "ti_mmwave"
point_id: 19
x: 0.041015625
y: -0.033203125
z: 0.0625
range: 0.0871539413929
velocity: 0.0
doppler_bin: 8
bearing: -38.9909973145
intensity: 30.1157035828
---
header: 
  seq: 587970
  stamp: 
    secs: 1561867030
    nsecs:  47429625
  frame_id: "ti_mmwave"
point_id: 20
x: 0.044921875
y: -0.046875
z: 0.103515625
range: 0.130730912089
velocity: 0.0
doppler_bin: 8
bearing: -46.218875885
intensity: 29.0308990479
---
header: 
  seq: 587971
  stamp: 
    secs: 1561867030
    nsecs:  48115969
  frame_id: "ti_mmwave"
point_id: 0
x: 0.01171875
y: -0.0390625
z: -0.0078125
range: 0.0435769706964
velocity: 0.0
doppler_bin: 8
bearing: -73.3007583618
intensity: 30.678144455
---
header: 
  seq: 587972
  stamp: 
    secs: 1561867030
    nsecs:  48186041
  frame_id: "ti_mmwave"
point_id: 1
x: 0.017578125
y: -0.080078125
z: -0.0078125
range: 0.0871539413929
velocity: 0.0
doppler_bin: 8
bearing: -77.6192398071
intensity: 31.9340286255
---
header: 
  seq: 587973
  stamp: 
    secs: 1561867030
    nsecs:  48203796
  frame_id: "ti_mmwave"
point_id: 2
x: 0.029296875
y: -0.119140625
z: -0.005859375
range: 0.130730912089
velocity: 0.0
doppler_bin: 8
bearing: -76.1849746704
intensity: 30.1619739532
---
header: 
  seq: 587974
  stamp: 
    secs: 1561867030
    nsecs:  48217222
  frame_id: "ti_mmwave"
point_id: 3
x: 0.056640625
y: -0.154296875
z: 0.005859375
range: 0.174307882786
velocity: 0.0
doppler_bin: 8
bearing: -69.8423843384
intensity: 25.490032196
---
header: 
  seq: 587975
  stamp: 
    secs: 1561867030
    nsecs:  48256173
  frame_id: "ti_mmwave"
point_id: 4
x: 0.095703125
y: -0.080078125
z: 1.26171875
range: 1.35088610649
velocity: 0.0
doppler_bin: 8
bearing: -39.9203910828
intensity: 23.0963020325
---
header: 
  seq: 587976
  stamp: 
    secs: 1561867030
    nsecs:  48271011
  frame_id: "ti_mmwave"
point_id: 5
x: 0.021484375
y: -0.08203125
z: -1.306640625
range: 1.39446306229
velocity: 0.0
doppler_bin: 8
bearing: -75.3236083984
intensity: 24.6239795685
---
header: 
  seq: 587977
  stamp: 
    secs: 1561867030
    nsecs:  48359055
  frame_id: "ti_mmwave"
point_id: 6
x: 0.419921875
y: -0.083984375
z: -1.279296875
range: 1.43804001808
velocity: 0.0
doppler_bin: 8
bearing: -11.3099327087
intensity: 23.0535144806
---
header: 
  seq: 587978
  stamp: 
    secs: 1561867030
    nsecs:  48377862
  frame_id: "ti_mmwave"
point_id: 7
x: 2.619140625
y: -0.17578125
z: 1.037109375
range: 3.00681090355
velocity: 0.0
doppler_bin: 8
bearing: -3.83959650993
intensity: 29.020029068
---
header: 
  seq: 587979
  stamp: 
    secs: 1561867030
    nsecs:  48389453
  frame_id: "ti_mmwave"
point_id: 8
x: 2.69140625
y: -0.08984375
z: 0.974609375
range: 3.05038785934
velocity: 0.0
doppler_bin: 8
bearing: -1.91192126274
intensity: 32.1958465576
---
header: 
  seq: 587980
  stamp: 
    secs: 1561867030
    nsecs:  48401574
  frame_id: "ti_mmwave"
point_id: 9
x: 2.75390625
y: -0.08984375
z: 0.919921875
range: 3.09396481514
velocity: 0.0
doppler_bin: 8
bearing: -1.86856126785
intensity: 31.222158432
---
header: 
  seq: 587981
  stamp: 
    secs: 1561867030
    nsecs:  48413101
  frame_id: "ti_mmwave"
point_id: 10
x: 4.392578125
y: -0.142578125
z: 1.291015625
range: 4.88062095642
velocity: 0.0
doppler_bin: 8
bearing: -1.85910367966
intensity: 31.3417701721
---
header: 
  seq: 587982
  stamp: 
    secs: 1561867030
    nsecs:  48425614
  frame_id: "ti_mmwave"
point_id: 11
x: 4.34375
y: -0.14453125
z: 1.572265625
range: 4.9241976738
velocity: 0.0
doppler_bin: 8
bearing: -1.90572118759
intensity: 30.7408466339
---
header: 
  seq: 587983
  stamp: 
    secs: 1561867030
    nsecs:  48438970
  frame_id: "ti_mmwave"
point_id: 12
x: 4.740234375
y: -0.298828125
z: -0.59375
range: 5.09850549698
velocity: 0.0
doppler_bin: 8
bearing: -3.60719799995
intensity: 33.3945159912
---
header: 
  seq: 587984
  stamp: 
    secs: 1561867030
    nsecs:  48450665
  frame_id: "ti_mmwave"
point_id: 13
x: 4.7734375
y: -0.30078125
z: -0.64453125
range: 5.14208269119
velocity: 0.0
doppler_bin: 8
bearing: -3.60552406311
intensity: 34.0363502502
---
header: 
  seq: 587985
  stamp: 
    secs: 1561867030
    nsecs:  48462617
  frame_id: "ti_mmwave"
point_id: 14
x: 4.787109375
y: -0.15234375
z: -0.869140625
range: 5.18565940857
velocity: 0.0
doppler_bin: 8
bearing: -1.82275128365
intensity: 30.4218158722
---
header: 
  seq: 587986
  stamp: 
    secs: 1561867030
    nsecs:  48474000
  frame_id: "ti_mmwave"
point_id: 15
x: 4.890625
y: -0.30859375
z: 0.693359375
range: 5.27281332016
velocity: 0.0
doppler_bin: 8
bearing: -3.61052203178
intensity: 31.0822658539
---
header: 
  seq: 587987
  stamp: 
    secs: 1561867030
    nsecs:  48543347
  frame_id: "ti_mmwave"
point_id: 16
x: 4.96875
y: -0.46875
z: 0.06640625
range: 5.31639051437
velocity: 0.0
doppler_bin: 8
bearing: -5.38931179047
intensity: 29.7451171875
---
header: 
  seq: 587988
  stamp: 
    secs: 1561867030
    nsecs:  48562706
  frame_id: "ti_mmwave"
point_id: 18
x: 0.041015625
y: -0.033203125
z: 0.0625
range: 0.0871539413929
velocity: 0.0
doppler_bin: 8
bearing: -38.9909973145
intensity: 30.1199302673
---
header: 
  seq: 587989
  stamp: 
    secs: 1561867030
    nsecs:  48574428
  frame_id: "ti_mmwave"
point_id: 19
x: 0.044921875
y: -0.046875
z: 0.103515625
range: 0.130730912089
velocity: 0.0
doppler_bin: 8
bearing: -46.218875885
intensity: 29.0308990479
---
header: 
  seq: 587990
  stamp: 
    secs: 1561867030
    nsecs:  48587840
  frame_id: "ti_mmwave"
point_id: 21
x: 4.9296875
y: -0.779296875
z: 0.060546875
range: 5.31639051437
velocity: 0.0
doppler_bin: 8
bearing: -8.98311805725
intensity: 29.6848297119
---
header: 
  seq: 587991
  stamp: 
    secs: 1561867030
    nsecs: 106844167
  frame_id: "ti_mmwave"
point_id: 0
x: 0.01171875
y: -0.0390625
z: -0.0078125
range: 0.0435769706964
velocity: 0.0
doppler_bin: 8
bearing: -73.3007583618
intensity: 30.6707077026
---
header: 
  seq: 587992
  stamp: 
    secs: 1561867030
    nsecs: 106918551
  frame_id: "ti_mmwave"
point_id: 1
x: 0.017578125
y: -0.080078125
z: -0.0078125
range: 0.0871539413929
velocity: 0.0
doppler_bin: 8
bearing: -77.6192398071
intensity: 31.9284610748
---
header: 
  seq: 587993
  stamp: 
    secs: 1561867030
    nsecs: 106929517
  frame_id: "ti_mmwave"
point_id: 2
x: 0.029296875
y: -0.119140625
z: -0.005859375
range: 0.130730912089
velocity: 0.0
doppler_bin: 8
bearing: -76.1849746704
intensity: 30.1535968781
---
header: 
  seq: 587994
  stamp: 
    secs: 1561867030
    nsecs: 106938269
  frame_id: "ti_mmwave"
point_id: 3
x: 0.056640625
y: -0.154296875
z: 0.005859375
range: 0.174307882786
velocity: 0.0
doppler_bin: 8
bearing: -69.8423843384
intensity: 25.4777469635
---
header: 
  seq: 587995
  stamp: 
    secs: 1561867030
    nsecs: 106946894
  frame_id: "ti_mmwave"
point_id: 4
x: 0.08984375
y: -0.080078125
z: 1.26171875
range: 1.35088610649
velocity: 0.0
doppler_bin: 8
bearing: -41.7107582092
intensity: 23.1175384521
---
header: 
  seq: 587996
  stamp: 
    secs: 1561867030
    nsecs: 106957112
  frame_id: "ti_mmwave"
point_id: 6
x: 0.435546875
y: -0.083984375
z: -1.275390625
range: 1.43804001808
velocity: 0.0
doppler_bin: 8
bearing: -10.9141130447
intensity: 23.031961441
---
header: 
  seq: 587997
  stamp: 
    secs: 1561867030
    nsecs: 106965759
  frame_id: "ti_mmwave"
point_id: 7
x: 0.55078125
y: -0.04296875
z: -1.27734375
range: 1.48161697388
velocity: 0.0
doppler_bin: 8
bearing: -4.46084880829
intensity: 21.5836257935
---
header: 
  seq: 587998
  stamp: 
    secs: 1561867030
    nsecs: 106974163
  frame_id: "ti_mmwave"
point_id: 8
x: 2.66015625
y: -0.1796875
z: 1.044921875
range: 3.05038785934
velocity: 0.0
doppler_bin: 8
bearing: -3.86432933807
intensity: 32.2115325928
---
header: 
  seq: 587999
  stamp: 
    secs: 1561867030
    nsecs: 106983400
  frame_id: "ti_mmwave"
point_id: 9
x: 2.75390625
y: -0.08984375
z: 0.919921875
range: 3.09396481514
velocity: 0.0
doppler_bin: 8
bearing: -1.86856126785
intensity: 31.1561050415
---
header: 
  seq: 588000
  stamp: 
    secs: 1561867030
    nsecs: 106993387
  frame_id: "ti_mmwave"
point_id: 10
x: 4.390625
y: -0.142578125
z: 1.302734375
range: 4.88062095642
velocity: 0.0
doppler_bin: 8
bearing: -1.85993003845
intensity: 31.2775249481
---
header: 
  seq: 588001
  stamp: 
    secs: 1561867030
    nsecs: 107002183
  frame_id: "ti_mmwave"
point_id: 11
x: 4.337890625
y: -0.14453125
z: 1.591796875
range: 4.9241976738
velocity: 0.0
doppler_bin: 8
bearing: -1.90829360485
intensity: 30.7954292297
---
header: 
  seq: 588002
  stamp: 
    secs: 1561867030
    nsecs: 107010791
  frame_id: "ti_mmwave"
point_id: 12
x: 4.740234375
y: -0.298828125
z: -0.591796875
range: 5.09850549698
velocity: 0.0
doppler_bin: 8
bearing: -3.60719799995
intensity: 33.4517745972
---
header: 
  seq: 588003
  stamp: 
    secs: 1561867030
    nsecs: 107019736
  frame_id: "ti_mmwave"
point_id: 13
x: 4.775390625
y: -0.30078125
z: -0.642578125
range: 5.14208269119
velocity: 0.0
doppler_bin: 8
bearing: -3.60405302048
intensity: 34.0466270447
---
header: 
  seq: 588004
  stamp: 
    secs: 1561867030
    nsecs: 107028004
  frame_id: "ti_mmwave"
point_id: 14
x: 4.79296875
y: -0.15234375
z: -0.833984375
range: 5.18565940857
velocity: 0.0
doppler_bin: 8
bearing: -1.8205242157
intensity: 30.3862018585
---
header: 
  seq: 588005
  stamp: 
    secs: 1561867030
    nsecs: 107035894
  frame_id: "ti_mmwave"
point_id: 15
x: 4.876953125
y: -0.30859375
z: 0.79296875
range: 5.27281332016
velocity: 0.0
doppler_bin: 8
bearing: -3.62061715126
intensity: 31.1226978302
---
header: 
  seq: 588006
  stamp: 
    secs: 1561867030
    nsecs: 107230747
  frame_id: "ti_mmwave"
point_id: 16
x: 4.94921875
y: -0.623046875
z: 0.169921875
range: 5.31639051437
velocity: 0.0
doppler_bin: 8
bearing: -7.17510271072
intensity: 29.8227119446
---
header: 
  seq: 588007
  stamp: 
    secs: 1561867030
    nsecs: 107253933
  frame_id: "ti_mmwave"
point_id: 17
x: 2.279296875
y: 0.4375
z: -0.220703125
range: 2.48388743401
velocity: -0.614668667316
doppler_bin: 7
bearing: 10.8654947281
intensity: 26.4048137665
---
header: 
  seq: 588008
  stamp: 
    secs: 1561867030
    nsecs: 107265247
  frame_id: "ti_mmwave"
point_id: 19
x: 0.041015625
y: -0.033203125
z: 0.0625
range: 0.0871539413929
velocity: 0.0
doppler_bin: 8
bearing: -38.9909973145
intensity: 30.1114730835
---
header: 
  seq: 588009
  stamp: 
    secs: 1561867030
    nsecs: 107273392
  frame_id: "ti_mmwave"
point_id: 20
x: 0.046875
y: -0.046875
z: 0.103515625
range: 0.130730912089
velocity: 0.0
doppler_bin: 8
bearing: -45.0
intensity: 29.020029068
---
header: 
  seq: 588010
  stamp: 
    secs: 1561867030
    nsecs: 108534755
  frame_id: "ti_mmwave"
point_id: 0
x: 0.01171875
y: -0.0390625
z: -0.0078125
range: 0.0435769706964
velocity: 0.0
doppler_bin: 8
bearing: -73.3007583618
intensity: 30.6707077026
---
header: 
  seq: 588011
  stamp: 
    secs: 1561867030
    nsecs: 108576429
  frame_id: "ti_mmwave"
point_id: 1
x: 0.017578125
y: -0.080078125
z: -0.0078125
range: 0.0871539413929
velocity: 0.0
doppler_bin: 8
bearing: -77.6192398071
intensity: 31.9312458038
---
header: 
  seq: 588012
  stamp: 
    secs: 1561867030
    nsecs: 108586716
  frame_id: "ti_mmwave"
point_id: 2
x: 0.029296875
y: -0.119140625
z: -0.005859375
range: 0.130730912089
velocity: 0.0
doppler_bin: 8
bearing: -76.1849746704
intensity: 30.157787323
---
header: 
  seq: 588013
  stamp: 
    secs: 1561867030
    nsecs: 108596137
  frame_id: "ti_mmwave"
point_id: 3
x: 0.056640625
y: -0.154296875
z: 0.0078125
range: 0.174307882786
velocity: 0.0
doppler_bin: 8
bearing: -69.8423843384
intensity: 25.5022830963
---
header: 
  seq: 588014
  stamp: 
    secs: 1561867030
    nsecs: 108604614
  frame_id: "ti_mmwave"
point_id: 4
x: 0.1171875
y: -0.080078125
z: 1.259765625
range: 1.35088610649
velocity: 0.0
doppler_bin: 8
bearing: -34.3460998535
intensity: 23.1175384521
---
header: 
  seq: 588015
  stamp: 
    secs: 1561867030
    nsecs: 108612799
  frame_id: "ti_mmwave"
point_id: 5
x: 0.01953125
y: -0.08203125
z: -1.306640625
range: 1.39446306229
velocity: 0.0
doppler_bin: 8
bearing: -76.6075057983
intensity: 24.6389293671
---
header: 
  seq: 588016
  stamp: 
    secs: 1561867030
    nsecs: 108620607
  frame_id: "ti_mmwave"
point_id: 6
x: 0.4296875
y: -0.083984375
z: -1.27734375
range: 1.43804001808
velocity: 0.0
doppler_bin: 8
bearing: -11.0592975616
intensity: 23.0535144806
---
header: 
  seq: 588017
  stamp: 
    secs: 1561867030
    nsecs: 108630575
  frame_id: "ti_mmwave"
point_id: 7
x: 2.6171875
y: -0.17578125
z: 1.04296875
range: 3.00681090355
velocity: 0.0
doppler_bin: 8
bearing: -3.84245300293
intensity: 29.0308990479
---
header: 
  seq: 588018
  stamp: 
    secs: 1561867030
    nsecs: 108639183
  frame_id: "ti_mmwave"
point_id: 8
x: 2.689453125
y: -0.08984375
z: 0.98046875
range: 3.05038785934
velocity: 0.0
doppler_bin: 8
bearing: -1.91330885887
intensity: 32.2141418457
---
header: 
  seq: 588019
  stamp: 
    secs: 1561867030
    nsecs: 108650247
  frame_id: "ti_mmwave"
point_id: 9
x: 2.76953125
y: -0.0
z: 0.873046875
range: 3.09396481514
velocity: 0.0
doppler_bin: 8
bearing: -0.0
intensity: 31.1527767181
---
header: 
  seq: 588020
  stamp: 
    secs: 1561867030
    nsecs: 108658607
  frame_id: "ti_mmwave"
point_id: 10
x: 4.390625
y: -0.142578125
z: 1.302734375
range: 4.88062095642
velocity: 0.0
doppler_bin: 8
bearing: -1.85993003845
intensity: 31.3129787445
---
header: 
  seq: 588021
  stamp: 
    secs: 1561867030
    nsecs: 108668650
  frame_id: "ti_mmwave"
point_id: 11
x: 4.3359375
y: -0.14453125
z: 1.59375
range: 4.9241976738
velocity: 0.0
doppler_bin: 8
bearing: -1.90915250778
intensity: 30.7918128967
---
header: 
  seq: 588022
  stamp: 
    secs: 1561867030
    nsecs: 108677256
  frame_id: "ti_mmwave"
point_id: 12
x: 4.740234375
y: -0.298828125
z: -0.59375
range: 5.09850549698
velocity: 0.0
doppler_bin: 8
bearing: -3.60719799995
intensity: 33.4849967957
---
header: 
  seq: 588023
  stamp: 
    secs: 1561867030
    nsecs: 108685683
  frame_id: "ti_mmwave"
point_id: 13
x: 4.775390625
y: -0.30078125
z: -0.63671875
range: 5.14208269119
velocity: 0.0
doppler_bin: 8
bearing: -3.60405302048
intensity: 34.0517539978
---
header: 
  seq: 588024
  stamp: 
    secs: 1561867030
    nsecs: 108694289
  frame_id: "ti_mmwave"
point_id: 14
x: 4.783203125
y: -0.3046875
z: -0.853515625
range: 5.18565940857
velocity: 0.0
doppler_bin: 8
bearing: -3.64478611946
intensity: 30.3702793121
---
header: 
  seq: 588025
  stamp: 
    secs: 1561867030
    nsecs: 108712941
  frame_id: "ti_mmwave"
point_id: 15
x: 4.8828125
y: -0.30859375
z: 0.744140625
range: 5.27281332016
velocity: 0.0
doppler_bin: 8
bearing: -3.61628341675
intensity: 31.0687046051
---
header: 
  seq: 588026
  stamp: 
    secs: 1561867030
    nsecs: 108724808
  frame_id: "ti_mmwave"
point_id: 16
x: 4.94921875
y: -0.623046875
z: 0.150390625
range: 5.31639051437
velocity: 0.0
doppler_bin: 8
bearing: -7.17510271072
intensity: 29.7635002136
---
header: 
  seq: 588027
  stamp: 
    secs: 1561867030
    nsecs: 108788426
  frame_id: "ti_mmwave"
point_id: 17
x: 2.140625
y: 0.337890625
z: -0.0859375
range: 2.30957937241
velocity: -0.614668667316
doppler_bin: 7
bearing: 8.9699420929
intensity: 25.0379066467
---
header: 
  seq: 588028
  stamp: 
    secs: 1561867030
    nsecs: 108797922
  frame_id: "ti_mmwave"
point_id: 18
x: 2.177734375
y: 0.345703125
z: -0.138671875
range: 2.3531563282
velocity: -0.614668667316
doppler_bin: 7
bearing: 9.0201177597
intensity: 27.5663604736
---
header: 
  seq: 588029
  stamp: 
    secs: 1561867030
    nsecs: 108807891
  frame_id: "ti_mmwave"
point_id: 19
x: 2.208984375
y: 0.3515625
z: -0.25
range: 2.396733284
velocity: -0.614668667316
doppler_bin: 7
bearing: 9.04285240173
intensity: 26.3848934174
---
header: 
  seq: 588030
  stamp: 
    secs: 1561867030
    nsecs: 108817762
  frame_id: "ti_mmwave"
point_id: 21
x: 0.041015625
y: -0.033203125
z: 0.0625
range: 0.0871539413929
velocity: 0.0
doppler_bin: 8
bearing: -38.9909973145
intensity: 30.1157035828
---
header: 
  seq: 588031
  stamp: 
    secs: 1561867030
    nsecs: 108826083
  frame_id: "ti_mmwave"
point_id: 22
x: 0.044921875
y: -0.046875
z: 0.103515625
range: 0.130730912089
velocity: 0.0
doppler_bin: 8
bearing: -46.218875885
intensity: 29.0308990479
---
header: 
  seq: 588032
  stamp: 
    secs: 1561867030
    nsecs: 108835686
  frame_id: "ti_mmwave"
point_id: 24
x: 2.728515625
y: -0.181640625
z: 0.978515625
range: 3.09396481514
velocity: 0.0
doppler_bin: 8
bearing: -3.80863046646
intensity: 31.1394329071
---
header: 
  seq: 588033
  stamp: 
    secs: 1561867030
    nsecs: 108843554
  frame_id: "ti_mmwave"
point_id: 25
x: 4.8046875
y: -0.0
z: -0.775390625
range: 5.18565940857
velocity: 0.0
doppler_bin: 8
bearing: -0.0
intensity: 30.3261871338
---
header: 
  seq: 588034
  stamp: 
    secs: 1561867030
    nsecs: 166756584
  frame_id: "ti_mmwave"
point_id: 0
x: 0.01171875
y: -0.0390625
z: -0.0078125
range: 0.0435769706964
velocity: 0.0
doppler_bin: 8
bearing: -73.3007583618
intensity: 30.6744289398
---
header: 
  seq: 588035
  stamp: 
    secs: 1561867030
    nsecs: 166854855
  frame_id: "ti_mmwave"
point_id: 1
x: 0.017578125
y: -0.080078125
z: -0.0078125
range: 0.0871539413929
velocity: 0.0
doppler_bin: 8
bearing: -77.6192398071
intensity: 31.9312458038
---
header: 
  seq: 588036
  stamp: 
    secs: 1561867030
    nsecs: 166874071
  frame_id: "ti_mmwave"
point_id: 2
x: 0.029296875
y: -0.119140625
z: -0.005859375
range: 0.130730912089
velocity: 0.0
doppler_bin: 8
bearing: -76.1849746704
intensity: 30.1535968781
---
header: 
  seq: 588037
  stamp: 
    secs: 1561867030
    nsecs: 166888442
  frame_id: "ti_mmwave"
point_id: 3
x: 0.056640625
y: -0.154296875
z: 0.0078125
range: 0.174307882786
velocity: 0.0
doppler_bin: 8
bearing: -69.8423843384
intensity: 25.4654273987
---
header: 
  seq: 588038
  stamp: 
    secs: 1561867030
    nsecs: 166902618
  frame_id: "ti_mmwave"
point_id: 4
x: 0.12890625
y: -0.080078125
z: 1.259765625
range: 1.35088610649
velocity: 0.0
doppler_bin: 8
bearing: -31.8490524292
intensity: 23.1175384521
---
header: 
  seq: 588039
  stamp: 
    secs: 1561867030
    nsecs: 166920248
  frame_id: "ti_mmwave"
point_id: 6
x: 0.431640625
y: -0.083984375
z: -1.275390625
range: 1.43804001808
velocity: 0.0
doppler_bin: 8
bearing: -11.0104799271
intensity: 23.0749607086
---
header: 
  seq: 588040
  stamp: 
    secs: 1561867030
